{"status":true,"message":"","result":[{"server_id":9,"name":"Uncletopia | Atlanta | 1 | All Maps","name_short":"atl-1","host":"atl-1.us.uncletopia.com","port":27015,"enabled":true,"region":"us-east","cc":"us","latitude":33.753746,"longitude":-84.38633,"reserved":0,"last_update":"0001-01-01T00:00:00Z","name_a2s":"Uncletopia | Atlanta | 1 | All Maps","protocol":17,"map":"pl_badwater","folder":"tf","game":"Team Fortress","app_id":440,"player_count":24,"max_players":24,"Bots":0,"server_type":"Dedicated","server_os":"Linux","password":true,"vac":true,"version":"7757534","steam_id":85568392924469982,"keywords":["nocrits","nodmgspread","payload","uncletopia"],"game_id":440,"stv_port":27016,"stv_name":"Uncletopia | Atlanta | 1 | All Maps | STV","players":[{"user_id":557,"name":"Sweet Baby Zain","steam_id":76561198046392267,"connected_time":1248000000000,"state":"active","ping":70},{"user_id":541,"name":"G_Bob","steam_id":76561198098133233,"connected_time":2088000000000,"state":"active","ping":59},{"user_id":546,"name":"Uung","steam_id":76561198183956731,"connected_time":1922000000000,"state":"active","ping":48},{"user_id":559,"name":"matkaster","steam_id":76561197998546486,"connected_time":1083000000000,"state":"active","ping":73},{"user_id":563,"name":"old slimey ichabod","steam_id":76561198043900518,"connected_time":612000000000,"state":"active","ping":81},{"user_id":562,"name":"Towns","steam_id":76561198984662863,"connected_time":635000000000,"state":"active","ping":60},{"user_id":527,"name":"Kapreesi","steam_id":76561198163361200,"connected_time":4542000000000,"state":"active","ping":83},{"user_id":548,"name":"Red","steam_id":76561198031865869,"connected_time":1574000000000,"state":"active","ping":62},{"user_id":567,"name":"JimmyBreeze (3)","steam_id":76561198243918128,"connected_time":535000000000,"state":"active","ping":59},{"user_id":545,"name":"SeaBass","steam_id":76561198278914206,"connected_time":2035000000000,"state":"active","ping":69},{"user_id":483,"name":"BLU1 | Flint","steam_id":76561198066547582,"connected_time":7747000000000,"state":"active","ping":111},{"user_id":564,"name":"TheTruthOfTheCessationOfDukkha","steam_id":76561198214370515,"connected_time":609000000000,"state":"active","ping":71},{"user_id":570,"name":"Tue","steam_id":76561198181668501,"connected_time":20000000000,"state":"active","ping":58},{"user_id":566,"name":"Orangecrust26","steam_id":76561199232443221,"connected_time":578000000000,"state":"active","ping":78},{"user_id":569,"name":"Weswin939(cool person)","steam_id":76561198067373957,"connected_time":391000000000,"state":"active","ping":129},{"user_id":554,"name":"Kai-sensei","steam_id":76561198043899367,"connected_time":1328000000000,"state":"active","ping":75},{"user_id":538,"name":"You Want Me","steam_id":76561198135492119,"connected_time":3181000000000,"state":"active","ping":71},{"user_id":550,"name":"camilb50","steam_id":76561198027878466,"connected_time":1525000000000,"state":"active","ping":51},{"user_id":556,"name":"Gian","steam_id":76561198041434512,"connected_time":1300000000000,"state":"active","ping":98},{"user_id":503,"name":"Im High","steam_id":76561198049954886,"connected_time":6937000000000,"state":"active","ping":72},{"user_id":568,"name":"Iron","steam_id":76561198247918478,"connected_time":460000000000,"state":"active","ping":83},{"user_id":488,"name":"RED1 | eish","steam_id":76561198089463603,"connected_time":7737000000000,"state":"active","ping":115},{"user_id":552,"name":"lu","steam_id":76561198080731872,"connected_time":1382000000000,"state":"active","ping":75},{"user_id":561,"name":"RED1 | nomad","steam_id":76561197998740399,"connected_time":638000000000,"state":"active","ping":73}]},{"server_id":400,"name":"Uncletopia | Atlanta | 3 | Community","name_short":"atl-3","host":"atl-1.us.uncletopia.com","port":27035,"enabled":true,"region":"us-east","cc":"us","latitude":33.753746,"longitude":-84.38633,"reserved":0,"last_update":"0001-01-01T00:00:00Z","name_a2s":"Uncletopia | Atlanta | 3 | Community","protocol":17,"map":"workshop/pl_badwater_pro_v12.ugc2142942074","folder":"tf","game":"Team Fortress","app_id":440,"player_count":14,"max_players":24,"Bots":0,"server_type":"Dedicated","server_os":"Linux","password":true,"vac":true,"version":"7757534","steam_id":85568392924515187,"keywords":["nocrits","nodmgspread","payload","uncletopia"],"game_id":440,"stv_port":27036,"stv_name":"Uncletopia | Atlanta | 3 | Community | STV","players":[{"user_id":109,"name":"radio","steam_id":76561198148059714,"connected_time":2000000000,"state":"spawning","ping":263},{"user_id":90,"name":"‚ú™kook ‚ô•  ‚ô•","steam_id":76561198037846151,"connected_time":2129000000000,"state":"active","ping":53},{"user_id":89,"name":"Calypso","steam_id":76561198082939544,"connected_time":2348000000000,"state":"active","ping":137},{"user_id":103,"name":"I.C.","steam_id":76561198049256017,"connected_time":845000000000,"state":"active","ping":63},{"user_id":76,"name":"20 pc mcnugget","steam_id":76561198056330171,"connected_time":4343000000000,"state":"active","ping":105},{"user_id":87,"name":"cky2k","steam_id":76561198020586135,"connected_time":2625000000000,"state":"active","ping":64},{"user_id":86,"name":"MetalTao","steam_id":76561198189408110,"connected_time":2857000000000,"state":"active","ping":93},{"user_id":107,"name":"average timothy","steam_id":76561198044256822,"connected_time":291000000000,"state":"active","ping":86},{"user_id":108,"name":"nin nin","steam_id":76561198055445565,"connected_time":267000000000,"state":"active","ping":170},{"user_id":99,"name":"CornBoy","steam_id":76561198079109260,"connected_time":1814000000000,"state":"active","ping":74},{"user_id":106,"name":"merge without looking","steam_id":76561198056702628,"connected_time":623000000000,"state":"active","ping":57},{"user_id":70,"name":"Warzard","steam_id":76561199154051413,"connected_time":4666000000000,"state":"active","ping":112},{"user_id":81,"name":"Local Talent","steam_id":76561199053290637,"connected_time":3868000000000,"state":"active","ping":60},{"user_id":98,"name":"Mild","steam_id":76561198069644223,"connected_time":1855000000000,"state":"active","ping":63}]},{"server_id":401,"name":"Uncletopia | Atlanta | 4 | No Payload","name_short":"atl-4","host":"atl-1.us.uncletopia.com","port":27045,"enabled":true,"region":"us-east","cc":"us","latitude":33.753746,"longitude":-84.38633,"reserved":0,"last_update":"0001-01-01T00:00:00Z","name_a2s":"","protocol":0,"map":"","folder":"","game":"","app_id":0,"player_count":0,"max_players":0,"Bots":0,"server_type":"","server_os":"","password":false,"vac":false,"version":"","steam_id":0,"keywords":null,"game_id":0,"stv_port":0,"stv_name":"","players":null},{"server_id":2,"name":"Uncletopia | Chicago | 1 | All Maps","name_short":"chi-1","host":"chi-1.us.uncletopia.com","port":27015,"enabled":true,"region":"us-central","cc":"us","latitude":41.881832,"longitude":-87.62318,"reserved":0,"last_update":"0001-01-01T00:00:00Z","name_a2s":"Uncletopia | Chicago | 1 | All Maps","protocol":17,"map":"koth_suijin","folder":"tf","game":"Team Fortress","app_id":440,"player_count":13,"max_players":24,"Bots":0,"server_type":"Dedicated","server_os":"Linux","password":true,"vac":true,"version":"7757534","steam_id":85568392924469984,"keywords":["cp","nocrits","nodmgspread","uncletopia"],"game_id":440,"stv_port":27016,"stv_name":"Uncletopia | Chicago | 1 | All Maps | STV","players":[{"user_id":815,"name":"sockman","steam_id":76561198306826566,"connected_time":411000000000,"state":"active","ping":92},{"user_id":810,"name":"Whapper","steam_id":76561198044029606,"connected_time":661000000000,"state":"active","ping":100},{"user_id":817,"name":"mcdoubble","steam_id":76561198089126832,"connected_time":150000000000,"state":"active","ping":81},{"user_id":793,"name":"Monkey","steam_id":76561198031015186,"connected_time":1120000000000,"state":"active","ping":71},{"user_id":799,"name":"lil bro","steam_id":76561198031675881,"connected_time":867000000000,"state":"active","ping":46},{"user_id":775,"name":"Saul Goodman","steam_id":76561199014764373,"connected_time":1724000000000,"state":"active","ping":56},{"user_id":808,"name":"Dr. Strangelove","steam_id":76561198014593467,"connected_time":702000000000,"state":"active","ping":45},{"user_id":733,"name":"Grungy_Greg","steam_id":76561198217362968,"connected_time":5044000000000,"state":"active","ping":69},{"user_id":795,"name":"fuckterry","steam_id":76561198271957738,"connected_time":1024000000000,"state":"active","ping":61},{"user_id":811,"name":"Poyo Boyo","steam_id":76561198010201227,"connected_time":611000000000,"state":"active","ping":70},{"user_id":806,"name":"Hydroxianchaos","steam_id":76561198043786828,"connected_time":777000000000,"state":"active","ping":65},{"user_id":752,"name":"PinkLemonade","steam_id":76561198799286228,"connected_time":3812000000000,"state":"active","ping":66},{"user_id":804,"name":"Fawful's Minion","steam_id":76561198090120779,"connected_time":808000000000,"state":"active","ping":288}]},{"server_id":106,"name":"Uncletopia | Chicago | 2 | All Maps","name_short":"chi-2","host":"chi-1.us.uncletopia.com","port":27025,"enabled":true,"region":"us-central","cc":"us","latitude":41.881832,"longitude":-87.62318,"reserved":0,"last_update":"0001-01-01T00:00:00Z","name_a2s":"Uncletopia | Chicago | 2 | All Maps","protocol":17,"map":"pl_barnblitz","folder":"tf","game":"Team Fortress","app_id":440,"player_count":23,"max_players":24,"Bots":0,"server_type":"Dedicated","server_os":"Linux","password":true,"vac":true,"version":"7757534","steam_id":85568392924469985,"keywords":["nocrits","nodmgspread","payload","uncletopia"],"game_id":440,"stv_port":27026,"stv_name":"Uncletopia | Chicago | 2 | All Maps | STV","players":[{"user_id":406,"name":"PastetheRabbit","steam_id":76561198152219815,"connected_time":5104000000000,"state":"active","ping":65},{"user_id":434,"name":"Vibe‚Ñ¢","steam_id":76561198156083411,"connected_time":1987000000000,"state":"active","ping":69},{"user_id":436,"name":"amish","steam_id":76561199033484246,"connected_time":1935000000000,"state":"active","ping":89},{"user_id":437,"name":"Russell Crowe","steam_id":76561197970834547,"connected_time":1898000000000,"state":"active","ping":70},{"user_id":396,"name":"zeltwood","steam_id":76561198982593544,"connected_time":6009000000000,"state":"active","ping":116},{"user_id":412,"name":"Cube","steam_id":76561199021614213,"connected_time":4559000000000,"state":"active","ping":172},{"user_id":452,"name":"Konyek","steam_id":76561198164591872,"connected_time":814000000000,"state":"active","ping":49},{"user_id":386,"name":"Squid121","steam_id":76561198038832034,"connected_time":6970000000000,"state":"active","ping":101},{"user_id":442,"name":"DazzlingMaggot","steam_id":76561197972716928,"connected_time":1683000000000,"state":"active","ping":75},{"user_id":453,"name":"AceDeuce","steam_id":76561198049904924,"connected_time":627000000000,"state":"active","ping":56},{"user_id":451,"name":"Industrial Meat Grinder (real)","steam_id":76561199365172252,"connected_time":954000000000,"state":"active","ping":72},{"user_id":375,"name":"Stock Medic","steam_id":76561198065479730,"connected_time":7743000000000,"state":"active","ping":45},{"user_id":424,"name":"Elmerfudd3","steam_id":76561198209528367,"connected_time":3585000000000,"state":"active","ping":56},{"user_id":350,"name":"Uncle Meat","steam_id":76561198012534850,"connected_time":11405000000000,"state":"active","ping":70},{"user_id":405,"name":"Some wet dude","steam_id":76561198143744178,"connected_time":5139000000000,"state":"active","ping":67},{"user_id":439,"name":"death knight","steam_id":76561198039909187,"connected_time":1808000000000,"state":"active","ping":56},{"user_id":444,"name":"Gugomo","steam_id":76561198121428316,"connected_time":1465000000000,"state":"active","ping":104},{"user_id":458,"name":"Tyrone","steam_id":76561198189429665,"connected_time":182000000000,"state":"active","ping":70},{"user_id":432,"name":"Thumbs","steam_id":76561199065890132,"connected_time":2246000000000,"state":"active","ping":60},{"user_id":446,"name":"uhooter","steam_id":76561198007829078,"connected_time":1295000000000,"state":"active","ping":45},{"user_id":440,"name":"TheRiGuy21","steam_id":76561199466243640,"connected_time":1803000000000,"state":"active","ping":83},{"user_id":456,"name":"Petscop03","steam_id":76561198279217854,"connected_time":303000000000,"state":"active","ping":77},{"user_id":427,"name":"Skullypoo","steam_id":76561198067912022,"connected_time":3522000000000,"state":"active","ping":70}]},{"server_id":402,"name":"Uncletopia | Chicago | 3 | All Maps","name_short":"chi-3","host":"chi-1.us.uncletopia.com","port":27035,"enabled":true,"region":"us-central","cc":"us","latitude":41.881832,"longitude":-87.62318,"reserved":0,"last_update":"0001-01-01T00:00:00Z","name_a2s":"Uncletopia | Chicago | 3 | All Maps","protocol":17,"map":"pl_snowycoast","folder":"tf","game":"Team Fortress","app_id":440,"player_count":24,"max_players":24,"Bots":0,"server_type":"Dedicated","server_os":"Linux","password":true,"vac":true,"version":"7757534","steam_id":85568392924515191,"keywords":["nocrits","nodmgspread","payload","uncletopia"],"game_id":440,"stv_port":27036,"stv_name":"Uncletopia | Chicago | 3 | All Maps | STV","players":[{"user_id":220,"name":"lanoc","steam_id":76561198055415367,"connected_time":675000000000,"state":"active","ping":50},{"user_id":231,"name":"Julia","steam_id":76561198175727790,"connected_time":121000000000,"state":"active","ping":100},{"user_id":218,"name":"Amoxicilina","steam_id":76561198168486429,"connected_time":1550000000000,"state":"active","ping":117},{"user_id":215,"name":"King","steam_id":76561198010019214,"connected_time":1708000000000,"state":"active","ping":47},{"user_id":221,"name":"bur","steam_id":76561198004231658,"connected_time":617000000000,"state":"active","ping":56},{"user_id":225,"name":"WolverineMiner","steam_id":76561199096679945,"connected_time":499000000000,"state":"active","ping":117},{"user_id":209,"name":"JHLO","steam_id":76561198074359967,"connected_time":2154000000000,"state":"active","ping":74},{"user_id":233,"name":"Harold","steam_id":76561198057317770,"connected_time":82000000000,"state":"active","ping":81},{"user_id":227,"name":"Totally_faraam","steam_id":76561199230162663,"connected_time":229000000000,"state":"active","ping":162},{"user_id":216,"name":"SiltyStar85","steam_id":76561198309175923,"connected_time":1694000000000,"state":"active","ping":71},{"user_id":212,"name":"super-oofio64","steam_id":76561198954052123,"connected_time":1899000000000,"state":"active","ping":112},{"user_id":229,"name":"Diet Coke","steam_id":76561198115487829,"connected_time":171000000000,"state":"active","ping":61},{"user_id":230,"name":"fishy liquid","steam_id":76561198047068245,"connected_time":163000000000,"state":"active","ping":60},{"user_id":223,"name":"GamerBoy69","steam_id":76561198135494174,"connected_time":592000000000,"state":"active","ping":97},{"user_id":219,"name":"hasenpfeffer","steam_id":76561198000564263,"connected_time":1186000000000,"state":"active","ping":77},{"user_id":236,"name":"DAS SCHNITZELSTIEN","steam_id":76561198051137159,"connected_time":32000000000,"state":"active","ping":90},{"user_id":234,"name":"Smiling","steam_id":76561198293407075,"connected_time":63000000000,"state":"active","ping":85},{"user_id":235,"name":"üÖúüÖîüÖîüÖöüÖ¢üÖ£üÖî\ufffd\ufffd\ufffd","steam_id":76561197999748343,"connected_time":60000000000,"state":"active","ping":72},{"user_id":237,"name":"superbad","steam_id":76561198065913973,"connected_time":29000000000,"state":"active","ping":97},{"user_id":204,"name":"threethree","steam_id":76561198177354155,"connected_time":3231000000000,"state":"active","ping":47},{"user_id":238,"name":"^5HCDefies","steam_id":76561198068749260,"connected_time":12000000000,"state":"active","ping":67},{"user_id":192,"name":"Scared Duck","steam_id":76561198081348409,"connected_time":3653000000000,"state":"active","ping":63},{"user_id":224,"name":"Gameonator108","steam_id":76561199089224205,"connected_time":581000000000,"state":"active","ping":111},{"user_id":205,"name":"defs98","steam_id":76561198134813102,"connected_time":3221000000000,"state":"active","ping":58}]},{"server_id":403,"name":"Uncletopia | Chicago | 4 | All Maps","name_short":"chi-4","host":"chi-1.us.uncletopia.com","port":27045,"enabled":true,"region":"us-central","cc":"us","latitude":41.881832,"longitude":-87.62318,"reserved":0,"last_update":"0001-01-01T00:00:00Z","name_a2s":"Uncletopia | Chicago | 4 | All Maps","protocol":17,"map":"cp_dustbowl","folder":"tf","game":"Team Fortress","app_id":440,"player_count":24,"max_players":24,"Bots":0,"server_type":"Dedicated","server_os":"Linux","password":true,"vac":true,"version":"7757534","steam_id":85568392924515193,"keywords":["cp","nocrits","nodmgspread","uncletopia"],"game_id":440,"stv_port":27046,"stv_name":"Uncletopia | Chicago | 4 | All Maps | STV","players":[{"user_id":563,"name":"Do Moose go Moo?","steam_id":76561198073550620,"connected_time":241000000000,"state":"active","ping":45},{"user_id":552,"name":"Jelqing Table","steam_id":76561198051373750,"connected_time":2061000000000,"state":"active","ping":69},{"user_id":512,"name":"ZombieSkeletor2","steam_id":76561198244937990,"connected_time":5250000000000,"state":"active","ping":94},{"user_id":530,"name":"Cinderace:)","steam_id":76561198132899671,"connected_time":3481000000000,"state":"active","ping":60},{"user_id":570,"name":"Turdburglar555","steam_id":76561199105386998,"connected_time":25000000000,"state":"active","ping":77},{"user_id":561,"name":"Yarn","steam_id":76561199227148369,"connected_time":546000000000,"state":"active","ping":96},{"user_id":524,"name":"Baz","steam_id":76561197965032027,"connected_time":3653000000000,"state":"active","ping":84},{"user_id":553,"name":"bary","steam_id":76561197988317087,"connected_time":1893000000000,"state":"active","ping":59},{"user_id":564,"name":"B/S/SuperBoof","steam_id":76561197992030936,"connected_time":161000000000,"state":"active","ping":67},{"user_id":565,"name":"haxxorman","steam_id":76561199155156400,"connected_time":155000000000,"state":"active","ping":57},{"user_id":566,"name":"Animal Slices","steam_id":76561198137545511,"connected_time":128000000000,"state":"active","ping":53},{"user_id":557,"name":"cooltool21","steam_id":76561197996817585,"connected_time":1531000000000,"state":"active","ping":88},{"user_id":515,"name":"Kobi","steam_id":76561197966801895,"connected_time":4146000000000,"state":"active","ping":77},{"user_id":555,"name":"Fordon Greeman","steam_id":76561198273891250,"connected_time":1738000000000,"state":"active","ping":68},{"user_id":562,"name":"Shichinitzi","steam_id":76561198003833732,"connected_time":355000000000,"state":"active","ping":63},{"user_id":466,"name":"Young-OG","steam_id":76561198058800479,"connected_time":7370000000000,"state":"active","ping":116},{"user_id":569,"name":"bananalover5","steam_id":76561199143854578,"connected_time":57000000000,"state":"active","ping":91},{"user_id":529,"name":"Nephs","steam_id":76561198136763403,"connected_time":3613000000000,"state":"active","ping":77},{"user_id":543,"name":"Heropon","steam_id":76561198105224481,"connected_time":2340000000000,"state":"active","ping":84},{"user_id":544,"name":"Fishman_200","steam_id":76561198152455167,"connected_time":2334000000000,"state":"active","ping":81},{"user_id":468,"name":"Bad Medic Buddy","steam_id":76561198093222632,"connected_time":7365000000000,"state":"active","ping":81},{"user_id":560,"name":"NobodyTheWorst","steam_id":76561198044497547,"connected_time":1414000000000,"state":"active","ping":75}]},{"server_id":36,"name":"Uncletopia | Chicago | 5 | All Maps","name_short":"chi-5","host":"chi-2.us.uncletopia.com","port":27015,"enabled":true,"region":"us-central","cc":"us","latitude":41.881832,"longitude":-87.62318,"reserved":0,"last_update":"0001-01-01T00:00:00Z","name_a2s":"Uncletopia | Chicago | 5 | All Maps","protocol":17,"map":"cp_process_final","folder":"tf","game":"Team Fortress","app_id":440,"player_count":24,"max_players":24,"Bots":0,"server_type":"Dedicated","server_os":"Linux","password":true,"vac":true,"version":"7757534","steam_id":85568392924866362,"keywords":["cp","nocrits","nodmgspread","uncletopia"],"game_id":440,"stv_port":27016,"stv_name":"Uncletopia | Chicago | 5 | All Maps | STV","players":[{"user_id":184,"name":"Beary Adorable","steam_id":76561198023815802,"connected_time":2407000000000,"state":"active","ping":102},{"user_id":191,"name":"LargerThanAverageDragon","steam_id":76561198152036300,"connected_time":1563000000000,"state":"active","ping":65},{"user_id":165,"name":"Scott","steam_id":76561198161597056,"connected_time":3367000000000,"state":"active","ping":65},{"user_id":198,"name":"Space‚≠êTaffy","steam_id":76561198002271720,"connected_time":1261000000000,"state":"active","ping":61},{"user_id":177,"name":"Limasio","steam_id":76561198198176191,"connected_time":2554000000000,"state":"active","ping":74},{"user_id":199,"name":"Rudy","steam_id":76561198013456828,"connected_time":1206000000000,"state":"active","ping":66},{"user_id":171,"name":"Inevitable","steam_id":76561198210050169,"connected_time":2885000000000,"state":"active","ping":72},{"user_id":173,"name":"ballsack gaming","steam_id":76561198117839474,"connected_time":2755000000000,"state":"active","ping":58},{"user_id":178,"name":"Cythemanticore","steam_id":76561198346374610,"connected_time":2548000000000,"state":"active","ping":68},{"user_id":211,"name":"Slippery","steam_id":76561199469441947,"connected_time":37000000000,"state":"active","ping":51},{"user_id":193,"name":"palua","steam_id":76561198069673478,"connected_time":1482000000000,"state":"active","ping":85},{"user_id":194,"name":"Ryan Lewis truther","steam_id":76561198050505826,"connected_time":1435000000000,"state":"active","ping":79},{"user_id":180,"name":"faxxy","steam_id":76561198079621240,"connected_time":2475000000000,"state":"active","ping":68},{"user_id":90,"name":"toastman","steam_id":76561198207073088,"connected_time":8314000000000,"state":"active","ping":77},{"user_id":98,"name":"Catcow","steam_id":76561198025329176,"connected_time":7943000000000,"state":"active","ping":87},{"user_id":190,"name":"Samsiel","steam_id":76561198094134951,"connected_time":1694000000000,"state":"active","ping":95},{"user_id":202,"name":"Greed","steam_id":76561198041628318,"connected_time":1024000000000,"state":"active","ping":100},{"user_id":210,"name":"reno","steam_id":76561198075785619,"connected_time":103000000000,"state":"active","ping":101},{"user_id":208,"name":"cheetaz","steam_id":76561198224614084,"connected_time":248000000000,"state":"active","ping":75},{"user_id":205,"name":"Mommy Cloud Audios Gaming","steam_id":76561198880304614,"connected_time":780000000000,"state":"active","ping":55},{"user_id":209,"name":"peee pee man","steam_id":76561198044979205,"connected_time":248000000000,"state":"active","ping":77},{"user_id":197,"name":"Slashes","steam_id":76561197968573499,"connected_time":1367000000000,"state":"active","ping":61},{"user_id":201,"name":"gourmet salad","steam_id":76561198173128765,"connected_time":1166000000000,"state":"active","ping":56},{"user_id":156,"name":"Goofy Goober","steam_id":76561198065361279,"connected_time":3874000000000,"state":"active","ping":92}]},{"server_id":37,"name":"Uncletopia | Chicago | 6 | All Maps","name_short":"chi-6","host":"chi-2.us.uncletopia.com","port":27025,"enabled":true,"region":"us-central","cc":"us","latitude":41.881832,"longitude":-87.62318,"reserved":0,"last_update":"0001-01-01T00:00:00Z","name_a2s":"Uncletopia | Chicago | 6 | All Maps","protocol":17,"map":"pl_upward","folder":"tf","game":"Team Fortress","app_id":440,"player_count":23,"max_players":24,"Bots":0,"server_type":"Dedicated","server_os":"Linux","password":true,"vac":true,"version":"7757534","steam_id":85568392924866363,"keywords":["nocrits","nodmgspread","payload","uncletopia"],"game_id":440,"stv_port":27026,"stv_name":"Uncletopia | Chicago | 6 | All Maps | STV","players":[{"user_id":846,"name":"jon pickle water","steam_id":76561199036212135,"connected_time":1460000000000,"state":"active","ping":108},{"user_id":793,"name":"caption cool","steam_id":76561197990612056,"connected_time":4296000000000,"state":"active","ping":92},{"user_id":864,"name":"donkeymucles","steam_id":76561199388275529,"connected_time":71000000000,"state":"active","ping":75},{"user_id":855,"name":"too funky ·óúÀ¨·óú","steam_id":76561199120399776,"connected_time":330000000000,"state":"active","ping":80},{"user_id":838,"name":"zeredis","steam_id":76561198076596689,"connected_time":1941000000000,"state":"active","ping":65},{"user_id":850,"name":"Psychosis","steam_id":76561198078659070,"connected_time":1119000000000,"state":"active","ping":79},{"user_id":818,"name":"Spiffle","steam_id":76561199089811047,"connected_time":2844000000000,"state":"active","ping":97},{"user_id":859,"name":"ElectronX","steam_id":76561198116034988,"connected_time":237000000000,"state":"active","ping":108},{"user_id":868,"name":"flora","steam_id":76561197994492154,"connected_time":18000000000,"state":"active","ping":173},{"user_id":831,"name":"gettysburg","steam_id":76561198016157051,"connected_time":2105000000000,"state":"active","ping":73},{"user_id":843,"name":":)","steam_id":76561198093921290,"connected_time":1697000000000,"state":"active","ping":46},{"user_id":861,"name":"Kritzeon","steam_id":76561198198711734,"connected_time":215000000000,"state":"active","ping":115},{"user_id":866,"name":"vokwa","steam_id":76561198160393432,"connected_time":40000000000,"state":"active","ping":83},{"user_id":835,"name":"Lavender","steam_id":76561198142770666,"connected_time":1981000000000,"state":"active","ping":53},{"user_id":852,"name":"Acorn","steam_id":76561198108400951,"connected_time":781000000000,"state":"active","ping":93},{"user_id":820,"name":"iron valorant player","steam_id":76561198277163301,"connected_time":2758000000000,"state":"active","ping":65},{"user_id":745,"name":"dansal","steam_id":76561197997042510,"connected_time":8873000000000,"state":"active","ping":81},{"user_id":863,"name":"Braindawg","steam_id":76561197988531991,"connected_time":132000000000,"state":"active","ping":95},{"user_id":848,"name":"Antifa Alligator","steam_id":76561197988170816,"connected_time":1419000000000,"state":"active","ping":61},{"user_id":840,"name":"SphericalSteven32","steam_id":76561198090074621,"connected_time":1862000000000,"state":"active","ping":59},{"user_id":819,"name":"mr.edderkopper","steam_id":76561198152614478,"connected_time":2835000000000,"state":"active","ping":54},{"user_id":842,"name":"jeff the kawaii","steam_id":76561198079119793,"connected_time":1833000000000,"state":"active","ping":67},{"user_id":867,"name":"Kaky≈çin Noriaki","steam_id":76561198123809642,"connected_time":39000000000,"state":"active","ping":62}]},{"server_id":38,"name":"Uncletopia | Chicago | 7 | Stopwatch Beta","name_short":"chi-7","host":"chi-2.us.uncletopia.com","port":27035,"enabled":true,"region":"us-central","cc":"us","latitude":41.881832,"longitude":-87.62318,"reserved":0,"last_update":"0001-01-01T00:00:00Z","name_a2s":"Uncletopia | Chicago | 7 | Stopwatch Beta","protocol":17,"map":"workshop/pl_vigil_rc9.ugc1266210012","folder":"tf","game":"Team Fortress","app_id":440,"player_count":0,"max_players":24,"Bots":0,"server_type":"Dedicated","server_os":"Linux","password":true,"vac":true,"version":"7757534","steam_id":85568392924866364,"keywords":["nocrits","nodmgspread","payload","uncletopia"],"game_id":440,"stv_port":27036,"stv_name":"Uncletopia | Chicago | 7 | Stopwatch Beta | STV","players":null},{"server_id":39,"name":"Uncletopia | Chicago | 8 | Community","name_short":"chi-8","host":"chi-2.us.uncletopia.com","port":27045,"enabled":true,"region":"us-central","cc":"us","latitude":41.881832,"longitude":-87.62318,"reserved":0,"last_update":"0001-01-01T00:00:00Z","name_a2s":"Uncletopia | Chicago | 8 | Community","protocol":17,"map":"workshop/cp_mannbase_rc2a.ugc1900737467","folder":"tf","game":"Team Fortress","app_id":440,"player_count":0,"max_players":24,"Bots":0,"server_type":"Dedicated","server_os":"Linux","password":true,"vac":true,"version":"7757534","steam_id":85568392924866365,"keywords":["cp","nocrits","nodmgspread","uncletopia"],"game_id":440,"stv_port":27046,"stv_name":"Uncletopia | Chicago | 8 | Community | STV","players":null},{"server_id":8,"name":"Uncletopia | Dallas | 1 | All Maps","name_short":"dal-1","host":"dal-1.us.uncletopia.com","port":27015,"enabled":true,"region":"us-central","cc":"us","latitude":32.779167,"longitude":-96.80889,"reserved":0,"last_update":"0001-01-01T00:00:00Z","name_a2s":"Uncletopia | Dallas | 1 | All Maps","protocol":17,"map":"pl_borneo","folder":"tf","game":"Team Fortress","app_id":440,"player_count":24,"max_players":24,"Bots":0,"server_type":"Dedicated","server_os":"Linux","password":true,"vac":true,"version":"7757534","steam_id":85568392924469986,"keywords":["nocrits","nodmgspread","payload","uncletopia"],"game_id":440,"stv_port":27016,"stv_name":"Uncletopia | Dallas | 1 | All Maps | STV","players":[{"user_id":349,"name":":)","steam_id":76561198009818412,"connected_time":34000000000,"state":"active","ping":56},{"user_id":342,"name":"Lore","steam_id":76561198098407538,"connected_time":289000000000,"state":"active","ping":73},{"user_id":336,"name":"pingus","steam_id":76561198268995867,"connected_time":865000000000,"state":"active","ping":81},{"user_id":299,"name":"(TTV) The_Astrum_Guardian","steam_id":76561198130134103,"connected_time":3628000000000,"state":"active","ping":71},{"user_id":307,"name":"Rachel","steam_id":76561198208951683,"connected_time":3345000000000,"state":"active","ping":77},{"user_id":326,"name":"Cardboardcoin","steam_id":76561199421284163,"connected_time":1858000000000,"state":"active","ping":124},{"user_id":327,"name":"plink","steam_id":76561198057829889,"connected_time":1849000000000,"state":"active","ping":105},{"user_id":334,"name":"MerlinTheWizard","steam_id":76561198171472393,"connected_time":896000000000,"state":"active","ping":70},{"user_id":310,"name":"Ballista","steam_id":76561197983182562,"connected_time":3175000000000,"state":"active","ping":47},{"user_id":337,"name":"Foreskin Knight","steam_id":76561197995525419,"connected_time":785000000000,"state":"active","ping":75},{"user_id":311,"name":"Aonator","steam_id":76561198252312446,"connected_time":3167000000000,"state":"active","ping":97},{"user_id":344,"name":"Drowse","steam_id":76561198029794548,"connected_time":252000000000,"state":"active","ping":87},{"user_id":345,"name":"heimdall","steam_id":76561198069380992,"connected_time":249000000000,"state":"active","ping":69},{"user_id":340,"name":"RipHunter77","steam_id":76561198272973014,"connected_time":458000000000,"state":"active","ping":74},{"user_id":333,"name":"sun ra","steam_id":76561198904898274,"connected_time":930000000000,"state":"active","ping":86},{"user_id":341,"name":"Cyber Bear","steam_id":76561198015897168,"connected_time":402000000000,"state":"active","ping":90},{"user_id":347,"name":"Kzjytsugn","steam_id":76561198130241974,"connected_time":224000000000,"state":"active","ping":101},{"user_id":339,"name":"Soy","steam_id":76561198353171475,"connected_time":616000000000,"state":"active","ping":78},{"user_id":323,"name":"Dr. Ludwig","steam_id":76561198110246392,"connected_time":2228000000000,"state":"active","ping":69},{"user_id":348,"name":"ryghehn","steam_id":76561198195359229,"connected_time":202000000000,"state":"active","ping":90},{"user_id":328,"name":"The Great MIlenko","steam_id":76561199386828013,"connected_time":1841000000000,"state":"active","ping":80},{"user_id":332,"name":"iluvtoust","steam_id":76561198869269207,"connected_time":1298000000000,"state":"active","ping":46},{"user_id":330,"name":"Knower","steam_id":76561198036213722,"connected_time":1828000000000,"state":"active","ping":75},{"user_id":346,"name":"DoubleCheck","steam_id":76561198105194407,"connected_time":247000000000,"state":"active","ping":59}]},{"server_id":108,"name":"Uncletopia | Dallas | 2 | All Maps","name_short":"dal-2","host":"dal-1.us.uncletopia.com","port":27025,"enabled":true,"region":"us-central","cc":"us","latitude":32.779167,"longitude":-96.80889,"reserved":0,"last_update":"0001-01-01T00:00:00Z","name_a2s":"Uncletopia | Dallas | 2 | All Maps","protocol":17,"map":"koth_cascade","folder":"tf","game":"Team Fortress","app_id":440,"player_count":2,"max_players":24,"Bots":0,"server_type":"Dedicated","server_os":"Linux","password":true,"vac":true,"version":"7757534","steam_id":85568392924469988,"keywords":["cp","nocrits","nodmgspread","uncletopia"],"game_id":440,"stv_port":27026,"stv_name":"Uncletopia | Dallas | 2 | All Maps | STV","players":[{"user_id":349,"name":"+","steam_id":76561198262422184,"connected_time":434000000000,"state":"active","ping":40},{"user_id":350,"name":"Doggo","steam_id":76561198313355373,"connected_time":351000000000,"state":"active","ping":91}]},{"server_id":5,"name":"Uncletopia | Frankfurt | 1 | All Maps","name_short":"frk-1","host":"frk-1.de.uncletopia.com","port":27015,"enabled":true,"region":"eu","cc":"de","latitude":50.110924,"longitude":8.682127,"reserved":0,"last_update":"0001-01-01T00:00:00Z","name_a2s":"Uncletopia | Frankfurt | 1 | All Maps","protocol":17,"map":"cp_sunshine","folder":"tf","game":"Team Fortress","app_id":440,"player_count":0,"max_players":24,"Bots":0,"server_type":"Dedicated","server_os":"Linux","password":true,"vac":true,"version":"7757534","steam_id":85568392924469989,"keywords":["cp","nocrits","nodmgspread","uncletopia"],"game_id":440,"stv_port":27016,"stv_name":"Uncletopia | Frankfurt | 1 | All Maps | STV","players":null},{"server_id":110,"name":"Uncletopia | Frankfurt | 2 | All Maps","name_short":"frk-2","host":"frk-1.de.uncletopia.com","port":27025,"enabled":true,"region":"eu","cc":"de","latitude":50.110924,"longitude":8.682127,"reserved":0,"last_update":"0001-01-01T00:00:00Z","name_a2s":"Uncletopia | Frankfurt | 2 | All Maps","protocol":17,"map":"koth_highpass","folder":"tf","game":"Team Fortress","app_id":440,"player_count":0,"max_players":24,"Bots":0,"server_type":"Dedicated","server_os":"Linux","password":true,"vac":true,"version":"7757534","steam_id":85568392924469990,"keywords":["cp","nocrits","nodmgspread","uncletopia"],"game_id":440,"stv_port":27026,"stv_name":"Uncletopia | Frankfurt | 2 | All Maps | STV","players":null},{"server_id":308,"name":"Uncletopia | Frankfurt | 3 | All Maps","name_short":"frk-3","host":"frk-1.de.uncletopia.com","port":27035,"enabled":true,"region":"eu","cc":"de","latitude":50.110924,"longitude":8.682127,"reserved":0,"last_update":"0001-01-01T00:00:00Z","name_a2s":"Uncletopia | Frankfurt | 3 | All Maps","protocol":17,"map":"koth_lakeside_final","folder":"tf","game":"Team Fortress","app_id":440,"player_count":0,"max_players":24,"Bots":0,"server_type":"Dedicated","server_os":"Linux","password":true,"vac":true,"version":"7757534","steam_id":85568392924504274,"keywords":["cp","nocrits","nodmgspread","uncletopia"],"game_id":440,"stv_port":27036,"stv_name":"Uncletopia | Frankfurt | 3 | All Maps | STV","players":null},{"server_id":309,"name":"Uncletopia | Frankfurt | 4 | All Maps","name_short":"frk-4","host":"frk-1.de.uncletopia.com","port":27045,"enabled":true,"region":"eu","cc":"de","latitude":50.110924,"longitude":8.682127,"reserved":0,"last_update":"0001-01-01T00:00:00Z","name_a2s":"Uncletopia | Frankfurt | 4 | All Maps","protocol":17,"map":"cp_dustbowl","folder":"tf","game":"Team Fortress","app_id":440,"player_count":0,"max_players":24,"Bots":0,"server_type":"Dedicated","server_os":"Linux","password":true,"vac":true,"version":"7757534","steam_id":85568392924504275,"keywords":["cp","nocrits","nodmgspread","uncletopia"],"game_id":440,"stv_port":27046,"stv_name":"Uncletopia | Frankfurt | 4 | All Maps | STV","players":null},{"server_id":310,"name":"Uncletopia | Frankfurt | 5 | All Maps","name_short":"frk-5","host":"frk-1.de.uncletopia.com","port":27055,"enabled":true,"region":"eu","cc":"de","latitude":50.110924,"longitude":8.682127,"reserved":0,"last_update":"0001-01-01T00:00:00Z","name_a2s":"Uncletopia | Frankfurt | 5 | All Maps","protocol":17,"map":"cp_mountainlab","folder":"tf","game":"Team Fortress","app_id":440,"player_count":0,"max_players":24,"Bots":0,"server_type":"Dedicated","server_os":"Linux","password":true,"vac":true,"version":"7757534","steam_id":85568392924504277,"keywords":["cp","nocrits","nodmgspread","uncletopia"],"game_id":440,"stv_port":27056,"stv_name":"Uncletopia | Frankfurt | 5 | All Maps | STV","players":null},{"server_id":311,"name":"Uncletopia | Frankfurt | 6 | All Maps","name_short":"frk-6","host":"frk-1.de.uncletopia.com","port":27065,"enabled":true,"region":"eu","cc":"de","latitude":50.110924,"longitude":8.682127,"reserved":0,"last_update":"0001-01-01T00:00:00Z","name_a2s":"Uncletopia | Frankfurt | 6 | All Maps","protocol":17,"map":"koth_highpass","folder":"tf","game":"Team Fortress","app_id":440,"player_count":0,"max_players":24,"Bots":0,"server_type":"Dedicated","server_os":"Linux","password":true,"vac":true,"version":"7757534","steam_id":85568392924504278,"keywords":["cp","nocrits","nodmgspread","uncletopia"],"game_id":440,"stv_port":27066,"stv_name":"Uncletopia | Frankfurt | 6 | All Maps | STV","players":null},{"server_id":23,"name":"Uncletopia | Frankfurt | 7 | Stopwatch Beta","name_short":"frk-7","host":"frk-1.de.uncletopia.com","port":27075,"enabled":true,"region":"eu","cc":"de","latitude":50.110924,"longitude":8.682127,"reserved":0,"last_update":"0001-01-01T00:00:00Z","name_a2s":"Uncletopia | Frankfurt | 7 | Stopwatch Beta","protocol":17,"map":"pl_frontier_final","folder":"tf","game":"Team Fortress","app_id":440,"player_count":0,"max_players":24,"Bots":0,"server_type":"Dedicated","server_os":"Linux","password":true,"vac":true,"version":"7757534","steam_id":85568392924742827,"keywords":["nocrits","nodmgspread","payload","uncletopia"],"game_id":440,"stv_port":27076,"stv_name":"Uncletopia | Frankfurt | 7 | Stopwatch Beta | STV","players":null},{"server_id":24,"name":"Uncletopia | Frankfurt | 8 | Community","name_short":"frk-8","host":"frk-1.de.uncletopia.com","port":27085,"enabled":true,"region":"eu","cc":"de","latitude":50.110924,"longitude":8.682127,"reserved":0,"last_update":"0001-01-01T00:00:00Z","name_a2s":"Uncletopia | Frankfurt | 8 | Community","protocol":17,"map":"workshop/rd_asteroid_redux_b1.ugc2154902912","folder":"tf","game":"Team Fortress","app_id":440,"player_count":0,"max_players":24,"Bots":0,"server_type":"Dedicated","server_os":"Linux","password":true,"vac":true,"version":"7757534","steam_id":85568392924742828,"keywords":["beta","nocrits","nodmgspread","rd","uncletopia"],"game_id":440,"stv_port":27086,"stv_name":"Uncletopia | Frankfurt | 8 | Community | STV","players":null},{"server_id":202,"name":"Uncletopia | Hong Kong | 1 | All Maps","name_short":"hgk-1","host":"hgk-1.hk.uncletopia.com","port":27015,"enabled":true,"region":"asia","cc":"hk","latitude":22.302711,"longitude":114.177216,"reserved":0,"last_update":"0001-01-01T00:00:00Z","name_a2s":"Uncletopia | Hong Kong | 1 | All Maps","protocol":17,"map":"ctf_turbine","folder":"tf","game":"Team Fortress","app_id":440,"player_count":4,"max_players":24,"Bots":0,"server_type":"Dedicated","server_os":"Linux","password":true,"vac":true,"version":"7757534","steam_id":85568392924494504,"keywords":["ctf","nocrits","nodmgspread","uncletopia"],"game_id":440,"stv_port":27016,"stv_name":"Uncletopia | Hong Kong | 1 | All Maps | STV","players":[{"user_id":9,"name":"Ice Crack, Dude","steam_id":76561199445694770,"connected_time":910000000000,"state":"active","ping":137},{"user_id":10,"name":"3wfFbdrjEze5d2G","steam_id":76561198435900451,"connected_time":703000000000,"state":"active","ping":109},{"user_id":12,"name":"Talkk More","steam_id":76561198305424433,"connected_time":258000000000,"state":"active","ping":79},{"user_id":13,"name":"Â§âÊÖã„ÅÆÁ•û","steam_id":76561199017344476,"connected_time":48000000000,"state":"active","ping":99}]},{"server_id":1,"name":"Uncletopia | Los Angeles | 1 | All Maps","name_short":"lax-1","host":"lax-1.us.uncletopia.com","port":27015,"enabled":true,"region":"us-west","cc":"us","latitude":33.94279,"longitude":-118.41004,"reserved":0,"last_update":"0001-01-01T00:00:00Z","name_a2s":"Uncletopia | Los Angeles | 1 | All Maps","protocol":17,"map":"pl_swiftwater_final1","folder":"tf","game":"Team Fortress","app_id":440,"player_count":24,"max_players":24,"Bots":0,"server_type":"Dedicated","server_os":"Linux","password":true,"vac":true,"version":"7757534","steam_id":85568392924469991,"keywords":["nocrits","nodmgspread","payload","uncletopia"],"game_id":440,"stv_port":27016,"stv_name":"Uncletopia | Los Angeles | 1 | All Maps | STV","players":[{"user_id":365,"name":"Threxx","steam_id":76561198068348885,"connected_time":524000000000,"state":"active","ping":99},{"user_id":358,"name":"Mr. Mistah","steam_id":76561199085278564,"connected_time":1066000000000,"state":"active","ping":52},{"user_id":371,"name":"KKRDD","steam_id":76561198291976960,"connected_time":183000000000,"state":"active","ping":90},{"user_id":303,"name":"evan_is_sauce","steam_id":76561199086802383,"connected_time":4481000000000,"state":"active","ping":107},{"user_id":368,"name":"Creme","steam_id":76561198034166729,"connected_time":234000000000,"state":"active","ping":117},{"user_id":340,"name":"beatrix","steam_id":76561199057103062,"connected_time":2080000000000,"state":"active","ping":60},{"user_id":369,"name":"Anxiety","steam_id":76561198365627687,"connected_time":223000000000,"state":"active","ping":54},{"user_id":345,"name":"Roxanne","steam_id":76561198808385147,"connected_time":1638000000000,"state":"active","ping":114},{"user_id":362,"name":"crouton.net","steam_id":76561198068374646,"connected_time":940000000000,"state":"active","ping":66},{"user_id":361,"name":"Fat F√ºcking Lenny","steam_id":76561198110862909,"connected_time":1019000000000,"state":"active","ping":106},{"user_id":341,"name":"matthew.caffee","steam_id":76561199069898310,"connected_time":2031000000000,"state":"active","ping":140},{"user_id":370,"name":"weeb_232","steam_id":76561199250055131,"connected_time":213000000000,"state":"active","ping":120},{"user_id":324,"name":"luke8538","steam_id":76561198067480563,"connected_time":3481000000000,"state":"active","ping":68},{"user_id":357,"name":"we did it mate","steam_id":76561199471434875,"connected_time":1285000000000,"state":"active","ping":73},{"user_id":356,"name":"dumbeeon","steam_id":76561198059351874,"connected_time":1295000000000,"state":"active","ping":50},{"user_id":348,"name":"catrinaisahuman","steam_id":76561198281355729,"connected_time":1434000000000,"state":"active","ping":85},{"user_id":349,"name":"Oreodog300","steam_id":76561198137626866,"connected_time":1397000000000,"state":"active","ping":66},{"user_id":350,"name":"gravy","steam_id":76561198089644778,"connected_time":1396000000000,"state":"active","ping":56},{"user_id":351,"name":"Sivinus","steam_id":76561198025589541,"connected_time":1392000000000,"state":"active","ping":62},{"user_id":372,"name":"Jack from Jack in The Box","steam_id":76561199083594971,"connected_time":100000000000,"state":"active","ping":78},{"user_id":366,"name":"Stomp","steam_id":76561198167765748,"connected_time":485000000000,"state":"active","ping":75},{"user_id":373,"name":"riri ·óú·¥ó·óú","steam_id":76561198055462404,"connected_time":74000000000,"state":"active","ping":34},{"user_id":355,"name":"MinusSoup918","steam_id":76561198060902773,"connected_time":1301000000000,"state":"active","ping":69},{"user_id":338,"name":"Gimmick","steam_id":76561198065873462,"connected_time":2187000000000,"state":"active","ping":48}]},{"server_id":112,"name":"Uncletopia | Los Angeles | 2 | All Maps","name_short":"lax-2","host":"lax-1.us.uncletopia.com","port":27025,"enabled":true,"region":"us-west","cc":"us","latitude":33.94279,"longitude":-118.41004,"reserved":0,"last_update":"0001-01-01T00:00:00Z","name_a2s":"Uncletopia | Los Angeles | 2 | All Maps","protocol":17,"map":"pl_upward","folder":"tf","game":"Team Fortress","app_id":440,"player_count":24,"max_players":24,"Bots":0,"server_type":"Dedicated","server_os":"Linux","password":true,"vac":true,"version":"7757534","steam_id":85568392924469992,"keywords":["nocrits","nodmgspread","payload","uncletopia"],"game_id":440,"stv_port":27026,"stv_name":"Uncletopia | Los Angeles | 2 | All Maps | STV","players":[{"user_id":16,"name":"Pinicle","steam_id":76561198163251509,"connected_time":5932000000000,"state":"active","ping":43},{"user_id":17,"name":"Someone","steam_id":76561198123512823,"connected_time":5823000000000,"state":"active","ping":45},{"user_id":20,"name":"Raccoon","steam_id":76561198351496697,"connected_time":5663000000000,"state":"active","ping":59},{"user_id":19,"name":"qtipp","steam_id":76561198118946662,"connected_time":5681000000000,"state":"active","ping":44},{"user_id":21,"name":"Dog","steam_id":76561198084912355,"connected_time":5659000000000,"state":"active","ping":53},{"user_id":95,"name":"Birdman743","steam_id":76561198799636748,"connected_time":193000000000,"state":"active","ping":81},{"user_id":97,"name":"jordanddean2016","steam_id":76561198323772677,"connected_time":76000000000,"state":"active","ping":92},{"user_id":82,"name":"Battery_Included","steam_id":76561198067164431,"connected_time":1629000000000,"state":"active","ping":33},{"user_id":92,"name":"E-ferret","steam_id":76561198394134715,"connected_time":533000000000,"state":"active","ping":126},{"user_id":81,"name":"TheSpyAssassin","steam_id":76561198098007833,"connected_time":1747000000000,"state":"active","ping":64},{"user_id":68,"name":"Lavernius41","steam_id":76561198807274102,"connected_time":2382000000000,"state":"active","ping":82},{"user_id":94,"name":"THIRDPIERCE","steam_id":76561198405366314,"connected_time":347000000000,"state":"active","ping":92},{"user_id":88,"name":"wait no stop dont do that","steam_id":76561199117157198,"connected_time":1042000000000,"state":"active","ping":81},{"user_id":86,"name":"game","steam_id":76561198334059206,"connected_time":1190000000000,"state":"active","ping":61},{"user_id":70,"name":"walrooos","steam_id":76561198024521839,"connected_time":2342000000000,"state":"active","ping":48},{"user_id":76,"name":"FUNKY TOWN SLAYER","steam_id":76561198119489292,"connected_time":2130000000000,"state":"active","ping":135},{"user_id":89,"name":"M.L.JEW","steam_id":76561198997375055,"connected_time":858000000000,"state":"active","ping":109},{"user_id":60,"name":"Nugakku","steam_id":76561198082346219,"connected_time":2553000000000,"state":"active","ping":56},{"user_id":65,"name":"help","steam_id":76561198085206684,"connected_time":2464000000000,"state":"active","ping":104},{"user_id":79,"name":"fortzei","steam_id":76561198210920541,"connected_time":1926000000000,"state":"active","ping":57},{"user_id":96,"name":"nelly modelo","steam_id":76561198044875206,"connected_time":147000000000,"state":"active","ping":75},{"user_id":91,"name":"Slippin' Jimmy","steam_id":76561198812921824,"connected_time":694000000000,"state":"active","ping":106},{"user_id":73,"name":"‡πá‡πá‡πá‡πá‡πá","steam_id":76561198118859752,"connected_time":2259000000000,"state":"active","ping":47},{"user_id":78,"name":"Rommel2007","steam_id":76561198041744631,"connected_time":1962000000000,"state":"active","ping":50}]},{"server_id":324,"name":"Uncletopia | Los Angeles | 3 | All Maps","name_short":"lax-3","host":"lax-1.us.uncletopia.com","port":27035,"enabled":true,"region":"us-west","cc":"us","latitude":33.94279,"longitude":-118.41004,"reserved":0,"last_update":"0001-01-01T00:00:00Z","name_a2s":"Uncletopia | Los Angeles | 3 | All Maps","protocol":17,"map":"koth_lakeside_final","folder":"tf","game":"Team Fortress","app_id":440,"player_count":0,"max_players":24,"Bots":0,"server_type":"Dedicated","server_os":"Linux","password":true,"vac":true,"version":"7757534","steam_id":85568392924510198,"keywords":["cp","nocrits","nodmgspread","uncletopia"],"game_id":440,"stv_port":27036,"stv_name":"Uncletopia | Los Angeles | 3 | All Maps | STV","players":null},{"server_id":25,"name":"Uncletopia | Los Angeles | 4 | Stopwatch Beta","name_short":"lax-4","host":"lax-1.us.uncletopia.com","port":27045,"enabled":true,"region":"us-west","cc":"us","latitude":33.94279,"longitude":-118.41004,"reserved":0,"last_update":"0001-01-01T00:00:00Z","name_a2s":"Uncletopia | Los Angeles | 4 | Stopwatch Beta","protocol":17,"map":"pl_frontier_final","folder":"tf","game":"Team Fortress","app_id":440,"player_count":0,"max_players":24,"Bots":0,"server_type":"Dedicated","server_os":"Linux","password":true,"vac":true,"version":"7757534","steam_id":85568392924510199,"keywords":["nocrits","nodmgspread","payload","uncletopia"],"game_id":440,"stv_port":27046,"stv_name":"Uncletopia | Los Angeles | 4 | Stopwatch Beta | STV","players":null},{"server_id":11,"name":"Uncletopia | London | 1 | All Maps","name_short":"lon-1","host":"lon-1.uk.uncletopia.com","port":27015,"enabled":true,"region":"eu","cc":"gb","latitude":51.509865,"longitude":-0.118092,"reserved":0,"last_update":"0001-01-01T00:00:00Z","name_a2s":"Uncletopia | London | 1 | All Maps","protocol":17,"map":"koth_lakeside_final","folder":"tf","game":"Team Fortress","app_id":440,"player_count":0,"max_players":24,"Bots":0,"server_type":"Dedicated","server_os":"Linux","password":true,"vac":true,"version":"7757534","steam_id":85568392924367362,"keywords":["cp","nocrits","nodmgspread","uncletopia"],"game_id":440,"stv_port":27016,"stv_name":"Uncletopia | London | 1 | All Maps | STV","players":null},{"server_id":114,"name":"Uncletopia | London | 2 | All Maps","name_short":"lon-2","host":"lon-1.uk.uncletopia.com","port":27025,"enabled":true,"region":"eu","cc":"gb","latitude":51.509865,"longitude":-0.118092,"reserved":0,"last_update":"0001-01-01T00:00:00Z","name_a2s":"Uncletopia | London | 2 | All Maps","protocol":17,"map":"cp_dustbowl","folder":"tf","game":"Team Fortress","app_id":440,"player_count":0,"max_players":24,"Bots":0,"server_type":"Dedicated","server_os":"Linux","password":true,"vac":true,"version":"7757534","steam_id":85568392924470941,"keywords":["cp","nocrits","nodmgspread","uncletopia"],"game_id":440,"stv_port":27026,"stv_name":"Uncletopia | London | 2 | All Maps | STV","players":null},{"server_id":320,"name":"Uncletopia | London | 3 | All Maps","name_short":"lon-3","host":"lon-1.uk.uncletopia.com","port":27035,"enabled":true,"region":"eu","cc":"gb","latitude":51.509865,"longitude":-0.118092,"reserved":0,"last_update":"0001-01-01T00:00:00Z","name_a2s":"Uncletopia | London | 3 | All Maps","protocol":17,"map":"koth_sawmill","folder":"tf","game":"Team Fortress","app_id":440,"player_count":0,"max_players":24,"Bots":0,"server_type":"Dedicated","server_os":"Linux","password":true,"vac":true,"version":"7757534","steam_id":85568392924510192,"keywords":["cp","nocrits","nodmgspread","uncletopia"],"game_id":440,"stv_port":27036,"stv_name":"Uncletopia | London | 3 | All Maps | STV","players":null},{"server_id":321,"name":"Uncletopia | London | 4 | All Maps","name_short":"lon-4","host":"lon-1.uk.uncletopia.com","port":27045,"enabled":true,"region":"eu","cc":"gb","latitude":51.509865,"longitude":-0.118092,"reserved":0,"last_update":"0001-01-01T00:00:00Z","name_a2s":"Uncletopia | London | 4 | All Maps","protocol":17,"map":"pl_borneo","folder":"tf","game":"Team Fortress","app_id":440,"player_count":22,"max_players":24,"Bots":0,"server_type":"Dedicated","server_os":"Linux","password":true,"vac":true,"version":"7757534","steam_id":85568392924510193,"keywords":["nocrits","nodmgspread","payload","uncletopia"],"game_id":440,"stv_port":27046,"stv_name":"Uncletopia | London | 4 | All Maps | STV","players":[{"user_id":459,"name":"CevaAltceva","steam_id":76561198112195193,"connected_time":1136000000000,"state":"active","ping":72},{"user_id":438,"name":"stun","steam_id":76561198276681691,"connected_time":2825000000000,"state":"active","ping":45},{"user_id":443,"name":"Autumnsky","steam_id":76561198055161203,"connected_time":2178000000000,"state":"active","ping":60},{"user_id":475,"name":"Room","steam_id":76561199174579733,"connected_time":343000000000,"state":"active","ping":121},{"user_id":482,"name":"Dj jaba","steam_id":76561198838582811,"connected_time":10000000000,"state":"spawning","ping":89},{"user_id":465,"name":"Rezzarezz","steam_id":76561198092020043,"connected_time":742000000000,"state":"active","ping":61},{"user_id":467,"name":"Podgie","steam_id":76561198151358131,"connected_time":725000000000,"state":"active","ping":64},{"user_id":461,"name":"potatohead","steam_id":76561198282131133,"connected_time":923000000000,"state":"active","ping":52},{"user_id":468,"name":"|Inspector|","steam_id":76561198283518525,"connected_time":710000000000,"state":"active","ping":102},{"user_id":479,"name":"[T]aKer","steam_id":76561198001778013,"connected_time":134000000000,"state":"active","ping":47},{"user_id":302,"name":"Zerfesh","steam_id":76561198117534358,"connected_time":14764000000000,"state":"active","ping":102},{"user_id":480,"name":"sam-","steam_id":76561198013770973,"connected_time":114000000000,"state":"active","ping":69},{"user_id":379,"name":"Taste","steam_id":76561197994506978,"connected_time":9573000000000,"state":"active","ping":52},{"user_id":425,"name":"DocTwoEight","steam_id":76561198153488940,"connected_time":4113000000000,"state":"active","ping":75},{"user_id":453,"name":"Mumu :3","steam_id":76561198052794823,"connected_time":1534000000000,"state":"active","ping":61},{"user_id":456,"name":"Mickey","steam_id":76561197976868960,"connected_time":1368000000000,"state":"active","ping":73},{"user_id":421,"name":"The Black Duckling","steam_id":76561198383394891,"connected_time":4748000000000,"state":"active","ping":134},{"user_id":436,"name":"Per√§miehen√§","steam_id":76561197968945306,"connected_time":2968000000000,"state":"active","ping":72},{"user_id":473,"name":"dysesthesia","steam_id":76561198027159018,"connected_time":459000000000,"state":"active","ping":192},{"user_id":477,"name":"–°–õ–´–®–£ –ó–û–í","steam_id":76561198842087547,"connected_time":217000000000,"state":"active","ping":104},{"user_id":478,"name":"Dreadnawght","steam_id":76561198000973506,"connected_time":208000000000,"state":"active","ping":62},{"user_id":405,"name":"SuperBob103","steam_id":76561199175360012,"connected_time":5637000000000,"state":"active","ping":47}]},{"server_id":21,"name":"Uncletopia | London | 5 | All Maps","name_short":"lon-5","host":"lon-1.uk.uncletopia.com","port":27055,"enabled":true,"region":"eu","cc":"gb","latitude":51.509865,"longitude":-0.118092,"reserved":0,"last_update":"0001-01-01T00:00:00Z","name_a2s":"Uncletopia | London | 5 | All Maps","protocol":17,"map":"koth_cascade","folder":"tf","game":"Team Fortress","app_id":440,"player_count":0,"max_players":24,"Bots":0,"server_type":"Dedicated","server_os":"Linux","password":true,"vac":true,"version":"7757534","steam_id":85568392924742829,"keywords":["cp","nocrits","nodmgspread","uncletopia"],"game_id":440,"stv_port":27056,"stv_name":"Uncletopia | London | 5 | All Maps | STV","players":null},{"server_id":22,"name":"Uncletopia | London | 6 | All Maps","name_short":"lon-6","host":"lon-1.uk.uncletopia.com","port":27065,"enabled":true,"region":"eu","cc":"gb","latitude":51.509865,"longitude":-0.118092,"reserved":0,"last_update":"0001-01-01T00:00:00Z","name_a2s":"Uncletopia | London | 6 | All Maps","protocol":17,"map":"pl_swiftwater_final1","folder":"tf","game":"Team Fortress","app_id":440,"player_count":0,"max_players":24,"Bots":0,"server_type":"Dedicated","server_os":"Linux","password":true,"vac":true,"version":"7757534","steam_id":85568392924742830,"keywords":["nocrits","nodmgspread","payload","uncletopia"],"game_id":440,"stv_port":27066,"stv_name":"Uncletopia | London | 6 | All Maps | STV","players":null},{"server_id":40,"name":"Uncletopia | London | 7 | No Payload","name_short":"lon-7","host":"lon-1.uk.uncletopia.com","port":27075,"enabled":true,"region":"eu","cc":"gb","latitude":51.509865,"longitude":-0.118092,"reserved":0,"last_update":"0001-01-01T00:00:00Z","name_a2s":"Uncletopia | London | 7 | No Payload","protocol":17,"map":"plr_pipeline","folder":"tf","game":"Team Fortress","app_id":440,"player_count":0,"max_players":24,"Bots":0,"server_type":"Dedicated","server_os":"Linux","password":true,"vac":true,"version":"7757534","steam_id":85568392924964314,"keywords":["nocrits","nodmgspread","payload","uncletopia"],"game_id":440,"stv_port":27076,"stv_name":"Uncletopia | London | 7 | No Payload | STV","players":null},{"server_id":41,"name":"Uncletopia | London | 8 | Community","name_short":"lon-8","host":"lon-1.uk.uncletopia.com","port":27085,"enabled":true,"region":"eu","cc":"gb","latitude":51.509865,"longitude":-0.118092,"reserved":0,"last_update":"0001-01-01T00:00:00Z","name_a2s":"Uncletopia | London | 8 | Community","protocol":17,"map":"workshop/cp_croissant_final.ugc458840209","folder":"tf","game":"Team Fortress","app_id":440,"player_count":0,"max_players":24,"Bots":0,"server_type":"Dedicated","server_os":"Linux","password":true,"vac":true,"version":"7757534","steam_id":85568392924964315,"keywords":["cp","nocrits","nodmgspread","uncletopia"],"game_id":440,"stv_port":27086,"stv_name":"Uncletopia | London | 8 | Community | STV","players":null},{"server_id":300,"name":"Uncletopia | Montr√©al | 1 | All Maps","name_short":"mtl-1","host":"mtl-1.ca.uncletopia.com","port":27015,"enabled":true,"region":"us-east","cc":"ca","latitude":45.50889,"longitude":-73.56167,"reserved":0,"last_update":"0001-01-01T00:00:00Z","name_a2s":"Uncletopia | Montr√©al | 1 | All Maps","protocol":17,"map":"pl_borneo","folder":"tf","game":"Team Fortress","app_id":440,"player_count":0,"max_players":24,"Bots":0,"server_type":"Dedicated","server_os":"Linux","password":true,"vac":true,"version":"7757534","steam_id":85568392924500087,"keywords":["nocrits","nodmgspread","payload","uncletopia"],"game_id":440,"stv_port":27016,"stv_name":"Uncletopia | Montr√©al | 1 | All Maps | STV","players":null},{"server_id":301,"name":"Uncletopia | Montr√©al | 2 | All Maps","name_short":"mtl-2","host":"mtl-1.ca.uncletopia.com","port":27025,"enabled":true,"region":"us-east","cc":"ca","latitude":45.50889,"longitude":-73.56167,"reserved":0,"last_update":"0001-01-01T00:00:00Z","name_a2s":"Uncletopia | Montr√©al | 2 | All Maps","protocol":17,"map":"pl_frontier_final","folder":"tf","game":"Team Fortress","app_id":440,"player_count":0,"max_players":24,"Bots":0,"server_type":"Dedicated","server_os":"Linux","password":true,"vac":true,"version":"7757534","steam_id":85568392924500088,"keywords":["nocrits","nodmgspread","payload","uncletopia"],"game_id":440,"stv_port":27026,"stv_name":"Uncletopia | Montr√©al | 2 | All Maps | STV","players":null},{"server_id":302,"name":"Uncletopia | Montr√©al | 3 | All Maps","name_short":"mtl-3","host":"mtl-1.ca.uncletopia.com","port":27035,"enabled":true,"region":"us-east","cc":"ca","latitude":45.50889,"longitude":-73.56167,"reserved":0,"last_update":"0001-01-01T00:00:00Z","name_a2s":"Uncletopia | Montr√©al | 3 | All Maps","protocol":17,"map":"koth_highpass","folder":"tf","game":"Team Fortress","app_id":440,"player_count":0,"max_players":24,"Bots":0,"server_type":"Dedicated","server_os":"Linux","password":true,"vac":true,"version":"7757534","steam_id":85568392924500089,"keywords":["cp","nocrits","nodmgspread","uncletopia"],"game_id":440,"stv_port":27036,"stv_name":"Uncletopia | Montr√©al | 3 | All Maps | STV","players":null},{"server_id":303,"name":"Uncletopia | Montr√©al | 4 | No Payload","name_short":"mtl-4","host":"mtl-1.ca.uncletopia.com","port":27045,"enabled":true,"region":"us-east","cc":"ca","latitude":45.50889,"longitude":-73.56167,"reserved":0,"last_update":"0001-01-01T00:00:00Z","name_a2s":"Uncletopia | Montr√©al | 4 | No Payload","protocol":17,"map":"pl_borneo","folder":"tf","game":"Team Fortress","app_id":440,"player_count":0,"max_players":24,"Bots":0,"server_type":"Dedicated","server_os":"Linux","password":true,"vac":true,"version":"7757534","steam_id":85568392924500090,"keywords":["nocrits","nodmgspread","payload","uncletopia"],"game_id":440,"stv_port":27046,"stv_name":"Uncletopia | Montr√©al | 4 | No Payload | STV","players":null},{"server_id":13,"name":"Uncletopia | New York City | 1 | All Maps","name_short":"nyc-1","host":"nyc-1.us.uncletopia.com","port":27015,"enabled":true,"region":"us-east","cc":"us","latitude":40.73061,"longitude":-73.93524,"reserved":0,"last_update":"0001-01-01T00:00:00Z","name_a2s":"Uncletopia | New York City | 1 | All Maps","protocol":17,"map":"koth_highpass","folder":"tf","game":"Team Fortress","app_id":440,"player_count":0,"max_players":24,"Bots":0,"server_type":"Dedicated","server_os":"Linux","password":true,"vac":true,"version":"7757534","steam_id":85568392924469993,"keywords":["cp","nocrits","nodmgspread","uncletopia"],"game_id":440,"stv_port":27016,"stv_name":"Uncletopia | New York City | 1 | All Maps | STV","players":null},{"server_id":14,"name":"Uncletopia | New York City | 2 | All Maps","name_short":"nyc-2","host":"nyc-1.us.uncletopia.com","port":27025,"enabled":true,"region":"us-east","cc":"us","latitude":40.73061,"longitude":-73.93524,"reserved":0,"last_update":"0001-01-01T00:00:00Z","name_a2s":"Uncletopia | New York City | 2 | All Maps","protocol":17,"map":"pl_swiftwater_final1","folder":"tf","game":"Team Fortress","app_id":440,"player_count":0,"max_players":24,"Bots":0,"server_type":"Dedicated","server_os":"Linux","password":true,"vac":true,"version":"7757534","steam_id":85568392924469994,"keywords":["nocrits","nodmgspread","payload","uncletopia"],"game_id":440,"stv_port":27026,"stv_name":"Uncletopia | New York City | 2 | All Maps | STV","players":null},{"server_id":15,"name":"Uncletopia | New York City | 3 | Stopwatch Beta","name_short":"nyc-3","host":"nyc-1.us.uncletopia.com","port":27035,"enabled":true,"region":"us-east","cc":"us","latitude":40.73061,"longitude":-73.93524,"reserved":0,"last_update":"0001-01-01T00:00:00Z","name_a2s":"Uncletopia | New York City | 3 | Stopwatch Beta","protocol":17,"map":"koth_highpass","folder":"tf","game":"Team Fortress","app_id":440,"player_count":0,"max_players":24,"Bots":0,"server_type":"Dedicated","server_os":"Linux","password":true,"vac":true,"version":"7757534","steam_id":85568392924742820,"keywords":["cp","nocrits","nodmgspread","uncletopia"],"game_id":440,"stv_port":27036,"stv_name":"Uncletopia | New York City | 3 | Stopwatch Beta | STV","players":null},{"server_id":16,"name":"Uncletopia | New York City | 4 | Community","name_short":"nyc-4","host":"nyc-1.us.uncletopia.com","port":27045,"enabled":true,"region":"us-east","cc":"us","latitude":40.73061,"longitude":-73.93524,"reserved":0,"last_update":"0001-01-01T00:00:00Z","name_a2s":"Uncletopia | New York City | 4 | Community","protocol":17,"map":"workshop/koth_bagel_rc5.ugc2514036946","folder":"tf","game":"Team Fortress","app_id":440,"player_count":17,"max_players":24,"Bots":0,"server_type":"Dedicated","server_os":"Linux","password":true,"vac":true,"version":"7757534","steam_id":85568392924742821,"keywords":["cp","nocrits","nodmgspread","uncletopia"],"game_id":440,"stv_port":27046,"stv_name":"Uncletopia | New York City | 4 | Community | STV","players":[{"user_id":349,"name":"UNIT 220","steam_id":76561198042243497,"connected_time":113000000000,"state":"active","ping":64},{"user_id":234,"name":"eThaNos","steam_id":76561198035403279,"connected_time":6045000000000,"state":"active","ping":78},{"user_id":343,"name":"MajorSwags","steam_id":76561199013011235,"connected_time":578000000000,"state":"active","ping":87},{"user_id":325,"name":"softest_Poly","steam_id":76561198192264662,"connected_time":1243000000000,"state":"active","ping":96},{"user_id":322,"name":"Maj. Problem","steam_id":76561198240148840,"connected_time":1282000000000,"state":"active","ping":78},{"user_id":323,"name":"ShabamJenkins","steam_id":76561198003961365,"connected_time":1271000000000,"state":"active","ping":60},{"user_id":341,"name":"ZaYMuLL","steam_id":76561198110935733,"connected_time":855000000000,"state":"active","ping":81},{"user_id":326,"name":"Irregulars","steam_id":76561198048498230,"connected_time":1230000000000,"state":"active","ping":30},{"user_id":301,"name":"Rakk","steam_id":76561198855176174,"connected_time":2338000000000,"state":"active","ping":115},{"user_id":346,"name":"Skaibae","steam_id":76561198134178824,"connected_time":483000000000,"state":"active","ping":41},{"user_id":331,"name":"Gorka","steam_id":76561198125075433,"connected_time":1200000000000,"state":"active","ping":42},{"user_id":335,"name":"soup warrior","steam_id":76561198313226860,"connected_time":1172000000000,"state":"active","ping":59},{"user_id":336,"name":"NuggetShay.jpg","steam_id":76561198190962742,"connected_time":1155000000000,"state":"active","ping":75},{"user_id":333,"name":"Mortiferum","steam_id":76561198056331373,"connected_time":1194000000000,"state":"active","ping":57},{"user_id":316,"name":"Amoxacin","steam_id":76561198171121818,"connected_time":1619000000000,"state":"active","ping":73},{"user_id":348,"name":"Andrew Tate","steam_id":76561198169544071,"connected_time":293000000000,"state":"active","ping":34}]},{"server_id":142,"name":"Uncletopia | S√£o Paulo | 1 | All Maps","name_short":"sao-1","host":"sao-1.br.uncletopia.com","port":27015,"enabled":true,"region":"sa","cc":"br","latitude":-23.533773,"longitude":-46.62529,"reserved":0,"last_update":"0001-01-01T00:00:00Z","name_a2s":"Uncletopia | S√£o Paulo | 1 | All Maps","protocol":17,"map":"koth_lakeside_final","folder":"tf","game":"Team Fortress","app_id":440,"player_count":0,"max_players":24,"Bots":0,"server_type":"Dedicated","server_os":"Linux","password":true,"vac":true,"version":"7757534","steam_id":85568392924469996,"keywords":["cp","nocrits","nodmgspread","uncletopia"],"game_id":440,"stv_port":27016,"stv_name":"Uncletopia | S√£o Paulo | 1 | All Maps | STV","players":null},{"server_id":143,"name":"Uncletopia | S√£o Paulo | 2 | All Maps","name_short":"sao-2","host":"sao-2.br.uncletopia.com","port":27015,"enabled":true,"region":"sa","cc":"br","latitude":-23.533773,"longitude":-46.62529,"reserved":0,"last_update":"0001-01-01T00:00:00Z","name_a2s":"Uncletopia | S√£o Paulo | 2 | All Maps","protocol":17,"map":"koth_cascade","folder":"tf","game":"Team Fortress","app_id":440,"player_count":0,"max_players":24,"Bots":0,"server_type":"Dedicated","server_os":"Linux","password":true,"vac":true,"version":"7757534","steam_id":85568392924485349,"keywords":["cp","nocrits","nodmgspread","uncletopia"],"game_id":440,"stv_port":27016,"stv_name":"Uncletopia | S√£o Paulo | 2 | All Maps | STV","players":null},{"server_id":7,"name":"Uncletopia | Seattle | 1 | All Maps","name_short":"sea-1","host":"sea-1.us.uncletopia.com","port":27015,"enabled":true,"region":"us-west","cc":"us","latitude":47.608013,"longitude":-122.33517,"reserved":0,"last_update":"0001-01-01T00:00:00Z","name_a2s":"Uncletopia | Seattle | 1 | All Maps","protocol":17,"map":"pl_barnblitz","folder":"tf","game":"Team Fortress","app_id":440,"player_count":24,"max_players":24,"Bots":0,"server_type":"Dedicated","server_os":"Linux","password":true,"vac":true,"version":"7757534","steam_id":85568392924469997,"keywords":["nocrits","nodmgspread","payload","uncletopia"],"game_id":440,"stv_port":27016,"stv_name":"Uncletopia | Seattle | 1 | All Maps | STV","players":[{"user_id":705,"name":"twitch.tv/SmokedApplee","steam_id":76561198162541373,"connected_time":84000000000,"state":"active","ping":46},{"user_id":637,"name":"„Ä£dust„Ä£ -she/her-","steam_id":76561198045218909,"connected_time":7337000000000,"state":"active","ping":44},{"user_id":703,"name":"MisterManne","steam_id":76561198106598600,"connected_time":982000000000,"state":"active","ping":55},{"user_id":681,"name":"Vetresol","steam_id":76561198174828486,"connected_time":4332000000000,"state":"active","ping":50},{"user_id":680,"name":"Tom Skirrett","steam_id":76561198014600788,"connected_time":4633000000000,"state":"active","ping":60},{"user_id":706,"name":"ArchmageF","steam_id":76561197992246851,"connected_time":84000000000,"state":"active","ping":49},{"user_id":699,"name":"Klone","steam_id":76561198854485605,"connected_time":1453000000000,"state":"active","ping":106},{"user_id":707,"name":" Ä.Íï§ÔΩ°.","steam_id":76561198029580420,"connected_time":84000000000,"state":"active","ping":165},{"user_id":710,"name":"SvicidalBug","steam_id":76561198221390504,"connected_time":53000000000,"state":"active","ping":85},{"user_id":696,"name":"exephur","steam_id":76561198135763234,"connected_time":2643000000000,"state":"active","ping":69},{"user_id":697,"name":"dminty87","steam_id":76561198880739963,"connected_time":2128000000000,"state":"active","ping":55},{"user_id":693,"name":"Tungsten","steam_id":76561198312854342,"connected_time":3347000000000,"state":"active","ping":67},{"user_id":676,"name":"twitch.tv/ladyloki_ch","steam_id":76561198280150602,"connected_time":4941000000000,"state":"active","ping":55},{"user_id":678,"name":"TROY","steam_id":76561197983852176,"connected_time":4734000000000,"state":"active","ping":75},{"user_id":700,"name":"Jade","steam_id":76561198151596927,"connected_time":1371000000000,"state":"active","ping":109},{"user_id":692,"name":"An old sandwich on the floor!","steam_id":76561198108791583,"connected_time":3371000000000,"state":"active","ping":45},{"user_id":677,"name":"ShidFard|RayWilliamJohnsonGamin","steam_id":76561198207800784,"connected_time":4805000000000,"state":"active","ping":55},{"user_id":631,"name":"Gyr0sphere","steam_id":76561198183900735,"connected_time":7872000000000,"state":"active","ping":96},{"user_id":689,"name":"J U K I E","steam_id":76561197962841151,"connected_time":3888000000000,"state":"active","ping":50},{"user_id":649,"name":"mooney","steam_id":76561199110622484,"connected_time":6500000000000,"state":"active","ping":68},{"user_id":711,"name":"rat gets the cheese","steam_id":76561198031234032,"connected_time":52000000000,"state":"active","ping":101},{"user_id":657,"name":"Kuma","steam_id":76561199100813140,"connected_time":5928000000000,"state":"active","ping":86},{"user_id":686,"name":"it's CRUNCH TIME","steam_id":76561198086953456,"connected_time":4280000000000,"state":"active","ping":47},{"user_id":704,"name":"charm quark","steam_id":76561198098770777,"connected_time":89000000000,"state":"active","ping":54}]},{"server_id":119,"name":"Uncletopia | Seattle | 2 | All Maps","name_short":"sea-2","host":"sea-1.us.uncletopia.com","port":27025,"enabled":true,"region":"us-west","cc":"us","latitude":47.608013,"longitude":-122.33517,"reserved":0,"last_update":"0001-01-01T00:00:00Z","name_a2s":"Uncletopia | Seattle | 2 | All Maps","protocol":17,"map":"koth_harvest_final","folder":"tf","game":"Team Fortress","app_id":440,"player_count":23,"max_players":24,"Bots":0,"server_type":"Dedicated","server_os":"Linux","password":true,"vac":true,"version":"7757534","steam_id":85568392924469998,"keywords":["cp","nocrits","nodmgspread","uncletopia"],"game_id":440,"stv_port":27026,"stv_name":"Uncletopia | Seattle | 2 | All Maps | STV","players":[{"user_id":348,"name":"Amateur Glaswegian","steam_id":76561198030851956,"connected_time":76000000000,"state":"active","ping":50},{"user_id":330,"name":"Tyzombiecrusher","steam_id":76561198175855278,"connected_time":1245000000000,"state":"active","ping":84},{"user_id":337,"name":"Themasterman75","steam_id":76561199385573293,"connected_time":976000000000,"state":"active","ping":75},{"user_id":304,"name":"dwefr1243","steam_id":76561198299025609,"connected_time":2371000000000,"state":"active","ping":39},{"user_id":338,"name":":(","steam_id":76561197980935575,"connected_time":970000000000,"state":"active","ping":36},{"user_id":320,"name":"Nobuunga","steam_id":76561198100614981,"connected_time":1753000000000,"state":"active","ping":50},{"user_id":294,"name":"Mike Hawk","steam_id":76561198045053326,"connected_time":2983000000000,"state":"active","ping":46},{"user_id":324,"name":"autumnal.messenger","steam_id":76561199345816635,"connected_time":1374000000000,"state":"active","ping":45},{"user_id":290,"name":"al-Kohol","steam_id":76561197998530400,"connected_time":3222000000000,"state":"active","ping":77},{"user_id":343,"name":"YuuriDaThrilla","steam_id":76561198184814466,"connected_time":290000000000,"state":"active","ping":40},{"user_id":308,"name":"HappleMan","steam_id":76561198450713985,"connected_time":2235000000000,"state":"active","ping":73},{"user_id":327,"name":"StanloMagoo","steam_id":76561198029903471,"connected_time":1328000000000,"state":"active","ping":69},{"user_id":280,"name":"SanitysEdge","steam_id":76561198130732813,"connected_time":3774000000000,"state":"active","ping":79},{"user_id":328,"name":"hardfork","steam_id":76561197960958019,"connected_time":1291000000000,"state":"active","ping":53},{"user_id":289,"name":"Danzuniverse","steam_id":76561198179817943,"connected_time":3278000000000,"state":"active","ping":70},{"user_id":339,"name":"McLovin","steam_id":76561199158397833,"connected_time":917000000000,"state":"active","ping":117},{"user_id":349,"name":"Indefiable","steam_id":76561198219238953,"connected_time":64000000000,"state":"active","ping":49},{"user_id":321,"name":"InfernoFlower64","steam_id":76561198181097391,"connected_time":1750000000000,"state":"active","ping":143},{"user_id":341,"name":"Spooby","steam_id":76561198168114366,"connected_time":442000000000,"state":"active","ping":115},{"user_id":345,"name":"Ignignokt","steam_id":76561198162207470,"connected_time":273000000000,"state":"active","ping":68},{"user_id":317,"name":"BBL Sponsor","steam_id":76561199093733603,"connected_time":1924000000000,"state":"active","ping":81},{"user_id":347,"name":"oryps","steam_id":76561198048748866,"connected_time":179000000000,"state":"active","ping":99},{"user_id":319,"name":"pizzaguy4","steam_id":76561198058821622,"connected_time":1883000000000,"state":"active","ping":90}]},{"server_id":406,"name":"Uncletopia | Seattle | 3 | Stopwatch Beta","name_short":"sea-3","host":"sea-1.us.uncletopia.com","port":27035,"enabled":true,"region":"us-west","cc":"us","latitude":47.608013,"longitude":-122.33517,"reserved":0,"last_update":"0001-01-01T00:00:00Z","name_a2s":"Uncletopia | Seattle | 3 | Stopwatch Beta","protocol":17,"map":"koth_highpass","folder":"tf","game":"Team Fortress","app_id":440,"player_count":0,"max_players":24,"Bots":0,"server_type":"Dedicated","server_os":"Linux","password":true,"vac":true,"version":"7757534","steam_id":85568392924515217,"keywords":["cp","nocrits","nodmgspread","uncletopia"],"game_id":440,"stv_port":27036,"stv_name":"Uncletopia | Seattle | 3 | Stopwatch Beta | STV","players":null},{"server_id":17,"name":"Uncletopia | San Francisco | 1 | All Maps","name_short":"sfo-1","host":"sfo-1.us.uncletopia.com","port":27015,"enabled":true,"region":"us-west","cc":"us","latitude":37.77397,"longitude":-122.4313,"reserved":0,"last_update":"0001-01-01T00:00:00Z","name_a2s":"Uncletopia | San Francisco | 1 | All Maps","protocol":17,"map":"koth_cascade","folder":"tf","game":"Team Fortress","app_id":440,"player_count":24,"max_players":24,"Bots":0,"server_type":"Dedicated","server_os":"Linux","password":true,"vac":true,"version":"7757534","steam_id":85568392924469999,"keywords":["cp","nocrits","nodmgspread","uncletopia"],"game_id":440,"stv_port":27016,"stv_name":"Uncletopia | San Francisco | 1 | All Maps | STV","players":[{"user_id":534,"name":"Agent Q","steam_id":76561198830829003,"connected_time":4122000000000,"state":"active","ping":78},{"user_id":571,"name":"Volkan","steam_id":76561198401314312,"connected_time":1365000000000,"state":"active","ping":70},{"user_id":592,"name":"Soft Fuzzy Horse","steam_id":76561198005777544,"connected_time":352000000000,"state":"active","ping":60},{"user_id":594,"name":"TheFakeApple","steam_id":76561199090113472,"connected_time":336000000000,"state":"spawning","ping":77},{"user_id":598,"name":"Flyingcat9000","steam_id":76561198179561797,"connected_time":80000000000,"state":"active","ping":33},{"user_id":572,"name":"\\m/ Cyfun (she/it)","steam_id":76561197960882221,"connected_time":1352000000000,"state":"active","ping":116},{"user_id":574,"name":"Not a Can","steam_id":76561198064264767,"connected_time":1281000000000,"state":"active","ping":69},{"user_id":576,"name":"Jimjonjoe","steam_id":76561199195695913,"connected_time":1181000000000,"state":"active","ping":97},{"user_id":565,"name":"Maid 'n' China","steam_id":76561198423392976,"connected_time":1720000000000,"state":"active","ping":51},{"user_id":575,"name":"Feel the bern","steam_id":76561198078824519,"connected_time":1263000000000,"state":"active","ping":61},{"user_id":577,"name":"Superman123389","steam_id":76561198267472539,"connected_time":1141000000000,"state":"active","ping":88},{"user_id":487,"name":"A UsedNom","steam_id":76561198402832756,"connected_time":7205000000000,"state":"active","ping":53},{"user_id":570,"name":"(1)jimbo","steam_id":76561198821535846,"connected_time":1499000000000,"state":"active","ping":122},{"user_id":578,"name":"eyes","steam_id":76561198211699576,"connected_time":1133000000000,"state":"active","ping":107},{"user_id":579,"name":"munch","steam_id":76561198281972362,"connected_time":1118000000000,"state":"active","ping":75},{"user_id":596,"name":"SirArza","steam_id":76561198196214655,"connected_time":331000000000,"state":"active","ping":106},{"user_id":554,"name":"mariobluegloves.info","steam_id":76561197990149603,"connected_time":2686000000000,"state":"active","ping":126},{"user_id":581,"name":"brian eno enjoyer","steam_id":76561198056467179,"connected_time":1054000000000,"state":"active","ping":140},{"user_id":582,"name":"notatrip (link in bio)","steam_id":76561198046109327,"connected_time":1044000000000,"state":"active","ping":117},{"user_id":597,"name":"Samantha","steam_id":76561198127578307,"connected_time":306000000000,"state":"active","ping":77},{"user_id":591,"name":"Sad Sapling","steam_id":76561198075612150,"connected_time":553000000000,"state":"active","ping":58},{"user_id":539,"name":"swag","steam_id":76561198094615739,"connected_time":3678000000000,"state":"active","ping":85},{"user_id":588,"name":"chinto","steam_id":76561198082061316,"connected_time":830000000000,"state":"active","ping":84},{"user_id":586,"name":"‰ªôÂ•≥Â§¥Â≠ê‰∫éË∞¶","steam_id":76561199031075505,"connected_time":986000000000,"state":"active","ping":130}]},{"server_id":18,"name":"Uncletopia | San Francisco | 2 | All Maps","name_short":"sfo-2","host":"sfo-1.us.uncletopia.com","port":27025,"enabled":true,"region":"us-west","cc":"us","latitude":37.77397,"longitude":-122.4313,"reserved":0,"last_update":"0001-01-01T00:00:00Z","name_a2s":"Uncletopia | San Francisco | 2 | All Maps","protocol":17,"map":"pl_borneo","folder":"tf","game":"Team Fortress","app_id":440,"player_count":24,"max_players":24,"Bots":0,"server_type":"Dedicated","server_os":"Linux","password":true,"vac":true,"version":"7757534","steam_id":85568392924470000,"keywords":["nocrits","nodmgspread","payload","uncletopia"],"game_id":440,"stv_port":27026,"stv_name":"Uncletopia | San Francisco | 2 | All Maps | STV","players":[{"user_id":115,"name":"Priest","steam_id":76561197995048109,"connected_time":4536000000000,"state":"active","ping":99},{"user_id":135,"name":"Oomitch","steam_id":76561198071702759,"connected_time":2716000000000,"state":"active","ping":74},{"user_id":33,"name":"tweet","steam_id":76561198166515735,"connected_time":10040000000000,"state":"active","ping":48},{"user_id":160,"name":"Sh0tGun","steam_id":76561198048799004,"connected_time":624000000000,"state":"active","ping":63},{"user_id":157,"name":"Lt. Dan's Legs","steam_id":76561198043851584,"connected_time":765000000000,"state":"active","ping":191},{"user_id":51,"name":"Sjsparrow","steam_id":76561197995352435,"connected_time":9753000000000,"state":"active","ping":100},{"user_id":168,"name":"starrk","steam_id":76561198246066894,"connected_time":158000000000,"state":"active","ping":98},{"user_id":155,"name":"Featherless Biped","steam_id":76561198034171721,"connected_time":1842000000000,"state":"active","ping":117},{"user_id":138,"name":"azlondon","steam_id":76561197995819002,"connected_time":2560000000000,"state":"active","ping":54},{"user_id":139,"name":"EliteComSip","steam_id":76561198070914510,"connected_time":2534000000000,"state":"active","ping":140},{"user_id":124,"name":"LLiimit","steam_id":76561198816196238,"connected_time":3626000000000,"state":"active","ping":58},{"user_id":165,"name":"a chicken","steam_id":76561198313121580,"connected_time":424000000000,"state":"active","ping":64},{"user_id":143,"name":"Gay Cake","steam_id":76561198004388831,"connected_time":2313000000000,"state":"active","ping":125},{"user_id":162,"name":"Antonpirulero10","steam_id":76561198253036781,"connected_time":583000000000,"state":"active","ping":87},{"user_id":144,"name":"Ghor7","steam_id":76561198025552658,"connected_time":2303000000000,"state":"active","ping":109},{"user_id":166,"name":"loco503","steam_id":76561198827495121,"connected_time":277000000000,"state":"active","ping":67},{"user_id":163,"name":"Gordon Ramsay.","steam_id":76561199167165627,"connected_time":571000000000,"state":"active","ping":76},{"user_id":112,"name":"HAT-WEARING‚Ñ¢ Maggot Gamer Cat","steam_id":76561197973992705,"connected_time":5556000000000,"state":"active","ping":59},{"user_id":156,"name":"tax_evasion","steam_id":76561198094818557,"connected_time":1525000000000,"state":"active","ping":43},{"user_id":150,"name":"NekoGod","steam_id":76561198214690176,"connected_time":2183000000000,"state":"active","ping":136},{"user_id":119,"name":"Vierzehn","steam_id":76561198070479927,"connected_time":3946000000000,"state":"active","ping":116},{"user_id":132,"name":"Sir Nope (TSS)","steam_id":76561198035935649,"connected_time":3077000000000,"state":"active","ping":60},{"user_id":167,"name":"[PINGU‚Ñ¢] Tiny Tuna","steam_id":76561198193611579,"connected_time":260000000000,"state":"active","ping":112},{"user_id":154,"name":"Knight","steam_id":76561197995090150,"connected_time":2000000000000,"state":"active","ping":116}]},{"server_id":19,"name":"Uncletopia | San Francisco | 3 | Stopwatch Beta","name_short":"sfo-3","host":"sfo-1.us.uncletopia.com","port":27035,"enabled":true,"region":"us-west","cc":"us","latitude":37.77397,"longitude":-122.4313,"reserved":0,"last_update":"0001-01-01T00:00:00Z","name_a2s":"Uncletopia | San Francisco | 3 | Stopwatch Beta","protocol":17,"map":"pl_borneo","folder":"tf","game":"Team Fortress","app_id":440,"player_count":0,"max_players":24,"Bots":0,"server_type":"Dedicated","server_os":"Linux","password":true,"vac":true,"version":"7757534","steam_id":85568392924742824,"keywords":["nocrits","nodmgspread","payload","uncletopia"],"game_id":440,"stv_port":27036,"stv_name":"Uncletopia | San Francisco | 3 | Stopwatch Beta | STV","players":null},{"server_id":20,"name":"Uncletopia | San Francisco | 4 | Community","name_short":"sfo-4","host":"sfo-1.us.uncletopia.com","port":27045,"enabled":true,"region":"us-west","cc":"us","latitude":37.77397,"longitude":-122.4313,"reserved":0,"last_update":"0001-01-01T00:00:00Z","name_a2s":"Uncletopia | San Francisco | 4 | Community","protocol":17,"map":"workshop/koth_ashville_final.ugc2130459942","folder":"tf","game":"Team Fortress","app_id":440,"player_count":0,"max_players":24,"Bots":0,"server_type":"Dedicated","server_os":"Linux","password":true,"vac":true,"version":"7757534","steam_id":85568392924742826,"keywords":["cp","nocrits","nodmgspread","uncletopia"],"game_id":440,"stv_port":27046,"stv_name":"Uncletopia | San Francisco | 4 | Community | STV","players":null},{"server_id":141,"name":"Uncletopia | Sydney | 1 | All Maps","name_short":"syd-1","host":"syd-1.au.uncletopia.com","port":27015,"enabled":true,"region":"au","cc":"au","latitude":-33.865143,"longitude":151.2099,"reserved":0,"last_update":"0001-01-01T00:00:00Z","name_a2s":"Uncletopia | Sydney | 1 | All Maps","protocol":17,"map":"pl_borneo","folder":"tf","game":"Team Fortress","app_id":440,"player_count":0,"max_players":24,"Bots":0,"server_type":"Dedicated","server_os":"Linux","password":true,"vac":true,"version":"7757534","steam_id":85568392924470001,"keywords":["nocrits","nodmgspread","payload","uncletopia"],"game_id":440,"stv_port":27016,"stv_name":"Uncletopia | Sydney | 1 | All Maps | STV","players":null},{"server_id":123,"name":"Uncletopia | Sydney | 2 | All Maps","name_short":"syd-2","host":"syd-1.au.uncletopia.com","port":27025,"enabled":true,"region":"au","cc":"au","latitude":-33.865143,"longitude":151.2099,"reserved":0,"last_update":"0001-01-01T00:00:00Z","name_a2s":"Uncletopia | Sydney | 2 | All Maps","protocol":17,"map":"cp_steel","folder":"tf","game":"Team Fortress","app_id":440,"player_count":18,"max_players":24,"Bots":0,"server_type":"Dedicated","server_os":"Linux","password":true,"vac":true,"version":"7757534","steam_id":85568392924470002,"keywords":["cp","nocrits","nodmgspread","uncletopia"],"game_id":440,"stv_port":27026,"stv_name":"Uncletopia | Sydney | 2 | All Maps | STV","players":[{"user_id":33,"name":"Nutty Sandvich","steam_id":76561198089548531,"connected_time":5476000000000,"state":"active","ping":99},{"user_id":49,"name":"Aden","steam_id":76561198028555097,"connected_time":1749000000000,"state":"active","ping":71},{"user_id":56,"name":"DEVILS","steam_id":76561198203803181,"connected_time":1123000000000,"state":"active","ping":38},{"user_id":59,"name":"Tricka ‚Ä¢","steam_id":76561197968440123,"connected_time":160000000000,"state":"active","ping":47},{"user_id":58,"name":"E is for Exist","steam_id":76561198133651195,"connected_time":180000000000,"state":"active","ping":82},{"user_id":60,"name":"iesApac","steam_id":76561198176708635,"connected_time":146000000000,"state":"active","ping":60},{"user_id":45,"name":"Glockenspe (She/Her)","steam_id":76561199184115241,"connected_time":2600000000000,"state":"active","ping":55},{"user_id":46,"name":"Rhysand4rch","steam_id":76561199065212827,"connected_time":2559000000000,"state":"active","ping":56},{"user_id":47,"name":"Cranky Bug","steam_id":76561199083645515,"connected_time":2310000000000,"state":"active","ping":61},{"user_id":61,"name":"Leonidas","steam_id":76561198054096076,"connected_time":136000000000,"state":"active","ping":41},{"user_id":51,"name":"yohooj","steam_id":76561198344513761,"connected_time":1665000000000,"state":"active","ping":37},{"user_id":52,"name":"Dr Barry Mundy PhD","steam_id":76561198034512686,"connected_time":1630000000000,"state":"active","ping":67},{"user_id":62,"name":"Nyanderthal","steam_id":76561198843075573,"connected_time":133000000000,"state":"active","ping":58},{"user_id":54,"name":"voxii","steam_id":76561198099698281,"connected_time":1293000000000,"state":"active","ping":63},{"user_id":57,"name":"SoundlessPlum","steam_id":76561198077872547,"connected_time":1008000000000,"state":"active","ping":51},{"user_id":64,"name":"squrrel","steam_id":76561198083429611,"connected_time":72000000000,"state":"active","ping":67},{"user_id":66,"name":"BigCakeTwo","steam_id":76561198832676366,"connected_time":57000000000,"state":"active","ping":56},{"user_id":67,"name":"Bowl","steam_id":76561198345777684,"connected_time":22000000000,"state":"spawning","ping":76}]},{"server_id":395,"name":"Uncletopia | Sydney | 3 | All Maps","name_short":"syd-3","host":"syd-1.au.uncletopia.com","port":27035,"enabled":true,"region":"au","cc":"au","latitude":-33.865143,"longitude":151.2099,"reserved":0,"last_update":"0001-01-01T00:00:00Z","name_a2s":"Uncletopia | Sydney | 3 | All Maps","protocol":17,"map":"pl_upward","folder":"tf","game":"Team Fortress","app_id":440,"player_count":2,"max_players":24,"Bots":0,"server_type":"Dedicated","server_os":"Linux","password":true,"vac":true,"version":"7757534","steam_id":85568392925194467,"keywords":["nocrits","nodmgspread","payload","uncletopia"],"game_id":440,"stv_port":27036,"stv_name":"Uncletopia | Sydney | 3 | All Maps | STV","players":[{"user_id":101,"name":"clare","steam_id":76561199153466891,"connected_time":1316000000000,"state":"active","ping":82},{"user_id":112,"name":"I NEED WEED","steam_id":76561198836003115,"connected_time":345000000000,"state":"active","ping":60}]},{"server_id":396,"name":"Uncletopia | Sydney | 4 | All Maps","name_short":"syd-4","host":"syd-1.au.uncletopia.com","port":27045,"enabled":true,"region":"au","cc":"au","latitude":-33.865143,"longitude":151.2099,"reserved":0,"last_update":"0001-01-01T00:00:00Z","name_a2s":"Uncletopia | Sydney | 4 | All Maps","protocol":17,"map":"koth_lakeside_final","folder":"tf","game":"Team Fortress","app_id":440,"player_count":0,"max_players":24,"Bots":0,"server_type":"Dedicated","server_os":"Linux","password":true,"vac":true,"version":"7757534","steam_id":85568392925397958,"keywords":["cp","nocrits","nodmgspread","uncletopia"],"game_id":440,"stv_port":27046,"stv_name":"Uncletopia | Sydney | 4 | All Maps | STV","players":null},{"server_id":58,"name":"Uncletopia | Sydney | 5 | Stopwatch Beta","name_short":"syd-5","host":"syd-1.au.uncletopia.com","port":27055,"enabled":true,"region":"au","cc":"au","latitude":-33.865143,"longitude":151.2099,"reserved":0,"last_update":"0001-01-01T00:00:00Z","name_a2s":"Uncletopia | Sydney | 5 | Stopwatch Beta","protocol":17,"map":"koth_highpass","folder":"tf","game":"Team Fortress","app_id":440,"player_count":0,"max_players":24,"Bots":0,"server_type":"Dedicated","server_os":"Linux","password":true,"vac":true,"version":"7757534","steam_id":85568392925397959,"keywords":["cp","nocrits","nodmgspread","uncletopia"],"game_id":440,"stv_port":27056,"stv_name":"Uncletopia | Sydney | 5 | Stopwatch Beta | STV","players":null},{"server_id":59,"name":"Uncletopia | Sydney | 6 | Community","name_short":"syd-6","host":"syd-1.au.uncletopia.com","port":27065,"enabled":true,"region":"au","cc":"au","latitude":-33.865143,"longitude":151.2099,"reserved":0,"last_update":"0001-01-01T00:00:00Z","name_a2s":"Uncletopia | Sydney | 6 | Community","protocol":17,"map":"workshop/cp_villa_b19.ugc2113052569","folder":"tf","game":"Team Fortress","app_id":440,"player_count":0,"max_players":24,"Bots":0,"server_type":"Dedicated","server_os":"Linux","password":true,"vac":true,"version":"7757534","steam_id":85568392925397960,"keywords":["cp","nocrits","nodmgspread","uncletopia"],"game_id":440,"stv_port":27066,"stv_name":"Uncletopia | Sydney | 6 | Community | STV","players":null},{"server_id":49,"name":"Uncletopia | Warsaw | 1 | All Maps","name_short":"waw-1","host":"waw-1.pl.uncletopia.com","port":27015,"enabled":true,"region":"eu","cc":"pl","latitude":52.2297,"longitude":21.017532,"reserved":0,"last_update":"0001-01-01T00:00:00Z","name_a2s":"","protocol":0,"map":"","folder":"","game":"","app_id":0,"player_count":0,"max_players":0,"Bots":0,"server_type":"","server_os":"","password":false,"vac":false,"version":"","steam_id":0,"keywords":null,"game_id":0,"stv_port":0,"stv_name":"","players":null},{"server_id":50,"name":"Uncletopia | Warsaw | 2 | All Maps","name_short":"waw-2","host":"waw-1.pl.uncletopia.com","port":27025,"enabled":true,"region":"eu","cc":"pl","latitude":52.2297,"longitude":21.017532,"reserved":0,"last_update":"0001-01-01T00:00:00Z","name_a2s":"Uncletopia | Warsaw | 2 | All Maps","protocol":17,"map":"pl_badwater","folder":"tf","game":"Team Fortress","app_id":440,"player_count":0,"max_players":24,"Bots":0,"server_type":"Dedicated","server_os":"Linux","password":true,"vac":true,"version":"7757534","steam_id":85568392925397851,"keywords":["nocrits","nodmgspread","payload","uncletopia"],"game_id":440,"stv_port":27026,"stv_name":"Uncletopia | Warsaw | 2 | All Maps | STV","players":null},{"server_id":51,"name":"Uncletopia | Warsaw | 3 | All Maps","name_short":"waw-3","host":"waw-1.pl.uncletopia.com","port":27035,"enabled":true,"region":"eu","cc":"pl","latitude":52.2297,"longitude":21.017532,"reserved":0,"last_update":"0001-01-01T00:00:00Z","name_a2s":"Uncletopia | Warsaw | 3 | All Maps","protocol":17,"map":"pl_badwater","folder":"tf","game":"Team Fortress","app_id":440,"player_count":0,"max_players":24,"Bots":0,"server_type":"Dedicated","server_os":"Linux","password":true,"vac":true,"version":"7757534","steam_id":85568392925397852,"keywords":["nocrits","nodmgspread","payload","uncletopia"],"game_id":440,"stv_port":27036,"stv_name":"Uncletopia | Warsaw | 3 | All Maps | STV","players":null},{"server_id":52,"name":"Uncletopia | Warsaw | 4 | All Maps","name_short":"waw-4","host":"waw-1.pl.uncletopia.com","port":27045,"enabled":true,"region":"eu","cc":"pl","latitude":52.2297,"longitude":21.017532,"reserved":0,"last_update":"0001-01-01T00:00:00Z","name_a2s":"Uncletopia | Warsaw | 4 | All Maps","protocol":17,"map":"cp_mountainlab","folder":"tf","game":"Team Fortress","app_id":440,"player_count":0,"max_players":24,"Bots":0,"server_type":"Dedicated","server_os":"Linux","password":true,"vac":true,"version":"7757534","steam_id":85568392925397853,"keywords":["cp","nocrits","nodmgspread","uncletopia"],"game_id":440,"stv_port":27046,"stv_name":"Uncletopia | Warsaw | 4 | All Maps | STV","players":null},{"server_id":53,"name":"Uncletopia | Warsaw | 5 | Stopwatch Beta","name_short":"waw-5","host":"waw-1.pl.uncletopia.com","port":27055,"enabled":true,"region":"eu","cc":"pl","latitude":52.2297,"longitude":21.017532,"reserved":0,"last_update":"0001-01-01T00:00:00Z","name_a2s":"Uncletopia | Warsaw | 5 | Stopwatch Beta","protocol":17,"map":"pl_barnblitz","folder":"tf","game":"Team Fortress","app_id":440,"player_count":0,"max_players":24,"Bots":0,"server_type":"Dedicated","server_os":"Linux","password":true,"vac":true,"version":"7757534","steam_id":85568392925397854,"keywords":["nocrits","nodmgspread","payload","uncletopia"],"game_id":440,"stv_port":27056,"stv_name":"Uncletopia | Warsaw | 5 | Stopwatch Beta | STV","players":null},{"server_id":54,"name":"Uncletopia | Warsaw | 6 | Community","name_short":"waw-6","host":"waw-1.pl.uncletopia.com","port":27065,"enabled":true,"region":"eu","cc":"pl","latitude":52.2297,"longitude":21.017532,"reserved":0,"last_update":"0001-01-01T00:00:00Z","name_a2s":"Uncletopia | Warsaw | 6 | Community","protocol":17,"map":"workshop/pl_barnblitz_pro7.ugc582280235","folder":"tf","game":"Team Fortress","app_id":440,"player_count":0,"max_players":24,"Bots":0,"server_type":"Dedicated","server_os":"Linux","password":true,"vac":true,"version":"7757534","steam_id":85568392925397856,"keywords":["nocrits","nodmgspread","payload","uncletopia"],"game_id":440,"stv_port":27066,"stv_name":"Uncletopia | Warsaw | 6 | Community | STV","players":null}]}