{"status":true,"message":"","result":[{"server_id":9,"name":"Uncletopia | Atlanta | 1 | All Maps","name_short":"atl-1","host":"atl-1.us.uncletopia.com","port":27015,"enabled":true,"region":"us-east","cc":"us","latitude":33.753746,"longitude":-84.38633,"reserved":0,"last_update":"0001-01-01T00:00:00Z","name_a2s":"Uncletopia | Atlanta | 1 | All Maps","protocol":17,"map":"pl_snowycoast","folder":"tf","game":"Team Fortress","app_id":440,"player_count":0,"max_players":24,"Bots":0,"server_type":"Dedicated","server_os":"Linux","password":true,"vac":true,"version":"7742253","steam_id":85568392924469982,"keywords":["nocrits","nodmgspread","payload","uncletopia"],"game_id":440,"stv_port":27016,"stv_name":"Uncletopia | Atlanta | 1 | All Maps | STV","players":null},{"server_id":400,"name":"Uncletopia | Atlanta | 3 | Stopwatch Beta","name_short":"atl-3","host":"atl-1.us.uncletopia.com","port":27035,"enabled":true,"region":"us-east","cc":"us","latitude":33.753746,"longitude":-84.38633,"reserved":0,"last_update":"0001-01-01T00:00:00Z","name_a2s":"Uncletopia | Atlanta | 3 | Stopwatch Beta","protocol":17,"map":"pl_pier","folder":"tf","game":"Team Fortress","app_id":440,"player_count":0,"max_players":24,"Bots":0,"server_type":"Dedicated","server_os":"Linux","password":true,"vac":true,"version":"7742253","steam_id":85568392924515187,"keywords":["nocrits","nodmgspread","payload","uncletopia"],"game_id":440,"stv_port":27036,"stv_name":"Uncletopia | Atlanta | 3 | Stopwatch Beta | STV","players":null},{"server_id":401,"name":"Uncletopia | Atlanta | 4 | No Payload","name_short":"atl-4","host":"atl-1.us.uncletopia.com","port":27045,"enabled":true,"region":"us-east","cc":"us","latitude":33.753746,"longitude":-84.38633,"reserved":0,"last_update":"0001-01-01T00:00:00Z","name_a2s":"Uncletopia | Atlanta | 4 | No Payload","protocol":17,"map":"pl_pier","folder":"tf","game":"Team Fortress","app_id":440,"player_count":0,"max_players":24,"Bots":0,"server_type":"Dedicated","server_os":"Linux","password":true,"vac":true,"version":"7723704","steam_id":85568392924515188,"keywords":["nocrits","nodmgspread","payload","uncletopia"],"game_id":440,"stv_port":27046,"stv_name":"Uncletopia | Atlanta | 4 | No Payload | STV","players":null},{"server_id":2,"name":"Uncletopia | Chicago | 1 | All Maps","name_short":"chi-1","host":"chi-1.us.uncletopia.com","port":27015,"enabled":true,"region":"us-central","cc":"us","latitude":41.881832,"longitude":-87.62318,"reserved":0,"last_update":"0001-01-01T00:00:00Z","name_a2s":"Uncletopia | Chicago | 1 | All Maps","protocol":17,"map":"koth_viaduct","folder":"tf","game":"Team Fortress","app_id":440,"player_count":0,"max_players":24,"Bots":0,"server_type":"Dedicated","server_os":"Linux","password":true,"vac":true,"version":"7742253","steam_id":85568392924469984,"keywords":["cp","nocrits","nodmgspread","uncletopia"],"game_id":440,"stv_port":27016,"stv_name":"Uncletopia | Chicago | 1 | All Maps | STV","players":null},{"server_id":106,"name":"Uncletopia | Chicago | 2 | All Maps","name_short":"chi-2","host":"chi-1.us.uncletopia.com","port":27025,"enabled":true,"region":"us-central","cc":"us","latitude":41.881832,"longitude":-87.62318,"reserved":0,"last_update":"0001-01-01T00:00:00Z","name_a2s":"Uncletopia | Chicago | 2 | All Maps","protocol":17,"map":"koth_viaduct","folder":"tf","game":"Team Fortress","app_id":440,"player_count":0,"max_players":24,"Bots":0,"server_type":"Dedicated","server_os":"Linux","password":true,"vac":true,"version":"7742253","steam_id":85568392924469985,"keywords":["cp","nocrits","nodmgspread","uncletopia"],"game_id":440,"stv_port":27026,"stv_name":"Uncletopia | Chicago | 2 | All Maps | STV","players":null},{"server_id":402,"name":"Uncletopia | Chicago | 3 | All Maps","name_short":"chi-3","host":"chi-1.us.uncletopia.com","port":27035,"enabled":true,"region":"us-central","cc":"us","latitude":41.881832,"longitude":-87.62318,"reserved":0,"last_update":"0001-01-01T00:00:00Z","name_a2s":"Uncletopia | Chicago | 3 | All Maps","protocol":17,"map":"koth_viaduct","folder":"tf","game":"Team Fortress","app_id":440,"player_count":1,"max_players":24,"Bots":0,"server_type":"Dedicated","server_os":"Linux","password":true,"vac":true,"version":"7742253","steam_id":85568392924515191,"keywords":["cp","nocrits","nodmgspread","uncletopia"],"game_id":440,"stv_port":27036,"stv_name":"Uncletopia | Chicago | 3 | All Maps | STV","players":[{"user_id":688,"name":"Trusty","steam_id":76561198035444237,"connected_time":1004000000000,"state":"active","ping":51}]},{"server_id":403,"name":"Uncletopia | Chicago | 4 | All Maps","name_short":"chi-4","host":"chi-1.us.uncletopia.com","port":27045,"enabled":true,"region":"us-central","cc":"us","latitude":41.881832,"longitude":-87.62318,"reserved":0,"last_update":"0001-01-01T00:00:00Z","name_a2s":"Uncletopia | Chicago | 4 | All Maps","protocol":17,"map":"cp_junction_final","folder":"tf","game":"Team Fortress","app_id":440,"player_count":0,"max_players":24,"Bots":0,"server_type":"Dedicated","server_os":"Linux","password":true,"vac":true,"version":"7742253","steam_id":85568392924515193,"keywords":["cp","nocrits","nodmgspread","uncletopia"],"game_id":440,"stv_port":27046,"stv_name":"Uncletopia | Chicago | 4 | All Maps | STV","players":null},{"server_id":36,"name":"Uncletopia | Chicago | 5 | All Maps","name_short":"chi-5","host":"chi-2.us.uncletopia.com","port":27015,"enabled":true,"region":"us-central","cc":"us","latitude":41.881832,"longitude":-87.62318,"reserved":0,"last_update":"0001-01-01T00:00:00Z","name_a2s":"Uncletopia | Chicago | 5 | All Maps","protocol":17,"map":"cp_mountainlab","folder":"tf","game":"Team Fortress","app_id":440,"player_count":2,"max_players":24,"Bots":0,"server_type":"Dedicated","server_os":"Linux","password":true,"vac":true,"version":"7742253","steam_id":85568392924866362,"keywords":["cp","nocrits","nodmgspread","uncletopia"],"game_id":440,"stv_port":27016,"stv_name":"Uncletopia | Chicago | 5 | All Maps | STV","players":[{"user_id":416,"name":"Warzard","steam_id":76561199154051413,"connected_time":5637000000000,"state":"active","ping":96},{"user_id":457,"name":"RelatableiLLness","steam_id":76561198441669772,"connected_time":1978000000000,"state":"active","ping":82}]},{"server_id":37,"name":"Uncletopia | Chicago | 6 | All Maps","name_short":"chi-6","host":"chi-2.us.uncletopia.com","port":27025,"enabled":true,"region":"us-central","cc":"us","latitude":41.881832,"longitude":-87.62318,"reserved":0,"last_update":"0001-01-01T00:00:00Z","name_a2s":"Uncletopia | Chicago | 6 | All Maps","protocol":17,"map":"pl_pier","folder":"tf","game":"Team Fortress","app_id":440,"player_count":20,"max_players":24,"Bots":0,"server_type":"Dedicated","server_os":"Linux","password":true,"vac":true,"version":"7742253","steam_id":85568392924866363,"keywords":["nocrits","nodmgspread","payload","uncletopia"],"game_id":440,"stv_port":27026,"stv_name":"Uncletopia | Chicago | 6 | All Maps | STV","players":[{"user_id":790,"name":"skytyler","steam_id":76561198257848356,"connected_time":1103000000000,"state":"active","ping":104},{"user_id":808,"name":"ℳℯʟℓø","steam_id":76561198840518044,"connected_time":412000000000,"state":"active","ping":61},{"user_id":777,"name":"MaybeMars","steam_id":76561198084736804,"connected_time":1760000000000,"state":"active","ping":81},{"user_id":814,"name":"REMO","steam_id":76561198844528516,"connected_time":22000000000,"state":"active","ping":68},{"user_id":758,"name":"Lemonty","steam_id":76561198163812778,"connected_time":2869000000000,"state":"active","ping":61},{"user_id":812,"name":"Batman Grant Williams","steam_id":76561198115458307,"connected_time":153000000000,"state":"active","ping":104},{"user_id":807,"name":"Lukren","steam_id":76561198254574528,"connected_time":482000000000,"state":"active","ping":172},{"user_id":779,"name":"deez ratz","steam_id":76561198864572366,"connected_time":1683000000000,"state":"active","ping":104},{"user_id":788,"name":"The Horselords and Animal Gods","steam_id":76561197975094050,"connected_time":1279000000000,"state":"active","ping":111},{"user_id":802,"name":"Brown_Dream","steam_id":76561198975766145,"connected_time":738000000000,"state":"active","ping":73},{"user_id":810,"name":"Dewick","steam_id":76561198178526673,"connected_time":275000000000,"state":"active","ping":99},{"user_id":811,"name":"1yonger","steam_id":76561197994597935,"connected_time":242000000000,"state":"active","ping":89},{"user_id":781,"name":"Soap Man","steam_id":76561198000490235,"connected_time":1618000000000,"state":"active","ping":115},{"user_id":782,"name":"mr detective","steam_id":76561198079892116,"connected_time":1601000000000,"state":"active","ping":45},{"user_id":805,"name":"Blargh","steam_id":76561198044095816,"connected_time":631000000000,"state":"active","ping":47},{"user_id":767,"name":"A Pair of Candy Canes","steam_id":76561198052239472,"connected_time":2465000000000,"state":"active","ping":105},{"user_id":804,"name":"sckeeb","steam_id":76561198151064563,"connected_time":645000000000,"state":"active","ping":87},{"user_id":770,"name":"twitch.tv/Yoshi21 | TF2Pugs.com","steam_id":76561198002516729,"connected_time":2392000000000,"state":"active","ping":68},{"user_id":803,"name":"raybryan2008","steam_id":76561199465495736,"connected_time":690000000000,"state":"active","ping":82},{"user_id":784,"name":"Nexus","steam_id":76561198187929865,"connected_time":1572000000000,"state":"active","ping":46}]},{"server_id":38,"name":"Uncletopia | Chicago | 7 | Stopwatch Beta","name_short":"chi-7","host":"chi-2.us.uncletopia.com","port":27035,"enabled":true,"region":"us-central","cc":"us","latitude":41.881832,"longitude":-87.62318,"reserved":0,"last_update":"0001-01-01T00:00:00Z","name_a2s":"Uncletopia | Chicago | 7 | Stopwatch Beta","protocol":17,"map":"pl_upward","folder":"tf","game":"Team Fortress","app_id":440,"player_count":0,"max_players":24,"Bots":0,"server_type":"Dedicated","server_os":"Linux","password":true,"vac":true,"version":"7742253","steam_id":85568392924866364,"keywords":["nocrits","nodmgspread","payload","uncletopia"],"game_id":440,"stv_port":27036,"stv_name":"Uncletopia | Chicago | 7 | Stopwatch Beta | STV","players":null},{"server_id":39,"name":"Uncletopia | Chicago | 8 | Community","name_short":"chi-8","host":"chi-2.us.uncletopia.com","port":27045,"enabled":true,"region":"us-central","cc":"us","latitude":41.881832,"longitude":-87.62318,"reserved":0,"last_update":"0001-01-01T00:00:00Z","name_a2s":"Uncletopia | Chicago | 8 | Community","protocol":17,"map":"workshop/koth_product_final.ugc454272353","folder":"tf","game":"Team Fortress","app_id":440,"player_count":0,"max_players":24,"Bots":0,"server_type":"Dedicated","server_os":"Linux","password":true,"vac":true,"version":"7742253","steam_id":85568392924866365,"keywords":["cp","nocrits","nodmgspread","uncletopia"],"game_id":440,"stv_port":27046,"stv_name":"Uncletopia | Chicago | 8 | Community | STV","players":null},{"server_id":8,"name":"Uncletopia | Dallas | 1 | All Maps","name_short":"dal-1","host":"dal-1.us.uncletopia.com","port":27015,"enabled":true,"region":"us-central","cc":"us","latitude":32.779167,"longitude":-96.80889,"reserved":0,"last_update":"0001-01-01T00:00:00Z","name_a2s":"Uncletopia | Dallas | 1 | All Maps","protocol":17,"map":"cp_sunshine","folder":"tf","game":"Team Fortress","app_id":440,"player_count":0,"max_players":24,"Bots":0,"server_type":"Dedicated","server_os":"Linux","password":true,"vac":true,"version":"7742253","steam_id":85568392924469986,"keywords":["cp","nocrits","nodmgspread","uncletopia"],"game_id":440,"stv_port":27016,"stv_name":"Uncletopia | Dallas | 1 | All Maps | STV","players":null},{"server_id":108,"name":"Uncletopia | Dallas | 2 | All Maps","name_short":"dal-2","host":"dal-1.us.uncletopia.com","port":27025,"enabled":true,"region":"us-central","cc":"us","latitude":32.779167,"longitude":-96.80889,"reserved":0,"last_update":"0001-01-01T00:00:00Z","name_a2s":"Uncletopia | Dallas | 2 | All Maps","protocol":17,"map":"cp_process_final","folder":"tf","game":"Team Fortress","app_id":440,"player_count":0,"max_players":24,"Bots":0,"server_type":"Dedicated","server_os":"Linux","password":true,"vac":true,"version":"7742253","steam_id":85568392924469988,"keywords":["cp","nocrits","nodmgspread","uncletopia"],"game_id":440,"stv_port":27026,"stv_name":"Uncletopia | Dallas | 2 | All Maps | STV","players":null},{"server_id":5,"name":"Uncletopia | Frankfurt | 1 | All Maps","name_short":"frk-1","host":"frk-1.de.uncletopia.com","port":27015,"enabled":true,"region":"eu","cc":"de","latitude":50.110924,"longitude":8.682127,"reserved":0,"last_update":"0001-01-01T00:00:00Z","name_a2s":"Uncletopia | Frankfurt | 1 | All Maps","protocol":17,"map":"pl_snowycoast","folder":"tf","game":"Team Fortress","app_id":440,"player_count":24,"max_players":24,"Bots":0,"server_type":"Dedicated","server_os":"Linux","password":true,"vac":true,"version":"7742253","steam_id":85568392924469989,"keywords":["nocrits","nodmgspread","payload","uncletopia"],"game_id":440,"stv_port":27016,"stv_name":"Uncletopia | Frankfurt | 1 | All Maps | STV","players":[{"user_id":131,"name":"Rezolt","steam_id":76561198069074807,"connected_time":929000000000,"state":"active","ping":119},{"user_id":107,"name":"Iva","steam_id":76561198254963150,"connected_time":1747000000000,"state":"active","ping":56},{"user_id":104,"name":"Johnny","steam_id":76561198880265246,"connected_time":2333000000000,"state":"active","ping":85},{"user_id":112,"name":"Blo","steam_id":76561198161651469,"connected_time":1418000000000,"state":"active","ping":52},{"user_id":96,"name":"Oxitocin","steam_id":76561198119542899,"connected_time":2648000000000,"state":"active","ping":77},{"user_id":122,"name":"abdo11","steam_id":76561199219926869,"connected_time":1115000000000,"state":"active","ping":173},{"user_id":114,"name":"dripstein","steam_id":76561198059598696,"connected_time":1351000000000,"state":"active","ping":48},{"user_id":115,"name":"ayumi","steam_id":76561198796327257,"connected_time":1292000000000,"state":"active","ping":50},{"user_id":113,"name":"DaVitsChi","steam_id":76561199035895096,"connected_time":1387000000000,"state":"active","ping":58},{"user_id":117,"name":"yasser","steam_id":76561198103973320,"connected_time":1266000000000,"state":"active","ping":107},{"user_id":102,"name":"Taekio","steam_id":76561198158934992,"connected_time":2390000000000,"state":"active","ping":69},{"user_id":118,"name":"shinji","steam_id":76561198099696876,"connected_time":1262000000000,"state":"active","ping":64},{"user_id":116,"name":"Artock","steam_id":76561198808599713,"connected_time":1278000000000,"state":"active","ping":76},{"user_id":143,"name":"Apox","steam_id":76561198008005377,"connected_time":608000000000,"state":"active","ping":61},{"user_id":120,"name":"pummed","steam_id":76561198827108475,"connected_time":1193000000000,"state":"active","ping":65},{"user_id":121,"name":"scunt","steam_id":76561198830637623,"connected_time":1168000000000,"state":"active","ping":146},{"user_id":94,"name":"HwK!","steam_id":76561198287835588,"connected_time":2750000000000,"state":"active","ping":80},{"user_id":123,"name":"Ursusadur","steam_id":76561198039286640,"connected_time":1090000000000,"state":"active","ping":59},{"user_id":124,"name":"daidamuxa.6590","steam_id":76561198236773400,"connected_time":1056000000000,"state":"active","ping":117},{"user_id":126,"name":"Despair","steam_id":76561198259487481,"connected_time":1018000000000,"state":"active","ping":72},{"user_id":128,"name":"AviSheepie","steam_id":76561198154361272,"connected_time":949000000000,"state":"active","ping":88},{"user_id":129,"name":"andria","steam_id":76561198930247131,"connected_time":947000000000,"state":"active","ping":112},{"user_id":100,"name":"Taewinzer","steam_id":76561198261820803,"connected_time":2616000000000,"state":"active","ping":75},{"user_id":132,"name":"DOME","steam_id":76561198085155381,"connected_time":924000000000,"state":"active","ping":75}]},{"server_id":110,"name":"Uncletopia | Frankfurt | 2 | All Maps","name_short":"frk-2","host":"frk-1.de.uncletopia.com","port":27025,"enabled":true,"region":"eu","cc":"de","latitude":50.110924,"longitude":8.682127,"reserved":0,"last_update":"0001-01-01T00:00:00Z","name_a2s":"Uncletopia | Frankfurt | 2 | All Maps","protocol":17,"map":"pl_upward","folder":"tf","game":"Team Fortress","app_id":440,"player_count":24,"max_players":24,"Bots":0,"server_type":"Dedicated","server_os":"Linux","password":true,"vac":true,"version":"7742253","steam_id":85568392924469990,"keywords":["nocrits","nodmgspread","payload","uncletopia"],"game_id":440,"stv_port":27026,"stv_name":"Uncletopia | Frankfurt | 2 | All Maps | STV","players":[{"user_id":56,"name":"Moskvin","steam_id":76561198089170010,"connected_time":87000000000,"state":"active","ping":52},{"user_id":33,"name":"Patrick Bateman","steam_id":76561198408829424,"connected_time":1900000000000,"state":"active","ping":74},{"user_id":54,"name":"Goliath","steam_id":76561198088583638,"connected_time":252000000000,"state":"active","ping":48},{"user_id":7,"name":"fried","steam_id":76561198307522022,"connected_time":3205000000000,"state":"active","ping":49},{"user_id":46,"name":"Taskyy","steam_id":76561198134901175,"connected_time":553000000000,"state":"active","ping":74},{"user_id":40,"name":"kGu","steam_id":76561199038729829,"connected_time":1063000000000,"state":"active","ping":68},{"user_id":36,"name":"Senator Armstrong","steam_id":76561198984346408,"connected_time":1443000000000,"state":"active","ping":65},{"user_id":49,"name":"Zero (Orbital Gear Mastermind)","steam_id":76561198017416816,"connected_time":366000000000,"state":"active","ping":58},{"user_id":34,"name":"night.s","steam_id":76561198326287823,"connected_time":1613000000000,"state":"active","ping":74},{"user_id":14,"name":"dogwater69","steam_id":76561198058366676,"connected_time":2824000000000,"state":"active","ping":72},{"user_id":43,"name":"DOMAIN","steam_id":76561199095640319,"connected_time":929000000000,"state":"active","ping":80},{"user_id":19,"name":"Lord Odment","steam_id":76561198044354976,"connected_time":2447000000000,"state":"active","ping":104},{"user_id":20,"name":"fmdi","steam_id":76561199433879329,"connected_time":2396000000000,"state":"active","ping":60},{"user_id":41,"name":"Chinese censorship Bureau","steam_id":76561198397898616,"connected_time":1049000000000,"state":"active","ping":45},{"user_id":57,"name":"Инспектор Атас","steam_id":76561199175688390,"connected_time":61000000000,"state":"active","ping":75},{"user_id":23,"name":"henoadam","steam_id":76561198151350377,"connected_time":2209000000000,"state":"active","ping":59},{"user_id":52,"name":"gmem","steam_id":76561198070006725,"connected_time":314000000000,"state":"active","ping":62},{"user_id":32,"name":"Williamzas","steam_id":76561198035728623,"connected_time":1972000000000,"state":"active","ping":60},{"user_id":55,"name":"Morbidly A Beast","steam_id":76561198251578274,"connected_time":150000000000,"state":"active","ping":106},{"user_id":42,"name":"Landsknecht","steam_id":76561199293036742,"connected_time":978000000000,"state":"active","ping":48},{"user_id":58,"name":"Harry Maguire X Eric Dier","steam_id":76561198107267560,"connected_time":31000000000,"state":"active","ping":66},{"user_id":29,"name":"alcha","steam_id":76561198248628176,"connected_time":2054000000000,"state":"active","ping":65},{"user_id":44,"name":"sexual haRIZZment","steam_id":76561198157406151,"connected_time":915000000000,"state":"active","ping":70},{"user_id":48,"name":"Blind","steam_id":76561198310295139,"connected_time":539000000000,"state":"active","ping":108}]},{"server_id":308,"name":"Uncletopia | Frankfurt | 3 | All Maps","name_short":"frk-3","host":"frk-1.de.uncletopia.com","port":27035,"enabled":true,"region":"eu","cc":"de","latitude":50.110924,"longitude":8.682127,"reserved":0,"last_update":"0001-01-01T00:00:00Z","name_a2s":"Uncletopia | Frankfurt | 3 | All Maps","protocol":17,"map":"pl_upward","folder":"tf","game":"Team Fortress","app_id":440,"player_count":0,"max_players":24,"Bots":0,"server_type":"Dedicated","server_os":"Linux","password":true,"vac":true,"version":"7742253","steam_id":85568392924504274,"keywords":["nocrits","nodmgspread","payload","uncletopia"],"game_id":440,"stv_port":27036,"stv_name":"Uncletopia | Frankfurt | 3 | All Maps | STV","players":null},{"server_id":309,"name":"Uncletopia | Frankfurt | 4 | All Maps","name_short":"frk-4","host":"frk-1.de.uncletopia.com","port":27045,"enabled":true,"region":"eu","cc":"de","latitude":50.110924,"longitude":8.682127,"reserved":0,"last_update":"0001-01-01T00:00:00Z","name_a2s":"Uncletopia | Frankfurt | 4 | All Maps","protocol":17,"map":"koth_cascade","folder":"tf","game":"Team Fortress","app_id":440,"player_count":1,"max_players":24,"Bots":0,"server_type":"Dedicated","server_os":"Linux","password":true,"vac":true,"version":"7742253","steam_id":85568392924504275,"keywords":["cp","nocrits","nodmgspread","uncletopia"],"game_id":440,"stv_port":27046,"stv_name":"Uncletopia | Frankfurt | 4 | All Maps | STV","players":[{"user_id":14,"name":"gaming","steam_id":76561198044461938,"connected_time":30000000000,"state":"active","ping":42}]},{"server_id":310,"name":"Uncletopia | Frankfurt | 5 | All Maps","name_short":"frk-5","host":"frk-1.de.uncletopia.com","port":27055,"enabled":true,"region":"eu","cc":"de","latitude":50.110924,"longitude":8.682127,"reserved":0,"last_update":"0001-01-01T00:00:00Z","name_a2s":"Uncletopia | Frankfurt | 5 | All Maps","protocol":17,"map":"koth_viaduct","folder":"tf","game":"Team Fortress","app_id":440,"player_count":4,"max_players":24,"Bots":0,"server_type":"Dedicated","server_os":"Linux","password":true,"vac":true,"version":"7742253","steam_id":85568392924504277,"keywords":["cp","nocrits","nodmgspread","uncletopia"],"game_id":440,"stv_port":27056,"stv_name":"Uncletopia | Frankfurt | 5 | All Maps | STV","players":[{"user_id":7,"name":"Jeordean","steam_id":76561199228898949,"connected_time":484000000000,"state":"active","ping":101},{"user_id":8,"name":"nop 21","steam_id":76561198331641220,"connected_time":413000000000,"state":"active","ping":54},{"user_id":9,"name":"TJ1212","steam_id":76561199013575313,"connected_time":102000000000,"state":"active","ping":77},{"user_id":10,"name":"SIGMA BALLS","steam_id":76561198302623594,"connected_time":65000000000,"state":"active","ping":88}]},{"server_id":311,"name":"Uncletopia | Frankfurt | 6 | All Maps","name_short":"frk-6","host":"frk-1.de.uncletopia.com","port":27065,"enabled":true,"region":"eu","cc":"de","latitude":50.110924,"longitude":8.682127,"reserved":0,"last_update":"0001-01-01T00:00:00Z","name_a2s":"Uncletopia | Frankfurt | 6 | All Maps","protocol":17,"map":"koth_lakeside_final","folder":"tf","game":"Team Fortress","app_id":440,"player_count":1,"max_players":24,"Bots":0,"server_type":"Dedicated","server_os":"Linux","password":true,"vac":true,"version":"7742253","steam_id":85568392924504278,"keywords":["cp","nocrits","nodmgspread","uncletopia"],"game_id":440,"stv_port":27066,"stv_name":"Uncletopia | Frankfurt | 6 | All Maps | STV","players":[{"user_id":7,"name":"kamekame","steam_id":76561198047108054,"connected_time":162000000000,"state":"active","ping":80}]},{"server_id":23,"name":"Uncletopia | Frankfurt | 7 | Stopwatch Beta","name_short":"frk-7","host":"frk-1.de.uncletopia.com","port":27075,"enabled":true,"region":"eu","cc":"de","latitude":50.110924,"longitude":8.682127,"reserved":0,"last_update":"0001-01-01T00:00:00Z","name_a2s":"Uncletopia | Frankfurt | 7 | Stopwatch Beta","protocol":17,"map":"pl_badwater","folder":"tf","game":"Team Fortress","app_id":440,"player_count":0,"max_players":24,"Bots":0,"server_type":"Dedicated","server_os":"Linux","password":true,"vac":true,"version":"7742253","steam_id":85568392924742827,"keywords":["nocrits","nodmgspread","payload","uncletopia"],"game_id":440,"stv_port":27076,"stv_name":"Uncletopia | Frankfurt | 7 | Stopwatch Beta | STV","players":null},{"server_id":24,"name":"Uncletopia | Frankfurt | 8 | Community","name_short":"frk-8","host":"frk-1.de.uncletopia.com","port":27085,"enabled":true,"region":"eu","cc":"de","latitude":50.110924,"longitude":8.682127,"reserved":0,"last_update":"0001-01-01T00:00:00Z","name_a2s":"Uncletopia | Frankfurt | 8 | Community","protocol":17,"map":"koth_cascade","folder":"tf","game":"Team Fortress","app_id":440,"player_count":0,"max_players":24,"Bots":0,"server_type":"Dedicated","server_os":"Linux","password":true,"vac":true,"version":"7742253","steam_id":85568392924742828,"keywords":["cp","nocrits","nodmgspread","uncletopia"],"game_id":440,"stv_port":27086,"stv_name":"Uncletopia | Frankfurt | 8 | Community | STV","players":null},{"server_id":202,"name":"Uncletopia | Hong Kong | 1 | All Maps","name_short":"hgk-1","host":"hgk-1.hk.uncletopia.com","port":27015,"enabled":true,"region":"asia","cc":"hk","latitude":22.302711,"longitude":114.177216,"reserved":0,"last_update":"0001-01-01T00:00:00Z","name_a2s":"Uncletopia | Hong Kong | 1 | All Maps","protocol":17,"map":"pl_upward","folder":"tf","game":"Team Fortress","app_id":440,"player_count":24,"max_players":24,"Bots":0,"server_type":"Dedicated","server_os":"Linux","password":true,"vac":true,"version":"7742253","steam_id":85568392924494504,"keywords":["nocrits","nodmgspread","payload","uncletopia"],"game_id":440,"stv_port":27016,"stv_name":"Uncletopia | Hong Kong | 1 | All Maps | STV","players":[{"user_id":438,"name":"MR. BUTTER","steam_id":76561198329902657,"connected_time":3289000000000,"state":"active","ping":106},{"user_id":441,"name":"CRépuscule","steam_id":76561199379223866,"connected_time":3092000000000,"state":"active","ping":80},{"user_id":476,"name":"MsD IV","steam_id":76561198059707655,"connected_time":1294000000000,"state":"active","ping":78},{"user_id":481,"name":"Kirinpon","steam_id":76561199020433535,"connected_time":1075000000000,"state":"active","ping":94},{"user_id":480,"name":"gkfhww","steam_id":76561199445694770,"connected_time":1090000000000,"state":"active","ping":135},{"user_id":487,"name":"Gregory","steam_id":76561199038664603,"connected_time":464000000000,"state":"active","ping":105},{"user_id":470,"name":"Spycrab","steam_id":76561199092021976,"connected_time":1557000000000,"state":"active","ping":59},{"user_id":468,"name":"UltraFat","steam_id":76561198253918132,"connected_time":1806000000000,"state":"active","ping":77},{"user_id":464,"name":"Gazzor","steam_id":76561199081356069,"connected_time":2166000000000,"state":"active","ping":133},{"user_id":443,"name":"juan233","steam_id":76561198867566247,"connected_time":3002000000000,"state":"active","ping":111},{"user_id":493,"name":"Windmill","steam_id":76561199230997986,"connected_time":133000000000,"state":"active","ping":76},{"user_id":491,"name":"r/leroy","steam_id":76561199137927625,"connected_time":245000000000,"state":"active","ping":137},{"user_id":484,"name":"SaltedEx","steam_id":76561198214123492,"connected_time":705000000000,"state":"active","ping":174},{"user_id":344,"name":"Rephex","steam_id":76561198308185574,"connected_time":7767000000000,"state":"active","ping":136},{"user_id":467,"name":":)","steam_id":76561198437941450,"connected_time":1975000000000,"state":"active","ping":79},{"user_id":492,"name":"Kirov airship","steam_id":76561199024960087,"connected_time":222000000000,"state":"active","ping":68},{"user_id":474,"name":"FAQ","steam_id":76561198068689092,"connected_time":1386000000000,"state":"active","ping":95},{"user_id":488,"name":"luhansen957","steam_id":76561199407984363,"connected_time":389000000000,"state":"active","ping":103},{"user_id":489,"name":"Lu","steam_id":76561198320532821,"connected_time":376000000000,"state":"active","ping":61},{"user_id":475,"name":"smount","steam_id":76561199096351431,"connected_time":1360000000000,"state":"active","ping":122},{"user_id":479,"name":"andy1010406","steam_id":76561199445524074,"connected_time":1107000000000,"state":"active","ping":82},{"user_id":490,"name":"tuxy","steam_id":76561198996816684,"connected_time":344000000000,"state":"active","ping":97},{"user_id":465,"name":"cellum95","steam_id":76561198172146871,"connected_time":2098000000000,"state":"active","ping":71},{"user_id":472,"name":"tick tock by joji","steam_id":76561198360192254,"connected_time":1530000000000,"state":"active","ping":75}]},{"server_id":1,"name":"Uncletopia | Los Angeles | 1 | All Maps","name_short":"lax-1","host":"lax-1.us.uncletopia.com","port":27015,"enabled":true,"region":"us-west","cc":"us","latitude":33.94279,"longitude":-118.41004,"reserved":0,"last_update":"0001-01-01T00:00:00Z","name_a2s":"Uncletopia | Los Angeles | 1 | All Maps","protocol":17,"map":"koth_viaduct","folder":"tf","game":"Team Fortress","app_id":440,"player_count":0,"max_players":24,"Bots":0,"server_type":"Dedicated","server_os":"Linux","password":true,"vac":true,"version":"7742253","steam_id":85568392924469991,"keywords":["cp","nocrits","nodmgspread","uncletopia"],"game_id":440,"stv_port":27016,"stv_name":"Uncletopia | Los Angeles | 1 | All Maps | STV","players":null},{"server_id":112,"name":"Uncletopia | Los Angeles | 2 | All Maps","name_short":"lax-2","host":"lax-1.us.uncletopia.com","port":27025,"enabled":true,"region":"us-west","cc":"us","latitude":33.94279,"longitude":-118.41004,"reserved":0,"last_update":"0001-01-01T00:00:00Z","name_a2s":"Uncletopia | Los Angeles | 2 | All Maps","protocol":17,"map":"koth_viaduct","folder":"tf","game":"Team Fortress","app_id":440,"player_count":0,"max_players":24,"Bots":0,"server_type":"Dedicated","server_os":"Linux","password":true,"vac":true,"version":"7742253","steam_id":85568392924469992,"keywords":["cp","nocrits","nodmgspread","uncletopia"],"game_id":440,"stv_port":27026,"stv_name":"Uncletopia | Los Angeles | 2 | All Maps | STV","players":null},{"server_id":324,"name":"Uncletopia | Los Angeles | 3 | All Maps","name_short":"lax-3","host":"lax-1.us.uncletopia.com","port":27035,"enabled":true,"region":"us-west","cc":"us","latitude":33.94279,"longitude":-118.41004,"reserved":0,"last_update":"0001-01-01T00:00:00Z","name_a2s":"Uncletopia | Los Angeles | 3 | All Maps","protocol":17,"map":"cp_altitude","folder":"tf","game":"Team Fortress","app_id":440,"player_count":0,"max_players":24,"Bots":0,"server_type":"Dedicated","server_os":"Linux","password":true,"vac":true,"version":"7742253","steam_id":85568392924510198,"keywords":["cp","nocrits","nodmgspread","uncletopia"],"game_id":440,"stv_port":27036,"stv_name":"Uncletopia | Los Angeles | 3 | All Maps | STV","players":null},{"server_id":25,"name":"Uncletopia | Los Angeles | 4 | Stopwatch Beta","name_short":"lax-4","host":"lax-1.us.uncletopia.com","port":27045,"enabled":true,"region":"us-west","cc":"us","latitude":33.94279,"longitude":-118.41004,"reserved":0,"last_update":"0001-01-01T00:00:00Z","name_a2s":"Uncletopia | Los Angeles | 4 | Stopwatch Beta","protocol":17,"map":"workshop/koth_product_final.ugc454272353","folder":"tf","game":"Team Fortress","app_id":440,"player_count":0,"max_players":24,"Bots":0,"server_type":"Dedicated","server_os":"Linux","password":true,"vac":true,"version":"7742253","steam_id":85568392924510199,"keywords":["cp","nocrits","nodmgspread","uncletopia"],"game_id":440,"stv_port":27046,"stv_name":"Uncletopia | Los Angeles | 4 | Stopwatch Beta | STV","players":null},{"server_id":11,"name":"Uncletopia | London | 1 | All Maps","name_short":"lon-1","host":"lon-1.uk.uncletopia.com","port":27015,"enabled":true,"region":"eu","cc":"gb","latitude":51.509865,"longitude":-0.118092,"reserved":0,"last_update":"0001-01-01T00:00:00Z","name_a2s":"Uncletopia | London | 1 | All Maps","protocol":17,"map":"pl_rumford_event","folder":"tf","game":"Team Fortress","app_id":440,"player_count":20,"max_players":24,"Bots":0,"server_type":"Dedicated","server_os":"Linux","password":true,"vac":true,"version":"7742253","steam_id":85568392924367362,"keywords":["nocrits","nodmgspread","payload","uncletopia"],"game_id":440,"stv_port":27016,"stv_name":"Uncletopia | London | 1 | All Maps | STV","players":[{"user_id":80,"name":"nemśs","steam_id":76561198134203031,"connected_time":134000000000,"state":"active","ping":67},{"user_id":57,"name":"aaron","steam_id":76561198090143282,"connected_time":1242000000000,"state":"active","ping":70},{"user_id":73,"name":"ivanmixo","steam_id":76561198160213989,"connected_time":387000000000,"state":"active","ping":72},{"user_id":75,"name":"jovi_","steam_id":76561198449280552,"connected_time":301000000000,"state":"active","ping":49},{"user_id":74,"name":"Avedist","steam_id":76561198037236130,"connected_time":361000000000,"state":"active","ping":86},{"user_id":69,"name":"silicon based life form","steam_id":76561199127121346,"connected_time":854000000000,"state":"active","ping":48},{"user_id":65,"name":"Echo of Abyss","steam_id":76561198981841782,"connected_time":1025000000000,"state":"active","ping":75},{"user_id":82,"name":"André","steam_id":76561198848885591,"connected_time":23000000000,"state":"spawning","ping":89},{"user_id":16,"name":"sigma female","steam_id":76561198298576765,"connected_time":2749000000000,"state":"active","ping":60},{"user_id":17,"name":"lant420","steam_id":76561198206673920,"connected_time":2597000000000,"state":"active","ping":94},{"user_id":27,"name":"Syd","steam_id":76561198020515027,"connected_time":2248000000000,"state":"active","ping":72},{"user_id":76,"name":"Hetmanych","steam_id":76561198870926865,"connected_time":252000000000,"state":"active","ping":33},{"user_id":23,"name":"Мы с Украиной","steam_id":76561198022402155,"connected_time":2374000000000,"state":"active","ping":42},{"user_id":61,"name":"Jaxonfogcap","steam_id":76561198327688357,"connected_time":1113000000000,"state":"active","ping":47},{"user_id":77,"name":"greg's mom","steam_id":76561198050525471,"connected_time":245000000000,"state":"active","ping":72},{"user_id":29,"name":"D-boi","steam_id":76561199001837576,"connected_time":2188000000000,"state":"active","ping":55},{"user_id":78,"name":"the ebic gamner","steam_id":76561199220801849,"connected_time":197000000000,"state":"active","ping":61},{"user_id":79,"name":"Cillian","steam_id":76561199046965320,"connected_time":180000000000,"state":"active","ping":70},{"user_id":41,"name":"Dark ^^","steam_id":76561198036241064,"connected_time":1824000000000,"state":"active","ping":73},{"user_id":42,"name":"テイルス","steam_id":76561198022403271,"connected_time":1806000000000,"state":"active","ping":58}]},{"server_id":114,"name":"Uncletopia | London | 2 | All Maps","name_short":"lon-2","host":"lon-1.uk.uncletopia.com","port":27025,"enabled":true,"region":"eu","cc":"gb","latitude":51.509865,"longitude":-0.118092,"reserved":0,"last_update":"0001-01-01T00:00:00Z","name_a2s":"Uncletopia | London | 2 | All Maps","protocol":17,"map":"pl_borneo","folder":"tf","game":"Team Fortress","app_id":440,"player_count":0,"max_players":24,"Bots":0,"server_type":"Dedicated","server_os":"Linux","password":true,"vac":true,"version":"7742253","steam_id":85568392924470941,"keywords":["nocrits","nodmgspread","payload","uncletopia"],"game_id":440,"stv_port":27026,"stv_name":"Uncletopia | London | 2 | All Maps | STV","players":null},{"server_id":320,"name":"Uncletopia | London | 3 | All Maps","name_short":"lon-3","host":"lon-1.uk.uncletopia.com","port":27035,"enabled":true,"region":"eu","cc":"gb","latitude":51.509865,"longitude":-0.118092,"reserved":0,"last_update":"0001-01-01T00:00:00Z","name_a2s":"Uncletopia | London | 3 | All Maps","protocol":17,"map":"pl_thundermountain","folder":"tf","game":"Team Fortress","app_id":440,"player_count":23,"max_players":24,"Bots":0,"server_type":"Dedicated","server_os":"Linux","password":true,"vac":true,"version":"7742253","steam_id":85568392924510192,"keywords":["nocrits","nodmgspread","payload","uncletopia"],"game_id":440,"stv_port":27036,"stv_name":"Uncletopia | London | 3 | All Maps | STV","players":[{"user_id":97,"name":"Lemmy","steam_id":76561199038870751,"connected_time":12314000000000,"state":"active","ping":64},{"user_id":274,"name":"Polaris","steam_id":76561198007076931,"connected_time":66000000000,"state":"active","ping":57},{"user_id":251,"name":"Akira Yamaoka Fan","steam_id":76561198146194820,"connected_time":1691000000000,"state":"active","ping":55},{"user_id":255,"name":"askulap","steam_id":76561197992018795,"connected_time":1585000000000,"state":"active","ping":76},{"user_id":261,"name":"Virgil","steam_id":76561198248786778,"connected_time":672000000000,"state":"active","ping":118},{"user_id":271,"name":"dafydd","steam_id":76561198052200325,"connected_time":315000000000,"state":"active","ping":87},{"user_id":272,"name":"Yassine","steam_id":76561198140565712,"connected_time":226000000000,"state":"active","ping":51},{"user_id":275,"name":"doodgie","steam_id":76561198264934115,"connected_time":36000000000,"state":"active","ping":49},{"user_id":258,"name":"Mr. Potato the 11th","steam_id":76561198163246758,"connected_time":1283000000000,"state":"active","ping":56},{"user_id":220,"name":"tactical783","steam_id":76561199051688560,"connected_time":3657000000000,"state":"active","ping":63},{"user_id":239,"name":"Barely Sentient","steam_id":76561198143305625,"connected_time":2282000000000,"state":"active","ping":80},{"user_id":210,"name":"JGV","steam_id":76561198094654971,"connected_time":4512000000000,"state":"active","ping":69},{"user_id":231,"name":"SlonkyDonky","steam_id":76561198425787528,"connected_time":2859000000000,"state":"active","ping":50},{"user_id":259,"name":"Tort","steam_id":76561198329646769,"connected_time":1122000000000,"state":"active","ping":50},{"user_id":38,"name":"Noodle","steam_id":76561197997208006,"connected_time":17535000000000,"state":"active","ping":60},{"user_id":264,"name":"drew","steam_id":76561198012304706,"connected_time":603000000000,"state":"active","ping":105},{"user_id":265,"name":"l33t h4x0r","steam_id":76561198392255493,"connected_time":603000000000,"state":"active","ping":184},{"user_id":256,"name":"zigi☂","steam_id":76561198113209142,"connected_time":1578000000000,"state":"active","ping":88},{"user_id":268,"name":"Bumblebee","steam_id":76561198033551105,"connected_time":455000000000,"state":"active","ping":68},{"user_id":247,"name":"Economic crisis","steam_id":76561198063562843,"connected_time":1800000000000,"state":"active","ping":63},{"user_id":216,"name":"UnknownTM","steam_id":76561198262728330,"connected_time":3974000000000,"state":"active","ping":72},{"user_id":64,"name":"catboy trickster","steam_id":76561198075665211,"connected_time":15750000000000,"state":"active","ping":42},{"user_id":182,"name":"nobody","steam_id":76561198180637374,"connected_time":6315000000000,"state":"active","ping":89}]},{"server_id":321,"name":"Uncletopia | London | 4 | All Maps","name_short":"lon-4","host":"lon-1.uk.uncletopia.com","port":27045,"enabled":true,"region":"eu","cc":"gb","latitude":51.509865,"longitude":-0.118092,"reserved":0,"last_update":"0001-01-01T00:00:00Z","name_a2s":"Uncletopia | London | 4 | All Maps","protocol":17,"map":"koth_highpass","folder":"tf","game":"Team Fortress","app_id":440,"player_count":0,"max_players":24,"Bots":0,"server_type":"Dedicated","server_os":"Linux","password":true,"vac":true,"version":"7742253","steam_id":85568392924510193,"keywords":["cp","nocrits","nodmgspread","uncletopia"],"game_id":440,"stv_port":27046,"stv_name":"Uncletopia | London | 4 | All Maps | STV","players":null},{"server_id":21,"name":"Uncletopia | London | 5 | All Maps","name_short":"lon-5","host":"lon-1.uk.uncletopia.com","port":27055,"enabled":true,"region":"eu","cc":"gb","latitude":51.509865,"longitude":-0.118092,"reserved":0,"last_update":"0001-01-01T00:00:00Z","name_a2s":"Uncletopia | London | 5 | All Maps","protocol":17,"map":"pl_upward","folder":"tf","game":"Team Fortress","app_id":440,"player_count":24,"max_players":24,"Bots":0,"server_type":"Dedicated","server_os":"Linux","password":true,"vac":true,"version":"7742253","steam_id":85568392924742829,"keywords":["nocrits","nodmgspread","payload","uncletopia"],"game_id":440,"stv_port":27056,"stv_name":"Uncletopia | London | 5 | All Maps | STV","players":[{"user_id":167,"name":"Umbro","steam_id":76561198087930438,"connected_time":76000000000,"state":"active","ping":78},{"user_id":168,"name":"banrab","steam_id":76561198083615367,"connected_time":68000000000,"state":"active","ping":36},{"user_id":161,"name":"poliakov.noam","steam_id":76561199259322961,"connected_time":484000000000,"state":"active","ping":100},{"user_id":164,"name":"Trash Bandicoot","steam_id":76561198127596400,"connected_time":281000000000,"state":"active","ping":67},{"user_id":169,"name":"dems","steam_id":76561198122546674,"connected_time":56000000000,"state":"active","ping":48},{"user_id":81,"name":"dorthyhy","steam_id":76561198062578399,"connected_time":5681000000000,"state":"active","ping":57},{"user_id":165,"name":"Chris Chan (real)","steam_id":76561199005562645,"connected_time":259000000000,"state":"active","ping":82},{"user_id":148,"name":"AndroKing","steam_id":76561198840591678,"connected_time":1174000000000,"state":"active","ping":77},{"user_id":128,"name":"Legal Helpy","steam_id":76561198399334453,"connected_time":1709000000000,"state":"active","ping":155},{"user_id":151,"name":"Mr.Jello ^-^","steam_id":76561198043681892,"connected_time":996000000000,"state":"active","ping":89},{"user_id":158,"name":"Krof enjoyer","steam_id":76561199101777637,"connected_time":545000000000,"state":"active","ping":81},{"user_id":134,"name":"Dan1el Gam1ng","steam_id":76561198970762992,"connected_time":1507000000000,"state":"active","ping":70},{"user_id":149,"name":"Videogamer","steam_id":76561198106012909,"connected_time":1118000000000,"state":"active","ping":69},{"user_id":152,"name":"weed fairy","steam_id":76561197998843096,"connected_time":921000000000,"state":"active","ping":76},{"user_id":159,"name":"Tmpod","steam_id":76561198069210431,"connected_time":502000000000,"state":"active","ping":63},{"user_id":160,"name":".::[SerafeTTiN]::.","steam_id":76561198009471724,"connected_time":497000000000,"state":"active","ping":103},{"user_id":140,"name":"tf2 gaming","steam_id":76561199406973770,"connected_time":1409000000000,"state":"active","ping":50},{"user_id":166,"name":"alienndrago #saveTF2","steam_id":76561198815566591,"connected_time":225000000000,"state":"active","ping":60},{"user_id":68,"name":"Welder","steam_id":76561198355300561,"connected_time":6508000000000,"state":"active","ping":73},{"user_id":163,"name":".thr0ne","steam_id":76561197995260178,"connected_time":387000000000,"state":"active","ping":47},{"user_id":136,"name":"duster cat","steam_id":76561198832231975,"connected_time":1468000000000,"state":"active","ping":98},{"user_id":115,"name":"G/3","steam_id":76561198234844188,"connected_time":3222000000000,"state":"active","ping":54},{"user_id":146,"name":"Cosimo","steam_id":76561198355804096,"connected_time":1284000000000,"state":"active","ping":75},{"user_id":137,"name":"potestas subversae","steam_id":76561198417999443,"connected_time":1467000000000,"state":"active","ping":107}]},{"server_id":22,"name":"Uncletopia | London | 6 | All Maps","name_short":"lon-6","host":"lon-1.uk.uncletopia.com","port":27065,"enabled":true,"region":"eu","cc":"gb","latitude":51.509865,"longitude":-0.118092,"reserved":0,"last_update":"0001-01-01T00:00:00Z","name_a2s":"Uncletopia | London | 6 | All Maps","protocol":17,"map":"pl_borneo","folder":"tf","game":"Team Fortress","app_id":440,"player_count":0,"max_players":24,"Bots":0,"server_type":"Dedicated","server_os":"Linux","password":true,"vac":true,"version":"7742253","steam_id":85568392924742830,"keywords":["nocrits","nodmgspread","payload","uncletopia"],"game_id":440,"stv_port":27066,"stv_name":"Uncletopia | London | 6 | All Maps | STV","players":null},{"server_id":40,"name":"Uncletopia | London | 7 | No Payload","name_short":"lon-7","host":"lon-1.uk.uncletopia.com","port":27075,"enabled":true,"region":"eu","cc":"gb","latitude":51.509865,"longitude":-0.118092,"reserved":0,"last_update":"0001-01-01T00:00:00Z","name_a2s":"Uncletopia | London | 7 | No Payload","protocol":17,"map":"koth_viaduct","folder":"tf","game":"Team Fortress","app_id":440,"player_count":0,"max_players":24,"Bots":0,"server_type":"Dedicated","server_os":"Linux","password":true,"vac":true,"version":"7742253","steam_id":85568392924964314,"keywords":["cp","nocrits","nodmgspread","uncletopia"],"game_id":440,"stv_port":27076,"stv_name":"Uncletopia | London | 7 | No Payload | STV","players":null},{"server_id":41,"name":"Uncletopia | London | 8 | Community","name_short":"lon-8","host":"lon-1.uk.uncletopia.com","port":27085,"enabled":true,"region":"eu","cc":"gb","latitude":51.509865,"longitude":-0.118092,"reserved":0,"last_update":"0001-01-01T00:00:00Z","name_a2s":"Uncletopia | London | 8 | Community","protocol":17,"map":"cp_altitude","folder":"tf","game":"Team Fortress","app_id":440,"player_count":0,"max_players":24,"Bots":0,"server_type":"Dedicated","server_os":"Linux","password":true,"vac":true,"version":"7742253","steam_id":85568392924964315,"keywords":["cp","nocrits","nodmgspread","uncletopia"],"game_id":440,"stv_port":27086,"stv_name":"Uncletopia | London | 8 | Community | STV","players":null},{"server_id":300,"name":"Uncletopia | Montréal | 1 | All Maps","name_short":"mtl-1","host":"mtl-1.ca.uncletopia.com","port":27015,"enabled":true,"region":"us-east","cc":"ca","latitude":45.50889,"longitude":-73.56167,"reserved":0,"last_update":"0001-01-01T00:00:00Z","name_a2s":"Uncletopia | Montréal | 1 | All Maps","protocol":17,"map":"cp_snakewater_final1","folder":"tf","game":"Team Fortress","app_id":440,"player_count":0,"max_players":24,"Bots":0,"server_type":"Dedicated","server_os":"Linux","password":true,"vac":true,"version":"7742253","steam_id":85568392924500087,"keywords":["cp","nocrits","nodmgspread","uncletopia"],"game_id":440,"stv_port":27016,"stv_name":"Uncletopia | Montréal | 1 | All Maps | STV","players":null},{"server_id":301,"name":"Uncletopia | Montréal | 2 | All Maps","name_short":"mtl-2","host":"mtl-1.ca.uncletopia.com","port":27025,"enabled":true,"region":"us-east","cc":"ca","latitude":45.50889,"longitude":-73.56167,"reserved":0,"last_update":"0001-01-01T00:00:00Z","name_a2s":"Uncletopia | Montréal | 2 | All Maps","protocol":17,"map":"koth_highpass","folder":"tf","game":"Team Fortress","app_id":440,"player_count":0,"max_players":24,"Bots":0,"server_type":"Dedicated","server_os":"Linux","password":true,"vac":true,"version":"7742253","steam_id":85568392924500088,"keywords":["cp","nocrits","nodmgspread","uncletopia"],"game_id":440,"stv_port":27026,"stv_name":"Uncletopia | Montréal | 2 | All Maps | STV","players":null},{"server_id":302,"name":"Uncletopia | Montréal | 3 | All Maps","name_short":"mtl-3","host":"mtl-1.ca.uncletopia.com","port":27035,"enabled":true,"region":"us-east","cc":"ca","latitude":45.50889,"longitude":-73.56167,"reserved":0,"last_update":"0001-01-01T00:00:00Z","name_a2s":"Uncletopia | Montréal | 3 | All Maps","protocol":17,"map":"cp_mountainlab","folder":"tf","game":"Team Fortress","app_id":440,"player_count":0,"max_players":24,"Bots":0,"server_type":"Dedicated","server_os":"Linux","password":true,"vac":true,"version":"7742253","steam_id":85568392924500089,"keywords":["cp","nocrits","nodmgspread","uncletopia"],"game_id":440,"stv_port":27036,"stv_name":"Uncletopia | Montréal | 3 | All Maps | STV","players":null},{"server_id":303,"name":"Uncletopia | Montréal | 4 | No Payload","name_short":"mtl-4","host":"mtl-1.ca.uncletopia.com","port":27045,"enabled":true,"region":"us-east","cc":"ca","latitude":45.50889,"longitude":-73.56167,"reserved":0,"last_update":"0001-01-01T00:00:00Z","name_a2s":"Uncletopia | Montréal | 4 | No Payload","protocol":17,"map":"cp_snakewater_final1","folder":"tf","game":"Team Fortress","app_id":440,"player_count":0,"max_players":24,"Bots":0,"server_type":"Dedicated","server_os":"Linux","password":true,"vac":true,"version":"7742253","steam_id":85568392924500090,"keywords":["cp","nocrits","nodmgspread","uncletopia"],"game_id":440,"stv_port":27046,"stv_name":"Uncletopia | Montréal | 4 | No Payload | STV","players":null},{"server_id":13,"name":"Uncletopia | New York City | 1 | All Maps","name_short":"nyc-1","host":"nyc-1.us.uncletopia.com","port":27015,"enabled":true,"region":"us-east","cc":"us","latitude":40.73061,"longitude":-73.93524,"reserved":0,"last_update":"0001-01-01T00:00:00Z","name_a2s":"Uncletopia | New York City | 1 | All Maps","protocol":17,"map":"cp_mountainlab","folder":"tf","game":"Team Fortress","app_id":440,"player_count":0,"max_players":24,"Bots":0,"server_type":"Dedicated","server_os":"Linux","password":true,"vac":true,"version":"7742253","steam_id":85568392924469993,"keywords":["cp","nocrits","nodmgspread","uncletopia"],"game_id":440,"stv_port":27016,"stv_name":"Uncletopia | New York City | 1 | All Maps | STV","players":null},{"server_id":14,"name":"Uncletopia | New York City | 2 | All Maps","name_short":"nyc-2","host":"nyc-1.us.uncletopia.com","port":27025,"enabled":true,"region":"us-east","cc":"us","latitude":40.73061,"longitude":-73.93524,"reserved":0,"last_update":"0001-01-01T00:00:00Z","name_a2s":"Uncletopia | New York City | 2 | All Maps","protocol":17,"map":"cp_altitude","folder":"tf","game":"Team Fortress","app_id":440,"player_count":0,"max_players":24,"Bots":0,"server_type":"Dedicated","server_os":"Linux","password":true,"vac":true,"version":"7742253","steam_id":85568392924469994,"keywords":["cp","nocrits","nodmgspread","uncletopia"],"game_id":440,"stv_port":27026,"stv_name":"Uncletopia | New York City | 2 | All Maps | STV","players":null},{"server_id":15,"name":"Uncletopia | New York City | 3 | Stopwatch Beta","name_short":"nyc-3","host":"nyc-1.us.uncletopia.com","port":27035,"enabled":true,"region":"us-east","cc":"us","latitude":40.73061,"longitude":-73.93524,"reserved":0,"last_update":"0001-01-01T00:00:00Z","name_a2s":"Uncletopia | New York City | 3 | Stopwatch Beta","protocol":17,"map":"pl_pier","folder":"tf","game":"Team Fortress","app_id":440,"player_count":0,"max_players":24,"Bots":0,"server_type":"Dedicated","server_os":"Linux","password":true,"vac":true,"version":"7742253","steam_id":85568392924742820,"keywords":["nocrits","nodmgspread","payload","uncletopia"],"game_id":440,"stv_port":27036,"stv_name":"Uncletopia | New York City | 3 | Stopwatch Beta | STV","players":null},{"server_id":16,"name":"Uncletopia | New York City | 4 | Community","name_short":"nyc-4","host":"nyc-1.us.uncletopia.com","port":27045,"enabled":true,"region":"us-east","cc":"us","latitude":40.73061,"longitude":-73.93524,"reserved":0,"last_update":"0001-01-01T00:00:00Z","name_a2s":"Uncletopia | New York City | 4 | Community","protocol":17,"map":"koth_viaduct","folder":"tf","game":"Team Fortress","app_id":440,"player_count":0,"max_players":24,"Bots":0,"server_type":"Dedicated","server_os":"Linux","password":true,"vac":true,"version":"7742253","steam_id":85568392924742821,"keywords":["cp","nocrits","nodmgspread","uncletopia"],"game_id":440,"stv_port":27046,"stv_name":"Uncletopia | New York City | 4 | Community | STV","players":null},{"server_id":142,"name":"Uncletopia | São Paulo | 1 | All Maps","name_short":"sao-1","host":"sao-1.br.uncletopia.com","port":27015,"enabled":true,"region":"sa","cc":"br","latitude":-23.533773,"longitude":-46.62529,"reserved":0,"last_update":"0001-01-01T00:00:00Z","name_a2s":"Uncletopia | São Paulo | 1 | All Maps","protocol":17,"map":"koth_viaduct","folder":"tf","game":"Team Fortress","app_id":440,"player_count":0,"max_players":24,"Bots":0,"server_type":"Dedicated","server_os":"Linux","password":true,"vac":true,"version":"7742253","steam_id":85568392924469996,"keywords":["cp","nocrits","nodmgspread","uncletopia"],"game_id":440,"stv_port":27016,"stv_name":"Uncletopia | São Paulo | 1 | All Maps | STV","players":null},{"server_id":143,"name":"Uncletopia | São Paulo | 2 | All Maps","name_short":"sao-2","host":"sao-2.br.uncletopia.com","port":27015,"enabled":true,"region":"sa","cc":"br","latitude":-23.533773,"longitude":-46.62529,"reserved":0,"last_update":"0001-01-01T00:00:00Z","name_a2s":"Uncletopia | São Paulo | 2 | All Maps","protocol":17,"map":"koth_viaduct","folder":"tf","game":"Team Fortress","app_id":440,"player_count":0,"max_players":24,"Bots":0,"server_type":"Dedicated","server_os":"Linux","password":true,"vac":true,"version":"7742253","steam_id":85568392924485349,"keywords":["cp","nocrits","nodmgspread","uncletopia"],"game_id":440,"stv_port":27016,"stv_name":"Uncletopia | São Paulo | 2 | All Maps | STV","players":null},{"server_id":7,"name":"Uncletopia | Seattle | 1 | All Maps","name_short":"sea-1","host":"sea-1.us.uncletopia.com","port":27015,"enabled":true,"region":"us-west","cc":"us","latitude":47.608013,"longitude":-122.33517,"reserved":0,"last_update":"0001-01-01T00:00:00Z","name_a2s":"Uncletopia | Seattle | 1 | All Maps","protocol":17,"map":"pl_thundermountain","folder":"tf","game":"Team Fortress","app_id":440,"player_count":12,"max_players":24,"Bots":0,"server_type":"Dedicated","server_os":"Linux","password":true,"vac":true,"version":"7742253","steam_id":85568392924469997,"keywords":["nocrits","nodmgspread","payload","uncletopia"],"game_id":440,"stv_port":27016,"stv_name":"Uncletopia | Seattle | 1 | All Maps | STV","players":[{"user_id":783,"name":"Hermit not Kermit","steam_id":76561198106182525,"connected_time":2578000000000,"state":"active","ping":54},{"user_id":807,"name":"Lambda","steam_id":76561198353587576,"connected_time":408000000000,"state":"active","ping":45},{"user_id":808,"name":"viedoamegs","steam_id":76561198025295263,"connected_time":377000000000,"state":"active","ping":108},{"user_id":805,"name":"The Stankyleg","steam_id":76561198805304716,"connected_time":735000000000,"state":"active","ping":56},{"user_id":809,"name":"Coronel Crunch","steam_id":76561198238862182,"connected_time":306000000000,"state":"active","ping":720},{"user_id":776,"name":"Amogous Supreme","steam_id":76561198025476774,"connected_time":3782000000000,"state":"active","ping":65},{"user_id":780,"name":"TurboRaspberry","steam_id":76561199215360629,"connected_time":2924000000000,"state":"active","ping":39},{"user_id":790,"name":"tntmanbook","steam_id":76561199199630272,"connected_time":2007000000000,"state":"active","ping":105},{"user_id":750,"name":"rat gets the cheese","steam_id":76561198031234032,"connected_time":6524000000000,"state":"active","ping":92},{"user_id":796,"name":"Vem","steam_id":76561198117273112,"connected_time":1256000000000,"state":"active","ping":112},{"user_id":781,"name":"Kirbothebrony","steam_id":76561198971911330,"connected_time":2591000000000,"state":"active","ping":115},{"user_id":799,"name":"dr. perky","steam_id":76561198070214668,"connected_time":1138000000000,"state":"active","ping":73}]},{"server_id":119,"name":"Uncletopia | Seattle | 2 | All Maps","name_short":"sea-2","host":"sea-1.us.uncletopia.com","port":27025,"enabled":true,"region":"us-west","cc":"us","latitude":47.608013,"longitude":-122.33517,"reserved":0,"last_update":"0001-01-01T00:00:00Z","name_a2s":"Uncletopia | Seattle | 2 | All Maps","protocol":17,"map":"koth_highpass","folder":"tf","game":"Team Fortress","app_id":440,"player_count":0,"max_players":24,"Bots":0,"server_type":"Dedicated","server_os":"Linux","password":true,"vac":true,"version":"7742253","steam_id":85568392924469998,"keywords":["cp","nocrits","nodmgspread","uncletopia"],"game_id":440,"stv_port":27026,"stv_name":"Uncletopia | Seattle | 2 | All Maps | STV","players":null},{"server_id":406,"name":"Uncletopia | Seattle | 3 | Stopwatch Beta","name_short":"sea-3","host":"sea-1.us.uncletopia.com","port":27035,"enabled":true,"region":"us-west","cc":"us","latitude":47.608013,"longitude":-122.33517,"reserved":0,"last_update":"0001-01-01T00:00:00Z","name_a2s":"Uncletopia | Seattle | 3 | Stopwatch Beta","protocol":17,"map":"pl_borneo","folder":"tf","game":"Team Fortress","app_id":440,"player_count":0,"max_players":24,"Bots":0,"server_type":"Dedicated","server_os":"Linux","password":true,"vac":true,"version":"7742253","steam_id":85568392924515217,"keywords":["nocrits","nodmgspread","payload","uncletopia"],"game_id":440,"stv_port":27036,"stv_name":"Uncletopia | Seattle | 3 | Stopwatch Beta | STV","players":null},{"server_id":17,"name":"Uncletopia | San Francisco | 1 | All Maps","name_short":"sfo-1","host":"sfo-1.us.uncletopia.com","port":27015,"enabled":true,"region":"us-west","cc":"us","latitude":37.77397,"longitude":-122.4313,"reserved":0,"last_update":"0001-01-01T00:00:00Z","name_a2s":"Uncletopia | San Francisco | 1 | All Maps","protocol":17,"map":"koth_highpass","folder":"tf","game":"Team Fortress","app_id":440,"player_count":0,"max_players":24,"Bots":0,"server_type":"Dedicated","server_os":"Linux","password":true,"vac":true,"version":"7742253","steam_id":85568392924469999,"keywords":["cp","nocrits","nodmgspread","uncletopia"],"game_id":440,"stv_port":27016,"stv_name":"Uncletopia | San Francisco | 1 | All Maps | STV","players":null},{"server_id":18,"name":"Uncletopia | San Francisco | 2 | All Maps","name_short":"sfo-2","host":"sfo-1.us.uncletopia.com","port":27025,"enabled":true,"region":"us-west","cc":"us","latitude":37.77397,"longitude":-122.4313,"reserved":0,"last_update":"0001-01-01T00:00:00Z","name_a2s":"Uncletopia | San Francisco | 2 | All Maps","protocol":17,"map":"koth_lakeside_final","folder":"tf","game":"Team Fortress","app_id":440,"player_count":0,"max_players":24,"Bots":0,"server_type":"Dedicated","server_os":"Linux","password":true,"vac":true,"version":"7742253","steam_id":85568392924470000,"keywords":["cp","nocrits","nodmgspread","uncletopia"],"game_id":440,"stv_port":27026,"stv_name":"Uncletopia | San Francisco | 2 | All Maps | STV","players":null},{"server_id":19,"name":"Uncletopia | San Francisco | 3 | Stopwatch Beta","name_short":"sfo-3","host":"sfo-1.us.uncletopia.com","port":27035,"enabled":true,"region":"us-west","cc":"us","latitude":37.77397,"longitude":-122.4313,"reserved":0,"last_update":"0001-01-01T00:00:00Z","name_a2s":"Uncletopia | San Francisco | 3 | Stopwatch Beta","protocol":17,"map":"workshop/cp_process_f11.ugc2302948105","folder":"tf","game":"Team Fortress","app_id":440,"player_count":0,"max_players":24,"Bots":0,"server_type":"Dedicated","server_os":"Linux","password":true,"vac":true,"version":"7742253","steam_id":85568392924742824,"keywords":["cp","nocrits","nodmgspread","uncletopia"],"game_id":440,"stv_port":27036,"stv_name":"Uncletopia | San Francisco | 3 | Stopwatch Beta | STV","players":null},{"server_id":20,"name":"Uncletopia | San Francisco | 4 | Community","name_short":"sfo-4","host":"sfo-1.us.uncletopia.com","port":27045,"enabled":true,"region":"us-west","cc":"us","latitude":37.77397,"longitude":-122.4313,"reserved":0,"last_update":"0001-01-01T00:00:00Z","name_a2s":"Uncletopia | San Francisco | 4 | Community","protocol":17,"map":"workshop/koth_slaughter_rc1.ugc1712845210","folder":"tf","game":"Team Fortress","app_id":440,"player_count":0,"max_players":24,"Bots":0,"server_type":"Dedicated","server_os":"Linux","password":true,"vac":true,"version":"7742253","steam_id":85568392924742826,"keywords":["cp","nocrits","nodmgspread","uncletopia"],"game_id":440,"stv_port":27046,"stv_name":"Uncletopia | San Francisco | 4 | Community | STV","players":null},{"server_id":141,"name":"Uncletopia | Sydney | 1 | All Maps","name_short":"syd-1","host":"syd-1.au.uncletopia.com","port":27015,"enabled":true,"region":"au","cc":"au","latitude":-33.865143,"longitude":151.2099,"reserved":0,"last_update":"0001-01-01T00:00:00Z","name_a2s":"Uncletopia | Sydney | 1 | All Maps","protocol":17,"map":"pl_badwater","folder":"tf","game":"Team Fortress","app_id":440,"player_count":24,"max_players":24,"Bots":0,"server_type":"Dedicated","server_os":"Linux","password":true,"vac":true,"version":"7742253","steam_id":85568392924470001,"keywords":["nocrits","nodmgspread","payload","uncletopia"],"game_id":440,"stv_port":27016,"stv_name":"Uncletopia | Sydney | 1 | All Maps | STV","players":[{"user_id":757,"name":"Van","steam_id":76561198027324852,"connected_time":456000000000,"state":"active","ping":79},{"user_id":748,"name":"April","steam_id":76561198848287180,"connected_time":1156000000000,"state":"active","ping":48},{"user_id":739,"name":"Coffee","steam_id":76561198072414195,"connected_time":2031000000000,"state":"active","ping":84},{"user_id":750,"name":"ben","steam_id":76561198223331996,"connected_time":1132000000000,"state":"active","ping":60},{"user_id":732,"name":"Hawk","steam_id":76561198135164277,"connected_time":2319000000000,"state":"active","ping":50},{"user_id":755,"name":"z","steam_id":76561198302670452,"connected_time":570000000000,"state":"active","ping":65},{"user_id":752,"name":"Space","steam_id":76561198311911966,"connected_time":935000000000,"state":"active","ping":66},{"user_id":682,"name":"ุbifcheg","steam_id":76561198319806610,"connected_time":6830000000000,"state":"active","ping":60},{"user_id":751,"name":"Easel (any/all)","steam_id":76561198049213583,"connected_time":1130000000000,"state":"active","ping":61},{"user_id":763,"name":"SkoKiE","steam_id":76561198283542986,"connected_time":108000000000,"state":"active","ping":60},{"user_id":706,"name":"Pug","steam_id":76561198136794372,"connected_time":5431000000000,"state":"active","ping":50},{"user_id":735,"name":"Le'Carpetron Javarius Dunkincru","steam_id":76561198383642609,"connected_time":2249000000000,"state":"active","ping":71},{"user_id":728,"name":"boop ♥","steam_id":76561198104096149,"connected_time":2708000000000,"state":"active","ping":55},{"user_id":758,"name":"Phantom Postman","steam_id":76561198075252643,"connected_time":329000000000,"state":"active","ping":66},{"user_id":749,"name":"Shellface","steam_id":76561198060024776,"connected_time":1153000000000,"state":"active","ping":48},{"user_id":747,"name":"ᴉɯɯᴉp","steam_id":76561198038225943,"connected_time":1301000000000,"state":"active","ping":57},{"user_id":610,"name":"LightningBlock","steam_id":76561198289997742,"connected_time":11365000000000,"state":"active","ping":33},{"user_id":725,"name":"bluehat","steam_id":76561198355125370,"connected_time":3776000000000,"state":"active","ping":45},{"user_id":737,"name":"Pormpf Spimperton","steam_id":76561198880883788,"connected_time":2183000000000,"state":"active","ping":107},{"user_id":760,"name":"Genuline","steam_id":76561198126426787,"connected_time":143000000000,"state":"active","ping":48},{"user_id":756,"name":"Rizeo","steam_id":76561198147901488,"connected_time":570000000000,"state":"active","ping":65},{"user_id":742,"name":"Power from Chainsaw Man","steam_id":76561198136583999,"connected_time":1734000000000,"state":"active","ping":65},{"user_id":746,"name":"Wrap the Pufferfish in Alfoil","steam_id":76561199369157609,"connected_time":1553000000000,"state":"active","ping":57},{"user_id":762,"name":"pilot","steam_id":76561198057368586,"connected_time":140000000000,"state":"active","ping":60}]},{"server_id":123,"name":"Uncletopia | Sydney | 2 | All Maps","name_short":"syd-2","host":"syd-1.au.uncletopia.com","port":27025,"enabled":true,"region":"au","cc":"au","latitude":-33.865143,"longitude":151.2099,"reserved":0,"last_update":"0001-01-01T00:00:00Z","name_a2s":"Uncletopia | Sydney | 2 | All Maps","protocol":17,"map":"pl_pier","folder":"tf","game":"Team Fortress","app_id":440,"player_count":11,"max_players":24,"Bots":0,"server_type":"Dedicated","server_os":"Linux","password":true,"vac":true,"version":"7742253","steam_id":85568392924470002,"keywords":["nocrits","nodmgspread","payload","uncletopia"],"game_id":440,"stv_port":27026,"stv_name":"Uncletopia | Sydney | 2 | All Maps | STV","players":[{"user_id":540,"name":"CabboCoio","steam_id":76561198935946144,"connected_time":202000000000,"state":"active","ping":331},{"user_id":522,"name":"HAND BANANA","steam_id":76561197960279341,"connected_time":927000000000,"state":"active","ping":54},{"user_id":532,"name":"cimpact","steam_id":76561198452258917,"connected_time":636000000000,"state":"active","ping":133},{"user_id":541,"name":"Mr.Deathclaw","steam_id":76561198025419320,"connected_time":198000000000,"state":"active","ping":43},{"user_id":535,"name":"Kdav","steam_id":76561198164866408,"connected_time":485000000000,"state":"active","ping":48},{"user_id":536,"name":"immense","steam_id":76561198083470176,"connected_time":454000000000,"state":"active","ping":88},{"user_id":501,"name":"҂Storm","steam_id":76561198073213264,"connected_time":3071000000000,"state":"active","ping":47},{"user_id":513,"name":"Griffin","steam_id":76561198024926514,"connected_time":1896000000000,"state":"active","ping":83},{"user_id":539,"name":"pigeonpumper1991","steam_id":76561197985197292,"connected_time":416000000000,"state":"active","ping":46},{"user_id":528,"name":"clun","steam_id":76561198233235680,"connected_time":801000000000,"state":"active","ping":47},{"user_id":514,"name":"Seagate","steam_id":76561198053796020,"connected_time":1282000000000,"state":"active","ping":54}]},{"server_id":395,"name":"Uncletopia | Sydney | 3 | All Maps","name_short":"syd-3","host":"syd-1.au.uncletopia.com","port":27035,"enabled":true,"region":"au","cc":"au","latitude":-33.865143,"longitude":151.2099,"reserved":0,"last_update":"0001-01-01T00:00:00Z","name_a2s":"Uncletopia | Sydney | 3 | All Maps","protocol":17,"map":"pl_borneo","folder":"tf","game":"Team Fortress","app_id":440,"player_count":6,"max_players":24,"Bots":0,"server_type":"Dedicated","server_os":"Linux","password":true,"vac":true,"version":"7742253","steam_id":85568392925194467,"keywords":["nocrits","nodmgspread","payload","uncletopia"],"game_id":440,"stv_port":27036,"stv_name":"Uncletopia | Sydney | 3 | All Maps | STV","players":[{"user_id":45,"name":"Jr","steam_id":76561198199309913,"connected_time":143000000000,"state":"active","ping":44},{"user_id":39,"name":"MayorSeb","steam_id":76561197996456885,"connected_time":1830000000000,"state":"active","ping":61},{"user_id":33,"name":"Branko [Server DJ]","steam_id":76561199262196710,"connected_time":3071000000000,"state":"active","ping":41},{"user_id":34,"name":"Caberknight TF2","steam_id":76561199446773766,"connected_time":2963000000000,"state":"active","ping":87},{"user_id":44,"name":"getgottengud","steam_id":76561199156863229,"connected_time":794000000000,"state":"active","ping":57},{"user_id":46,"name":"JBoss","steam_id":76561198321937857,"connected_time":105000000000,"state":"active","ping":74}]},{"server_id":396,"name":"Uncletopia | Sydney | 4 | All Maps","name_short":"syd-4","host":"syd-1.au.uncletopia.com","port":27045,"enabled":true,"region":"au","cc":"au","latitude":-33.865143,"longitude":151.2099,"reserved":0,"last_update":"0001-01-01T00:00:00Z","name_a2s":"Uncletopia | Sydney | 4 | All Maps","protocol":17,"map":"cp_mountainlab","folder":"tf","game":"Team Fortress","app_id":440,"player_count":0,"max_players":24,"Bots":0,"server_type":"Dedicated","server_os":"Linux","password":true,"vac":true,"version":"7742253","steam_id":85568392925397958,"keywords":["cp","nocrits","nodmgspread","uncletopia"],"game_id":440,"stv_port":27046,"stv_name":"Uncletopia | Sydney | 4 | All Maps | STV","players":null},{"server_id":58,"name":"Uncletopia | Sydney | 5 | Stopwatch Beta","name_short":"syd-5","host":"syd-1.au.uncletopia.com","port":27055,"enabled":true,"region":"au","cc":"au","latitude":-33.865143,"longitude":151.2099,"reserved":0,"last_update":"0001-01-01T00:00:00Z","name_a2s":"Uncletopia | Sydney | 5 | Stopwatch Beta","protocol":17,"map":"koth_highpass","folder":"tf","game":"Team Fortress","app_id":440,"player_count":0,"max_players":24,"Bots":0,"server_type":"Dedicated","server_os":"Linux","password":true,"vac":true,"version":"7742253","steam_id":85568392925397959,"keywords":["cp","nocrits","nodmgspread","uncletopia"],"game_id":440,"stv_port":27056,"stv_name":"Uncletopia | Sydney | 5 | Stopwatch Beta | STV","players":null},{"server_id":59,"name":"Uncletopia | Sydney | 6 | Community","name_short":"syd-6","host":"syd-1.au.uncletopia.com","port":27065,"enabled":true,"region":"au","cc":"au","latitude":-33.865143,"longitude":151.2099,"reserved":0,"last_update":"0001-01-01T00:00:00Z","name_a2s":"Uncletopia | Sydney | 6 | Community","protocol":17,"map":"workshop/koth_ramjam_rc1.ugc459778887","folder":"tf","game":"Team Fortress","app_id":440,"player_count":0,"max_players":24,"Bots":0,"server_type":"Dedicated","server_os":"Linux","password":true,"vac":true,"version":"7742253","steam_id":85568392925397960,"keywords":["cp","nocrits","nodmgspread","uncletopia"],"game_id":440,"stv_port":27066,"stv_name":"Uncletopia | Sydney | 6 | Community | STV","players":null},{"server_id":49,"name":"Uncletopia | Warsaw | 1 | All Maps","name_short":"waw-1","host":"waw-1.pl.uncletopia.com","port":27015,"enabled":true,"region":"eu","cc":"pl","latitude":52.2297,"longitude":21.017532,"reserved":0,"last_update":"0001-01-01T00:00:00Z","name_a2s":"","protocol":0,"map":"","folder":"","game":"","app_id":0,"player_count":0,"max_players":0,"Bots":0,"server_type":"","server_os":"","password":false,"vac":false,"version":"","steam_id":0,"keywords":null,"game_id":0,"stv_port":0,"stv_name":"","players":null},{"server_id":50,"name":"Uncletopia | Warsaw | 2 | All Maps","name_short":"waw-2","host":"waw-1.pl.uncletopia.com","port":27025,"enabled":true,"region":"eu","cc":"pl","latitude":52.2297,"longitude":21.017532,"reserved":0,"last_update":"0001-01-01T00:00:00Z","name_a2s":"Uncletopia | Warsaw | 2 | All Maps","protocol":17,"map":"cp_snakewater_final1","folder":"tf","game":"Team Fortress","app_id":440,"player_count":0,"max_players":24,"Bots":0,"server_type":"Dedicated","server_os":"Linux","password":true,"vac":true,"version":"7742253","steam_id":85568392925397851,"keywords":["cp","nocrits","nodmgspread","uncletopia"],"game_id":440,"stv_port":27026,"stv_name":"Uncletopia | Warsaw | 2 | All Maps | STV","players":null},{"server_id":51,"name":"Uncletopia | Warsaw | 3 | All Maps","name_short":"waw-3","host":"waw-1.pl.uncletopia.com","port":27035,"enabled":true,"region":"eu","cc":"pl","latitude":52.2297,"longitude":21.017532,"reserved":0,"last_update":"0001-01-01T00:00:00Z","name_a2s":"Uncletopia | Warsaw | 3 | All Maps","protocol":17,"map":"koth_lakeside_final","folder":"tf","game":"Team Fortress","app_id":440,"player_count":0,"max_players":24,"Bots":0,"server_type":"Dedicated","server_os":"Linux","password":true,"vac":true,"version":"7742253","steam_id":85568392925397852,"keywords":["cp","nocrits","nodmgspread","uncletopia"],"game_id":440,"stv_port":27036,"stv_name":"Uncletopia | Warsaw | 3 | All Maps | STV","players":null},{"server_id":52,"name":"Uncletopia | Warsaw | 4 | All Maps","name_short":"waw-4","host":"waw-1.pl.uncletopia.com","port":27045,"enabled":true,"region":"eu","cc":"pl","latitude":52.2297,"longitude":21.017532,"reserved":0,"last_update":"0001-01-01T00:00:00Z","name_a2s":"Uncletopia | Warsaw | 4 | All Maps","protocol":17,"map":"pl_upward","folder":"tf","game":"Team Fortress","app_id":440,"player_count":0,"max_players":24,"Bots":0,"server_type":"Dedicated","server_os":"Linux","password":true,"vac":true,"version":"7742253","steam_id":85568392925397853,"keywords":["nocrits","nodmgspread","payload","uncletopia"],"game_id":440,"stv_port":27046,"stv_name":"Uncletopia | Warsaw | 4 | All Maps | STV","players":null},{"server_id":53,"name":"Uncletopia | Warsaw | 5 | Stopwatch Beta","name_short":"waw-5","host":"waw-1.pl.uncletopia.com","port":27055,"enabled":true,"region":"eu","cc":"pl","latitude":52.2297,"longitude":21.017532,"reserved":0,"last_update":"0001-01-01T00:00:00Z","name_a2s":"Uncletopia | Warsaw | 5 | Stopwatch Beta","protocol":17,"map":"pl_swiftwater_final1","folder":"tf","game":"Team Fortress","app_id":440,"player_count":0,"max_players":24,"Bots":0,"server_type":"Dedicated","server_os":"Linux","password":true,"vac":true,"version":"7742253","steam_id":85568392925397854,"keywords":["nocrits","nodmgspread","payload","uncletopia"],"game_id":440,"stv_port":27056,"stv_name":"Uncletopia | Warsaw | 5 | Stopwatch Beta | STV","players":null},{"server_id":54,"name":"Uncletopia | Warsaw | 6 | Community","name_short":"waw-6","host":"waw-1.pl.uncletopia.com","port":27065,"enabled":true,"region":"eu","cc":"pl","latitude":52.2297,"longitude":21.017532,"reserved":0,"last_update":"0001-01-01T00:00:00Z","name_a2s":"Uncletopia | Warsaw | 6 | Community","protocol":17,"map":"koth_highpass","folder":"tf","game":"Team Fortress","app_id":440,"player_count":0,"max_players":24,"Bots":0,"server_type":"Dedicated","server_os":"Linux","password":true,"vac":true,"version":"7742253","steam_id":85568392925397856,"keywords":["cp","nocrits","nodmgspread","uncletopia"],"game_id":440,"stv_port":27066,"stv_name":"Uncletopia | Warsaw | 6 | Community | STV","players":null}]}