{"status":true,"message":"","result":[{"server_id":9,"name":"Uncletopia | Atlanta | 1 | All Maps","name_short":"atl-1","host":"atl-1.us.uncletopia.com","port":27015,"enabled":true,"region":"us-east","cc":"us","latitude":33.753746,"longitude":-84.38633,"reserved":0,"last_update":"0001-01-01T00:00:00Z","name_a2s":"Uncletopia | Atlanta | 1 | All Maps","protocol":17,"map":"pl_frontier_final","folder":"tf","game":"Team Fortress","app_id":440,"player_count":0,"max_players":24,"Bots":0,"server_type":"Dedicated","server_os":"Linux","password":true,"vac":true,"version":"7757534","steam_id":85568392924469982,"keywords":["nocrits","nodmgspread","payload","uncletopia"],"game_id":440,"stv_port":27016,"stv_name":"Uncletopia | Atlanta | 1 | All Maps | STV","players":null},{"server_id":400,"name":"Uncletopia | Atlanta | 3 | Community","name_short":"atl-3","host":"atl-1.us.uncletopia.com","port":27035,"enabled":true,"region":"us-east","cc":"us","latitude":33.753746,"longitude":-84.38633,"reserved":0,"last_update":"0001-01-01T00:00:00Z","name_a2s":"Uncletopia | Atlanta | 3 | Community","protocol":17,"map":"workshop/cp_bruhstbowl_b5.ugc2878604990","folder":"tf","game":"Team Fortress","app_id":440,"player_count":0,"max_players":24,"Bots":0,"server_type":"Dedicated","server_os":"Linux","password":true,"vac":true,"version":"7757534","steam_id":85568392924515187,"keywords":["cp","nocrits","nodmgspread","uncletopia"],"game_id":440,"stv_port":27036,"stv_name":"Uncletopia | Atlanta | 3 | Community | STV","players":null},{"server_id":401,"name":"Uncletopia | Atlanta | 4 | No Payload","name_short":"atl-4","host":"atl-1.us.uncletopia.com","port":27045,"enabled":true,"region":"us-east","cc":"us","latitude":33.753746,"longitude":-84.38633,"reserved":0,"last_update":"0001-01-01T00:00:00Z","name_a2s":"","protocol":0,"map":"","folder":"","game":"","app_id":0,"player_count":0,"max_players":0,"Bots":0,"server_type":"","server_os":"","password":false,"vac":false,"version":"","steam_id":0,"keywords":null,"game_id":0,"stv_port":0,"stv_name":"","players":null},{"server_id":2,"name":"Uncletopia | Chicago | 1 | All Maps","name_short":"chi-1","host":"chi-1.us.uncletopia.com","port":27015,"enabled":true,"region":"us-central","cc":"us","latitude":41.881832,"longitude":-87.62318,"reserved":0,"last_update":"0001-01-01T00:00:00Z","name_a2s":"Uncletopia | Chicago | 1 | All Maps","protocol":17,"map":"koth_highpass","folder":"tf","game":"Team Fortress","app_id":440,"player_count":1,"max_players":24,"Bots":0,"server_type":"Dedicated","server_os":"Linux","password":true,"vac":true,"version":"7757534","steam_id":85568392924469984,"keywords":["cp","nocrits","nodmgspread","uncletopia"],"game_id":440,"stv_port":27016,"stv_name":"Uncletopia | Chicago | 1 | All Maps | STV","players":[{"user_id":954,"name":"Gnomewarlord620","steam_id":76561199083825054,"connected_time":210000000000,"state":"active","ping":289}]},{"server_id":106,"name":"Uncletopia | Chicago | 2 | All Maps","name_short":"chi-2","host":"chi-1.us.uncletopia.com","port":27025,"enabled":true,"region":"us-central","cc":"us","latitude":41.881832,"longitude":-87.62318,"reserved":0,"last_update":"0001-01-01T00:00:00Z","name_a2s":"Uncletopia | Chicago | 2 | All Maps","protocol":17,"map":"pl_badwater","folder":"tf","game":"Team Fortress","app_id":440,"player_count":24,"max_players":24,"Bots":0,"server_type":"Dedicated","server_os":"Linux","password":true,"vac":true,"version":"7757534","steam_id":85568392924469985,"keywords":["nocrits","nodmgspread","payload","uncletopia"],"game_id":440,"stv_port":27026,"stv_name":"Uncletopia | Chicago | 2 | All Maps | STV","players":[{"user_id":1061,"name":":)","steam_id":76561198377852701,"connected_time":4938000000000,"state":"active","ping":159},{"user_id":1062,"name":"chaasem","steam_id":76561198129255799,"connected_time":4910000000000,"state":"active","ping":88},{"user_id":984,"name":"Insert_Name_Here","steam_id":76561198089428414,"connected_time":11510000000000,"state":"active","ping":102},{"user_id":1011,"name":"rudy","steam_id":76561198088712799,"connected_time":9742000000000,"state":"active","ping":74},{"user_id":1059,"name":"halfpint","steam_id":76561198148217618,"connected_time":4988000000000,"state":"active","ping":85},{"user_id":1092,"name":"CHARLIE","steam_id":76561199061380038,"connected_time":2083000000000,"state":"active","ping":153},{"user_id":1089,"name":"bengineer","steam_id":76561198171912174,"connected_time":2114000000000,"state":"active","ping":95},{"user_id":1096,"name":"The Horselords and Animal Gods","steam_id":76561197975094050,"connected_time":1973000000000,"state":"active","ping":112},{"user_id":1090,"name":"Gabinator32","steam_id":76561198872467183,"connected_time":2112000000000,"state":"active","ping":44},{"user_id":1088,"name":"Queen Frau the Round","steam_id":76561197999942134,"connected_time":2117000000000,"state":"active","ping":43},{"user_id":1076,"name":"Dwaggy","steam_id":76561198027369555,"connected_time":3674000000000,"state":"active","ping":65},{"user_id":1080,"name":"shadow wizard","steam_id":76561198165212575,"connected_time":3480000000000,"state":"active","ping":65},{"user_id":1086,"name":"roo the observer","steam_id":76561198120684348,"connected_time":2991000000000,"state":"active","ping":69},{"user_id":1081,"name":"Remember Buscemi","steam_id":76561198141832292,"connected_time":3465000000000,"state":"active","ping":98},{"user_id":1082,"name":"IM A MUUUUUUUUUUNCH!!!","steam_id":76561198112457732,"connected_time":3424000000000,"state":"active","ping":61},{"user_id":1091,"name":"soultheori","steam_id":76561198065538342,"connected_time":2101000000000,"state":"active","ping":85},{"user_id":1094,"name":"Helloppl65","steam_id":76561198272420658,"connected_time":2042000000000,"state":"active","ping":117},{"user_id":1052,"name":"DeckofDragons","steam_id":76561198057398213,"connected_time":5371000000000,"state":"active","ping":75},{"user_id":1095,"name":"attery bacid","steam_id":76561198283507975,"connected_time":2032000000000,"state":"active","ping":103},{"user_id":1097,"name":"Fuegan Ra","steam_id":76561198287923849,"connected_time":1025000000000,"state":"active","ping":50},{"user_id":1084,"name":"Krellah","steam_id":76561198287045069,"connected_time":3233000000000,"state":"active","ping":52},{"user_id":1069,"name":"Santi","steam_id":76561198343258044,"connected_time":4562000000000,"state":"active","ping":76},{"user_id":1085,"name":"Doctor Cringe","steam_id":76561198413125750,"connected_time":3212000000000,"state":"active","ping":67},{"user_id":1026,"name":"Yune","steam_id":76561198039324447,"connected_time":7103000000000,"state":"active","ping":99}]},{"server_id":402,"name":"Uncletopia | Chicago | 3 | All Maps","name_short":"chi-3","host":"chi-1.us.uncletopia.com","port":27035,"enabled":true,"region":"us-central","cc":"us","latitude":41.881832,"longitude":-87.62318,"reserved":0,"last_update":"0001-01-01T00:00:00Z","name_a2s":"Uncletopia | Chicago | 3 | All Maps","protocol":17,"map":"koth_lakeside_final","folder":"tf","game":"Team Fortress","app_id":440,"player_count":0,"max_players":24,"Bots":0,"server_type":"Dedicated","server_os":"Linux","password":true,"vac":true,"version":"7757534","steam_id":85568392924515191,"keywords":["cp","nocrits","nodmgspread","uncletopia"],"game_id":440,"stv_port":27036,"stv_name":"Uncletopia | Chicago | 3 | All Maps | STV","players":null},{"server_id":403,"name":"Uncletopia | Chicago | 4 | All Maps","name_short":"chi-4","host":"chi-1.us.uncletopia.com","port":27045,"enabled":true,"region":"us-central","cc":"us","latitude":41.881832,"longitude":-87.62318,"reserved":0,"last_update":"0001-01-01T00:00:00Z","name_a2s":"Uncletopia | Chicago | 4 | All Maps","protocol":17,"map":"pl_snowycoast","folder":"tf","game":"Team Fortress","app_id":440,"player_count":20,"max_players":24,"Bots":0,"server_type":"Dedicated","server_os":"Linux","password":true,"vac":true,"version":"7757534","steam_id":85568392924515193,"keywords":["nocrits","nodmgspread","payload","uncletopia"],"game_id":440,"stv_port":27046,"stv_name":"Uncletopia | Chicago | 4 | All Maps | STV","players":[{"user_id":875,"name":"Xbox_Pro_2016","steam_id":76561198176126519,"connected_time":585000000000,"state":"active","ping":71},{"user_id":880,"name":"/--","steam_id":76561197969622110,"connected_time":328000000000,"state":"active","ping":114},{"user_id":814,"name":"BaDboY6996","steam_id":76561197969386201,"connected_time":5128000000000,"state":"active","ping":46},{"user_id":874,"name":"hud_saytext_time 0","steam_id":76561198010327228,"connected_time":625000000000,"state":"active","ping":165},{"user_id":876,"name":"living in mushroom park","steam_id":76561198097588802,"connected_time":569000000000,"state":"active","ping":47},{"user_id":877,"name":"Resh420","steam_id":76561198066619792,"connected_time":545000000000,"state":"active","ping":68},{"user_id":881,"name":"mossy_woods","steam_id":76561198284350370,"connected_time":258000000000,"state":"active","ping":63},{"user_id":885,"name":"DSM-IVCE","steam_id":76561199438515797,"connected_time":57000000000,"state":"spawning","ping":125},{"user_id":839,"name":"Best Gorilla Joke of 1897","steam_id":76561198149775502,"connected_time":3840000000000,"state":"active","ping":76},{"user_id":886,"name":"ThingWithaK","steam_id":76561198317602350,"connected_time":5000000000,"state":"spawning","ping":61},{"user_id":879,"name":"Slag","steam_id":76561198053839595,"connected_time":478000000000,"state":"active","ping":47},{"user_id":867,"name":"Happy eye","steam_id":76561198116106967,"connected_time":1413000000000,"state":"active","ping":47},{"user_id":850,"name":"Buzzhookah","steam_id":76561197989222462,"connected_time":3095000000000,"state":"active","ping":59},{"user_id":882,"name":"TheFallenFox","steam_id":76561199074190919,"connected_time":245000000000,"state":"active","ping":149},{"user_id":866,"name":"MagicalBoyChan","steam_id":76561198024776873,"connected_time":1583000000000,"state":"active","ping":116},{"user_id":872,"name":"Huge","steam_id":76561199030987614,"connected_time":802000000000,"state":"active","ping":87},{"user_id":793,"name":"Horace Wimp","steam_id":76561198087535001,"connected_time":6551000000000,"state":"active","ping":82},{"user_id":884,"name":"SIEGPIKL92","steam_id":76561198023514735,"connected_time":125000000000,"state":"active","ping":69},{"user_id":862,"name":"VX_","steam_id":76561198211529143,"connected_time":2235000000000,"state":"active","ping":52},{"user_id":860,"name":"GhostCoffee","steam_id":76561198105228900,"connected_time":2634000000000,"state":"active","ping":58}]},{"server_id":36,"name":"Uncletopia | Chicago | 5 | All Maps","name_short":"chi-5","host":"chi-2.us.uncletopia.com","port":27015,"enabled":true,"region":"us-central","cc":"us","latitude":41.881832,"longitude":-87.62318,"reserved":0,"last_update":"0001-01-01T00:00:00Z","name_a2s":"Uncletopia | Chicago | 5 | All Maps","protocol":17,"map":"koth_highpass","folder":"tf","game":"Team Fortress","app_id":440,"player_count":0,"max_players":24,"Bots":0,"server_type":"Dedicated","server_os":"Linux","password":true,"vac":true,"version":"7757534","steam_id":85568392924866362,"keywords":["cp","nocrits","nodmgspread","uncletopia"],"game_id":440,"stv_port":27016,"stv_name":"Uncletopia | Chicago | 5 | All Maps | STV","players":null},{"server_id":37,"name":"Uncletopia | Chicago | 6 | All Maps","name_short":"chi-6","host":"chi-2.us.uncletopia.com","port":27025,"enabled":true,"region":"us-central","cc":"us","latitude":41.881832,"longitude":-87.62318,"reserved":0,"last_update":"0001-01-01T00:00:00Z","name_a2s":"Uncletopia | Chicago | 6 | All Maps","protocol":17,"map":"koth_viaduct","folder":"tf","game":"Team Fortress","app_id":440,"player_count":0,"max_players":24,"Bots":0,"server_type":"Dedicated","server_os":"Linux","password":true,"vac":true,"version":"7757534","steam_id":85568392924866363,"keywords":["cp","nocrits","nodmgspread","uncletopia"],"game_id":440,"stv_port":27026,"stv_name":"Uncletopia | Chicago | 6 | All Maps | STV","players":null},{"server_id":38,"name":"Uncletopia | Chicago | 7 | Stopwatch Beta","name_short":"chi-7","host":"chi-2.us.uncletopia.com","port":27035,"enabled":true,"region":"us-central","cc":"us","latitude":41.881832,"longitude":-87.62318,"reserved":0,"last_update":"0001-01-01T00:00:00Z","name_a2s":"Uncletopia | Chicago | 7 | Stopwatch Beta","protocol":17,"map":"cp_metalworks","folder":"tf","game":"Team Fortress","app_id":440,"player_count":0,"max_players":24,"Bots":0,"server_type":"Dedicated","server_os":"Linux","password":true,"vac":true,"version":"7757534","steam_id":85568392924866364,"keywords":["cp","nocrits","nodmgspread","uncletopia"],"game_id":440,"stv_port":27036,"stv_name":"Uncletopia | Chicago | 7 | Stopwatch Beta | STV","players":null},{"server_id":39,"name":"Uncletopia | Chicago | 8 | Community","name_short":"chi-8","host":"chi-2.us.uncletopia.com","port":27045,"enabled":true,"region":"us-central","cc":"us","latitude":41.881832,"longitude":-87.62318,"reserved":0,"last_update":"0001-01-01T00:00:00Z","name_a2s":"Uncletopia | Chicago | 8 | Community","protocol":17,"map":"workshop/cp_sulfur_rc2.ugc619869471","folder":"tf","game":"Team Fortress","app_id":440,"player_count":0,"max_players":24,"Bots":0,"server_type":"Dedicated","server_os":"Linux","password":true,"vac":true,"version":"7757534","steam_id":85568392924866365,"keywords":["cp","nocrits","nodmgspread","uncletopia"],"game_id":440,"stv_port":27046,"stv_name":"Uncletopia | Chicago | 8 | Community | STV","players":null},{"server_id":8,"name":"Uncletopia | Dallas | 1 | All Maps","name_short":"dal-1","host":"dal-1.us.uncletopia.com","port":27015,"enabled":true,"region":"us-central","cc":"us","latitude":32.779167,"longitude":-96.80889,"reserved":0,"last_update":"0001-01-01T00:00:00Z","name_a2s":"Uncletopia | Dallas | 1 | All Maps","protocol":17,"map":"pl_snowycoast","folder":"tf","game":"Team Fortress","app_id":440,"player_count":23,"max_players":24,"Bots":0,"server_type":"Dedicated","server_os":"Linux","password":true,"vac":true,"version":"7757534","steam_id":85568392924469986,"keywords":["nocrits","nodmgspread","payload","uncletopia"],"game_id":440,"stv_port":27016,"stv_name":"Uncletopia | Dallas | 1 | All Maps | STV","players":[{"user_id":794,"name":"Yoloisnotded","steam_id":76561198995043589,"connected_time":2467000000000,"state":"active","ping":75},{"user_id":811,"name":"primordialheath","steam_id":76561199386942638,"connected_time":915000000000,"state":"active","ping":76},{"user_id":801,"name":"Mr. Gobling","steam_id":76561199096778623,"connected_time":1845000000000,"state":"active","ping":163},{"user_id":813,"name":"zapato","steam_id":76561198142278437,"connected_time":224000000000,"state":"active","ping":97},{"user_id":740,"name":"façade","steam_id":76561199157009256,"connected_time":7395000000000,"state":"active","ping":81},{"user_id":812,"name":"blademiss","steam_id":76561198062083019,"connected_time":249000000000,"state":"active","ping":83},{"user_id":816,"name":"large baja blast from taco bell","steam_id":76561198101971132,"connected_time":2000000000,"state":"spawning","ping":47},{"user_id":767,"name":"vintage","steam_id":76561198179249054,"connected_time":4297000000000,"state":"active","ping":83},{"user_id":791,"name":"Lord Dragon","steam_id":76561198310300373,"connected_time":2685000000000,"state":"active","ping":99},{"user_id":793,"name":"FluttyPutty","steam_id":76561198218446556,"connected_time":2665000000000,"state":"active","ping":67},{"user_id":779,"name":"DeathByGinger","steam_id":76561198145825228,"connected_time":3650000000000,"state":"active","ping":57},{"user_id":782,"name":"iansav","steam_id":76561198346746454,"connected_time":3246000000000,"state":"active","ping":60},{"user_id":814,"name":"nous","steam_id":76561198046278452,"connected_time":114000000000,"state":"active","ping":95},{"user_id":795,"name":"SIGMA [BS]","steam_id":76561197962604879,"connected_time":2263000000000,"state":"active","ping":89},{"user_id":783,"name":"Spoilt Pudding","steam_id":76561198001195423,"connected_time":3241000000000,"state":"active","ping":53},{"user_id":800,"name":"mu","steam_id":76561197997530228,"connected_time":1867000000000,"state":"active","ping":106},{"user_id":719,"name":"Joe Swanson","steam_id":76561199089907740,"connected_time":10653000000000,"state":"active","ping":70},{"user_id":815,"name":"0xFUL","steam_id":76561198081684676,"connected_time":50000000000,"state":"active","ping":117},{"user_id":808,"name":"Shiver from Splatoon 3","steam_id":76561198322969864,"connected_time":1068000000000,"state":"active","ping":83},{"user_id":788,"name":"teatimesukka","steam_id":76561198978749594,"connected_time":2948000000000,"state":"active","ping":30},{"user_id":786,"name":"The Announcer's Feet","steam_id":76561199443456893,"connected_time":3127000000000,"state":"active","ping":48},{"user_id":803,"name":"35","steam_id":76561198119826352,"connected_time":1843000000000,"state":"active","ping":45},{"user_id":805,"name":"Xerkz","steam_id":76561198063335500,"connected_time":1591000000000,"state":"active","ping":79}]},{"server_id":108,"name":"Uncletopia | Dallas | 2 | All Maps","name_short":"dal-2","host":"dal-1.us.uncletopia.com","port":27025,"enabled":true,"region":"us-central","cc":"us","latitude":32.779167,"longitude":-96.80889,"reserved":0,"last_update":"0001-01-01T00:00:00Z","name_a2s":"Uncletopia | Dallas | 2 | All Maps","protocol":17,"map":"cp_sunshine","folder":"tf","game":"Team Fortress","app_id":440,"player_count":0,"max_players":24,"Bots":0,"server_type":"Dedicated","server_os":"Linux","password":true,"vac":true,"version":"7757534","steam_id":85568392924469988,"keywords":["cp","nocrits","nodmgspread","uncletopia"],"game_id":440,"stv_port":27026,"stv_name":"Uncletopia | Dallas | 2 | All Maps | STV","players":null},{"server_id":5,"name":"Uncletopia | Frankfurt | 1 | All Maps","name_short":"frk-1","host":"frk-1.de.uncletopia.com","port":27015,"enabled":true,"region":"eu","cc":"de","latitude":50.110924,"longitude":8.682127,"reserved":0,"last_update":"0001-01-01T00:00:00Z","name_a2s":"Uncletopia | Frankfurt | 1 | All Maps","protocol":17,"map":"pl_badwater","folder":"tf","game":"Team Fortress","app_id":440,"player_count":0,"max_players":24,"Bots":0,"server_type":"Dedicated","server_os":"Linux","password":true,"vac":true,"version":"7757534","steam_id":85568392924469989,"keywords":["nocrits","nodmgspread","payload","uncletopia"],"game_id":440,"stv_port":27016,"stv_name":"Uncletopia | Frankfurt | 1 | All Maps | STV","players":null},{"server_id":110,"name":"Uncletopia | Frankfurt | 2 | All Maps","name_short":"frk-2","host":"frk-1.de.uncletopia.com","port":27025,"enabled":true,"region":"eu","cc":"de","latitude":50.110924,"longitude":8.682127,"reserved":0,"last_update":"0001-01-01T00:00:00Z","name_a2s":"Uncletopia | Frankfurt | 2 | All Maps","protocol":17,"map":"cp_altitude","folder":"tf","game":"Team Fortress","app_id":440,"player_count":0,"max_players":24,"Bots":0,"server_type":"Dedicated","server_os":"Linux","password":true,"vac":true,"version":"7757534","steam_id":85568392924469990,"keywords":["cp","nocrits","nodmgspread","uncletopia"],"game_id":440,"stv_port":27026,"stv_name":"Uncletopia | Frankfurt | 2 | All Maps | STV","players":null},{"server_id":308,"name":"Uncletopia | Frankfurt | 3 | All Maps","name_short":"frk-3","host":"frk-1.de.uncletopia.com","port":27035,"enabled":true,"region":"eu","cc":"de","latitude":50.110924,"longitude":8.682127,"reserved":0,"last_update":"0001-01-01T00:00:00Z","name_a2s":"Uncletopia | Frankfurt | 3 | All Maps","protocol":17,"map":"pl_borneo","folder":"tf","game":"Team Fortress","app_id":440,"player_count":0,"max_players":24,"Bots":0,"server_type":"Dedicated","server_os":"Linux","password":true,"vac":true,"version":"7757534","steam_id":85568392924504274,"keywords":["nocrits","nodmgspread","payload","uncletopia"],"game_id":440,"stv_port":27036,"stv_name":"Uncletopia | Frankfurt | 3 | All Maps | STV","players":null},{"server_id":309,"name":"Uncletopia | Frankfurt | 4 | All Maps","name_short":"frk-4","host":"frk-1.de.uncletopia.com","port":27045,"enabled":true,"region":"eu","cc":"de","latitude":50.110924,"longitude":8.682127,"reserved":0,"last_update":"0001-01-01T00:00:00Z","name_a2s":"Uncletopia | Frankfurt | 4 | All Maps","protocol":17,"map":"pl_pier","folder":"tf","game":"Team Fortress","app_id":440,"player_count":0,"max_players":24,"Bots":0,"server_type":"Dedicated","server_os":"Linux","password":true,"vac":true,"version":"7757534","steam_id":85568392924504275,"keywords":["nocrits","nodmgspread","payload","uncletopia"],"game_id":440,"stv_port":27046,"stv_name":"Uncletopia | Frankfurt | 4 | All Maps | STV","players":null},{"server_id":310,"name":"Uncletopia | Frankfurt | 5 | All Maps","name_short":"frk-5","host":"frk-1.de.uncletopia.com","port":27055,"enabled":true,"region":"eu","cc":"de","latitude":50.110924,"longitude":8.682127,"reserved":0,"last_update":"0001-01-01T00:00:00Z","name_a2s":"Uncletopia | Frankfurt | 5 | All Maps","protocol":17,"map":"cp_altitude","folder":"tf","game":"Team Fortress","app_id":440,"player_count":0,"max_players":24,"Bots":0,"server_type":"Dedicated","server_os":"Linux","password":true,"vac":true,"version":"7757534","steam_id":85568392924504277,"keywords":["cp","nocrits","nodmgspread","uncletopia"],"game_id":440,"stv_port":27056,"stv_name":"Uncletopia | Frankfurt | 5 | All Maps | STV","players":null},{"server_id":311,"name":"Uncletopia | Frankfurt | 6 | All Maps","name_short":"frk-6","host":"frk-1.de.uncletopia.com","port":27065,"enabled":true,"region":"eu","cc":"de","latitude":50.110924,"longitude":8.682127,"reserved":0,"last_update":"0001-01-01T00:00:00Z","name_a2s":"Uncletopia | Frankfurt | 6 | All Maps","protocol":17,"map":"pl_barnblitz","folder":"tf","game":"Team Fortress","app_id":440,"player_count":0,"max_players":24,"Bots":0,"server_type":"Dedicated","server_os":"Linux","password":true,"vac":true,"version":"7757534","steam_id":85568392924504278,"keywords":["nocrits","nodmgspread","payload","uncletopia"],"game_id":440,"stv_port":27066,"stv_name":"Uncletopia | Frankfurt | 6 | All Maps | STV","players":null},{"server_id":23,"name":"Uncletopia | Frankfurt | 7 | Stopwatch Beta","name_short":"frk-7","host":"frk-1.de.uncletopia.com","port":27075,"enabled":true,"region":"eu","cc":"de","latitude":50.110924,"longitude":8.682127,"reserved":0,"last_update":"0001-01-01T00:00:00Z","name_a2s":"Uncletopia | Frankfurt | 7 | Stopwatch Beta","protocol":17,"map":"pl_borneo","folder":"tf","game":"Team Fortress","app_id":440,"player_count":0,"max_players":24,"Bots":0,"server_type":"Dedicated","server_os":"Linux","password":true,"vac":true,"version":"7757534","steam_id":85568392924742827,"keywords":["nocrits","nodmgspread","payload","uncletopia"],"game_id":440,"stv_port":27076,"stv_name":"Uncletopia | Frankfurt | 7 | Stopwatch Beta | STV","players":null},{"server_id":24,"name":"Uncletopia | Frankfurt | 8 | Community","name_short":"frk-8","host":"frk-1.de.uncletopia.com","port":27085,"enabled":true,"region":"eu","cc":"de","latitude":50.110924,"longitude":8.682127,"reserved":0,"last_update":"0001-01-01T00:00:00Z","name_a2s":"Uncletopia | Frankfurt | 8 | Community","protocol":17,"map":"koth_viaduct","folder":"tf","game":"Team Fortress","app_id":440,"player_count":0,"max_players":24,"Bots":0,"server_type":"Dedicated","server_os":"Linux","password":true,"vac":true,"version":"7757534","steam_id":85568392924742828,"keywords":["cp","nocrits","nodmgspread","uncletopia"],"game_id":440,"stv_port":27086,"stv_name":"Uncletopia | Frankfurt | 8 | Community | STV","players":null},{"server_id":202,"name":"Uncletopia | Hong Kong | 1 | All Maps","name_short":"hgk-1","host":"hgk-1.hk.uncletopia.com","port":27015,"enabled":true,"region":"asia","cc":"hk","latitude":22.302711,"longitude":114.177216,"reserved":0,"last_update":"0001-01-01T00:00:00Z","name_a2s":"Uncletopia | Hong Kong | 1 | All Maps","protocol":17,"map":"pl_barnblitz","folder":"tf","game":"Team Fortress","app_id":440,"player_count":24,"max_players":24,"Bots":0,"server_type":"Dedicated","server_os":"Linux","password":true,"vac":true,"version":"7757534","steam_id":85568392924494504,"keywords":["nocrits","nodmgspread","payload","uncletopia"],"game_id":440,"stv_port":27016,"stv_name":"Uncletopia | Hong Kong | 1 | All Maps | STV","players":[{"user_id":85,"name":"vanidysuki","steam_id":76561198147851090,"connected_time":366000000000,"state":"active","ping":80},{"user_id":81,"name":"Violezine","steam_id":76561199000502615,"connected_time":711000000000,"state":"active","ping":123},{"user_id":65,"name":"✧BaKa BAzooKA✧(◕▿◕ )","steam_id":76561198061628689,"connected_time":2334000000000,"state":"active","ping":52},{"user_id":18,"name":"\"SKS\"","steam_id":76561198187995386,"connected_time":5637000000000,"state":"active","ping":86},{"user_id":78,"name":"victoria","steam_id":76561199109871823,"connected_time":829000000000,"state":"active","ping":78},{"user_id":86,"name":"Victor Charlie","steam_id":76561198255287958,"connected_time":311000000000,"state":"active","ping":130},{"user_id":79,"name":"Skill issue","steam_id":76561199008543001,"connected_time":827000000000,"state":"active","ping":59},{"user_id":23,"name":"Ian","steam_id":76561198159334435,"connected_time":5376000000000,"state":"active","ping":176},{"user_id":87,"name":"greeny","steam_id":76561198024666371,"connected_time":154000000000,"state":"active","ping":89},{"user_id":51,"name":"screaming sniper","steam_id":76561199085568674,"connected_time":4245000000000,"state":"active","ping":63},{"user_id":28,"name":"SunShine","steam_id":76561198323642446,"connected_time":5015000000000,"state":"active","ping":105},{"user_id":83,"name":"junbi OK","steam_id":76561198116387218,"connected_time":579000000000,"state":"active","ping":85},{"user_id":49,"name":"Leroy","steam_id":76561199137927625,"connected_time":4368000000000,"state":"active","ping":93},{"user_id":84,"name":"Urotsuki","steam_id":76561198074339034,"connected_time":579000000000,"state":"active","ping":75},{"user_id":69,"name":"Milk❤ (First Scope Enjoyer)","steam_id":76561198163911560,"connected_time":2254000000000,"state":"active","ping":182},{"user_id":55,"name":"In(e)","steam_id":76561198362097007,"connected_time":4079000000000,"state":"active","ping":59},{"user_id":39,"name":"anim malgo","steam_id":76561198117247378,"connected_time":4728000000000,"state":"active","ping":75},{"user_id":59,"name":"WELL EXCUSE PRINCESS","steam_id":76561198203073201,"connected_time":3209000000000,"state":"active","ping":70},{"user_id":74,"name":"spacerock2014","steam_id":76561199158853202,"connected_time":1100000000000,"state":"active","ping":64},{"user_id":53,"name":"+","steam_id":76561198121311286,"connected_time":4117000000000,"state":"active","ping":120},{"user_id":60,"name":"tiden2000","steam_id":76561198092969425,"connected_time":3195000000000,"state":"active","ping":109},{"user_id":73,"name":"IZ*","steam_id":76561198834621927,"connected_time":1291000000000,"state":"active","ping":116},{"user_id":70,"name":"17","steam_id":76561198241530712,"connected_time":2133000000000,"state":"active","ping":59},{"user_id":88,"name":"rtgod","steam_id":76561198125363469,"connected_time":124000000000,"state":"active","ping":87}]},{"server_id":1,"name":"Uncletopia | Los Angeles | 1 | All Maps","name_short":"lax-1","host":"lax-1.us.uncletopia.com","port":27015,"enabled":true,"region":"us-west","cc":"us","latitude":33.94279,"longitude":-118.41004,"reserved":0,"last_update":"0001-01-01T00:00:00Z","name_a2s":"Uncletopia | Los Angeles | 1 | All Maps","protocol":17,"map":"pl_barnblitz","folder":"tf","game":"Team Fortress","app_id":440,"player_count":21,"max_players":24,"Bots":0,"server_type":"Dedicated","server_os":"Linux","password":true,"vac":true,"version":"7757534","steam_id":85568392924469991,"keywords":["nocrits","nodmgspread","payload","uncletopia"],"game_id":440,"stv_port":27016,"stv_name":"Uncletopia | Los Angeles | 1 | All Maps | STV","players":[{"user_id":534,"name":"Deacon","steam_id":76561197998532724,"connected_time":2004000000000,"state":"active","ping":86},{"user_id":538,"name":"connie kins","steam_id":76561198074701151,"connected_time":1631000000000,"state":"active","ping":42},{"user_id":537,"name":"Normal","steam_id":76561198025970990,"connected_time":1842000000000,"state":"active","ping":52},{"user_id":563,"name":"[Colorbomb]","steam_id":76561198006316527,"connected_time":108000000000,"state":"active","ping":61},{"user_id":539,"name":"Dairy Queen","steam_id":76561198285298576,"connected_time":1623000000000,"state":"active","ping":120},{"user_id":564,"name":"F3LLA","steam_id":76561198272078255,"connected_time":5000000000,"state":"spawning","ping":186},{"user_id":476,"name":"Gonotic gnelf","steam_id":76561199135847219,"connected_time":6083000000000,"state":"active","ping":74},{"user_id":541,"name":"Tetrihedran","steam_id":76561198380318109,"connected_time":1571000000000,"state":"active","ping":84},{"user_id":542,"name":"Jamie","steam_id":76561198163164053,"connected_time":1556000000000,"state":"active","ping":154},{"user_id":560,"name":"TheGameRebel","steam_id":76561198904438872,"connected_time":323000000000,"state":"active","ping":58},{"user_id":562,"name":"Burgie","steam_id":76561198066425198,"connected_time":242000000000,"state":"active","ping":54},{"user_id":544,"name":"Black Licorice","steam_id":76561198097169690,"connected_time":833000000000,"state":"active","ping":100},{"user_id":549,"name":"pills","steam_id":76561198012938128,"connected_time":721000000000,"state":"active","ping":91},{"user_id":547,"name":"transgender is like ferrari","steam_id":76561199023017383,"connected_time":757000000000,"state":"active","ping":115},{"user_id":548,"name":"pure sun","steam_id":76561198089225457,"connected_time":750000000000,"state":"active","ping":61},{"user_id":556,"name":"everythingrhymeswithorange","steam_id":76561198010306193,"connected_time":617000000000,"state":"active","ping":63},{"user_id":551,"name":"HellaCopter","steam_id":76561198062313698,"connected_time":685000000000,"state":"active","ping":75},{"user_id":554,"name":"Bald man","steam_id":76561198157195211,"connected_time":648000000000,"state":"active","ping":143},{"user_id":557,"name":"2STAR","steam_id":76561198126709382,"connected_time":605000000000,"state":"active","ping":60},{"user_id":558,"name":"LtK","steam_id":76561197993180943,"connected_time":594000000000,"state":"active","ping":63},{"user_id":559,"name":"Mozz","steam_id":76561198132892873,"connected_time":589000000000,"state":"active","ping":55}]},{"server_id":112,"name":"Uncletopia | Los Angeles | 2 | All Maps","name_short":"lax-2","host":"lax-1.us.uncletopia.com","port":27025,"enabled":true,"region":"us-west","cc":"us","latitude":33.94279,"longitude":-118.41004,"reserved":0,"last_update":"0001-01-01T00:00:00Z","name_a2s":"Uncletopia | Los Angeles | 2 | All Maps","protocol":17,"map":"koth_viaduct","folder":"tf","game":"Team Fortress","app_id":440,"player_count":0,"max_players":24,"Bots":0,"server_type":"Dedicated","server_os":"Linux","password":true,"vac":true,"version":"7757534","steam_id":85568392924469992,"keywords":["cp","nocrits","nodmgspread","uncletopia"],"game_id":440,"stv_port":27026,"stv_name":"Uncletopia | Los Angeles | 2 | All Maps | STV","players":null},{"server_id":324,"name":"Uncletopia | Los Angeles | 3 | All Maps","name_short":"lax-3","host":"lax-1.us.uncletopia.com","port":27035,"enabled":true,"region":"us-west","cc":"us","latitude":33.94279,"longitude":-118.41004,"reserved":0,"last_update":"0001-01-01T00:00:00Z","name_a2s":"Uncletopia | Los Angeles | 3 | All Maps","protocol":17,"map":"pl_badwater","folder":"tf","game":"Team Fortress","app_id":440,"player_count":19,"max_players":24,"Bots":0,"server_type":"Dedicated","server_os":"Linux","password":true,"vac":true,"version":"7757534","steam_id":85568392924510198,"keywords":["nocrits","nodmgspread","payload","uncletopia"],"game_id":440,"stv_port":27036,"stv_name":"Uncletopia | Los Angeles | 3 | All Maps | STV","players":[{"user_id":184,"name":"puke","steam_id":76561197999279693,"connected_time":460000000000,"state":"active","ping":89},{"user_id":130,"name":"Scruffin","steam_id":76561198106699645,"connected_time":3960000000000,"state":"active","ping":109},{"user_id":183,"name":"Goob","steam_id":76561198256918638,"connected_time":470000000000,"state":"active","ping":50},{"user_id":107,"name":"Cancerous Pineapple","steam_id":76561198097307656,"connected_time":6110000000000,"state":"active","ping":57},{"user_id":185,"name":"markie","steam_id":76561198170206590,"connected_time":425000000000,"state":"active","ping":156},{"user_id":186,"name":"Pesky Bee","steam_id":76561198042679485,"connected_time":143000000000,"state":"active","ping":86},{"user_id":179,"name":"Syrup","steam_id":76561198335677073,"connected_time":1255000000000,"state":"active","ping":68},{"user_id":159,"name":"Gnomechompskyy","steam_id":76561198057158372,"connected_time":2463000000000,"state":"active","ping":46},{"user_id":172,"name":"goldhed","steam_id":76561198051751133,"connected_time":1713000000000,"state":"active","ping":85},{"user_id":171,"name":"Grouch","steam_id":76561198080790944,"connected_time":2091000000000,"state":"active","ping":89},{"user_id":182,"name":"nyoah","steam_id":76561198834915248,"connected_time":482000000000,"state":"active","ping":58},{"user_id":180,"name":"P.I.Staker","steam_id":76561198087096559,"connected_time":1054000000000,"state":"active","ping":76},{"user_id":131,"name":"Sandwiches?","steam_id":76561198131911699,"connected_time":3954000000000,"state":"active","ping":59},{"user_id":178,"name":"Pocket Furry","steam_id":76561199080485881,"connected_time":1481000000000,"state":"active","ping":143},{"user_id":168,"name":"pyr0m","steam_id":76561198062567022,"connected_time":2196000000000,"state":"active","ping":92},{"user_id":165,"name":"Pastel Ink","steam_id":76561199151508585,"connected_time":2283000000000,"state":"active","ping":120},{"user_id":166,"name":"Just a little bit blue?","steam_id":76561199113013688,"connected_time":2217000000000,"state":"active","ping":57},{"user_id":167,"name":"Gary","steam_id":76561198133309753,"connected_time":2216000000000,"state":"active","ping":108},{"user_id":177,"name":"VendettaKNG","steam_id":76561199376067094,"connected_time":1614000000000,"state":"active","ping":62}]},{"server_id":25,"name":"Uncletopia | Los Angeles | 4 | Stopwatch Beta","name_short":"lax-4","host":"lax-1.us.uncletopia.com","port":27045,"enabled":true,"region":"us-west","cc":"us","latitude":33.94279,"longitude":-118.41004,"reserved":0,"last_update":"0001-01-01T00:00:00Z","name_a2s":"Uncletopia | Los Angeles | 4 | Stopwatch Beta","protocol":17,"map":"pl_swiftwater_final1","folder":"tf","game":"Team Fortress","app_id":440,"player_count":0,"max_players":24,"Bots":0,"server_type":"Dedicated","server_os":"Linux","password":true,"vac":true,"version":"7757534","steam_id":85568392924510199,"keywords":["nocrits","nodmgspread","payload","uncletopia"],"game_id":440,"stv_port":27046,"stv_name":"Uncletopia | Los Angeles | 4 | Stopwatch Beta | STV","players":null},{"server_id":11,"name":"Uncletopia | London | 1 | All Maps","name_short":"lon-1","host":"lon-1.uk.uncletopia.com","port":27015,"enabled":true,"region":"eu","cc":"gb","latitude":51.509865,"longitude":-0.118092,"reserved":0,"last_update":"0001-01-01T00:00:00Z","name_a2s":"Uncletopia | London | 1 | All Maps","protocol":17,"map":"cp_altitude","folder":"tf","game":"Team Fortress","app_id":440,"player_count":0,"max_players":24,"Bots":0,"server_type":"Dedicated","server_os":"Linux","password":true,"vac":true,"version":"7757534","steam_id":85568392924367362,"keywords":["cp","nocrits","nodmgspread","uncletopia"],"game_id":440,"stv_port":27016,"stv_name":"Uncletopia | London | 1 | All Maps | STV","players":null},{"server_id":114,"name":"Uncletopia | London | 2 | All Maps","name_short":"lon-2","host":"lon-1.uk.uncletopia.com","port":27025,"enabled":true,"region":"eu","cc":"gb","latitude":51.509865,"longitude":-0.118092,"reserved":0,"last_update":"0001-01-01T00:00:00Z","name_a2s":"Uncletopia | London | 2 | All Maps","protocol":17,"map":"cp_dustbowl","folder":"tf","game":"Team Fortress","app_id":440,"player_count":0,"max_players":24,"Bots":0,"server_type":"Dedicated","server_os":"Linux","password":true,"vac":true,"version":"7757534","steam_id":85568392924470941,"keywords":["cp","nocrits","nodmgspread","uncletopia"],"game_id":440,"stv_port":27026,"stv_name":"Uncletopia | London | 2 | All Maps | STV","players":null},{"server_id":320,"name":"Uncletopia | London | 3 | All Maps","name_short":"lon-3","host":"lon-1.uk.uncletopia.com","port":27035,"enabled":true,"region":"eu","cc":"gb","latitude":51.509865,"longitude":-0.118092,"reserved":0,"last_update":"0001-01-01T00:00:00Z","name_a2s":"Uncletopia | London | 3 | All Maps","protocol":17,"map":"koth_highpass","folder":"tf","game":"Team Fortress","app_id":440,"player_count":0,"max_players":24,"Bots":0,"server_type":"Dedicated","server_os":"Linux","password":true,"vac":true,"version":"7757534","steam_id":85568392924510192,"keywords":["cp","nocrits","nodmgspread","uncletopia"],"game_id":440,"stv_port":27036,"stv_name":"Uncletopia | London | 3 | All Maps | STV","players":null},{"server_id":321,"name":"Uncletopia | London | 4 | All Maps","name_short":"lon-4","host":"lon-1.uk.uncletopia.com","port":27045,"enabled":true,"region":"eu","cc":"gb","latitude":51.509865,"longitude":-0.118092,"reserved":0,"last_update":"0001-01-01T00:00:00Z","name_a2s":"Uncletopia | London | 4 | All Maps","protocol":17,"map":"pl_barnblitz","folder":"tf","game":"Team Fortress","app_id":440,"player_count":0,"max_players":24,"Bots":0,"server_type":"Dedicated","server_os":"Linux","password":true,"vac":true,"version":"7757534","steam_id":85568392924510193,"keywords":["nocrits","nodmgspread","payload","uncletopia"],"game_id":440,"stv_port":27046,"stv_name":"Uncletopia | London | 4 | All Maps | STV","players":null},{"server_id":21,"name":"Uncletopia | London | 5 | All Maps","name_short":"lon-5","host":"lon-1.uk.uncletopia.com","port":27055,"enabled":true,"region":"eu","cc":"gb","latitude":51.509865,"longitude":-0.118092,"reserved":0,"last_update":"0001-01-01T00:00:00Z","name_a2s":"Uncletopia | London | 5 | All Maps","protocol":17,"map":"pl_pier","folder":"tf","game":"Team Fortress","app_id":440,"player_count":0,"max_players":24,"Bots":0,"server_type":"Dedicated","server_os":"Linux","password":true,"vac":true,"version":"7757534","steam_id":85568392924742829,"keywords":["nocrits","nodmgspread","payload","uncletopia"],"game_id":440,"stv_port":27056,"stv_name":"Uncletopia | London | 5 | All Maps | STV","players":null},{"server_id":22,"name":"Uncletopia | London | 6 | All Maps","name_short":"lon-6","host":"lon-1.uk.uncletopia.com","port":27065,"enabled":true,"region":"eu","cc":"gb","latitude":51.509865,"longitude":-0.118092,"reserved":0,"last_update":"0001-01-01T00:00:00Z","name_a2s":"Uncletopia | London | 6 | All Maps","protocol":17,"map":"koth_highpass","folder":"tf","game":"Team Fortress","app_id":440,"player_count":0,"max_players":24,"Bots":0,"server_type":"Dedicated","server_os":"Linux","password":true,"vac":true,"version":"7757534","steam_id":85568392924742830,"keywords":["cp","nocrits","nodmgspread","uncletopia"],"game_id":440,"stv_port":27066,"stv_name":"Uncletopia | London | 6 | All Maps | STV","players":null},{"server_id":40,"name":"Uncletopia | London | 7 | No Payload","name_short":"lon-7","host":"lon-1.uk.uncletopia.com","port":27075,"enabled":true,"region":"eu","cc":"gb","latitude":51.509865,"longitude":-0.118092,"reserved":0,"last_update":"0001-01-01T00:00:00Z","name_a2s":"Uncletopia | London | 7 | No Payload","protocol":17,"map":"koth_highpass","folder":"tf","game":"Team Fortress","app_id":440,"player_count":0,"max_players":24,"Bots":0,"server_type":"Dedicated","server_os":"Linux","password":true,"vac":true,"version":"7757534","steam_id":85568392924964314,"keywords":["cp","nocrits","nodmgspread","uncletopia"],"game_id":440,"stv_port":27076,"stv_name":"Uncletopia | London | 7 | No Payload | STV","players":null},{"server_id":41,"name":"Uncletopia | London | 8 | Community","name_short":"lon-8","host":"lon-1.uk.uncletopia.com","port":27085,"enabled":true,"region":"eu","cc":"gb","latitude":51.509865,"longitude":-0.118092,"reserved":0,"last_update":"0001-01-01T00:00:00Z","name_a2s":"Uncletopia | London | 8 | Community","protocol":17,"map":"cp_altitude","folder":"tf","game":"Team Fortress","app_id":440,"player_count":0,"max_players":24,"Bots":0,"server_type":"Dedicated","server_os":"Linux","password":true,"vac":true,"version":"7757534","steam_id":85568392924964315,"keywords":["cp","nocrits","nodmgspread","uncletopia"],"game_id":440,"stv_port":27086,"stv_name":"Uncletopia | London | 8 | Community | STV","players":null},{"server_id":300,"name":"Uncletopia | Montréal | 1 | All Maps","name_short":"mtl-1","host":"mtl-1.ca.uncletopia.com","port":27015,"enabled":true,"region":"us-east","cc":"ca","latitude":45.50889,"longitude":-73.56167,"reserved":0,"last_update":"0001-01-01T00:00:00Z","name_a2s":"Uncletopia | Montréal | 1 | All Maps","protocol":17,"map":"koth_cascade","folder":"tf","game":"Team Fortress","app_id":440,"player_count":0,"max_players":24,"Bots":0,"server_type":"Dedicated","server_os":"Linux","password":true,"vac":true,"version":"7757534","steam_id":85568392924500087,"keywords":["cp","nocrits","nodmgspread","uncletopia"],"game_id":440,"stv_port":27016,"stv_name":"Uncletopia | Montréal | 1 | All Maps | STV","players":null},{"server_id":301,"name":"Uncletopia | Montréal | 2 | All Maps","name_short":"mtl-2","host":"mtl-1.ca.uncletopia.com","port":27025,"enabled":true,"region":"us-east","cc":"ca","latitude":45.50889,"longitude":-73.56167,"reserved":0,"last_update":"0001-01-01T00:00:00Z","name_a2s":"Uncletopia | Montréal | 2 | All Maps","protocol":17,"map":"pl_swiftwater_final1","folder":"tf","game":"Team Fortress","app_id":440,"player_count":0,"max_players":24,"Bots":0,"server_type":"Dedicated","server_os":"Linux","password":true,"vac":true,"version":"7757534","steam_id":85568392924500088,"keywords":["nocrits","nodmgspread","payload","uncletopia"],"game_id":440,"stv_port":27026,"stv_name":"Uncletopia | Montréal | 2 | All Maps | STV","players":null},{"server_id":302,"name":"Uncletopia | Montréal | 3 | All Maps","name_short":"mtl-3","host":"mtl-1.ca.uncletopia.com","port":27035,"enabled":true,"region":"us-east","cc":"ca","latitude":45.50889,"longitude":-73.56167,"reserved":0,"last_update":"0001-01-01T00:00:00Z","name_a2s":"Uncletopia | Montréal | 3 | All Maps","protocol":17,"map":"pl_snowycoast","folder":"tf","game":"Team Fortress","app_id":440,"player_count":0,"max_players":24,"Bots":0,"server_type":"Dedicated","server_os":"Linux","password":true,"vac":true,"version":"7757534","steam_id":85568392924500089,"keywords":["nocrits","nodmgspread","payload","uncletopia"],"game_id":440,"stv_port":27036,"stv_name":"Uncletopia | Montréal | 3 | All Maps | STV","players":null},{"server_id":303,"name":"Uncletopia | Montréal | 4 | No Payload","name_short":"mtl-4","host":"mtl-1.ca.uncletopia.com","port":27045,"enabled":true,"region":"us-east","cc":"ca","latitude":45.50889,"longitude":-73.56167,"reserved":0,"last_update":"0001-01-01T00:00:00Z","name_a2s":"Uncletopia | Montréal | 4 | No Payload","protocol":17,"map":"cp_sunshine","folder":"tf","game":"Team Fortress","app_id":440,"player_count":0,"max_players":24,"Bots":0,"server_type":"Dedicated","server_os":"Linux","password":true,"vac":true,"version":"7757534","steam_id":85568392924500090,"keywords":["cp","nocrits","nodmgspread","uncletopia"],"game_id":440,"stv_port":27046,"stv_name":"Uncletopia | Montréal | 4 | No Payload | STV","players":null},{"server_id":13,"name":"Uncletopia | New York City | 1 | All Maps","name_short":"nyc-1","host":"nyc-1.us.uncletopia.com","port":27015,"enabled":true,"region":"us-east","cc":"us","latitude":40.73061,"longitude":-73.93524,"reserved":0,"last_update":"0001-01-01T00:00:00Z","name_a2s":"Uncletopia | New York City | 1 | All Maps","protocol":17,"map":"koth_viaduct","folder":"tf","game":"Team Fortress","app_id":440,"player_count":0,"max_players":24,"Bots":0,"server_type":"Dedicated","server_os":"Linux","password":true,"vac":true,"version":"7757534","steam_id":85568392924469993,"keywords":["cp","nocrits","nodmgspread","uncletopia"],"game_id":440,"stv_port":27016,"stv_name":"Uncletopia | New York City | 1 | All Maps | STV","players":null},{"server_id":14,"name":"Uncletopia | New York City | 2 | All Maps","name_short":"nyc-2","host":"nyc-1.us.uncletopia.com","port":27025,"enabled":true,"region":"us-east","cc":"us","latitude":40.73061,"longitude":-73.93524,"reserved":0,"last_update":"0001-01-01T00:00:00Z","name_a2s":"Uncletopia | New York City | 2 | All Maps","protocol":17,"map":"cp_process_final","folder":"tf","game":"Team Fortress","app_id":440,"player_count":0,"max_players":24,"Bots":0,"server_type":"Dedicated","server_os":"Linux","password":true,"vac":true,"version":"7757534","steam_id":85568392924469994,"keywords":["cp","nocrits","nodmgspread","uncletopia"],"game_id":440,"stv_port":27026,"stv_name":"Uncletopia | New York City | 2 | All Maps | STV","players":null},{"server_id":15,"name":"Uncletopia | New York City | 3 | Stopwatch Beta","name_short":"nyc-3","host":"nyc-1.us.uncletopia.com","port":27035,"enabled":true,"region":"us-east","cc":"us","latitude":40.73061,"longitude":-73.93524,"reserved":0,"last_update":"0001-01-01T00:00:00Z","name_a2s":"Uncletopia | New York City | 3 | Stopwatch Beta","protocol":17,"map":"koth_lakeside_final","folder":"tf","game":"Team Fortress","app_id":440,"player_count":0,"max_players":24,"Bots":0,"server_type":"Dedicated","server_os":"Linux","password":true,"vac":true,"version":"7757534","steam_id":85568392924742820,"keywords":["cp","nocrits","nodmgspread","uncletopia"],"game_id":440,"stv_port":27036,"stv_name":"Uncletopia | New York City | 3 | Stopwatch Beta | STV","players":null},{"server_id":16,"name":"Uncletopia | New York City | 4 | Community","name_short":"nyc-4","host":"nyc-1.us.uncletopia.com","port":27045,"enabled":true,"region":"us-east","cc":"us","latitude":40.73061,"longitude":-73.93524,"reserved":0,"last_update":"0001-01-01T00:00:00Z","name_a2s":"Uncletopia | New York City | 4 | Community","protocol":17,"map":"workshop/koth_bagel_rc6.ugc2514036946","folder":"tf","game":"Team Fortress","app_id":440,"player_count":0,"max_players":24,"Bots":0,"server_type":"Dedicated","server_os":"Linux","password":true,"vac":true,"version":"7757534","steam_id":85568392924742821,"keywords":["cp","nocrits","nodmgspread","uncletopia"],"game_id":440,"stv_port":27046,"stv_name":"Uncletopia | New York City | 4 | Community | STV","players":null},{"server_id":142,"name":"Uncletopia | São Paulo | 1 | All Maps","name_short":"sao-1","host":"sao-1.br.uncletopia.com","port":27015,"enabled":true,"region":"sa","cc":"br","latitude":-23.533773,"longitude":-46.62529,"reserved":0,"last_update":"0001-01-01T00:00:00Z","name_a2s":"Uncletopia | São Paulo | 1 | All Maps","protocol":17,"map":"pl_upward","folder":"tf","game":"Team Fortress","app_id":440,"player_count":0,"max_players":24,"Bots":0,"server_type":"Dedicated","server_os":"Linux","password":true,"vac":true,"version":"7757534","steam_id":85568392924469996,"keywords":["nocrits","nodmgspread","payload","uncletopia"],"game_id":440,"stv_port":27016,"stv_name":"Uncletopia | São Paulo | 1 | All Maps | STV","players":null},{"server_id":143,"name":"Uncletopia | São Paulo | 2 | All Maps","name_short":"sao-2","host":"sao-2.br.uncletopia.com","port":27015,"enabled":true,"region":"sa","cc":"br","latitude":-23.533773,"longitude":-46.62529,"reserved":0,"last_update":"0001-01-01T00:00:00Z","name_a2s":"Uncletopia | São Paulo | 2 | All Maps","protocol":17,"map":"koth_viaduct","folder":"tf","game":"Team Fortress","app_id":440,"player_count":0,"max_players":24,"Bots":0,"server_type":"Dedicated","server_os":"Linux","password":true,"vac":true,"version":"7757534","steam_id":85568392924485349,"keywords":["cp","nocrits","nodmgspread","uncletopia"],"game_id":440,"stv_port":27016,"stv_name":"Uncletopia | São Paulo | 2 | All Maps | STV","players":null},{"server_id":7,"name":"Uncletopia | Seattle | 1 | All Maps","name_short":"sea-1","host":"sea-1.us.uncletopia.com","port":27015,"enabled":true,"region":"us-west","cc":"us","latitude":47.608013,"longitude":-122.33517,"reserved":0,"last_update":"0001-01-01T00:00:00Z","name_a2s":"Uncletopia | Seattle | 1 | All Maps","protocol":17,"map":"pl_barnblitz","folder":"tf","game":"Team Fortress","app_id":440,"player_count":24,"max_players":24,"Bots":0,"server_type":"Dedicated","server_os":"Linux","password":true,"vac":true,"version":"7757534","steam_id":85568392924469997,"keywords":["nocrits","nodmgspread","payload","uncletopia"],"game_id":440,"stv_port":27016,"stv_name":"Uncletopia | Seattle | 1 | All Maps | STV","players":[{"user_id":944,"name":"Noah","steam_id":76561198059048749,"connected_time":879000000000,"state":"active","ping":58},{"user_id":936,"name":"MatchMatch @MST","steam_id":76561198048925904,"connected_time":1686000000000,"state":"active","ping":91},{"user_id":947,"name":"exephur","steam_id":76561198135763234,"connected_time":329000000000,"state":"active","ping":67},{"user_id":948,"name":"monch","steam_id":76561198105374054,"connected_time":328000000000,"state":"active","ping":91},{"user_id":909,"name":"mike","steam_id":76561198163265338,"connected_time":3404000000000,"state":"active","ping":49},{"user_id":941,"name":"sameways","steam_id":76561198120982884,"connected_time":1325000000000,"state":"active","ping":76},{"user_id":950,"name":"Vruk","steam_id":76561198116930332,"connected_time":293000000000,"state":"active","ping":61},{"user_id":942,"name":"lightsPage","steam_id":76561198278217577,"connected_time":1292000000000,"state":"active","ping":52},{"user_id":912,"name":"Sweets","steam_id":76561198998446307,"connected_time":2676000000000,"state":"active","ping":70},{"user_id":949,"name":"WeenieSauce52","steam_id":76561199024953254,"connected_time":304000000000,"state":"active","ping":92},{"user_id":951,"name":"rorywashere /ᐠ - ˕ -マ Ⳋ","steam_id":76561198065825165,"connected_time":290000000000,"state":"active","ping":116},{"user_id":952,"name":"Sanji","steam_id":76561199029414095,"connected_time":277000000000,"state":"active","ping":88},{"user_id":953,"name":"NamelessLost","steam_id":76561199192781358,"connected_time":199000000000,"state":"active","ping":57},{"user_id":903,"name":"Disc0","steam_id":76561198067337267,"connected_time":4114000000000,"state":"active","ping":49},{"user_id":931,"name":"hosewater","steam_id":76561198023383126,"connected_time":1879000000000,"state":"active","ping":58},{"user_id":939,"name":"Akira","steam_id":76561198294601519,"connected_time":1353000000000,"state":"active","ping":38},{"user_id":954,"name":"Xylemon","steam_id":76561197965297420,"connected_time":34000000000,"state":"active","ping":98},{"user_id":924,"name":"m","steam_id":76561198127631900,"connected_time":2104000000000,"state":"active","ping":61},{"user_id":757,"name":"Kaiga","steam_id":76561198044052046,"connected_time":9533000000000,"state":"active","ping":125},{"user_id":922,"name":"Zhao","steam_id":76561198360079692,"connected_time":2149000000000,"state":"active","ping":137},{"user_id":943,"name":"✿ PoutyBun ✿","steam_id":76561197965762847,"connected_time":1263000000000,"state":"active","ping":35},{"user_id":938,"name":"Bullet Kin","steam_id":76561198219951947,"connected_time":1376000000000,"state":"active","ping":75},{"user_id":946,"name":"Rynx","steam_id":76561198369477018,"connected_time":505000000000,"state":"active","ping":89},{"user_id":929,"name":"Can of Sprats","steam_id":76561198311170462,"connected_time":1928000000000,"state":"active","ping":61}]},{"server_id":119,"name":"Uncletopia | Seattle | 2 | All Maps","name_short":"sea-2","host":"sea-1.us.uncletopia.com","port":27025,"enabled":true,"region":"us-west","cc":"us","latitude":47.608013,"longitude":-122.33517,"reserved":0,"last_update":"0001-01-01T00:00:00Z","name_a2s":"Uncletopia | Seattle | 2 | All Maps","protocol":17,"map":"pl_upward","folder":"tf","game":"Team Fortress","app_id":440,"player_count":24,"max_players":24,"Bots":0,"server_type":"Dedicated","server_os":"Linux","password":true,"vac":true,"version":"7757534","steam_id":85568392924469998,"keywords":["nocrits","nodmgspread","payload","uncletopia"],"game_id":440,"stv_port":27026,"stv_name":"Uncletopia | Seattle | 2 | All Maps | STV","players":[{"user_id":830,"name":"Jambi","steam_id":76561198846091685,"connected_time":2116000000000,"state":"active","ping":88},{"user_id":839,"name":"Gibus Man","steam_id":76561198257241062,"connected_time":1036000000000,"state":"active","ping":60},{"user_id":849,"name":"vilitesweet","steam_id":76561198067399686,"connected_time":155000000000,"state":"active","ping":55},{"user_id":817,"name":"Willy Wonker","steam_id":76561198082944789,"connected_time":2749000000000,"state":"active","ping":75},{"user_id":833,"name":"Ghost Five Nine","steam_id":76561198064883411,"connected_time":2045000000000,"state":"active","ping":93},{"user_id":850,"name":"dzcreeper","steam_id":76561198072250723,"connected_time":136000000000,"state":"active","ping":90},{"user_id":825,"name":"ZAZA Enjoyer","steam_id":76561198094426099,"connected_time":2394000000000,"state":"active","ping":83},{"user_id":842,"name":"Google","steam_id":76561198857237473,"connected_time":474000000000,"state":"active","ping":46},{"user_id":835,"name":"i am weed","steam_id":76561198419896433,"connected_time":2038000000000,"state":"active","ping":41},{"user_id":837,"name":"ScoutBox","steam_id":76561198111539895,"connected_time":2032000000000,"state":"active","ping":77},{"user_id":822,"name":"Tybalt","steam_id":76561198142464684,"connected_time":2469000000000,"state":"active","ping":89},{"user_id":823,"name":"Spoods","steam_id":76561198245568710,"connected_time":2465000000000,"state":"active","ping":134},{"user_id":838,"name":"Minerkid2004","steam_id":76561198044262827,"connected_time":2028000000000,"state":"active","ping":68},{"user_id":847,"name":"Spoovy","steam_id":76561198887012523,"connected_time":220000000000,"state":"active","ping":58},{"user_id":841,"name":"Clagger","steam_id":76561198066701092,"connected_time":955000000000,"state":"active","ping":45},{"user_id":798,"name":"Sloome Lover","steam_id":76561198299879257,"connected_time":4745000000000,"state":"active","ping":67},{"user_id":844,"name":"Apophis","steam_id":76561197989724484,"connected_time":377000000000,"state":"active","ping":118},{"user_id":826,"name":"7eventy7","steam_id":76561198102219224,"connected_time":2392000000000,"state":"active","ping":97},{"user_id":848,"name":"HomesliceHobbes","steam_id":76561198042770895,"connected_time":213000000000,"state":"active","ping":43},{"user_id":687,"name":"MEDICINAL CRACK ENJOYER","steam_id":76561198113427343,"connected_time":10300000000000,"state":"active","ping":90},{"user_id":827,"name":"Grahambo05","steam_id":76561198279181204,"connected_time":2384000000000,"state":"active","ping":116},{"user_id":799,"name":"Number_forty1","steam_id":76561198103653795,"connected_time":4631000000000,"state":"active","ping":100},{"user_id":851,"name":"00","steam_id":76561198041700636,"connected_time":129000000000,"state":"active","ping":63},{"user_id":718,"name":"XxSquidwardxX","steam_id":76561198294455367,"connected_time":9830000000000,"state":"active","ping":96}]},{"server_id":406,"name":"Uncletopia | Seattle | 3 | Stopwatch Beta","name_short":"sea-3","host":"sea-1.us.uncletopia.com","port":27035,"enabled":true,"region":"us-west","cc":"us","latitude":47.608013,"longitude":-122.33517,"reserved":0,"last_update":"0001-01-01T00:00:00Z","name_a2s":"Uncletopia | Seattle | 3 | Stopwatch Beta","protocol":17,"map":"cp_metalworks","folder":"tf","game":"Team Fortress","app_id":440,"player_count":0,"max_players":24,"Bots":0,"server_type":"Dedicated","server_os":"Linux","password":true,"vac":true,"version":"7757534","steam_id":85568392924515217,"keywords":["cp","nocrits","nodmgspread","uncletopia"],"game_id":440,"stv_port":27036,"stv_name":"Uncletopia | Seattle | 3 | Stopwatch Beta | STV","players":null},{"server_id":17,"name":"Uncletopia | San Francisco | 1 | All Maps","name_short":"sfo-1","host":"sfo-1.us.uncletopia.com","port":27015,"enabled":true,"region":"us-west","cc":"us","latitude":37.77397,"longitude":-122.4313,"reserved":0,"last_update":"0001-01-01T00:00:00Z","name_a2s":"Uncletopia | San Francisco | 1 | All Maps","protocol":17,"map":"koth_lakeside_final","folder":"tf","game":"Team Fortress","app_id":440,"player_count":1,"max_players":24,"Bots":0,"server_type":"Dedicated","server_os":"Linux","password":true,"vac":true,"version":"7757534","steam_id":85568392924469999,"keywords":["cp","nocrits","nodmgspread","uncletopia"],"game_id":440,"stv_port":27016,"stv_name":"Uncletopia | San Francisco | 1 | All Maps | STV","players":[{"user_id":400,"name":"Idontknow","steam_id":76561199207044048,"connected_time":30000000000,"state":"active","ping":58}]},{"server_id":18,"name":"Uncletopia | San Francisco | 2 | All Maps","name_short":"sfo-2","host":"sfo-1.us.uncletopia.com","port":27025,"enabled":true,"region":"us-west","cc":"us","latitude":37.77397,"longitude":-122.4313,"reserved":0,"last_update":"0001-01-01T00:00:00Z","name_a2s":"Uncletopia | San Francisco | 2 | All Maps","protocol":17,"map":"pl_barnblitz","folder":"tf","game":"Team Fortress","app_id":440,"player_count":11,"max_players":24,"Bots":0,"server_type":"Dedicated","server_os":"Linux","password":true,"vac":true,"version":"7757534","steam_id":85568392924470000,"keywords":["nocrits","nodmgspread","payload","uncletopia"],"game_id":440,"stv_port":27026,"stv_name":"Uncletopia | San Francisco | 2 | All Maps | STV","players":[{"user_id":396,"name":"chaos","steam_id":76561198055462404,"connected_time":2472000000000,"state":"active","ping":45},{"user_id":401,"name":"Junkyard Kitty","steam_id":76561198034712323,"connected_time":2044000000000,"state":"active","ping":51},{"user_id":407,"name":"autistic enby","steam_id":76561198440145948,"connected_time":1109000000000,"state":"active","ping":111},{"user_id":409,"name":"Manly Emerald","steam_id":76561198245838476,"connected_time":1089000000000,"state":"active","ping":75},{"user_id":402,"name":"jubb","steam_id":76561198186865526,"connected_time":2036000000000,"state":"active","ping":70},{"user_id":404,"name":"Yiff Police","steam_id":76561198103938356,"connected_time":1991000000000,"state":"active","ping":99},{"user_id":349,"name":"heather","steam_id":76561198328189173,"connected_time":5805000000000,"state":"active","ping":85},{"user_id":389,"name":"Bashful Boi (0w0)","steam_id":76561198297585031,"connected_time":2828000000000,"state":"active","ping":60},{"user_id":411,"name":"Smuggley","steam_id":76561198078130271,"connected_time":711000000000,"state":"active","ping":89},{"user_id":413,"name":"rlty","steam_id":76561198009395055,"connected_time":476000000000,"state":"active","ping":106},{"user_id":399,"name":"Fever Dreams","steam_id":76561198116614620,"connected_time":2435000000000,"state":"active","ping":107}]},{"server_id":19,"name":"Uncletopia | San Francisco | 3 | Stopwatch Beta","name_short":"sfo-3","host":"sfo-1.us.uncletopia.com","port":27035,"enabled":true,"region":"us-west","cc":"us","latitude":37.77397,"longitude":-122.4313,"reserved":0,"last_update":"0001-01-01T00:00:00Z","name_a2s":"Uncletopia | San Francisco | 3 | Stopwatch Beta","protocol":17,"map":"workshop/pl_badwater_pro_v12.ugc2142942074","folder":"tf","game":"Team Fortress","app_id":440,"player_count":0,"max_players":24,"Bots":0,"server_type":"Dedicated","server_os":"Linux","password":true,"vac":true,"version":"7757534","steam_id":85568392924742824,"keywords":["nocrits","nodmgspread","payload","uncletopia"],"game_id":440,"stv_port":27036,"stv_name":"Uncletopia | San Francisco | 3 | Stopwatch Beta | STV","players":null},{"server_id":20,"name":"Uncletopia | San Francisco | 4 | Community","name_short":"sfo-4","host":"sfo-1.us.uncletopia.com","port":27045,"enabled":true,"region":"us-west","cc":"us","latitude":37.77397,"longitude":-122.4313,"reserved":0,"last_update":"0001-01-01T00:00:00Z","name_a2s":"Uncletopia | San Francisco | 4 | Community","protocol":17,"map":"workshop/cp_mannbase_rc2a.ugc1900737467","folder":"tf","game":"Team Fortress","app_id":440,"player_count":0,"max_players":24,"Bots":0,"server_type":"Dedicated","server_os":"Linux","password":true,"vac":true,"version":"7757534","steam_id":85568392924742826,"keywords":["cp","nocrits","nodmgspread","uncletopia"],"game_id":440,"stv_port":27046,"stv_name":"Uncletopia | San Francisco | 4 | Community | STV","players":null},{"server_id":141,"name":"Uncletopia | Sydney | 1 | All Maps","name_short":"syd-1","host":"syd-1.au.uncletopia.com","port":27015,"enabled":true,"region":"au","cc":"au","latitude":-33.865143,"longitude":151.2099,"reserved":0,"last_update":"0001-01-01T00:00:00Z","name_a2s":"Uncletopia | Sydney | 1 | All Maps","protocol":17,"map":"pl_badwater","folder":"tf","game":"Team Fortress","app_id":440,"player_count":16,"max_players":24,"Bots":0,"server_type":"Dedicated","server_os":"Linux","password":true,"vac":true,"version":"7757534","steam_id":85568392924470001,"keywords":["nocrits","nodmgspread","payload","uncletopia"],"game_id":440,"stv_port":27016,"stv_name":"Uncletopia | Sydney | 1 | All Maps | STV","players":[{"user_id":390,"name":"TheTophatterOfTophats","steam_id":76561199142504761,"connected_time":2619000000000,"state":"active","ping":50},{"user_id":391,"name":"ConcreteChad","steam_id":76561199221677511,"connected_time":2590000000000,"state":"active","ping":39},{"user_id":395,"name":"The Bisoneer TF2","steam_id":76561199446773766,"connected_time":2223000000000,"state":"active","ping":82},{"user_id":421,"name":"toblue","steam_id":76561198189137465,"connected_time":263000000000,"state":"active","ping":82},{"user_id":413,"name":"Nenguu","steam_id":76561198243952386,"connected_time":380000000000,"state":"active","ping":56},{"user_id":406,"name":"shotgun heavy","steam_id":76561199146633227,"connected_time":779000000000,"state":"active","ping":60},{"user_id":422,"name":"Tiger_Tan","steam_id":76561198221733844,"connected_time":115000000000,"state":"active","ping":63},{"user_id":409,"name":"hazz_mcpie -BvM-","steam_id":76561198092450084,"connected_time":615000000000,"state":"active","ping":88},{"user_id":416,"name":"mochi(buying strange warpaints)","steam_id":76561198204590389,"connected_time":345000000000,"state":"active","ping":59},{"user_id":417,"name":"Andrew Taint","steam_id":76561198271435803,"connected_time":306000000000,"state":"active","ping":63},{"user_id":412,"name":"Medici","steam_id":76561198213150435,"connected_time":381000000000,"state":"active","ping":41},{"user_id":414,"name":"O'rangutan","steam_id":76561198095916681,"connected_time":379000000000,"state":"active","ping":44},{"user_id":418,"name":"᲼᲼","steam_id":76561199044857303,"connected_time":294000000000,"state":"active","ping":56},{"user_id":419,"name":"Precipire","steam_id":76561198076159518,"connected_time":283000000000,"state":"active","ping":55},{"user_id":425,"name":"MrSpooder","steam_id":76561199029919742,"connected_time":74000000000,"state":"active","ping":33},{"user_id":424,"name":"Flat White","steam_id":76561198410190974,"connected_time":103000000000,"state":"active","ping":76}]},{"server_id":123,"name":"Uncletopia | Sydney | 2 | All Maps","name_short":"syd-2","host":"syd-1.au.uncletopia.com","port":27025,"enabled":true,"region":"au","cc":"au","latitude":-33.865143,"longitude":151.2099,"reserved":0,"last_update":"0001-01-01T00:00:00Z","name_a2s":"Uncletopia | Sydney | 2 | All Maps","protocol":17,"map":"cp_process_final","folder":"tf","game":"Team Fortress","app_id":440,"player_count":24,"max_players":24,"Bots":0,"server_type":"Dedicated","server_os":"Linux","password":true,"vac":true,"version":"7757534","steam_id":85568392924470002,"keywords":["cp","nocrits","nodmgspread","uncletopia"],"game_id":440,"stv_port":27026,"stv_name":"Uncletopia | Sydney | 2 | All Maps | STV","players":[{"user_id":75,"name":"仙女头子于谦","steam_id":76561199031075505,"connected_time":3342000000000,"state":"active","ping":178},{"user_id":126,"name":"twitch.tv/DrTreggles","steam_id":76561198042806226,"connected_time":166000000000,"state":"active","ping":84},{"user_id":65,"name":"Cup","steam_id":76561198038485845,"connected_time":4318000000000,"state":"active","ping":30},{"user_id":60,"name":"Mac","steam_id":76561198063407128,"connected_time":4532000000000,"state":"active","ping":45},{"user_id":106,"name":"gooning guru","steam_id":76561198053120541,"connected_time":1073000000000,"state":"active","ping":46},{"user_id":66,"name":"BLORZINGUS","steam_id":76561198063481761,"connected_time":4299000000000,"state":"active","ping":42},{"user_id":27,"name":"Shadow Puppeteer","steam_id":76561198151121997,"connected_time":6398000000000,"state":"active","ping":81},{"user_id":111,"name":"stinkbait","steam_id":76561198018821486,"connected_time":728000000000,"state":"active","ping":89},{"user_id":88,"name":"zore","steam_id":76561198016233021,"connected_time":2265000000000,"state":"active","ping":60},{"user_id":128,"name":"EpicGuy4227","steam_id":76561198094132328,"connected_time":29000000000,"state":"active","ping":48},{"user_id":86,"name":"FRAWG","steam_id":76561197963763869,"connected_time":2367000000000,"state":"active","ping":42},{"user_id":77,"name":"Muffin","steam_id":76561198075391119,"connected_time":3189000000000,"state":"active","ping":59},{"user_id":117,"name":"Gasoline","steam_id":76561198879023728,"connected_time":327000000000,"state":"active","ping":67},{"user_id":99,"name":"the normoaner","steam_id":76561198082423230,"connected_time":1908000000000,"state":"active","ping":79},{"user_id":107,"name":"spironolactone enjoyer","steam_id":76561198055239632,"connected_time":993000000000,"state":"active","ping":87},{"user_id":129,"name":"Fuzz","steam_id":76561198063077180,"connected_time":8000000000,"state":"spawning","ping":56},{"user_id":127,"name":"100k a year","steam_id":76561198223331996,"connected_time":148000000000,"state":"active","ping":73},{"user_id":89,"name":"♥ Sharpy \u003e v \u003c","steam_id":76561198091613743,"connected_time":2259000000000,"state":"active","ping":93},{"user_id":102,"name":"Apteryx","steam_id":76561197976460834,"connected_time":1592000000000,"state":"active","ping":60},{"user_id":105,"name":"quasi","steam_id":76561198282589938,"connected_time":1134000000000,"state":"active","ping":87},{"user_id":112,"name":"Twink-182","steam_id":76561198090088613,"connected_time":580000000000,"state":"active","ping":99},{"user_id":46,"name":"double barrel shaboingboing","steam_id":76561198133867907,"connected_time":5594000000000,"state":"active","ping":69},{"user_id":92,"name":"seiran","steam_id":76561198880907232,"connected_time":2127000000000,"state":"active","ping":95},{"user_id":114,"name":"Corrupt","steam_id":76561198008567328,"connected_time":474000000000,"state":"active","ping":111}]},{"server_id":395,"name":"Uncletopia | Sydney | 3 | All Maps","name_short":"syd-3","host":"syd-1.au.uncletopia.com","port":27035,"enabled":true,"region":"au","cc":"au","latitude":-33.865143,"longitude":151.2099,"reserved":0,"last_update":"0001-01-01T00:00:00Z","name_a2s":"Uncletopia | Sydney | 3 | All Maps","protocol":17,"map":"cp_altitude","folder":"tf","game":"Team Fortress","app_id":440,"player_count":0,"max_players":24,"Bots":0,"server_type":"Dedicated","server_os":"Linux","password":true,"vac":true,"version":"7757534","steam_id":85568392925194467,"keywords":["cp","nocrits","nodmgspread","uncletopia"],"game_id":440,"stv_port":27036,"stv_name":"Uncletopia | Sydney | 3 | All Maps | STV","players":null},{"server_id":396,"name":"Uncletopia | Sydney | 4 | All Maps","name_short":"syd-4","host":"syd-1.au.uncletopia.com","port":27045,"enabled":true,"region":"au","cc":"au","latitude":-33.865143,"longitude":151.2099,"reserved":0,"last_update":"0001-01-01T00:00:00Z","name_a2s":"Uncletopia | Sydney | 4 | All Maps","protocol":17,"map":"cp_sunshine","folder":"tf","game":"Team Fortress","app_id":440,"player_count":0,"max_players":24,"Bots":0,"server_type":"Dedicated","server_os":"Linux","password":true,"vac":true,"version":"7757534","steam_id":85568392925397958,"keywords":["cp","nocrits","nodmgspread","uncletopia"],"game_id":440,"stv_port":27046,"stv_name":"Uncletopia | Sydney | 4 | All Maps | STV","players":null},{"server_id":58,"name":"Uncletopia | Sydney | 5 | Stopwatch Beta","name_short":"syd-5","host":"syd-1.au.uncletopia.com","port":27055,"enabled":true,"region":"au","cc":"au","latitude":-33.865143,"longitude":151.2099,"reserved":0,"last_update":"0001-01-01T00:00:00Z","name_a2s":"Uncletopia | Sydney | 5 | Stopwatch Beta","protocol":17,"map":"workshop/pl_barnblitz_pro7.ugc582280235","folder":"tf","game":"Team Fortress","app_id":440,"player_count":0,"max_players":24,"Bots":0,"server_type":"Dedicated","server_os":"Linux","password":true,"vac":true,"version":"7757534","steam_id":85568392925397959,"keywords":["nocrits","nodmgspread","payload","uncletopia"],"game_id":440,"stv_port":27056,"stv_name":"Uncletopia | Sydney | 5 | Stopwatch Beta | STV","players":null},{"server_id":59,"name":"Uncletopia | Sydney | 6 | Community","name_short":"syd-6","host":"syd-1.au.uncletopia.com","port":27065,"enabled":true,"region":"au","cc":"au","latitude":-33.865143,"longitude":151.2099,"reserved":0,"last_update":"0001-01-01T00:00:00Z","name_a2s":"Uncletopia | Sydney | 6 | Community","protocol":17,"map":"workshop/pl_eruption_b9a.ugc2807898013","folder":"tf","game":"Team Fortress","app_id":440,"player_count":0,"max_players":24,"Bots":0,"server_type":"Dedicated","server_os":"Linux","password":true,"vac":true,"version":"7757534","steam_id":85568392925397960,"keywords":["nocrits","nodmgspread","payload","uncletopia"],"game_id":440,"stv_port":27066,"stv_name":"Uncletopia | Sydney | 6 | Community | STV","players":null},{"server_id":49,"name":"Uncletopia | Warsaw | 1 | All Maps","name_short":"waw-1","host":"waw-1.pl.uncletopia.com","port":27015,"enabled":true,"region":"eu","cc":"pl","latitude":52.2297,"longitude":21.017532,"reserved":0,"last_update":"0001-01-01T00:00:00Z","name_a2s":"","protocol":0,"map":"","folder":"","game":"","app_id":0,"player_count":0,"max_players":0,"Bots":0,"server_type":"","server_os":"","password":false,"vac":false,"version":"","steam_id":0,"keywords":null,"game_id":0,"stv_port":0,"stv_name":"","players":null},{"server_id":50,"name":"Uncletopia | Warsaw | 2 | All Maps","name_short":"waw-2","host":"waw-1.pl.uncletopia.com","port":27025,"enabled":true,"region":"eu","cc":"pl","latitude":52.2297,"longitude":21.017532,"reserved":0,"last_update":"0001-01-01T00:00:00Z","name_a2s":"Uncletopia | Warsaw | 2 | All Maps","protocol":17,"map":"pl_upward","folder":"tf","game":"Team Fortress","app_id":440,"player_count":0,"max_players":24,"Bots":0,"server_type":"Dedicated","server_os":"Linux","password":true,"vac":true,"version":"7757534","steam_id":85568392925397851,"keywords":["nocrits","nodmgspread","payload","uncletopia"],"game_id":440,"stv_port":27026,"stv_name":"Uncletopia | Warsaw | 2 | All Maps | STV","players":null},{"server_id":51,"name":"Uncletopia | Warsaw | 3 | All Maps","name_short":"waw-3","host":"waw-1.pl.uncletopia.com","port":27035,"enabled":true,"region":"eu","cc":"pl","latitude":52.2297,"longitude":21.017532,"reserved":0,"last_update":"0001-01-01T00:00:00Z","name_a2s":"Uncletopia | Warsaw | 3 | All Maps","protocol":17,"map":"pl_barnblitz","folder":"tf","game":"Team Fortress","app_id":440,"player_count":0,"max_players":24,"Bots":0,"server_type":"Dedicated","server_os":"Linux","password":true,"vac":true,"version":"7757534","steam_id":85568392925397852,"keywords":["nocrits","nodmgspread","payload","uncletopia"],"game_id":440,"stv_port":27036,"stv_name":"Uncletopia | Warsaw | 3 | All Maps | STV","players":null},{"server_id":52,"name":"Uncletopia | Warsaw | 4 | All Maps","name_short":"waw-4","host":"waw-1.pl.uncletopia.com","port":27045,"enabled":true,"region":"eu","cc":"pl","latitude":52.2297,"longitude":21.017532,"reserved":0,"last_update":"0001-01-01T00:00:00Z","name_a2s":"Uncletopia | Warsaw | 4 | All Maps","protocol":17,"map":"pl_upward","folder":"tf","game":"Team Fortress","app_id":440,"player_count":5,"max_players":24,"Bots":0,"server_type":"Dedicated","server_os":"Linux","password":true,"vac":true,"version":"7757534","steam_id":85568392925397853,"keywords":["nocrits","nodmgspread","payload","uncletopia"],"game_id":440,"stv_port":27046,"stv_name":"Uncletopia | Warsaw | 4 | All Maps | STV","players":[{"user_id":5,"name":"Enigmus","steam_id":76561197994063627,"connected_time":1566000000000,"state":"active","ping":90},{"user_id":10,"name":"Piquesque","steam_id":76561198286763046,"connected_time":642000000000,"state":"active","ping":118},{"user_id":11,"name":"Legion of Power Liches","steam_id":76561199414716848,"connected_time":627000000000,"state":"active","ping":86},{"user_id":8,"name":"Fat Pigeon","steam_id":76561198817940142,"connected_time":1181000000000,"state":"active","ping":59},{"user_id":12,"name":"Kremit ツ","steam_id":76561199141464267,"connected_time":108000000000,"state":"active","ping":55}]},{"server_id":53,"name":"Uncletopia | Warsaw | 5 | Stopwatch Beta","name_short":"waw-5","host":"waw-1.pl.uncletopia.com","port":27055,"enabled":true,"region":"eu","cc":"pl","latitude":52.2297,"longitude":21.017532,"reserved":0,"last_update":"0001-01-01T00:00:00Z","name_a2s":"Uncletopia | Warsaw | 5 | Stopwatch Beta","protocol":17,"map":"pl_pier","folder":"tf","game":"Team Fortress","app_id":440,"player_count":0,"max_players":24,"Bots":0,"server_type":"Dedicated","server_os":"Linux","password":true,"vac":true,"version":"7757534","steam_id":85568392925397854,"keywords":["nocrits","nodmgspread","payload","uncletopia"],"game_id":440,"stv_port":27056,"stv_name":"Uncletopia | Warsaw | 5 | Stopwatch Beta | STV","players":null},{"server_id":54,"name":"Uncletopia | Warsaw | 6 | Community","name_short":"waw-6","host":"waw-1.pl.uncletopia.com","port":27065,"enabled":true,"region":"eu","cc":"pl","latitude":52.2297,"longitude":21.017532,"reserved":0,"last_update":"0001-01-01T00:00:00Z","name_a2s":"Uncletopia | Warsaw | 6 | Community","protocol":17,"map":"koth_highpass","folder":"tf","game":"Team Fortress","app_id":440,"player_count":0,"max_players":24,"Bots":0,"server_type":"Dedicated","server_os":"Linux","password":true,"vac":true,"version":"7757534","steam_id":85568392925397856,"keywords":["cp","nocrits","nodmgspread","uncletopia"],"game_id":440,"stv_port":27066,"stv_name":"Uncletopia | Warsaw | 6 | Community | STV","players":null}]}