{"status":true,"message":"","result":[{"server_id":9,"name":"Uncletopia | Atlanta | 1 | All Maps","name_short":"atl-1","host":"atl-1.us.uncletopia.com","port":27015,"enabled":true,"region":"us-east","cc":"us","latitude":33.753746,"longitude":-84.38633,"reserved":0,"last_update":"0001-01-01T00:00:00Z","name_a2s":"Uncletopia | Atlanta | 1 | All Maps","protocol":17,"map":"pl_upward","folder":"tf","game":"Team Fortress","app_id":440,"player_count":24,"max_players":24,"Bots":0,"server_type":"Dedicated","server_os":"Linux","password":true,"vac":true,"version":"7757534","steam_id":85568392924469982,"keywords":["nocrits","nodmgspread","payload","uncletopia"],"game_id":440,"stv_port":27016,"stv_name":"Uncletopia | Atlanta | 1 | All Maps | STV","players":[{"user_id":402,"name":"fr","steam_id":76561198119826352,"connected_time":1818000000000,"state":"active","ping":60},{"user_id":297,"name":"Stewartsaurus","steam_id":76561198173175137,"connected_time":9049000000000,"state":"active","ping":120},{"user_id":414,"name":"Monkey","steam_id":76561198031015186,"connected_time":1033000000000,"state":"active","ping":76},{"user_id":416,"name":"Krumping to Save America","steam_id":76561198010708247,"connected_time":900000000000,"state":"active","ping":91},{"user_id":420,"name":"Omega Move","steam_id":76561198031577205,"connected_time":830000000000,"state":"active","ping":76},{"user_id":406,"name":"Constable","steam_id":76561198135578153,"connected_time":1375000000000,"state":"active","ping":64},{"user_id":417,"name":"Crazy","steam_id":76561198027519329,"connected_time":860000000000,"state":"active","ping":89},{"user_id":411,"name":"The Cool Man","steam_id":76561198096420556,"connected_time":1053000000000,"state":"active","ping":94},{"user_id":385,"name":"stink","steam_id":76561198099318923,"connected_time":3032000000000,"state":"active","ping":70},{"user_id":424,"name":"johnathan","steam_id":76561198866363114,"connected_time":774000000000,"state":"active","ping":62},{"user_id":398,"name":"jae","steam_id":76561199239926014,"connected_time":2086000000000,"state":"active","ping":66},{"user_id":330,"name":"cola","steam_id":76561198374390458,"connected_time":7029000000000,"state":"active","ping":52},{"user_id":407,"name":"Lilith","steam_id":76561198125102885,"connected_time":1165000000000,"state":"active","ping":66},{"user_id":413,"name":"abirdwitharms","steam_id":76561198062376955,"connected_time":1049000000000,"state":"active","ping":82},{"user_id":391,"name":"Shmoopy","steam_id":76561198030459152,"connected_time":2682000000000,"state":"active","ping":67},{"user_id":370,"name":"Dino","steam_id":76561198085130361,"connected_time":3964000000000,"state":"active","ping":112},{"user_id":429,"name":"onsen episode","steam_id":76561197965022076,"connected_time":472000000000,"state":"active","ping":69},{"user_id":426,"name":"MildThanatos","steam_id":76561198281628036,"connected_time":605000000000,"state":"active","ping":66},{"user_id":428,"name":"Crows go mooo","steam_id":76561198089489656,"connected_time":500000000000,"state":"active","ping":89},{"user_id":378,"name":"sexygoblin54","steam_id":76561198143988056,"connected_time":3769000000000,"state":"active","ping":114},{"user_id":408,"name":"♡Alyx♡","steam_id":76561198024303978,"connected_time":1162000000000,"state":"active","ping":58},{"user_id":425,"name":"egg","steam_id":76561198081367345,"connected_time":726000000000,"state":"active","ping":72},{"user_id":404,"name":"Brian","steam_id":76561198089908485,"connected_time":1412000000000,"state":"active","ping":56},{"user_id":409,"name":"DFR DeezNoodlez","steam_id":76561198246700372,"connected_time":1161000000000,"state":"active","ping":60}]},{"server_id":104,"name":"Uncletopia | Atlanta | 2 | All Maps","name_short":"atl-2","host":"atl-1.us.uncletopia.com","port":27025,"enabled":true,"region":"us-east","cc":"us","latitude":33.753746,"longitude":-84.38633,"reserved":0,"last_update":"0001-01-01T00:00:00Z","name_a2s":"Uncletopia | Atlanta | 2 | All Maps","protocol":17,"map":"pl_badwater","folder":"tf","game":"Team Fortress","app_id":440,"player_count":24,"max_players":24,"Bots":0,"server_type":"Dedicated","server_os":"Linux","password":true,"vac":true,"version":"7757534","steam_id":85568392924469983,"keywords":["nocrits","nodmgspread","payload","uncletopia"],"game_id":440,"stv_port":27026,"stv_name":"Uncletopia | Atlanta | 2 | All Maps | STV","players":[{"user_id":145,"name":"Higglestaff","steam_id":76561198043960257,"connected_time":2205000000000,"state":"active","ping":76},{"user_id":129,"name":"MyamE","steam_id":76561198133278462,"connected_time":3967000000000,"state":"active","ping":72},{"user_id":101,"name":"Garlb","steam_id":76561198044636706,"connected_time":6544000000000,"state":"active","ping":102},{"user_id":156,"name":"splatt","steam_id":76561198217172111,"connected_time":1093000000000,"state":"active","ping":79},{"user_id":138,"name":"Razz","steam_id":76561198158027533,"connected_time":3254000000000,"state":"active","ping":60},{"user_id":160,"name":"Kacey","steam_id":76561198017063317,"connected_time":674000000000,"state":"active","ping":73},{"user_id":161,"name":"Darklordofbunnies","steam_id":76561197988922192,"connected_time":672000000000,"state":"active","ping":67},{"user_id":136,"name":"2funky","steam_id":76561198210915723,"connected_time":3392000000000,"state":"active","ping":75},{"user_id":134,"name":"black_gazebo","steam_id":76561197991652544,"connected_time":3443000000000,"state":"active","ping":102},{"user_id":144,"name":"Treeckogeek","steam_id":76561198453328078,"connected_time":2590000000000,"state":"active","ping":72},{"user_id":114,"name":"SeaBass","steam_id":76561198278914206,"connected_time":6092000000000,"state":"active","ping":64},{"user_id":99,"name":"Hindmost","steam_id":76561199081837220,"connected_time":6675000000000,"state":"active","ping":55},{"user_id":105,"name":"Wilhelmktx","steam_id":76561198158102295,"connected_time":6466000000000,"state":"active","ping":79},{"user_id":162,"name":"MrLeftTurn","steam_id":76561198856743969,"connected_time":664000000000,"state":"active","ping":153},{"user_id":163,"name":"CreativeUsername","steam_id":76561198186045503,"connected_time":547000000000,"state":"active","ping":66},{"user_id":148,"name":"Saristan","steam_id":76561198093346048,"connected_time":2085000000000,"state":"active","ping":53},{"user_id":100,"name":"Coffeebeans","steam_id":76561197987543188,"connected_time":6647000000000,"state":"active","ping":105},{"user_id":154,"name":"flappyflap2","steam_id":76561198285048973,"connected_time":1198000000000,"state":"active","ping":59},{"user_id":164,"name":"Papyrus Undertale","steam_id":76561199202517286,"connected_time":443000000000,"state":"active","ping":52},{"user_id":150,"name":"Gamba","steam_id":76561198069264650,"connected_time":2044000000000,"state":"active","ping":89},{"user_id":66,"name":"Atlas","steam_id":76561198127975050,"connected_time":9482000000000,"state":"active","ping":49},{"user_id":159,"name":"Snoogs","steam_id":76561198444880931,"connected_time":708000000000,"state":"active","ping":71},{"user_id":166,"name":"Xmoonsheep","steam_id":76561198158384685,"connected_time":131000000000,"state":"active","ping":57},{"user_id":79,"name":"Skinny Pete","steam_id":76561198801608576,"connected_time":8776000000000,"state":"active","ping":74}]},{"server_id":400,"name":"Uncletopia | Atlanta | 3 | Community","name_short":"atl-3","host":"atl-1.us.uncletopia.com","port":27035,"enabled":true,"region":"us-east","cc":"us","latitude":33.753746,"longitude":-84.38633,"reserved":0,"last_update":"0001-01-01T00:00:00Z","name_a2s":"Uncletopia | Atlanta | 3 | Community","protocol":17,"map":"workshop/cp_glacier_rc6.ugc2905735376","folder":"tf","game":"Team Fortress","app_id":440,"player_count":0,"max_players":24,"Bots":0,"server_type":"Dedicated","server_os":"Linux","password":true,"vac":true,"version":"7757534","steam_id":85568392924515187,"keywords":["cp","nocrits","nodmgspread","uncletopia"],"game_id":440,"stv_port":27036,"stv_name":"Uncletopia | Atlanta | 3 | Community | STV","players":null},{"server_id":401,"name":"Uncletopia | Atlanta | 4 | No Payload","name_short":"atl-4","host":"atl-1.us.uncletopia.com","port":27045,"enabled":true,"region":"us-east","cc":"us","latitude":33.753746,"longitude":-84.38633,"reserved":0,"last_update":"0001-01-01T00:00:00Z","name_a2s":"","protocol":0,"map":"","folder":"","game":"","app_id":0,"player_count":0,"max_players":0,"Bots":0,"server_type":"","server_os":"","password":false,"vac":false,"version":"","steam_id":0,"keywords":null,"game_id":0,"stv_port":0,"stv_name":"","players":null},{"server_id":2,"name":"Uncletopia | Chicago | 1 | All Maps","name_short":"chi-1","host":"chi-1.us.uncletopia.com","port":27015,"enabled":true,"region":"us-central","cc":"us","latitude":41.881832,"longitude":-87.62318,"reserved":0,"last_update":"0001-01-01T00:00:00Z","name_a2s":"Uncletopia | Chicago | 1 | All Maps","protocol":17,"map":"pl_snowycoast","folder":"tf","game":"Team Fortress","app_id":440,"player_count":24,"max_players":24,"Bots":0,"server_type":"Dedicated","server_os":"Linux","password":true,"vac":true,"version":"7757534","steam_id":85568392924469984,"keywords":["nocrits","nodmgspread","payload","uncletopia"],"game_id":440,"stv_port":27016,"stv_name":"Uncletopia | Chicago | 1 | All Maps | STV","players":[{"user_id":671,"name":"Ehttri","steam_id":76561198170138667,"connected_time":2734000000000,"state":"active","ping":97},{"user_id":670,"name":"Horrizan","steam_id":76561197965028480,"connected_time":3309000000000,"state":"active","ping":85},{"user_id":700,"name":"fancyfreak","steam_id":76561198326466375,"connected_time":98000000000,"state":"active","ping":95},{"user_id":667,"name":"alexfuzzy","steam_id":76561199291945851,"connected_time":3395000000000,"state":"active","ping":90},{"user_id":658,"name":"Im High","steam_id":76561198049954886,"connected_time":4848000000000,"state":"active","ping":64},{"user_id":661,"name":"doug jones REAL","steam_id":76561198046650995,"connected_time":4457000000000,"state":"active","ping":86},{"user_id":651,"name":"hi","steam_id":76561198809577048,"connected_time":5284000000000,"state":"active","ping":102},{"user_id":696,"name":"Baka!⑨⑨⑨⑨","steam_id":76561198152948254,"connected_time":292000000000,"state":"active","ping":71},{"user_id":668,"name":"Snom","steam_id":76561198333827920,"connected_time":3390000000000,"state":"active","ping":97},{"user_id":698,"name":"deepmeta","steam_id":76561199053600691,"connected_time":250000000000,"state":"active","ping":63},{"user_id":672,"name":"Lore","steam_id":76561198098407538,"connected_time":2683000000000,"state":"active","ping":45},{"user_id":681,"name":"Joe Biden","steam_id":76561198238699798,"connected_time":2166000000000,"state":"active","ping":83},{"user_id":652,"name":"Astoriae!","steam_id":76561199090168858,"connected_time":5284000000000,"state":"active","ping":72},{"user_id":673,"name":"Person","steam_id":76561198093244204,"connected_time":2682000000000,"state":"active","ping":75},{"user_id":693,"name":"Siri Keeton","steam_id":76561198006579827,"connected_time":731000000000,"state":"active","ping":85},{"user_id":682,"name":"Russell Crowe","steam_id":76561197970834547,"connected_time":2164000000000,"state":"active","ping":75},{"user_id":676,"name":"eThaNos","steam_id":76561198035403279,"connected_time":2484000000000,"state":"active","ping":69},{"user_id":677,"name":"Sprinklingmydoughnut","steam_id":76561198168009092,"connected_time":2426000000000,"state":"active","ping":75},{"user_id":669,"name":"Lawtumn","steam_id":76561198347286009,"connected_time":3375000000000,"state":"active","ping":83},{"user_id":690,"name":"Turtle","steam_id":76561198098121333,"connected_time":925000000000,"state":"active","ping":69},{"user_id":656,"name":"Thundermonkey (SMOKE)","steam_id":76561198017631728,"connected_time":5118000000000,"state":"active","ping":67},{"user_id":691,"name":"PineappleSalesman","steam_id":76561198881039861,"connected_time":923000000000,"state":"active","ping":45},{"user_id":697,"name":"moneyspread","steam_id":76561199063940848,"connected_time":292000000000,"state":"active","ping":71},{"user_id":526,"name":"HumFreY","steam_id":76561198076639682,"connected_time":11726000000000,"state":"active","ping":72}]},{"server_id":106,"name":"Uncletopia | Chicago | 2 | All Maps","name_short":"chi-2","host":"chi-1.us.uncletopia.com","port":27025,"enabled":true,"region":"us-central","cc":"us","latitude":41.881832,"longitude":-87.62318,"reserved":0,"last_update":"0001-01-01T00:00:00Z","name_a2s":"Uncletopia | Chicago | 2 | All Maps","protocol":17,"map":"cp_dustbowl","folder":"tf","game":"Team Fortress","app_id":440,"player_count":23,"max_players":24,"Bots":0,"server_type":"Dedicated","server_os":"Linux","password":true,"vac":true,"version":"7757534","steam_id":85568392924469985,"keywords":["cp","nocrits","nodmgspread","uncletopia"],"game_id":440,"stv_port":27026,"stv_name":"Uncletopia | Chicago | 2 | All Maps | STV","players":[{"user_id":592,"name":"Pal","steam_id":76561198004363431,"connected_time":4411000000000,"state":"active","ping":97},{"user_id":643,"name":"Motorbung87","steam_id":76561198976821898,"connected_time":74000000000,"state":"active","ping":94},{"user_id":624,"name":"iceman","steam_id":76561198135397441,"connected_time":1657000000000,"state":"active","ping":77},{"user_id":637,"name":"cade","steam_id":76561198349941380,"connected_time":248000000000,"state":"active","ping":45},{"user_id":627,"name":"蓝光版乔污垢","steam_id":76561199088154401,"connected_time":1068000000000,"state":"active","ping":65},{"user_id":622,"name":"Flubzy1","steam_id":76561198379456004,"connected_time":1701000000000,"state":"active","ping":61},{"user_id":617,"name":"Gorgon Freeman","steam_id":76561198000367036,"connected_time":2289000000000,"state":"active","ping":58},{"user_id":608,"name":"Mr.YoYo","steam_id":76561198988717854,"connected_time":2815000000000,"state":"active","ping":65},{"user_id":632,"name":"Poopie Babie","steam_id":76561198047500494,"connected_time":978000000000,"state":"active","ping":60},{"user_id":629,"name":"Speedy","steam_id":76561198080761661,"connected_time":1028000000000,"state":"active","ping":84},{"user_id":621,"name":"Poison Duck","steam_id":76561198103155890,"connected_time":2236000000000,"state":"active","ping":84},{"user_id":619,"name":"swagmessiah0","steam_id":76561198979823647,"connected_time":2264000000000,"state":"active","ping":57},{"user_id":599,"name":"Digitic","steam_id":76561198080295536,"connected_time":3790000000000,"state":"active","ping":75},{"user_id":630,"name":"your mom calls me princess too","steam_id":76561198020400899,"connected_time":1027000000000,"state":"active","ping":60},{"user_id":633,"name":"Codo Sapien","steam_id":76561198014206810,"connected_time":948000000000,"state":"active","ping":30},{"user_id":640,"name":"Enderman_of_D00M","steam_id":76561198170195285,"connected_time":145000000000,"state":"active","ping":86},{"user_id":626,"name":"Um, cool!","steam_id":76561198129870038,"connected_time":1554000000000,"state":"active","ping":105},{"user_id":620,"name":"I Eat Trains","steam_id":76561198054791624,"connected_time":2244000000000,"state":"active","ping":54},{"user_id":623,"name":"hashmap","steam_id":76561198043794014,"connected_time":1700000000000,"state":"active","ping":46},{"user_id":498,"name":"rudy","steam_id":76561198088712799,"connected_time":7182000000000,"state":"active","ping":73},{"user_id":635,"name":"TheSky4lif","steam_id":76561198871331139,"connected_time":923000000000,"state":"active","ping":70},{"user_id":642,"name":"Dabbledornk","steam_id":76561198065241300,"connected_time":107000000000,"state":"active","ping":59},{"user_id":610,"name":"jimmyfnaf172198yay","steam_id":76561198311446636,"connected_time":2522000000000,"state":"active","ping":58}]},{"server_id":402,"name":"Uncletopia | Chicago | 3 | All Maps","name_short":"chi-3","host":"chi-1.us.uncletopia.com","port":27035,"enabled":true,"region":"us-central","cc":"us","latitude":41.881832,"longitude":-87.62318,"reserved":0,"last_update":"0001-01-01T00:00:00Z","name_a2s":"Uncletopia | Chicago | 3 | All Maps","protocol":17,"map":"pl_pier","folder":"tf","game":"Team Fortress","app_id":440,"player_count":24,"max_players":24,"Bots":0,"server_type":"Dedicated","server_os":"Linux","password":true,"vac":true,"version":"7757534","steam_id":85568392924515191,"keywords":["nocrits","nodmgspread","payload","uncletopia"],"game_id":440,"stv_port":27036,"stv_name":"Uncletopia | Chicago | 3 | All Maps | STV","players":[{"user_id":413,"name":"Oxami","steam_id":76561198017101684,"connected_time":117000000000,"state":"active","ping":79},{"user_id":386,"name":"Wayofthepen","steam_id":76561198021228607,"connected_time":2610000000000,"state":"active","ping":67},{"user_id":367,"name":"brinks truck","steam_id":76561198126489501,"connected_time":4638000000000,"state":"active","ping":52},{"user_id":378,"name":"Felipe Ramirez 2013","steam_id":76561198150497397,"connected_time":3521000000000,"state":"active","ping":58},{"user_id":412,"name":"the penis act of 1996","steam_id":76561198073269122,"connected_time":282000000000,"state":"active","ping":67},{"user_id":342,"name":"Soup","steam_id":76561198027803528,"connected_time":7064000000000,"state":"active","ping":64},{"user_id":380,"name":"ShitsandGiggles™","steam_id":76561198058708019,"connected_time":3357000000000,"state":"active","ping":54},{"user_id":404,"name":"jadesoup","steam_id":76561198082728954,"connected_time":529000000000,"state":"active","ping":73},{"user_id":383,"name":"Mush","steam_id":76561198393461065,"connected_time":2778000000000,"state":"active","ping":82},{"user_id":387,"name":"Totouri","steam_id":76561198004229789,"connected_time":2606000000000,"state":"active","ping":73},{"user_id":407,"name":"polaris","steam_id":76561198212481737,"connected_time":502000000000,"state":"active","ping":43},{"user_id":411,"name":"Toottoot","steam_id":76561197992404836,"connected_time":442000000000,"state":"active","ping":45},{"user_id":381,"name":"Sandy","steam_id":76561198150108571,"connected_time":2794000000000,"state":"active","ping":89},{"user_id":344,"name":"Elusive139","steam_id":76561198871584620,"connected_time":7048000000000,"state":"active","ping":62},{"user_id":410,"name":"Universe Man","steam_id":76561197997710655,"connected_time":459000000000,"state":"active","ping":87},{"user_id":409,"name":"Nodin","steam_id":76561198135757376,"connected_time":482000000000,"state":"active","ping":60},{"user_id":405,"name":"Trash Man","steam_id":76561198874518834,"connected_time":524000000000,"state":"active","ping":83},{"user_id":384,"name":"Fudgely","steam_id":76561198039425862,"connected_time":2757000000000,"state":"active","ping":75},{"user_id":394,"name":"TheSnipersHat","steam_id":76561198057684066,"connected_time":1793000000000,"state":"active","ping":61},{"user_id":393,"name":"Anderred","steam_id":76561198149983847,"connected_time":1843000000000,"state":"active","ping":83},{"user_id":400,"name":"silvestrelops","steam_id":76561198275189720,"connected_time":887000000000,"state":"active","ping":135},{"user_id":389,"name":"boop","steam_id":76561198043787598,"connected_time":2423000000000,"state":"active","ping":56},{"user_id":401,"name":"Front Facing Magikarp","steam_id":76561198085888959,"connected_time":549000000000,"state":"active","ping":57},{"user_id":406,"name":"vacachimuela","steam_id":76561198297332421,"connected_time":519000000000,"state":"active","ping":111}]},{"server_id":403,"name":"Uncletopia | Chicago | 4 | All Maps","name_short":"chi-4","host":"chi-1.us.uncletopia.com","port":27045,"enabled":true,"region":"us-central","cc":"us","latitude":41.881832,"longitude":-87.62318,"reserved":0,"last_update":"0001-01-01T00:00:00Z","name_a2s":"Uncletopia | Chicago | 4 | All Maps","protocol":17,"map":"cp_mossrock","folder":"tf","game":"Team Fortress","app_id":440,"player_count":23,"max_players":24,"Bots":0,"server_type":"Dedicated","server_os":"Linux","password":true,"vac":true,"version":"7757534","steam_id":85568392924515193,"keywords":["cp","nocrits","nodmgspread","uncletopia"],"game_id":440,"stv_port":27046,"stv_name":"Uncletopia | Chicago | 4 | All Maps | STV","players":[{"user_id":650,"name":"VioletSpecs","steam_id":76561198089366466,"connected_time":2046000000000,"state":"active","ping":84},{"user_id":636,"name":"dbelow_","steam_id":76561198056148853,"connected_time":3265000000000,"state":"active","ping":61},{"user_id":571,"name":"Pancreas Enjoyer","steam_id":76561199438598904,"connected_time":7766000000000,"state":"active","ping":95},{"user_id":666,"name":"Prime Rizziler","steam_id":76561199100612353,"connected_time":341000000000,"state":"active","ping":58},{"user_id":653,"name":"igotmail","steam_id":76561198070631899,"connected_time":1385000000000,"state":"active","ping":68},{"user_id":654,"name":"Dojoloachfr","steam_id":76561198826298849,"connected_time":1352000000000,"state":"active","ping":91},{"user_id":640,"name":"ultralisk52","steam_id":76561198051666604,"connected_time":2911000000000,"state":"active","ping":63},{"user_id":603,"name":"wokky bin laddn","steam_id":76561198265200834,"connected_time":5027000000000,"state":"active","ping":77},{"user_id":663,"name":"Qwerty","steam_id":76561198023525894,"connected_time":644000000000,"state":"active","ping":164},{"user_id":644,"name":"surfer","steam_id":76561198068409067,"connected_time":2423000000000,"state":"active","ping":75},{"user_id":665,"name":"Thordude","steam_id":76561199087162916,"connected_time":500000000000,"state":"active","ping":101},{"user_id":627,"name":"Metbol","steam_id":76561198001362410,"connected_time":3570000000000,"state":"active","ping":81},{"user_id":662,"name":"Gaming Goober","steam_id":76561198055416313,"connected_time":806000000000,"state":"active","ping":81},{"user_id":651,"name":"Legit_Jaxer","steam_id":76561198172234053,"connected_time":2043000000000,"state":"active","ping":125},{"user_id":656,"name":"Epha","steam_id":76561198079379951,"connected_time":1339000000000,"state":"active","ping":65},{"user_id":648,"name":"Leviathan","steam_id":76561197997528907,"connected_time":2210000000000,"state":"active","ping":55},{"user_id":588,"name":"Leftshadows","steam_id":76561199089515791,"connected_time":6337000000000,"state":"active","ping":119},{"user_id":657,"name":"the girl gamer with IBS","steam_id":76561198029274581,"connected_time":1285000000000,"state":"active","ping":64},{"user_id":664,"name":"Scoober","steam_id":76561198079736959,"connected_time":563000000000,"state":"active","ping":85},{"user_id":658,"name":"golem","steam_id":76561198355040593,"connected_time":1281000000000,"state":"active","ping":77},{"user_id":646,"name":"Trumpetspyman59","steam_id":76561198048989561,"connected_time":2404000000000,"state":"active","ping":66},{"user_id":597,"name":"PaintMyMeow","steam_id":76561198056860387,"connected_time":5681000000000,"state":"active","ping":73},{"user_id":659,"name":"Salad gaming (real)","steam_id":76561198298310744,"connected_time":1255000000000,"state":"active","ping":81}]},{"server_id":36,"name":"Uncletopia | Chicago | 5 | All Maps","name_short":"chi-5","host":"chi-2.us.uncletopia.com","port":27015,"enabled":true,"region":"us-central","cc":"us","latitude":41.881832,"longitude":-87.62318,"reserved":0,"last_update":"0001-01-01T00:00:00Z","name_a2s":"Uncletopia | Chicago | 5 | All Maps","protocol":17,"map":"pl_barnblitz","folder":"tf","game":"Team Fortress","app_id":440,"player_count":24,"max_players":24,"Bots":0,"server_type":"Dedicated","server_os":"Linux","password":true,"vac":true,"version":"7757534","steam_id":85568392924866362,"keywords":["nocrits","nodmgspread","payload","uncletopia"],"game_id":440,"stv_port":27016,"stv_name":"Uncletopia | Chicago | 5 | All Maps | STV","players":[{"user_id":440,"name":"_normal","steam_id":76561198338505734,"connected_time":1006000000000,"state":"active","ping":57},{"user_id":459,"name":"Irate Gamer Official","steam_id":76561198162688146,"connected_time":522000000000,"state":"active","ping":102},{"user_id":364,"name":"Erious","steam_id":76561198431446386,"connected_time":5082000000000,"state":"active","ping":66},{"user_id":457,"name":"Apricot","steam_id":76561198355699935,"connected_time":582000000000,"state":"active","ping":63},{"user_id":429,"name":"ThePowerOfPoe","steam_id":76561199013287986,"connected_time":1312000000000,"state":"active","ping":103},{"user_id":325,"name":"Piyono","steam_id":76561197962188504,"connected_time":7820000000000,"state":"active","ping":79},{"user_id":446,"name":"Kingston","steam_id":76561198165640491,"connected_time":847000000000,"state":"active","ping":85},{"user_id":448,"name":"WarMace","steam_id":76561198395937853,"connected_time":785000000000,"state":"active","ping":78},{"user_id":443,"name":"gista","steam_id":76561198120225915,"connected_time":855000000000,"state":"active","ping":64},{"user_id":449,"name":"Karl","steam_id":76561198269578048,"connected_time":781000000000,"state":"active","ping":88},{"user_id":445,"name":"LogieMBerra","steam_id":76561198384661534,"connected_time":849000000000,"state":"active","ping":75},{"user_id":431,"name":"Dangerous_Dave76","steam_id":76561199230056550,"connected_time":1185000000000,"state":"active","ping":121},{"user_id":461,"name":"I BREED CATS","steam_id":76561198880304614,"connected_time":100000000000,"state":"active","ping":59},{"user_id":447,"name":"Ringo x Seiran","steam_id":76561198357437908,"connected_time":838000000000,"state":"active","ping":61},{"user_id":417,"name":"haxxorman","steam_id":76561199155156400,"connected_time":1810000000000,"state":"active","ping":53},{"user_id":450,"name":"Soda","steam_id":76561198219209367,"connected_time":781000000000,"state":"active","ping":59},{"user_id":451,"name":"doctor large","steam_id":76561199195836752,"connected_time":750000000000,"state":"active","ping":72},{"user_id":456,"name":"Delightful MadCat","steam_id":76561198086178426,"connected_time":672000000000,"state":"active","ping":79},{"user_id":453,"name":"Streetwise","steam_id":76561197971684268,"connected_time":734000000000,"state":"active","ping":88},{"user_id":433,"name":"MILF PLANET","steam_id":76561198079026982,"connected_time":1169000000000,"state":"active","ping":92},{"user_id":460,"name":"shibaba bababool","steam_id":76561197972601902,"connected_time":327000000000,"state":"active","ping":88},{"user_id":434,"name":"boomawrnamglrhejgoughdrg","steam_id":76561198056324307,"connected_time":1158000000000,"state":"active","ping":60},{"user_id":360,"name":"Yameetis","steam_id":76561199216932748,"connected_time":5346000000000,"state":"active","ping":108},{"user_id":455,"name":"BubbaBasher","steam_id":76561198829909547,"connected_time":696000000000,"state":"active","ping":54}]},{"server_id":37,"name":"Uncletopia | Chicago | 6 | All Maps","name_short":"chi-6","host":"chi-2.us.uncletopia.com","port":27025,"enabled":true,"region":"us-central","cc":"us","latitude":41.881832,"longitude":-87.62318,"reserved":0,"last_update":"0001-01-01T00:00:00Z","name_a2s":"Uncletopia | Chicago | 6 | All Maps","protocol":17,"map":"pl_upward","folder":"tf","game":"Team Fortress","app_id":440,"player_count":21,"max_players":24,"Bots":0,"server_type":"Dedicated","server_os":"Linux","password":true,"vac":true,"version":"7757534","steam_id":85568392924866363,"keywords":["nocrits","nodmgspread","payload","uncletopia"],"game_id":440,"stv_port":27026,"stv_name":"Uncletopia | Chicago | 6 | All Maps | STV","players":[{"user_id":237,"name":"=3][canners]","steam_id":76561198103496593,"connected_time":2310000000000,"state":"active","ping":92},{"user_id":274,"name":"thock enjoyer","steam_id":76561198392539722,"connected_time":465000000000,"state":"active","ping":79},{"user_id":225,"name":"45 Cent","steam_id":76561198048690188,"connected_time":2506000000000,"state":"active","ping":64},{"user_id":277,"name":"Christmas Ham","steam_id":76561198119601623,"connected_time":149000000000,"state":"active","ping":136},{"user_id":280,"name":"Ame","steam_id":76561198063597985,"connected_time":40000000000,"state":"spawning","ping":71},{"user_id":281,"name":"Fargo","steam_id":76561198044703931,"connected_time":15000000000,"state":"active","ping":64},{"user_id":282,"name":"Chuckster","steam_id":76561198093523937,"connected_time":9000000000,"state":"spawning","ping":58},{"user_id":275,"name":"Cheif","steam_id":76561198802147518,"connected_time":434000000000,"state":"active","ping":49},{"user_id":283,"name":"(F2P) Firezilla Alfredo","steam_id":76561199115115342,"connected_time":2000000000,"state":"spawning","ping":229},{"user_id":256,"name":"Professional Brohamad","steam_id":76561198824025210,"connected_time":1512000000000,"state":"active","ping":46},{"user_id":243,"name":"UNIT 220","steam_id":76561198042243497,"connected_time":2029000000000,"state":"active","ping":76},{"user_id":258,"name":"Truth","steam_id":76561198047385041,"connected_time":1274000000000,"state":"active","ping":113},{"user_id":214,"name":"Ace Chromatica","steam_id":76561198042211131,"connected_time":4616000000000,"state":"active","ping":59},{"user_id":267,"name":"ʕ•ᴥ•ʔ the bear","steam_id":76561197989591976,"connected_time":1016000000000,"state":"active","ping":75},{"user_id":265,"name":"Bafoon","steam_id":76561198976722072,"connected_time":1079000000000,"state":"active","ping":84},{"user_id":278,"name":"Major_Pippy","steam_id":76561198004482878,"connected_time":50000000000,"state":"active","ping":95},{"user_id":175,"name":"Nilantive","steam_id":76561198177565082,"connected_time":7195000000000,"state":"spawning","ping":67},{"user_id":249,"name":"-W3E- grim10465","steam_id":76561198045698581,"connected_time":1950000000000,"state":"active","ping":53},{"user_id":178,"name":"THGAwesome","steam_id":76561198162847218,"connected_time":7174000000000,"state":"spawning","ping":85},{"user_id":252,"name":"Importality","steam_id":76561198049943127,"connected_time":1883000000000,"state":"active","ping":83},{"user_id":279,"name":"Take the L","steam_id":76561198379223875,"connected_time":50000000000,"state":"active","ping":64}]},{"server_id":38,"name":"Uncletopia | Chicago | 7 | Stopwatch Beta","name_short":"chi-7","host":"chi-2.us.uncletopia.com","port":27035,"enabled":true,"region":"us-central","cc":"us","latitude":41.881832,"longitude":-87.62318,"reserved":0,"last_update":"0001-01-01T00:00:00Z","name_a2s":"Uncletopia | Chicago | 7 | Stopwatch Beta","protocol":17,"map":"koth_viaduct","folder":"tf","game":"Team Fortress","app_id":440,"player_count":0,"max_players":24,"Bots":0,"server_type":"Dedicated","server_os":"Linux","password":true,"vac":true,"version":"7757534","steam_id":85568392924866364,"keywords":["cp","nocrits","nodmgspread","uncletopia"],"game_id":440,"stv_port":27036,"stv_name":"Uncletopia | Chicago | 7 | Stopwatch Beta | STV","players":null},{"server_id":39,"name":"Uncletopia | Chicago | 8 | Community","name_short":"chi-8","host":"chi-2.us.uncletopia.com","port":27045,"enabled":true,"region":"us-central","cc":"us","latitude":41.881832,"longitude":-87.62318,"reserved":0,"last_update":"0001-01-01T00:00:00Z","name_a2s":"Uncletopia | Chicago | 8 | Community","protocol":17,"map":"workshop/koth_bagel_rc6.ugc2514036946","folder":"tf","game":"Team Fortress","app_id":440,"player_count":5,"max_players":24,"Bots":0,"server_type":"Dedicated","server_os":"Linux","password":true,"vac":true,"version":"7757534","steam_id":85568392924866365,"keywords":["cp","nocrits","nodmgspread","uncletopia"],"game_id":440,"stv_port":27046,"stv_name":"Uncletopia | Chicago | 8 | Community | STV","players":[{"user_id":438,"name":"majorbobfunction","steam_id":76561198042464632,"connected_time":51000000000,"state":"active","ping":59},{"user_id":439,"name":"ShadowWasUhOh","steam_id":76561198400361935,"connected_time":24000000000,"state":"spawning","ping":173},{"user_id":410,"name":"PaPá Soulzuneヅ","steam_id":76561198139615052,"connected_time":1397000000000,"state":"active","ping":101},{"user_id":436,"name":"Idiot","steam_id":76561198083440914,"connected_time":253000000000,"state":"active","ping":65},{"user_id":426,"name":"Ziy???","steam_id":76561197995765491,"connected_time":725000000000,"state":"active","ping":142}]},{"server_id":8,"name":"Uncletopia | Dallas | 1 | All Maps","name_short":"dal-1","host":"dal-1.us.uncletopia.com","port":27015,"enabled":true,"region":"us-central","cc":"us","latitude":32.779167,"longitude":-96.80889,"reserved":0,"last_update":"0001-01-01T00:00:00Z","name_a2s":"Uncletopia | Dallas | 1 | All Maps","protocol":17,"map":"pl_upward","folder":"tf","game":"Team Fortress","app_id":440,"player_count":24,"max_players":24,"Bots":0,"server_type":"Dedicated","server_os":"Linux","password":true,"vac":true,"version":"7757534","steam_id":85568392924469986,"keywords":["nocrits","nodmgspread","payload","uncletopia"],"game_id":440,"stv_port":27016,"stv_name":"Uncletopia | Dallas | 1 | All Maps | STV","players":[{"user_id":414,"name":"Goblin Merchant (50 OFF)","steam_id":76561199323707429,"connected_time":1202000000000,"state":"active","ping":65},{"user_id":400,"name":"Cofi","steam_id":76561199026721822,"connected_time":2365000000000,"state":"active","ping":83},{"user_id":396,"name":"DragonHeart","steam_id":76561198013245625,"connected_time":2595000000000,"state":"active","ping":70},{"user_id":406,"name":"FoamyPirate.h","steam_id":76561197970312151,"connected_time":1535000000000,"state":"active","ping":67},{"user_id":407,"name":"mari_","steam_id":76561198137855741,"connected_time":1534000000000,"state":"active","ping":75},{"user_id":399,"name":"El Camino","steam_id":76561197992848313,"connected_time":2415000000000,"state":"active","ping":86},{"user_id":394,"name":"white woman","steam_id":76561199116679777,"connected_time":2636000000000,"state":"active","ping":76},{"user_id":408,"name":"boo_thefeared","steam_id":76561198127967685,"connected_time":1526000000000,"state":"active","ping":160},{"user_id":421,"name":"GLG.Liz","steam_id":76561198021957956,"connected_time":481000000000,"state":"active","ping":61},{"user_id":424,"name":"elevatorboi","steam_id":76561198373691695,"connected_time":242000000000,"state":"active","ping":92},{"user_id":409,"name":"Sean","steam_id":76561198011422340,"connected_time":1499000000000,"state":"active","ping":68},{"user_id":429,"name":"CRAM MAN","steam_id":76561198838146043,"connected_time":114000000000,"state":"active","ping":57},{"user_id":333,"name":"Estetrius","steam_id":76561198016993850,"connected_time":8046000000000,"state":"active","ping":58},{"user_id":410,"name":"Halcyon","steam_id":76561199103213955,"connected_time":1499000000000,"state":"active","ping":103},{"user_id":395,"name":"Gengoron","steam_id":76561197994829919,"connected_time":2605000000000,"state":"active","ping":111},{"user_id":419,"name":"KnifeScope","steam_id":76561198057632106,"connected_time":675000000000,"state":"active","ping":54},{"user_id":368,"name":"mkl","steam_id":76561197986401685,"connected_time":4885000000000,"state":"active","ping":60},{"user_id":351,"name":"tj3002rocks","steam_id":76561199017921546,"connected_time":5956000000000,"state":"active","ping":58},{"user_id":385,"name":"Imrgrim","steam_id":76561198135866481,"connected_time":3350000000000,"state":"active","ping":71},{"user_id":365,"name":"FluttyPutty","steam_id":76561198218446556,"connected_time":5197000000000,"state":"active","ping":72},{"user_id":418,"name":"Stillkill","steam_id":76561198065069057,"connected_time":686000000000,"state":"active","ping":37},{"user_id":427,"name":"ElBentz","steam_id":76561199059582221,"connected_time":140000000000,"state":"active","ping":85},{"user_id":398,"name":"Lock'd","steam_id":76561198170108230,"connected_time":2528000000000,"state":"active","ping":60},{"user_id":420,"name":"therealtonytiger","steam_id":76561198176791382,"connected_time":675000000000,"state":"active","ping":67}]},{"server_id":108,"name":"Uncletopia | Dallas | 2 | All Maps","name_short":"dal-2","host":"dal-1.us.uncletopia.com","port":27025,"enabled":true,"region":"us-central","cc":"us","latitude":32.779167,"longitude":-96.80889,"reserved":0,"last_update":"0001-01-01T00:00:00Z","name_a2s":"Uncletopia | Dallas | 2 | All Maps","protocol":17,"map":"cp_dustbowl","folder":"tf","game":"Team Fortress","app_id":440,"player_count":24,"max_players":24,"Bots":0,"server_type":"Dedicated","server_os":"Linux","password":true,"vac":true,"version":"7757534","steam_id":85568392924469988,"keywords":["cp","nocrits","nodmgspread","uncletopia"],"game_id":440,"stv_port":27026,"stv_name":"Uncletopia | Dallas | 2 | All Maps | STV","players":[{"user_id":130,"name":"Pixel JC","steam_id":76561198014618589,"connected_time":783000000000,"state":"active","ping":108},{"user_id":48,"name":"Dragons\u003eEverything","steam_id":76561199140784635,"connected_time":5672000000000,"state":"active","ping":64},{"user_id":98,"name":"BMB","steam_id":76561198254205844,"connected_time":3024000000000,"state":"active","ping":67},{"user_id":125,"name":"Jankyo","steam_id":76561198083339492,"connected_time":1150000000000,"state":"active","ping":82},{"user_id":141,"name":"North","steam_id":76561199173696836,"connected_time":229000000000,"state":"active","ping":115},{"user_id":111,"name":"Fire Wizard","steam_id":76561198972006814,"connected_time":1961000000000,"state":"active","ping":59},{"user_id":133,"name":"iluvtoust","steam_id":76561198869269207,"connected_time":506000000000,"state":"active","ping":50},{"user_id":56,"name":"Foof","steam_id":76561198068996707,"connected_time":5180000000000,"state":"active","ping":47},{"user_id":134,"name":"S O L I D","steam_id":76561198086095072,"connected_time":449000000000,"state":"active","ping":56},{"user_id":139,"name":"sus ahhh comments","steam_id":76561198319442494,"connected_time":323000000000,"state":"active","ping":89},{"user_id":140,"name":"Flubdy_","steam_id":76561198073338521,"connected_time":268000000000,"state":"active","ping":58},{"user_id":135,"name":"Robotified","steam_id":76561198810946967,"connected_time":430000000000,"state":"active","ping":54},{"user_id":61,"name":"Voicez The Lunatic","steam_id":76561199261271286,"connected_time":5141000000000,"state":"active","ping":77},{"user_id":131,"name":"Businessman_BillTTV","steam_id":76561198035631987,"connected_time":580000000000,"state":"active","ping":58},{"user_id":142,"name":"Mof","steam_id":76561198871385923,"connected_time":85000000000,"state":"active","ping":63},{"user_id":132,"name":"Dumgum","steam_id":76561198044960992,"connected_time":519000000000,"state":"active","ping":73},{"user_id":113,"name":"Bullwinkle J. Moose","steam_id":76561198075977196,"connected_time":1951000000000,"state":"active","ping":60},{"user_id":114,"name":"Sheriff","steam_id":76561198286769436,"connected_time":1949000000000,"state":"active","ping":72},{"user_id":129,"name":"Lezabel","steam_id":76561198970753261,"connected_time":1023000000000,"state":"active","ping":70},{"user_id":127,"name":"Lots0","steam_id":76561198043143145,"connected_time":1107000000000,"state":"active","ping":70},{"user_id":92,"name":"Bobbn","steam_id":76561198876124683,"connected_time":3726000000000,"state":"active","ping":87},{"user_id":108,"name":"notdbone","steam_id":76561198045890038,"connected_time":2516000000000,"state":"active","ping":72},{"user_id":137,"name":"Faust main","steam_id":76561198971799149,"connected_time":382000000000,"state":"active","ping":68},{"user_id":138,"name":"EvilPigglet","steam_id":76561197987243470,"connected_time":376000000000,"state":"active","ping":78}]},{"server_id":5,"name":"Uncletopia | Frankfurt | 1 | All Maps","name_short":"frk-1","host":"frk-1.de.uncletopia.com","port":27015,"enabled":true,"region":"eu","cc":"de","latitude":50.110924,"longitude":8.682127,"reserved":0,"last_update":"0001-01-01T00:00:00Z","name_a2s":"Uncletopia | Frankfurt | 1 | All Maps","protocol":17,"map":"pl_pier","folder":"tf","game":"Team Fortress","app_id":440,"player_count":0,"max_players":24,"Bots":0,"server_type":"Dedicated","server_os":"Linux","password":true,"vac":true,"version":"7757534","steam_id":85568392924469989,"keywords":["nocrits","nodmgspread","payload","uncletopia"],"game_id":440,"stv_port":27016,"stv_name":"Uncletopia | Frankfurt | 1 | All Maps | STV","players":null},{"server_id":110,"name":"Uncletopia | Frankfurt | 2 | All Maps","name_short":"frk-2","host":"frk-1.de.uncletopia.com","port":27025,"enabled":true,"region":"eu","cc":"de","latitude":50.110924,"longitude":8.682127,"reserved":0,"last_update":"0001-01-01T00:00:00Z","name_a2s":"Uncletopia | Frankfurt | 2 | All Maps","protocol":17,"map":"pl_pier","folder":"tf","game":"Team Fortress","app_id":440,"player_count":12,"max_players":24,"Bots":0,"server_type":"Dedicated","server_os":"Linux","password":true,"vac":true,"version":"7757534","steam_id":85568392924469990,"keywords":["nocrits","nodmgspread","payload","uncletopia"],"game_id":440,"stv_port":27026,"stv_name":"Uncletopia | Frankfurt | 2 | All Maps | STV","players":[{"user_id":686,"name":"brainrot","steam_id":76561199414716848,"connected_time":4780000000000,"state":"active","ping":62},{"user_id":738,"name":"CosmoTheFox","steam_id":76561199094753433,"connected_time":299000000000,"state":"active","ping":200},{"user_id":736,"name":"DesolateScorch","steam_id":76561199123625583,"connected_time":462000000000,"state":"active","ping":179},{"user_id":743,"name":"Cute Fluffy Eevee,(With Gun)","steam_id":76561198354228568,"connected_time":14000000000,"state":"active","ping":209},{"user_id":737,"name":"Le Coconut","steam_id":76561198841749366,"connected_time":456000000000,"state":"active","ping":174},{"user_id":739,"name":"Kilometer","steam_id":76561198093314891,"connected_time":236000000000,"state":"active","ping":189},{"user_id":741,"name":"Sir Helbram","steam_id":76561199475859382,"connected_time":141000000000,"state":"active","ping":67},{"user_id":729,"name":"EdSuedi","steam_id":76561199387956486,"connected_time":1432000000000,"state":"active","ping":48},{"user_id":742,"name":".ﱞﱞﱞrﱞﱞﱞrﱞﱞﱞ ","steam_id":76561198256821358,"connected_time":114000000000,"state":"active","ping":64},{"user_id":645,"name":"Valkaisin","steam_id":76561198061197114,"connected_time":8338000000000,"state":"active","ping":65},{"user_id":723,"name":"Pestdoktor","steam_id":76561198058159271,"connected_time":1864000000000,"state":"active","ping":55},{"user_id":722,"name":"Bodhi","steam_id":76561198000606642,"connected_time":2496000000000,"state":"active","ping":73}]},{"server_id":308,"name":"Uncletopia | Frankfurt | 3 | All Maps","name_short":"frk-3","host":"frk-1.de.uncletopia.com","port":27035,"enabled":true,"region":"eu","cc":"de","latitude":50.110924,"longitude":8.682127,"reserved":0,"last_update":"0001-01-01T00:00:00Z","name_a2s":"Uncletopia | Frankfurt | 3 | All Maps","protocol":17,"map":"koth_suijin","folder":"tf","game":"Team Fortress","app_id":440,"player_count":0,"max_players":24,"Bots":0,"server_type":"Dedicated","server_os":"Linux","password":true,"vac":true,"version":"7757534","steam_id":85568392924504274,"keywords":["cp","nocrits","nodmgspread","uncletopia"],"game_id":440,"stv_port":27036,"stv_name":"Uncletopia | Frankfurt | 3 | All Maps | STV","players":null},{"server_id":309,"name":"Uncletopia | Frankfurt | 4 | All Maps","name_short":"frk-4","host":"frk-1.de.uncletopia.com","port":27045,"enabled":true,"region":"eu","cc":"de","latitude":50.110924,"longitude":8.682127,"reserved":0,"last_update":"0001-01-01T00:00:00Z","name_a2s":"Uncletopia | Frankfurt | 4 | All Maps","protocol":17,"map":"koth_cascade","folder":"tf","game":"Team Fortress","app_id":440,"player_count":0,"max_players":24,"Bots":0,"server_type":"Dedicated","server_os":"Linux","password":true,"vac":true,"version":"7757534","steam_id":85568392924504275,"keywords":["cp","nocrits","nodmgspread","uncletopia"],"game_id":440,"stv_port":27046,"stv_name":"Uncletopia | Frankfurt | 4 | All Maps | STV","players":null},{"server_id":310,"name":"Uncletopia | Frankfurt | 5 | All Maps","name_short":"frk-5","host":"frk-1.de.uncletopia.com","port":27055,"enabled":true,"region":"eu","cc":"de","latitude":50.110924,"longitude":8.682127,"reserved":0,"last_update":"0001-01-01T00:00:00Z","name_a2s":"Uncletopia | Frankfurt | 5 | All Maps","protocol":17,"map":"pl_swiftwater_final1","folder":"tf","game":"Team Fortress","app_id":440,"player_count":0,"max_players":24,"Bots":0,"server_type":"Dedicated","server_os":"Linux","password":true,"vac":true,"version":"7757534","steam_id":85568392924504277,"keywords":["nocrits","nodmgspread","payload","uncletopia"],"game_id":440,"stv_port":27056,"stv_name":"Uncletopia | Frankfurt | 5 | All Maps | STV","players":null},{"server_id":311,"name":"Uncletopia | Frankfurt | 6 | All Maps","name_short":"frk-6","host":"frk-1.de.uncletopia.com","port":27065,"enabled":true,"region":"eu","cc":"de","latitude":50.110924,"longitude":8.682127,"reserved":0,"last_update":"0001-01-01T00:00:00Z","name_a2s":"Uncletopia | Frankfurt | 6 | All Maps","protocol":17,"map":"cp_sunshine","folder":"tf","game":"Team Fortress","app_id":440,"player_count":0,"max_players":24,"Bots":0,"server_type":"Dedicated","server_os":"Linux","password":true,"vac":true,"version":"7757534","steam_id":85568392924504278,"keywords":["cp","nocrits","nodmgspread","uncletopia"],"game_id":440,"stv_port":27066,"stv_name":"Uncletopia | Frankfurt | 6 | All Maps | STV","players":null},{"server_id":23,"name":"Uncletopia | Frankfurt | 7 | Stopwatch Beta","name_short":"frk-7","host":"frk-1.de.uncletopia.com","port":27075,"enabled":true,"region":"eu","cc":"de","latitude":50.110924,"longitude":8.682127,"reserved":0,"last_update":"0001-01-01T00:00:00Z","name_a2s":"Uncletopia | Frankfurt | 7 | Stopwatch Beta","protocol":17,"map":"pl_borneo","folder":"tf","game":"Team Fortress","app_id":440,"player_count":0,"max_players":24,"Bots":0,"server_type":"Dedicated","server_os":"Linux","password":true,"vac":true,"version":"7757534","steam_id":85568392924742827,"keywords":["nocrits","nodmgspread","payload","uncletopia"],"game_id":440,"stv_port":27076,"stv_name":"Uncletopia | Frankfurt | 7 | Stopwatch Beta | STV","players":null},{"server_id":24,"name":"Uncletopia | Frankfurt | 8 | Community","name_short":"frk-8","host":"frk-1.de.uncletopia.com","port":27085,"enabled":true,"region":"eu","cc":"de","latitude":50.110924,"longitude":8.682127,"reserved":0,"last_update":"0001-01-01T00:00:00Z","name_a2s":"Uncletopia | Frankfurt | 8 | Community","protocol":17,"map":"workshop/koth_bagel_rc6.ugc2514036946","folder":"tf","game":"Team Fortress","app_id":440,"player_count":0,"max_players":24,"Bots":0,"server_type":"Dedicated","server_os":"Linux","password":true,"vac":true,"version":"7757534","steam_id":85568392924742828,"keywords":["cp","nocrits","nodmgspread","uncletopia"],"game_id":440,"stv_port":27086,"stv_name":"Uncletopia | Frankfurt | 8 | Community | STV","players":null},{"server_id":202,"name":"Uncletopia | Hong Kong | 1 | All Maps","name_short":"hgk-1","host":"hgk-1.hk.uncletopia.com","port":27015,"enabled":true,"region":"asia","cc":"hk","latitude":22.302711,"longitude":114.177216,"reserved":0,"last_update":"0001-01-01T00:00:00Z","name_a2s":"Uncletopia | Hong Kong | 1 | All Maps","protocol":17,"map":"pl_swiftwater_final1","folder":"tf","game":"Team Fortress","app_id":440,"player_count":0,"max_players":24,"Bots":0,"server_type":"Dedicated","server_os":"Linux","password":true,"vac":true,"version":"7757534","steam_id":85568392924494504,"keywords":["nocrits","nodmgspread","payload","uncletopia"],"game_id":440,"stv_port":27016,"stv_name":"Uncletopia | Hong Kong | 1 | All Maps | STV","players":null},{"server_id":1,"name":"Uncletopia | Los Angeles | 1 | All Maps","name_short":"lax-1","host":"lax-1.us.uncletopia.com","port":27015,"enabled":true,"region":"us-west","cc":"us","latitude":33.94279,"longitude":-118.41004,"reserved":0,"last_update":"0001-01-01T00:00:00Z","name_a2s":"Uncletopia | Los Angeles | 1 | All Maps","protocol":17,"map":"koth_cascade","folder":"tf","game":"Team Fortress","app_id":440,"player_count":24,"max_players":24,"Bots":0,"server_type":"Dedicated","server_os":"Linux","password":true,"vac":true,"version":"7757534","steam_id":85568392924469991,"keywords":["cp","nocrits","nodmgspread","uncletopia"],"game_id":440,"stv_port":27016,"stv_name":"Uncletopia | Los Angeles | 1 | All Maps | STV","players":[{"user_id":219,"name":"turnip","steam_id":76561197999375941,"connected_time":321000000000,"state":"active","ping":87},{"user_id":190,"name":"Zero","steam_id":76561199383267408,"connected_time":2425000000000,"state":"active","ping":75},{"user_id":213,"name":"Nugakku","steam_id":76561198082346219,"connected_time":1453000000000,"state":"active","ping":57},{"user_id":215,"name":"heimdall","steam_id":76561198069380992,"connected_time":1143000000000,"state":"active","ping":98},{"user_id":148,"name":"bro i think i got rabies","steam_id":76561198204169516,"connected_time":4575000000000,"state":"active","ping":81},{"user_id":16,"name":"Troy Winters","steam_id":76561198051442422,"connected_time":14786000000000,"state":"active","ping":78},{"user_id":187,"name":"Demianeithor","steam_id":76561198800036537,"connected_time":2684000000000,"state":"active","ping":64},{"user_id":193,"name":"tommie_","steam_id":76561199192883108,"connected_time":2279000000000,"state":"active","ping":95},{"user_id":194,"name":"Superman123389","steam_id":76561198267472539,"connected_time":2220000000000,"state":"active","ping":95},{"user_id":195,"name":"lana_del_Rei.com","steam_id":76561198172447621,"connected_time":2207000000000,"state":"active","ping":50},{"user_id":220,"name":"kornelius korn","steam_id":76561199228839582,"connected_time":320000000000,"state":"active","ping":118},{"user_id":150,"name":"rick and morty based philosophy","steam_id":76561198069190432,"connected_time":4561000000000,"state":"active","ping":125},{"user_id":216,"name":"Big Jackalicious","steam_id":76561199135213338,"connected_time":721000000000,"state":"active","ping":85},{"user_id":151,"name":"Re-Crix","steam_id":76561198351895601,"connected_time":4528000000000,"state":"active","ping":53},{"user_id":200,"name":"daws","steam_id":76561198047764222,"connected_time":2018000000000,"state":"active","ping":83},{"user_id":218,"name":"Uprightmoss7528","steam_id":76561199200138486,"connected_time":523000000000,"state":"active","ping":62},{"user_id":221,"name":"Toad :)","steam_id":76561198163008022,"connected_time":313000000000,"state":"active","ping":73},{"user_id":198,"name":"Bearegard","steam_id":76561198061926542,"connected_time":2043000000000,"state":"active","ping":114},{"user_id":189,"name":"Tybalt","steam_id":76561198142464684,"connected_time":2463000000000,"state":"active","ping":89},{"user_id":201,"name":"VicLoL","steam_id":76561198045580784,"connected_time":2005000000000,"state":"active","ping":59},{"user_id":208,"name":"DoctorDucky","steam_id":76561198356434380,"connected_time":1807000000000,"state":"active","ping":51},{"user_id":222,"name":"Frog","steam_id":76561198093257083,"connected_time":123000000000,"state":"active","ping":65},{"user_id":210,"name":"kr1tsurf3r","steam_id":76561198076402476,"connected_time":1717000000000,"state":"active","ping":70},{"user_id":175,"name":"ExplosiveGamer21","steam_id":76561198132370955,"connected_time":3587000000000,"state":"active","ping":72}]},{"server_id":112,"name":"Uncletopia | Los Angeles | 2 | All Maps","name_short":"lax-2","host":"lax-1.us.uncletopia.com","port":27025,"enabled":true,"region":"us-west","cc":"us","latitude":33.94279,"longitude":-118.41004,"reserved":0,"last_update":"0001-01-01T00:00:00Z","name_a2s":"Uncletopia | Los Angeles | 2 | All Maps","protocol":17,"map":"ctf_2fort","folder":"tf","game":"Team Fortress","app_id":440,"player_count":23,"max_players":24,"Bots":0,"server_type":"Dedicated","server_os":"Linux","password":true,"vac":true,"version":"7757534","steam_id":85568392924469992,"keywords":["ctf","nocrits","nodmgspread","uncletopia"],"game_id":440,"stv_port":27026,"stv_name":"Uncletopia | Los Angeles | 2 | All Maps | STV","players":[{"user_id":96,"name":"{ᴛʀ_ᴄᴇʀᴘ} shullers","steam_id":76561198889997809,"connected_time":105000000000,"state":"active","ping":45},{"user_id":59,"name":"silly jester","steam_id":76561198079609974,"connected_time":3054000000000,"state":"active","ping":57},{"user_id":23,"name":"Fractured_Mango","steam_id":76561199013113268,"connected_time":4412000000000,"state":"active","ping":70},{"user_id":24,"name":"donutdagger","steam_id":76561199203048300,"connected_time":4401000000000,"state":"active","ping":56},{"user_id":99,"name":"EatSomeBEES","steam_id":76561198047334307,"connected_time":73000000000,"state":"active","ping":85},{"user_id":53,"name":"Altruisticailuridae","steam_id":76561198335295596,"connected_time":3334000000000,"state":"active","ping":53},{"user_id":91,"name":"xavimustdie","steam_id":76561198135261488,"connected_time":218000000000,"state":"active","ping":62},{"user_id":79,"name":"d","steam_id":76561198280875132,"connected_time":1336000000000,"state":"active","ping":78},{"user_id":20,"name":"LX-24","steam_id":76561198016168993,"connected_time":4472000000000,"state":"active","ping":83},{"user_id":26,"name":"tomiz","steam_id":76561198827013832,"connected_time":4388000000000,"state":"active","ping":53},{"user_id":60,"name":"Cpt. Dingle","steam_id":76561198025720199,"connected_time":2991000000000,"state":"active","ping":90},{"user_id":85,"name":"Noob-a-tron","steam_id":76561197970555113,"connected_time":1064000000000,"state":"active","ping":46},{"user_id":92,"name":"GඞMER","steam_id":76561198340389876,"connected_time":204000000000,"state":"active","ping":52},{"user_id":93,"name":"xkcd.hoverboard","steam_id":76561199079595193,"connected_time":204000000000,"state":"active","ping":84},{"user_id":80,"name":"ThatWACK","steam_id":76561198995415153,"connected_time":1326000000000,"state":"active","ping":50},{"user_id":94,"name":"Amogous Supreme","steam_id":76561198025476774,"connected_time":186000000000,"state":"active","ping":57},{"user_id":34,"name":"ComputerFritz","steam_id":76561198368730970,"connected_time":4259000000000,"state":"active","ping":73},{"user_id":68,"name":"Lemonade Juice","steam_id":76561198402892608,"connected_time":2359000000000,"state":"active","ping":40},{"user_id":77,"name":"Pez","steam_id":76561199197778137,"connected_time":1382000000000,"state":"active","ping":68},{"user_id":100,"name":"big ol' buford","steam_id":76561198290675957,"connected_time":72000000000,"state":"active","ping":75},{"user_id":87,"name":"Cancerous Pineapple","steam_id":76561198097307656,"connected_time":589000000000,"state":"active","ping":66},{"user_id":101,"name":"Trouble8X","steam_id":76561198377282366,"connected_time":45000000000,"state":"spawning","ping":419},{"user_id":83,"name":"Shwicky","steam_id":76561198145026611,"connected_time":1146000000000,"state":"active","ping":45}]},{"server_id":324,"name":"Uncletopia | Los Angeles | 3 | All Maps","name_short":"lax-3","host":"lax-1.us.uncletopia.com","port":27035,"enabled":true,"region":"us-west","cc":"us","latitude":33.94279,"longitude":-118.41004,"reserved":0,"last_update":"0001-01-01T00:00:00Z","name_a2s":"Uncletopia | Los Angeles | 3 | All Maps","protocol":17,"map":"cp_5gorge","folder":"tf","game":"Team Fortress","app_id":440,"player_count":24,"max_players":24,"Bots":0,"server_type":"Dedicated","server_os":"Linux","password":true,"vac":true,"version":"7757534","steam_id":85568392924510198,"keywords":["cp","nocrits","nodmgspread","uncletopia"],"game_id":440,"stv_port":27036,"stv_name":"Uncletopia | Los Angeles | 3 | All Maps | STV","players":[{"user_id":22,"name":"Munky","steam_id":76561197993491054,"connected_time":1622000000000,"state":"active","ping":84},{"user_id":48,"name":"Pyrotek⁴","steam_id":76561198072747672,"connected_time":750000000000,"state":"active","ping":45},{"user_id":23,"name":"Armpit!","steam_id":76561197978095727,"connected_time":1600000000000,"state":"active","ping":104},{"user_id":12,"name":"nfseskimo","steam_id":76561198078745666,"connected_time":2479000000000,"state":"active","ping":75},{"user_id":13,"name":"Boxy Hammer Bro","steam_id":76561198123219913,"connected_time":2465000000000,"state":"active","ping":102},{"user_id":14,"name":"SpookyMemes","steam_id":76561198097856723,"connected_time":2455000000000,"state":"active","ping":120},{"user_id":45,"name":"disaa","steam_id":76561198152640961,"connected_time":988000000000,"state":"active","ping":67},{"user_id":29,"name":"DaPickles","steam_id":76561199196369249,"connected_time":1463000000000,"state":"active","ping":115},{"user_id":24,"name":"Shin Tae Il's Lighter","steam_id":76561198984360849,"connected_time":1584000000000,"state":"active","ping":74},{"user_id":18,"name":"\u003e:3 Muiramme εїз","steam_id":76561197994458543,"connected_time":1654000000000,"state":"active","ping":75},{"user_id":25,"name":"duane (stinks good)","steam_id":76561198149565822,"connected_time":1580000000000,"state":"active","ping":99},{"user_id":26,"name":"rustyfloofs","steam_id":76561199241064467,"connected_time":1577000000000,"state":"active","ping":129},{"user_id":47,"name":"APOTATO","steam_id":76561198118199858,"connected_time":865000000000,"state":"active","ping":45},{"user_id":49,"name":"HATEWORK.","steam_id":76561198286792807,"connected_time":704000000000,"state":"active","ping":116},{"user_id":30,"name":"petrifying ★","steam_id":76561198841016072,"connected_time":1439000000000,"state":"active","ping":84},{"user_id":31,"name":"Danny Zeta","steam_id":76561198071280648,"connected_time":1390000000000,"state":"active","ping":67},{"user_id":32,"name":"slowdance","steam_id":76561198097427947,"connected_time":1371000000000,"state":"active","ping":90},{"user_id":52,"name":"PinguEnjoyer6","steam_id":76561199186723516,"connected_time":38000000000,"state":"active","ping":34},{"user_id":34,"name":"Captain Underbelly","steam_id":76561198811270935,"connected_time":1285000000000,"state":"active","ping":130},{"user_id":50,"name":"LuigiRed","steam_id":76561198230578712,"connected_time":681000000000,"state":"active","ping":40},{"user_id":51,"name":"LoGrove","steam_id":76561197969305602,"connected_time":431000000000,"state":"active","ping":112},{"user_id":38,"name":"≃","steam_id":76561198157393205,"connected_time":1221000000000,"state":"active","ping":56},{"user_id":39,"name":"furries are weird","steam_id":76561198410127294,"connected_time":1211000000000,"state":"active","ping":128},{"user_id":44,"name":"Belmore","steam_id":76561198009355231,"connected_time":1085000000000,"state":"active","ping":46}]},{"server_id":25,"name":"Uncletopia | Los Angeles | 4 | Stopwatch Beta","name_short":"lax-4","host":"lax-1.us.uncletopia.com","port":27045,"enabled":true,"region":"us-west","cc":"us","latitude":33.94279,"longitude":-118.41004,"reserved":0,"last_update":"0001-01-01T00:00:00Z","name_a2s":"Uncletopia | Los Angeles | 4 | Stopwatch Beta","protocol":17,"map":"cp_dustbowl","folder":"tf","game":"Team Fortress","app_id":440,"player_count":0,"max_players":24,"Bots":0,"server_type":"Dedicated","server_os":"Linux","password":true,"vac":true,"version":"7757534","steam_id":85568392924510199,"keywords":["cp","nocrits","nodmgspread","uncletopia"],"game_id":440,"stv_port":27046,"stv_name":"Uncletopia | Los Angeles | 4 | Stopwatch Beta | STV","players":null},{"server_id":11,"name":"Uncletopia | London | 1 | All Maps","name_short":"lon-1","host":"lon-1.uk.uncletopia.com","port":27015,"enabled":true,"region":"eu","cc":"gb","latitude":51.509865,"longitude":-0.118092,"reserved":0,"last_update":"0001-01-01T00:00:00Z","name_a2s":"Uncletopia | London | 1 | All Maps","protocol":17,"map":"koth_viaduct","folder":"tf","game":"Team Fortress","app_id":440,"player_count":1,"max_players":24,"Bots":0,"server_type":"Dedicated","server_os":"Linux","password":true,"vac":true,"version":"7757534","steam_id":85568392924367362,"keywords":["cp","nocrits","nodmgspread","uncletopia"],"game_id":440,"stv_port":27016,"stv_name":"Uncletopia | London | 1 | All Maps | STV","players":[{"user_id":631,"name":"Truegr","steam_id":76561198811912339,"connected_time":1442000000000,"state":"active","ping":55}]},{"server_id":114,"name":"Uncletopia | London | 2 | All Maps","name_short":"lon-2","host":"lon-1.uk.uncletopia.com","port":27025,"enabled":true,"region":"eu","cc":"gb","latitude":51.509865,"longitude":-0.118092,"reserved":0,"last_update":"0001-01-01T00:00:00Z","name_a2s":"Uncletopia | London | 2 | All Maps","protocol":17,"map":"koth_viaduct","folder":"tf","game":"Team Fortress","app_id":440,"player_count":0,"max_players":24,"Bots":0,"server_type":"Dedicated","server_os":"Linux","password":true,"vac":true,"version":"7757534","steam_id":85568392924470941,"keywords":["cp","nocrits","nodmgspread","uncletopia"],"game_id":440,"stv_port":27026,"stv_name":"Uncletopia | London | 2 | All Maps | STV","players":null},{"server_id":320,"name":"Uncletopia | London | 3 | All Maps","name_short":"lon-3","host":"lon-1.uk.uncletopia.com","port":27035,"enabled":true,"region":"eu","cc":"gb","latitude":51.509865,"longitude":-0.118092,"reserved":0,"last_update":"0001-01-01T00:00:00Z","name_a2s":"Uncletopia | London | 3 | All Maps","protocol":17,"map":"cp_altitude","folder":"tf","game":"Team Fortress","app_id":440,"player_count":0,"max_players":24,"Bots":0,"server_type":"Dedicated","server_os":"Linux","password":true,"vac":true,"version":"7757534","steam_id":85568392924510192,"keywords":["cp","nocrits","nodmgspread","uncletopia"],"game_id":440,"stv_port":27036,"stv_name":"Uncletopia | London | 3 | All Maps | STV","players":null},{"server_id":321,"name":"Uncletopia | London | 4 | All Maps","name_short":"lon-4","host":"lon-1.uk.uncletopia.com","port":27045,"enabled":true,"region":"eu","cc":"gb","latitude":51.509865,"longitude":-0.118092,"reserved":0,"last_update":"0001-01-01T00:00:00Z","name_a2s":"Uncletopia | London | 4 | All Maps","protocol":17,"map":"pl_barnblitz","folder":"tf","game":"Team Fortress","app_id":440,"player_count":0,"max_players":24,"Bots":0,"server_type":"Dedicated","server_os":"Linux","password":true,"vac":true,"version":"7757534","steam_id":85568392924510193,"keywords":["nocrits","nodmgspread","payload","uncletopia"],"game_id":440,"stv_port":27046,"stv_name":"Uncletopia | London | 4 | All Maps | STV","players":null},{"server_id":21,"name":"Uncletopia | London | 5 | All Maps","name_short":"lon-5","host":"lon-1.uk.uncletopia.com","port":27055,"enabled":true,"region":"eu","cc":"gb","latitude":51.509865,"longitude":-0.118092,"reserved":0,"last_update":"0001-01-01T00:00:00Z","name_a2s":"Uncletopia | London | 5 | All Maps","protocol":17,"map":"koth_lakeside_final","folder":"tf","game":"Team Fortress","app_id":440,"player_count":0,"max_players":24,"Bots":0,"server_type":"Dedicated","server_os":"Linux","password":true,"vac":true,"version":"7757534","steam_id":85568392924742829,"keywords":["cp","nocrits","nodmgspread","uncletopia"],"game_id":440,"stv_port":27056,"stv_name":"Uncletopia | London | 5 | All Maps | STV","players":null},{"server_id":22,"name":"Uncletopia | London | 6 | All Maps","name_short":"lon-6","host":"lon-1.uk.uncletopia.com","port":27065,"enabled":true,"region":"eu","cc":"gb","latitude":51.509865,"longitude":-0.118092,"reserved":0,"last_update":"0001-01-01T00:00:00Z","name_a2s":"Uncletopia | London | 6 | All Maps","protocol":17,"map":"koth_lakeside_final","folder":"tf","game":"Team Fortress","app_id":440,"player_count":0,"max_players":24,"Bots":0,"server_type":"Dedicated","server_os":"Linux","password":true,"vac":true,"version":"7757534","steam_id":85568392924742830,"keywords":["cp","nocrits","nodmgspread","uncletopia"],"game_id":440,"stv_port":27066,"stv_name":"Uncletopia | London | 6 | All Maps | STV","players":null},{"server_id":40,"name":"Uncletopia | London | 7 | No Payload","name_short":"lon-7","host":"lon-1.uk.uncletopia.com","port":27075,"enabled":true,"region":"eu","cc":"gb","latitude":51.509865,"longitude":-0.118092,"reserved":0,"last_update":"0001-01-01T00:00:00Z","name_a2s":"Uncletopia | London | 7 | No Payload","protocol":17,"map":"cp_metalworks","folder":"tf","game":"Team Fortress","app_id":440,"player_count":0,"max_players":24,"Bots":0,"server_type":"Dedicated","server_os":"Linux","password":true,"vac":true,"version":"7757534","steam_id":85568392924964314,"keywords":["cp","nocrits","nodmgspread","uncletopia"],"game_id":440,"stv_port":27076,"stv_name":"Uncletopia | London | 7 | No Payload | STV","players":null},{"server_id":41,"name":"Uncletopia | London | 8 | Community","name_short":"lon-8","host":"lon-1.uk.uncletopia.com","port":27085,"enabled":true,"region":"eu","cc":"gb","latitude":51.509865,"longitude":-0.118092,"reserved":0,"last_update":"0001-01-01T00:00:00Z","name_a2s":"Uncletopia | London | 8 | Community","protocol":17,"map":"workshop/cp_alloy_rc3.ugc592805587","folder":"tf","game":"Team Fortress","app_id":440,"player_count":0,"max_players":24,"Bots":0,"server_type":"Dedicated","server_os":"Linux","password":true,"vac":true,"version":"7757534","steam_id":85568392924964315,"keywords":["cp","nocrits","nodmgspread","uncletopia"],"game_id":440,"stv_port":27086,"stv_name":"Uncletopia | London | 8 | Community | STV","players":null},{"server_id":300,"name":"Uncletopia | Montréal | 1 | All Maps","name_short":"mtl-1","host":"mtl-1.ca.uncletopia.com","port":27015,"enabled":true,"region":"us-east","cc":"ca","latitude":45.50889,"longitude":-73.56167,"reserved":0,"last_update":"0001-01-01T00:00:00Z","name_a2s":"Uncletopia | Montréal | 1 | All Maps","protocol":17,"map":"pl_upward","folder":"tf","game":"Team Fortress","app_id":440,"player_count":0,"max_players":24,"Bots":0,"server_type":"Dedicated","server_os":"Linux","password":true,"vac":true,"version":"7757534","steam_id":85568392924500087,"keywords":["nocrits","nodmgspread","payload","uncletopia"],"game_id":440,"stv_port":27016,"stv_name":"Uncletopia | Montréal | 1 | All Maps | STV","players":null},{"server_id":301,"name":"Uncletopia | Montréal | 2 | All Maps","name_short":"mtl-2","host":"mtl-1.ca.uncletopia.com","port":27025,"enabled":true,"region":"us-east","cc":"ca","latitude":45.50889,"longitude":-73.56167,"reserved":0,"last_update":"0001-01-01T00:00:00Z","name_a2s":"Uncletopia | Montréal | 2 | All Maps","protocol":17,"map":"pl_frontier_final","folder":"tf","game":"Team Fortress","app_id":440,"player_count":0,"max_players":24,"Bots":0,"server_type":"Dedicated","server_os":"Linux","password":true,"vac":true,"version":"7757534","steam_id":85568392924500088,"keywords":["nocrits","nodmgspread","payload","uncletopia"],"game_id":440,"stv_port":27026,"stv_name":"Uncletopia | Montréal | 2 | All Maps | STV","players":null},{"server_id":302,"name":"Uncletopia | Montréal | 3 | All Maps","name_short":"mtl-3","host":"mtl-1.ca.uncletopia.com","port":27035,"enabled":true,"region":"us-east","cc":"ca","latitude":45.50889,"longitude":-73.56167,"reserved":0,"last_update":"0001-01-01T00:00:00Z","name_a2s":"Uncletopia | Montréal | 3 | All Maps","protocol":17,"map":"pl_pier","folder":"tf","game":"Team Fortress","app_id":440,"player_count":0,"max_players":24,"Bots":0,"server_type":"Dedicated","server_os":"Linux","password":true,"vac":true,"version":"7757534","steam_id":85568392924500089,"keywords":["nocrits","nodmgspread","payload","uncletopia"],"game_id":440,"stv_port":27036,"stv_name":"Uncletopia | Montréal | 3 | All Maps | STV","players":null},{"server_id":303,"name":"Uncletopia | Montréal | 4 | No Payload","name_short":"mtl-4","host":"mtl-1.ca.uncletopia.com","port":27045,"enabled":true,"region":"us-east","cc":"ca","latitude":45.50889,"longitude":-73.56167,"reserved":0,"last_update":"0001-01-01T00:00:00Z","name_a2s":"Uncletopia | Montréal | 4 | No Payload","protocol":17,"map":"plr_nightfall_final","folder":"tf","game":"Team Fortress","app_id":440,"player_count":0,"max_players":24,"Bots":0,"server_type":"Dedicated","server_os":"Linux","password":true,"vac":true,"version":"7757534","steam_id":85568392924500090,"keywords":["nocrits","nodmgspread","payload","uncletopia"],"game_id":440,"stv_port":27046,"stv_name":"Uncletopia | Montréal | 4 | No Payload | STV","players":null},{"server_id":13,"name":"Uncletopia | New York City | 1 | All Maps","name_short":"nyc-1","host":"nyc-1.us.uncletopia.com","port":27015,"enabled":true,"region":"us-east","cc":"us","latitude":40.73061,"longitude":-73.93524,"reserved":0,"last_update":"0001-01-01T00:00:00Z","name_a2s":"Uncletopia | New York City | 1 | All Maps","protocol":17,"map":"pl_barnblitz","folder":"tf","game":"Team Fortress","app_id":440,"player_count":24,"max_players":24,"Bots":0,"server_type":"Dedicated","server_os":"Linux","password":true,"vac":true,"version":"7757534","steam_id":85568392924469993,"keywords":["nocrits","nodmgspread","payload","uncletopia"],"game_id":440,"stv_port":27016,"stv_name":"Uncletopia | New York City | 1 | All Maps | STV","players":[{"user_id":380,"name":"ROGUE-PLANET","steam_id":76561198116023052,"connected_time":1422000000000,"state":"active","ping":89},{"user_id":377,"name":"Salt","steam_id":76561198073863777,"connected_time":1463000000000,"state":"active","ping":55},{"user_id":359,"name":"GoldtoothFour","steam_id":76561198055529332,"connected_time":3858000000000,"state":"active","ping":70},{"user_id":381,"name":"frank","steam_id":76561198045436159,"connected_time":1420000000000,"state":"active","ping":63},{"user_id":337,"name":"Dom","steam_id":76561198043992490,"connected_time":4994000000000,"state":"active","ping":96},{"user_id":387,"name":"fice","steam_id":76561198860361610,"connected_time":1321000000000,"state":"active","ping":54},{"user_id":383,"name":"squaggles!","steam_id":76561197994995011,"connected_time":1406000000000,"state":"active","ping":55},{"user_id":400,"name":"The Walnut","steam_id":76561198080583044,"connected_time":180000000000,"state":"active","ping":61},{"user_id":401,"name":"Theodore Roosevelt","steam_id":76561197993295656,"connected_time":176000000000,"state":"active","ping":68},{"user_id":385,"name":"Your Local NPR Station","steam_id":76561198143830279,"connected_time":1378000000000,"state":"active","ping":56},{"user_id":398,"name":"JA","steam_id":76561198308183330,"connected_time":262000000000,"state":"active","ping":35},{"user_id":402,"name":"Lawnmower","steam_id":76561198186680197,"connected_time":107000000000,"state":"active","ping":105},{"user_id":393,"name":"Jmciano24","steam_id":76561198050723212,"connected_time":1049000000000,"state":"active","ping":47},{"user_id":399,"name":"Furrio","steam_id":76561198174104607,"connected_time":257000000000,"state":"active","ping":103},{"user_id":389,"name":"Pig","steam_id":76561198276179693,"connected_time":1252000000000,"state":"active","ping":70},{"user_id":332,"name":"peee pee man","steam_id":76561198044979205,"connected_time":5403000000000,"state":"active","ping":55},{"user_id":338,"name":"Gocel","steam_id":76561198071467515,"connected_time":4837000000000,"state":"active","ping":54},{"user_id":390,"name":"Big G","steam_id":76561198067496197,"connected_time":1225000000000,"state":"active","ping":55},{"user_id":394,"name":"Gustavo Fring","steam_id":76561198132807405,"connected_time":949000000000,"state":"active","ping":83},{"user_id":345,"name":"Argo","steam_id":76561198353725622,"connected_time":4321000000000,"state":"active","ping":75},{"user_id":351,"name":"pete_the_cat_2014","steam_id":76561198199266047,"connected_time":4257000000000,"state":"active","ping":45},{"user_id":374,"name":"Dross","steam_id":76561198042172372,"connected_time":1784000000000,"state":"active","ping":56},{"user_id":392,"name":"Sam","steam_id":76561198079393512,"connected_time":1184000000000,"state":"active","ping":62},{"user_id":288,"name":"Bootes","steam_id":76561197968255551,"connected_time":9102000000000,"state":"active","ping":51}]},{"server_id":14,"name":"Uncletopia | New York City | 2 | All Maps","name_short":"nyc-2","host":"nyc-1.us.uncletopia.com","port":27025,"enabled":true,"region":"us-east","cc":"us","latitude":40.73061,"longitude":-73.93524,"reserved":0,"last_update":"0001-01-01T00:00:00Z","name_a2s":"Uncletopia | New York City | 2 | All Maps","protocol":17,"map":"pl_pier","folder":"tf","game":"Team Fortress","app_id":440,"player_count":24,"max_players":24,"Bots":0,"server_type":"Dedicated","server_os":"Linux","password":true,"vac":true,"version":"7757534","steam_id":85568392924469994,"keywords":["nocrits","nodmgspread","payload","uncletopia"],"game_id":440,"stv_port":27026,"stv_name":"Uncletopia | New York City | 2 | All Maps | STV","players":[{"user_id":251,"name":"Frimpimy","steam_id":76561198142605675,"connected_time":9331000000000,"state":"active","ping":74},{"user_id":350,"name":"mago","steam_id":76561198880309324,"connected_time":774000000000,"state":"active","ping":67},{"user_id":353,"name":"tran can","steam_id":76561198090599678,"connected_time":602000000000,"state":"active","ping":68},{"user_id":351,"name":"Alpha Goose","steam_id":76561198038927852,"connected_time":727000000000,"state":"active","ping":86},{"user_id":358,"name":"Kensa Dynamo Roller","steam_id":76561198067317930,"connected_time":478000000000,"state":"active","ping":58},{"user_id":343,"name":"Biggest AL","steam_id":76561198260719207,"connected_time":1229000000000,"state":"active","ping":84},{"user_id":355,"name":"Exio","steam_id":76561198218639325,"connected_time":533000000000,"state":"active","ping":61},{"user_id":330,"name":"I_Am_Lazy","steam_id":76561199030283067,"connected_time":2944000000000,"state":"active","ping":66},{"user_id":348,"name":"Teleporter (Evil_Elephant)","steam_id":76561199055338631,"connected_time":901000000000,"state":"active","ping":88},{"user_id":331,"name":"Blackstar","steam_id":76561198169039095,"connected_time":2791000000000,"state":"active","ping":82},{"user_id":286,"name":"add the 3 stooges to fortnite","steam_id":76561198107343544,"connected_time":6936000000000,"state":"active","ping":83},{"user_id":356,"name":"great1photo","steam_id":76561198085481933,"connected_time":513000000000,"state":"active","ping":77},{"user_id":362,"name":"oh god i'm gonna CHUM","steam_id":76561198019210187,"connected_time":191000000000,"state":"active","ping":89},{"user_id":357,"name":"Ivy","steam_id":76561198047758442,"connected_time":508000000000,"state":"active","ping":116},{"user_id":359,"name":"Deal yo","steam_id":76561198282395338,"connected_time":466000000000,"state":"active","ping":51},{"user_id":360,"name":"the spy from team fortress 2","steam_id":76561198047797306,"connected_time":422000000000,"state":"active","ping":49},{"user_id":361,"name":"CockroachEngie","steam_id":76561199217069119,"connected_time":395000000000,"state":"active","ping":54},{"user_id":339,"name":"greenpasta1","steam_id":76561198837587942,"connected_time":2132000000000,"state":"active","ping":52},{"user_id":216,"name":"General Sherman","steam_id":76561198044769376,"connected_time":11360000000000,"state":"active","ping":82},{"user_id":307,"name":"Monsterjessy","steam_id":76561198035630985,"connected_time":5801000000000,"state":"active","ping":60},{"user_id":344,"name":"Snowy Squill","steam_id":76561198073504207,"connected_time":1108000000000,"state":"active","ping":152},{"user_id":347,"name":"JohnnyGitGud","steam_id":76561198401455467,"connected_time":1058000000000,"state":"active","ping":112},{"user_id":326,"name":"chicken joe from surfs up 2","steam_id":76561198060807152,"connected_time":3078000000000,"state":"active","ping":68},{"user_id":333,"name":"Hey! I'm Walkin 'ere!","steam_id":76561198882785912,"connected_time":2528000000000,"state":"active","ping":55}]},{"server_id":15,"name":"Uncletopia | New York City | 3 | Stopwatch Beta","name_short":"nyc-3","host":"nyc-1.us.uncletopia.com","port":27035,"enabled":true,"region":"us-east","cc":"us","latitude":40.73061,"longitude":-73.93524,"reserved":0,"last_update":"0001-01-01T00:00:00Z","name_a2s":"Uncletopia | New York City | 3 | Stopwatch Beta","protocol":17,"map":"pl_borneo","folder":"tf","game":"Team Fortress","app_id":440,"player_count":0,"max_players":24,"Bots":0,"server_type":"Dedicated","server_os":"Linux","password":true,"vac":true,"version":"7757534","steam_id":85568392924742820,"keywords":["nocrits","nodmgspread","payload","uncletopia"],"game_id":440,"stv_port":27036,"stv_name":"Uncletopia | New York City | 3 | Stopwatch Beta | STV","players":null},{"server_id":16,"name":"Uncletopia | New York City | 4 | Community","name_short":"nyc-4","host":"nyc-1.us.uncletopia.com","port":27045,"enabled":true,"region":"us-east","cc":"us","latitude":40.73061,"longitude":-73.93524,"reserved":0,"last_update":"0001-01-01T00:00:00Z","name_a2s":"Uncletopia | New York City | 4 | Community","protocol":17,"map":"workshop/koth_synthetic_rc6a.ugc1549817316","folder":"tf","game":"Team Fortress","app_id":440,"player_count":24,"max_players":24,"Bots":0,"server_type":"Dedicated","server_os":"Linux","password":true,"vac":true,"version":"7757534","steam_id":85568392924742821,"keywords":["cp","nocrits","nodmgspread","uncletopia"],"game_id":440,"stv_port":27046,"stv_name":"Uncletopia | New York City | 4 | Community | STV","players":[{"user_id":281,"name":"Lesbian Chungus","steam_id":76561198055964295,"connected_time":685000000000,"state":"active","ping":64},{"user_id":268,"name":"ᗜˬᗜ","steam_id":76561198049076233,"connected_time":1300000000000,"state":"active","ping":52},{"user_id":205,"name":"Gumit","steam_id":76561198208126512,"connected_time":5862000000000,"state":"active","ping":61},{"user_id":207,"name":"MIKE JOANS","steam_id":76561198267470325,"connected_time":5791000000000,"state":"active","ping":58},{"user_id":208,"name":"bob27","steam_id":76561198807658771,"connected_time":5779000000000,"state":"active","ping":61},{"user_id":284,"name":"rontu","steam_id":76561199072955534,"connected_time":550000000000,"state":"active","ping":74},{"user_id":274,"name":"Magenta Feline","steam_id":76561198293804468,"connected_time":1134000000000,"state":"active","ping":57},{"user_id":292,"name":"Phillip Jeffries","steam_id":76561198064052174,"connected_time":185000000000,"state":"active","ping":55},{"user_id":273,"name":"Jerma985 fan","steam_id":76561198094812010,"connected_time":1153000000000,"state":"active","ping":65},{"user_id":295,"name":"RapidKebab","steam_id":76561198080533110,"connected_time":112000000000,"state":"active","ping":57},{"user_id":266,"name":"motherfudger","steam_id":76561198114959385,"connected_time":1351000000000,"state":"active","ping":61},{"user_id":275,"name":"Chechens Spotted","steam_id":76561199028910893,"connected_time":1104000000000,"state":"active","ping":114},{"user_id":229,"name":"bug o1","steam_id":76561198126386686,"connected_time":4679000000000,"state":"active","ping":72},{"user_id":253,"name":"Sim","steam_id":76561198119227922,"connected_time":2420000000000,"state":"active","ping":69},{"user_id":296,"name":"sKIZ","steam_id":76561197983860881,"connected_time":42000000000,"state":"active","ping":87},{"user_id":285,"name":"Chin","steam_id":76561198247426906,"connected_time":544000000000,"state":"active","ping":66},{"user_id":297,"name":"SoundslikeJustice","steam_id":76561198963640645,"connected_time":32000000000,"state":"active","ping":84},{"user_id":277,"name":"iluvtopoo","steam_id":76561198843522498,"connected_time":1053000000000,"state":"active","ping":119},{"user_id":260,"name":"pipebombrater","steam_id":76561199029030831,"connected_time":1981000000000,"state":"active","ping":65},{"user_id":289,"name":"GiraffeMan","steam_id":76561198042104084,"connected_time":322000000000,"state":"active","ping":61},{"user_id":298,"name":"issues","steam_id":76561197994492154,"connected_time":25000000000,"state":"active","ping":142},{"user_id":299,"name":"_Spirit","steam_id":76561198311274116,"connected_time":16000000000,"state":"spawning","ping":339},{"user_id":237,"name":"The Necronomiconeconomist","steam_id":76561198010358323,"connected_time":3561000000000,"state":"active","ping":96},{"user_id":262,"name":"Puppeteer","steam_id":76561198159928108,"connected_time":1930000000000,"state":"active","ping":122}]},{"server_id":142,"name":"Uncletopia | São Paulo | 1 | All Maps","name_short":"sao-1","host":"sao-1.br.uncletopia.com","port":27015,"enabled":true,"region":"sa","cc":"br","latitude":-23.533773,"longitude":-46.62529,"reserved":0,"last_update":"0001-01-01T00:00:00Z","name_a2s":"Uncletopia | São Paulo | 1 | All Maps","protocol":17,"map":"koth_viaduct","folder":"tf","game":"Team Fortress","app_id":440,"player_count":0,"max_players":24,"Bots":0,"server_type":"Dedicated","server_os":"Linux","password":true,"vac":true,"version":"7757534","steam_id":85568392924469996,"keywords":["cp","nocrits","nodmgspread","uncletopia"],"game_id":440,"stv_port":27016,"stv_name":"Uncletopia | São Paulo | 1 | All Maps | STV","players":null},{"server_id":143,"name":"Uncletopia | São Paulo | 2 | All Maps","name_short":"sao-2","host":"sao-2.br.uncletopia.com","port":27015,"enabled":true,"region":"sa","cc":"br","latitude":-23.533773,"longitude":-46.62529,"reserved":0,"last_update":"0001-01-01T00:00:00Z","name_a2s":"Uncletopia | São Paulo | 2 | All Maps","protocol":17,"map":"pl_frontier_final","folder":"tf","game":"Team Fortress","app_id":440,"player_count":0,"max_players":24,"Bots":0,"server_type":"Dedicated","server_os":"Linux","password":true,"vac":true,"version":"7757534","steam_id":85568392924485349,"keywords":["nocrits","nodmgspread","payload","uncletopia"],"game_id":440,"stv_port":27016,"stv_name":"Uncletopia | São Paulo | 2 | All Maps | STV","players":null},{"server_id":7,"name":"Uncletopia | Seattle | 1 | All Maps","name_short":"sea-1","host":"sea-1.us.uncletopia.com","port":27015,"enabled":true,"region":"us-west","cc":"us","latitude":47.608013,"longitude":-122.33517,"reserved":0,"last_update":"0001-01-01T00:00:00Z","name_a2s":"Uncletopia | Seattle | 1 | All Maps","protocol":17,"map":"cp_altitude","folder":"tf","game":"Team Fortress","app_id":440,"player_count":20,"max_players":24,"Bots":0,"server_type":"Dedicated","server_os":"Linux","password":true,"vac":true,"version":"7757534","steam_id":85568392924469997,"keywords":["cp","nocrits","nodmgspread","uncletopia"],"game_id":440,"stv_port":27016,"stv_name":"Uncletopia | Seattle | 1 | All Maps | STV","players":[{"user_id":515,"name":"Wheaties","steam_id":76561198060909578,"connected_time":514000000000,"state":"active","ping":55},{"user_id":473,"name":"Goeffrey Portillo","steam_id":76561198162117215,"connected_time":2944000000000,"state":"active","ping":73},{"user_id":525,"name":"I have a tapeworm","steam_id":76561198112705880,"connected_time":51000000000,"state":"spawning","ping":65},{"user_id":444,"name":"Nightshade","steam_id":76561199011017814,"connected_time":5268000000000,"state":"active","ping":79},{"user_id":481,"name":"Hotshot","steam_id":76561198082355470,"connected_time":2381000000000,"state":"active","ping":132},{"user_id":516,"name":"shawarma.lord007","steam_id":76561198115458307,"connected_time":462000000000,"state":"active","ping":75},{"user_id":517,"name":"Sweatpants","steam_id":76561198097188001,"connected_time":446000000000,"state":"active","ping":52},{"user_id":502,"name":"McSpazatron","steam_id":76561198955942148,"connected_time":1350000000000,"state":"active","ping":128},{"user_id":510,"name":"Tungsten","steam_id":76561198312854342,"connected_time":706000000000,"state":"active","ping":54},{"user_id":506,"name":"LordZahe","steam_id":76561198241749034,"connected_time":927000000000,"state":"active","ping":126},{"user_id":513,"name":"exephur","steam_id":76561198135763234,"connected_time":598000000000,"state":"active","ping":67},{"user_id":523,"name":"They/Them Rattussy","steam_id":76561198238186628,"connected_time":75000000000,"state":"active","ping":76},{"user_id":460,"name":"oo","steam_id":76561198119626492,"connected_time":3670000000000,"state":"active","ping":87},{"user_id":519,"name":"Tom Skirrett","steam_id":76561198014600788,"connected_time":328000000000,"state":"active","ping":60},{"user_id":497,"name":"Sudsen","steam_id":76561198370603787,"connected_time":1549000000000,"state":"active","ping":70},{"user_id":504,"name":"Lawyer","steam_id":76561197974126447,"connected_time":974000000000,"state":"active","ping":90},{"user_id":524,"name":"Dimple #TF2Center","steam_id":76561198980324190,"connected_time":64000000000,"state":"active","ping":50},{"user_id":521,"name":"John Johnson","steam_id":76561198347510093,"connected_time":117000000000,"state":"active","ping":58},{"user_id":499,"name":"Cam(era)","steam_id":76561198285054047,"connected_time":1538000000000,"state":"active","ping":79},{"user_id":508,"name":"Hassium","steam_id":76561198162541373,"connected_time":919000000000,"state":"active","ping":49}]},{"server_id":119,"name":"Uncletopia | Seattle | 2 | All Maps","name_short":"sea-2","host":"sea-1.us.uncletopia.com","port":27025,"enabled":true,"region":"us-west","cc":"us","latitude":47.608013,"longitude":-122.33517,"reserved":0,"last_update":"0001-01-01T00:00:00Z","name_a2s":"Uncletopia | Seattle | 2 | All Maps","protocol":17,"map":"pl_goldrush","folder":"tf","game":"Team Fortress","app_id":440,"player_count":24,"max_players":24,"Bots":0,"server_type":"Dedicated","server_os":"Linux","password":true,"vac":true,"version":"7757534","steam_id":85568392924469998,"keywords":["nocrits","nodmgspread","payload","uncletopia"],"game_id":440,"stv_port":27026,"stv_name":"Uncletopia | Seattle | 2 | All Maps | STV","players":[{"user_id":314,"name":"Volkan","steam_id":76561198401314312,"connected_time":2541000000000,"state":"active","ping":89},{"user_id":288,"name":"AmiableNebula","steam_id":76561198094306627,"connected_time":4672000000000,"state":"active","ping":75},{"user_id":331,"name":"RipHunter77","steam_id":76561198272973014,"connected_time":826000000000,"state":"active","ping":86},{"user_id":336,"name":"[DATS➡] Sugar Meowth","steam_id":76561197995251793,"connected_time":459000000000,"state":"active","ping":45},{"user_id":278,"name":"Tibetan Pop Star","steam_id":76561198844903984,"connected_time":5643000000000,"state":"active","ping":87},{"user_id":324,"name":"cornshot","steam_id":76561198043496387,"connected_time":1237000000000,"state":"active","ping":68},{"user_id":269,"name":"Yume","steam_id":76561198018060136,"connected_time":6454000000000,"state":"active","ping":85},{"user_id":300,"name":"benji","steam_id":76561198084417967,"connected_time":3375000000000,"state":"active","ping":65},{"user_id":340,"name":"golia","steam_id":76561198000264266,"connected_time":306000000000,"state":"active","ping":78},{"user_id":293,"name":"kodynotcody","steam_id":76561198340685758,"connected_time":3472000000000,"state":"active","ping":64},{"user_id":236,"name":"Grammaring","steam_id":76561198867366139,"connected_time":8400000000000,"state":"active","ping":78},{"user_id":341,"name":"This game sucks","steam_id":76561198042007578,"connected_time":271000000000,"state":"active","ping":88},{"user_id":334,"name":"Salazar9","steam_id":76561198049903973,"connected_time":536000000000,"state":"active","ping":58},{"user_id":339,"name":"reiidaya","steam_id":76561198325306660,"connected_time":345000000000,"state":"active","ping":54},{"user_id":238,"name":"Yosh","steam_id":76561198027078899,"connected_time":8335000000000,"state":"active","ping":84},{"user_id":294,"name":"Keamy","steam_id":76561199471434875,"connected_time":3471000000000,"state":"active","ping":41},{"user_id":310,"name":"professional gaymer","steam_id":76561198063949642,"connected_time":2818000000000,"state":"active","ping":41},{"user_id":343,"name":"SuperViolence","steam_id":76561198973670368,"connected_time":111000000000,"state":"active","ping":106},{"user_id":328,"name":"Finic Fox","steam_id":76561198154785984,"connected_time":960000000000,"state":"active","ping":60},{"user_id":316,"name":"god's drunkest driver","steam_id":76561198212115640,"connected_time":2530000000000,"state":"active","ping":80},{"user_id":231,"name":"Dr. Banana boy","steam_id":76561199012105803,"connected_time":8743000000000,"state":"active","ping":53},{"user_id":342,"name":"CB1 Cousin Junebug","steam_id":76561198090573639,"connected_time":132000000000,"state":"active","ping":75},{"user_id":329,"name":"TheCowledWiz","steam_id":76561198016735868,"connected_time":886000000000,"state":"active","ping":59},{"user_id":338,"name":"PokemzX","steam_id":76561198303574256,"connected_time":430000000000,"state":"active","ping":35}]},{"server_id":406,"name":"Uncletopia | Seattle | 3 | Stopwatch Beta","name_short":"sea-3","host":"sea-1.us.uncletopia.com","port":27035,"enabled":true,"region":"us-west","cc":"us","latitude":47.608013,"longitude":-122.33517,"reserved":0,"last_update":"0001-01-01T00:00:00Z","name_a2s":"Uncletopia | Seattle | 3 | Stopwatch Beta","protocol":17,"map":"workshop/pl_barnblitz_pro7.ugc582280235","folder":"tf","game":"Team Fortress","app_id":440,"player_count":0,"max_players":24,"Bots":0,"server_type":"Dedicated","server_os":"Linux","password":true,"vac":true,"version":"7757534","steam_id":85568392924515217,"keywords":["nocrits","nodmgspread","payload","uncletopia"],"game_id":440,"stv_port":27036,"stv_name":"Uncletopia | Seattle | 3 | Stopwatch Beta | STV","players":null},{"server_id":17,"name":"Uncletopia | San Francisco | 1 | All Maps","name_short":"sfo-1","host":"sfo-1.us.uncletopia.com","port":27015,"enabled":true,"region":"us-west","cc":"us","latitude":37.77397,"longitude":-122.4313,"reserved":0,"last_update":"0001-01-01T00:00:00Z","name_a2s":"Uncletopia | San Francisco | 1 | All Maps","protocol":17,"map":"pl_upward","folder":"tf","game":"Team Fortress","app_id":440,"player_count":24,"max_players":24,"Bots":0,"server_type":"Dedicated","server_os":"Linux","password":true,"vac":true,"version":"7757534","steam_id":85568392924469999,"keywords":["nocrits","nodmgspread","payload","uncletopia"],"game_id":440,"stv_port":27016,"stv_name":"Uncletopia | San Francisco | 1 | All Maps | STV","players":[{"user_id":661,"name":"Taser! Taser!","steam_id":76561198068113347,"connected_time":2053000000000,"state":"active","ping":56},{"user_id":691,"name":"gulch","steam_id":76561199227946025,"connected_time":417000000000,"state":"active","ping":99},{"user_id":673,"name":"Destroyer1004","steam_id":76561199367685913,"connected_time":1230000000000,"state":"active","ping":69},{"user_id":659,"name":"SpringIvan","steam_id":76561199133179509,"connected_time":2210000000000,"state":"active","ping":45},{"user_id":629,"name":"the Good Guy","steam_id":76561198416759211,"connected_time":4167000000000,"state":"active","ping":105},{"user_id":662,"name":"Villchip","steam_id":76561198198599982,"connected_time":2032000000000,"state":"active","ping":71},{"user_id":695,"name":"Stapler","steam_id":76561198099295077,"connected_time":295000000000,"state":"active","ping":47},{"user_id":681,"name":"Tort boi","steam_id":76561198125327110,"connected_time":1048000000000,"state":"active","ping":66},{"user_id":625,"name":"M E M E  M A N","steam_id":76561198103179061,"connected_time":4709000000000,"state":"active","ping":125},{"user_id":690,"name":"stillgeneric?","steam_id":76561198872727936,"connected_time":514000000000,"state":"active","ping":58},{"user_id":693,"name":"vncnt","steam_id":76561198046113319,"connected_time":368000000000,"state":"active","ping":75},{"user_id":692,"name":"Nuts","steam_id":76561199258535559,"connected_time":397000000000,"state":"active","ping":68},{"user_id":677,"name":"toodles","steam_id":76561198025463883,"connected_time":1127000000000,"state":"active","ping":78},{"user_id":696,"name":"Vile","steam_id":76561198085615710,"connected_time":238000000000,"state":"active","ping":68},{"user_id":652,"name":"ally of big tobacco","steam_id":76561198169927835,"connected_time":3407000000000,"state":"active","ping":90},{"user_id":697,"name":"❤ Ashley ❤","steam_id":76561198056428303,"connected_time":237000000000,"state":"active","ping":48},{"user_id":699,"name":"Dzlink","steam_id":76561198390656783,"connected_time":45000000000,"state":"active","ping":60},{"user_id":679,"name":"SomeRandomBetaFish","steam_id":76561198827731399,"connected_time":1119000000000,"state":"active","ping":84},{"user_id":680,"name":"Coolshroomish","steam_id":76561199109440924,"connected_time":1104000000000,"state":"active","ping":69},{"user_id":698,"name":"toaster oven","steam_id":76561199062294158,"connected_time":108000000000,"state":"active","ping":115},{"user_id":624,"name":"Thiccums","steam_id":76561198291586739,"connected_time":5209000000000,"state":"active","ping":48},{"user_id":590,"name":"gNarNar","steam_id":76561197994505205,"connected_time":7378000000000,"state":"active","ping":98},{"user_id":685,"name":"azfox","steam_id":76561198408538213,"connected_time":833000000000,"state":"active","ping":70},{"user_id":656,"name":"level 7 firemancer","steam_id":76561198209571677,"connected_time":3041000000000,"state":"active","ping":105}]},{"server_id":18,"name":"Uncletopia | San Francisco | 2 | All Maps","name_short":"sfo-2","host":"sfo-1.us.uncletopia.com","port":27025,"enabled":true,"region":"us-west","cc":"us","latitude":37.77397,"longitude":-122.4313,"reserved":0,"last_update":"0001-01-01T00:00:00Z","name_a2s":"Uncletopia | San Francisco | 2 | All Maps","protocol":17,"map":"pl_barnblitz","folder":"tf","game":"Team Fortress","app_id":440,"player_count":24,"max_players":24,"Bots":0,"server_type":"Dedicated","server_os":"Linux","password":true,"vac":true,"version":"7757534","steam_id":85568392924470000,"keywords":["nocrits","nodmgspread","payload","uncletopia"],"game_id":440,"stv_port":27026,"stv_name":"Uncletopia | San Francisco | 2 | All Maps | STV","players":[{"user_id":393,"name":"Liam McKendrick","steam_id":76561198077965553,"connected_time":2429000000000,"state":"active","ping":114},{"user_id":447,"name":"Delsin","steam_id":76561198330992794,"connected_time":10000000000,"state":"spawning","ping":332},{"user_id":422,"name":"Bergmann MP18","steam_id":76561198218417512,"connected_time":892000000000,"state":"active","ping":70},{"user_id":432,"name":"Sivinus","steam_id":76561198025589541,"connected_time":792000000000,"state":"active","ping":70},{"user_id":383,"name":"terrorism? boy howdy","steam_id":76561198844003641,"connected_time":3030000000000,"state":"active","ping":62},{"user_id":406,"name":"jello","steam_id":76561198149683030,"connected_time":1809000000000,"state":"active","ping":47},{"user_id":444,"name":"Jmercy","steam_id":76561198977162219,"connected_time":115000000000,"state":"active","ping":139},{"user_id":440,"name":"Spytron 3000","steam_id":76561198067791086,"connected_time":490000000000,"state":"active","ping":57},{"user_id":320,"name":"dark luigi","steam_id":76561198048007844,"connected_time":5278000000000,"state":"active","ping":57},{"user_id":431,"name":"SoundKitKiller","steam_id":76561198053535873,"connected_time":805000000000,"state":"active","ping":129},{"user_id":412,"name":"MCman","steam_id":76561198412110305,"connected_time":1563000000000,"state":"active","ping":80},{"user_id":419,"name":"Waaaaz","steam_id":76561198029754301,"connected_time":1027000000000,"state":"active","ping":59},{"user_id":396,"name":"Gr8butnotreally","steam_id":76561198133924450,"connected_time":2120000000000,"state":"active","ping":74},{"user_id":410,"name":"TothBrush","steam_id":76561198028254471,"connected_time":1670000000000,"state":"active","ping":69},{"user_id":413,"name":"QuackyMario","steam_id":76561198838548459,"connected_time":1555000000000,"state":"active","ping":108},{"user_id":437,"name":"Totally Spiteful Monke","steam_id":76561198390249357,"connected_time":622000000000,"state":"active","ping":179},{"user_id":416,"name":"Semyr","steam_id":76561198125655939,"connected_time":1269000000000,"state":"active","ping":115},{"user_id":417,"name":"ttv_shingo_is_live","steam_id":76561198998571073,"connected_time":1047000000000,"state":"active","ping":58},{"user_id":414,"name":"daniel","steam_id":76561197991289254,"connected_time":1518000000000,"state":"active","ping":61},{"user_id":427,"name":"John Wick's puppy","steam_id":76561198064662875,"connected_time":821000000000,"state":"active","ping":49},{"user_id":302,"name":"ChromeOwl","steam_id":76561198953786715,"connected_time":5681000000000,"state":"active","ping":72},{"user_id":428,"name":"voidpuppy","steam_id":76561198799922000,"connected_time":820000000000,"state":"active","ping":66},{"user_id":445,"name":"NoahSherlock(wln.tf)","steam_id":76561199015641953,"connected_time":110000000000,"state":"active","ping":182},{"user_id":433,"name":"itshuredoes","steam_id":76561199094108419,"connected_time":790000000000,"state":"active","ping":123}]},{"server_id":19,"name":"Uncletopia | San Francisco | 3 | Stopwatch Beta","name_short":"sfo-3","host":"sfo-1.us.uncletopia.com","port":27035,"enabled":true,"region":"us-west","cc":"us","latitude":37.77397,"longitude":-122.4313,"reserved":0,"last_update":"0001-01-01T00:00:00Z","name_a2s":"Uncletopia | San Francisco | 3 | Stopwatch Beta","protocol":17,"map":"workshop/koth_product_final.ugc454272353","folder":"tf","game":"Team Fortress","app_id":440,"player_count":0,"max_players":24,"Bots":0,"server_type":"Dedicated","server_os":"Linux","password":true,"vac":true,"version":"7757534","steam_id":85568392924742824,"keywords":["cp","nocrits","nodmgspread","uncletopia"],"game_id":440,"stv_port":27036,"stv_name":"Uncletopia | San Francisco | 3 | Stopwatch Beta | STV","players":null},{"server_id":20,"name":"Uncletopia | San Francisco | 4 | Community","name_short":"sfo-4","host":"sfo-1.us.uncletopia.com","port":27045,"enabled":true,"region":"us-west","cc":"us","latitude":37.77397,"longitude":-122.4313,"reserved":0,"last_update":"0001-01-01T00:00:00Z","name_a2s":"Uncletopia | San Francisco | 4 | Community","protocol":17,"map":"workshop/cp_snowbase_b18.ugc2081770490","folder":"tf","game":"Team Fortress","app_id":440,"player_count":0,"max_players":24,"Bots":0,"server_type":"Dedicated","server_os":"Linux","password":true,"vac":true,"version":"7757534","steam_id":85568392924742826,"keywords":["cp","nocrits","nodmgspread","uncletopia"],"game_id":440,"stv_port":27046,"stv_name":"Uncletopia | San Francisco | 4 | Community | STV","players":null},{"server_id":141,"name":"Uncletopia | Sydney | 1 | All Maps","name_short":"syd-1","host":"syd-1.au.uncletopia.com","port":27015,"enabled":true,"region":"au","cc":"au","latitude":-33.865143,"longitude":151.2099,"reserved":0,"last_update":"0001-01-01T00:00:00Z","name_a2s":"Uncletopia | Sydney | 1 | All Maps","protocol":17,"map":"koth_highpass","folder":"tf","game":"Team Fortress","app_id":440,"player_count":20,"max_players":24,"Bots":0,"server_type":"Dedicated","server_os":"Linux","password":true,"vac":true,"version":"7757534","steam_id":85568392924470001,"keywords":["cp","nocrits","nodmgspread","uncletopia"],"game_id":440,"stv_port":27016,"stv_name":"Uncletopia | Sydney | 1 | All Maps | STV","players":[{"user_id":5,"name":"Jett","steam_id":76561198969434128,"connected_time":7238000000000,"state":"active","ping":86},{"user_id":99,"name":"Hona","steam_id":76561198221809496,"connected_time":1231000000000,"state":"active","ping":60},{"user_id":79,"name":"Poop2Hard","steam_id":76561198099383586,"connected_time":2372000000000,"state":"active","ping":64},{"user_id":103,"name":"Zieria","steam_id":76561199261811388,"connected_time":875000000000,"state":"active","ping":40},{"user_id":108,"name":"Jam","steam_id":76561198842056320,"connected_time":443000000000,"state":"active","ping":69},{"user_id":107,"name":"Extra Exotic","steam_id":76561198045191981,"connected_time":583000000000,"state":"active","ping":58},{"user_id":121,"name":"SCHEFF","steam_id":76561198078226216,"connected_time":2000000000,"state":"spawning","ping":64},{"user_id":109,"name":"Lain","steam_id":76561198149217307,"connected_time":424000000000,"state":"active","ping":100},{"user_id":84,"name":"ScremingEgle","steam_id":76561198076866709,"connected_time":2136000000000,"state":"active","ping":133},{"user_id":117,"name":"hofmeyrm","steam_id":76561198018708296,"connected_time":110000000000,"state":"active","ping":69},{"user_id":118,"name":"ANML","steam_id":76561198260039591,"connected_time":84000000000,"state":"active","ping":50},{"user_id":112,"name":"[CUNT] Daemos","steam_id":76561198807444082,"connected_time":398000000000,"state":"active","ping":83},{"user_id":39,"name":"MindlessTie","steam_id":76561198107844324,"connected_time":4292000000000,"state":"active","ping":68},{"user_id":113,"name":"luxi","steam_id":76561198045695969,"connected_time":392000000000,"state":"active","ping":64},{"user_id":114,"name":"Chicken","steam_id":76561198102356311,"connected_time":383000000000,"state":"active","ping":50},{"user_id":96,"name":"bogan on a fence","steam_id":76561198052032702,"connected_time":1369000000000,"state":"active","ping":49},{"user_id":119,"name":"Pie","steam_id":76561198996610188,"connected_time":65000000000,"state":"active","ping":250},{"user_id":66,"name":"das conk creet baybee","steam_id":76561198256416570,"connected_time":3422000000000,"state":"active","ping":59},{"user_id":120,"name":"MR Martian","steam_id":76561198157854561,"connected_time":23000000000,"state":"spawning","ping":90},{"user_id":102,"name":"Cofwee","steam_id":76561198072414195,"connected_time":975000000000,"state":"active","ping":75}]},{"server_id":123,"name":"Uncletopia | Sydney | 2 | All Maps","name_short":"syd-2","host":"syd-1.au.uncletopia.com","port":27025,"enabled":true,"region":"au","cc":"au","latitude":-33.865143,"longitude":151.2099,"reserved":0,"last_update":"0001-01-01T00:00:00Z","name_a2s":"Uncletopia | Sydney | 2 | All Maps","protocol":17,"map":"koth_highpass","folder":"tf","game":"Team Fortress","app_id":440,"player_count":0,"max_players":24,"Bots":0,"server_type":"Dedicated","server_os":"Linux","password":true,"vac":true,"version":"7757534","steam_id":85568392924470002,"keywords":["cp","nocrits","nodmgspread","uncletopia"],"game_id":440,"stv_port":27026,"stv_name":"Uncletopia | Sydney | 2 | All Maps | STV","players":null},{"server_id":395,"name":"Uncletopia | Sydney | 3 | All Maps","name_short":"syd-3","host":"syd-1.au.uncletopia.com","port":27035,"enabled":true,"region":"au","cc":"au","latitude":-33.865143,"longitude":151.2099,"reserved":0,"last_update":"0001-01-01T00:00:00Z","name_a2s":"Uncletopia | Sydney | 3 | All Maps","protocol":17,"map":"cp_altitude","folder":"tf","game":"Team Fortress","app_id":440,"player_count":0,"max_players":24,"Bots":0,"server_type":"Dedicated","server_os":"Linux","password":true,"vac":true,"version":"7757534","steam_id":85568392925194467,"keywords":["cp","nocrits","nodmgspread","uncletopia"],"game_id":440,"stv_port":27036,"stv_name":"Uncletopia | Sydney | 3 | All Maps | STV","players":null},{"server_id":396,"name":"Uncletopia | Sydney | 4 | All Maps","name_short":"syd-4","host":"syd-1.au.uncletopia.com","port":27045,"enabled":true,"region":"au","cc":"au","latitude":-33.865143,"longitude":151.2099,"reserved":0,"last_update":"0001-01-01T00:00:00Z","name_a2s":"Uncletopia | Sydney | 4 | All Maps","protocol":17,"map":"cp_process_final","folder":"tf","game":"Team Fortress","app_id":440,"player_count":0,"max_players":24,"Bots":0,"server_type":"Dedicated","server_os":"Linux","password":true,"vac":true,"version":"7757534","steam_id":85568392925397958,"keywords":["cp","nocrits","nodmgspread","uncletopia"],"game_id":440,"stv_port":27046,"stv_name":"Uncletopia | Sydney | 4 | All Maps | STV","players":null},{"server_id":58,"name":"Uncletopia | Sydney | 5 | Stopwatch Beta","name_short":"syd-5","host":"syd-1.au.uncletopia.com","port":27055,"enabled":true,"region":"au","cc":"au","latitude":-33.865143,"longitude":151.2099,"reserved":0,"last_update":"0001-01-01T00:00:00Z","name_a2s":"Uncletopia | Sydney | 5 | Stopwatch Beta","protocol":17,"map":"koth_highpass","folder":"tf","game":"Team Fortress","app_id":440,"player_count":0,"max_players":24,"Bots":0,"server_type":"Dedicated","server_os":"Linux","password":true,"vac":true,"version":"7757534","steam_id":85568392925397959,"keywords":["cp","nocrits","nodmgspread","uncletopia"],"game_id":440,"stv_port":27056,"stv_name":"Uncletopia | Sydney | 5 | Stopwatch Beta | STV","players":null},{"server_id":59,"name":"Uncletopia | Sydney | 6 | Community","name_short":"syd-6","host":"syd-1.au.uncletopia.com","port":27065,"enabled":true,"region":"au","cc":"au","latitude":-33.865143,"longitude":151.2099,"reserved":0,"last_update":"0001-01-01T00:00:00Z","name_a2s":"Uncletopia | Sydney | 6 | Community","protocol":17,"map":"pl_badwater","folder":"tf","game":"Team Fortress","app_id":440,"player_count":0,"max_players":24,"Bots":0,"server_type":"Dedicated","server_os":"Linux","password":true,"vac":true,"version":"7757534","steam_id":85568392925397960,"keywords":["nocrits","nodmgspread","payload","uncletopia"],"game_id":440,"stv_port":27066,"stv_name":"Uncletopia | Sydney | 6 | Community | STV","players":null},{"server_id":49,"name":"Uncletopia | Warsaw | 1 | All Maps","name_short":"waw-1","host":"waw-1.pl.uncletopia.com","port":27015,"enabled":true,"region":"eu","cc":"pl","latitude":52.2297,"longitude":21.017532,"reserved":0,"last_update":"0001-01-01T00:00:00Z","name_a2s":"","protocol":0,"map":"","folder":"","game":"","app_id":0,"player_count":0,"max_players":0,"Bots":0,"server_type":"","server_os":"","password":false,"vac":false,"version":"","steam_id":0,"keywords":null,"game_id":0,"stv_port":0,"stv_name":"","players":null},{"server_id":50,"name":"Uncletopia | Warsaw | 2 | All Maps","name_short":"waw-2","host":"waw-1.pl.uncletopia.com","port":27025,"enabled":true,"region":"eu","cc":"pl","latitude":52.2297,"longitude":21.017532,"reserved":0,"last_update":"0001-01-01T00:00:00Z","name_a2s":"Uncletopia | Warsaw | 2 | All Maps","protocol":17,"map":"cp_altitude","folder":"tf","game":"Team Fortress","app_id":440,"player_count":0,"max_players":24,"Bots":0,"server_type":"Dedicated","server_os":"Linux","password":true,"vac":true,"version":"7757534","steam_id":85568392925397851,"keywords":["cp","nocrits","nodmgspread","uncletopia"],"game_id":440,"stv_port":27026,"stv_name":"Uncletopia | Warsaw | 2 | All Maps | STV","players":null},{"server_id":51,"name":"Uncletopia | Warsaw | 3 | All Maps","name_short":"waw-3","host":"waw-1.pl.uncletopia.com","port":27035,"enabled":true,"region":"eu","cc":"pl","latitude":52.2297,"longitude":21.017532,"reserved":0,"last_update":"0001-01-01T00:00:00Z","name_a2s":"Uncletopia | Warsaw | 3 | All Maps","protocol":17,"map":"koth_cascade","folder":"tf","game":"Team Fortress","app_id":440,"player_count":1,"max_players":24,"Bots":0,"server_type":"Dedicated","server_os":"Linux","password":true,"vac":true,"version":"7757534","steam_id":85568392925397852,"keywords":["cp","nocrits","nodmgspread","uncletopia"],"game_id":440,"stv_port":27036,"stv_name":"Uncletopia | Warsaw | 3 | All Maps | STV","players":[{"user_id":5,"name":"Get gud","steam_id":76561198389057210,"connected_time":132000000000,"state":"active","ping":54}]},{"server_id":52,"name":"Uncletopia | Warsaw | 4 | All Maps","name_short":"waw-4","host":"waw-1.pl.uncletopia.com","port":27045,"enabled":true,"region":"eu","cc":"pl","latitude":52.2297,"longitude":21.017532,"reserved":0,"last_update":"0001-01-01T00:00:00Z","name_a2s":"Uncletopia | Warsaw | 4 | All Maps","protocol":17,"map":"pl_upward","folder":"tf","game":"Team Fortress","app_id":440,"player_count":0,"max_players":24,"Bots":0,"server_type":"Dedicated","server_os":"Linux","password":true,"vac":true,"version":"7757534","steam_id":85568392925397853,"keywords":["nocrits","nodmgspread","payload","uncletopia"],"game_id":440,"stv_port":27046,"stv_name":"Uncletopia | Warsaw | 4 | All Maps | STV","players":null},{"server_id":53,"name":"Uncletopia | Warsaw | 5 | Stopwatch Beta","name_short":"waw-5","host":"waw-1.pl.uncletopia.com","port":27055,"enabled":true,"region":"eu","cc":"pl","latitude":52.2297,"longitude":21.017532,"reserved":0,"last_update":"0001-01-01T00:00:00Z","name_a2s":"Uncletopia | Warsaw | 5 | Stopwatch Beta","protocol":17,"map":"pl_pier","folder":"tf","game":"Team Fortress","app_id":440,"player_count":0,"max_players":24,"Bots":0,"server_type":"Dedicated","server_os":"Linux","password":true,"vac":true,"version":"7757534","steam_id":85568392925397854,"keywords":["nocrits","nodmgspread","payload","uncletopia"],"game_id":440,"stv_port":27056,"stv_name":"Uncletopia | Warsaw | 5 | Stopwatch Beta | STV","players":null},{"server_id":54,"name":"Uncletopia | Warsaw | 6 | Community","name_short":"waw-6","host":"waw-1.pl.uncletopia.com","port":27065,"enabled":true,"region":"eu","cc":"pl","latitude":52.2297,"longitude":21.017532,"reserved":0,"last_update":"0001-01-01T00:00:00Z","name_a2s":"Uncletopia | Warsaw | 6 | Community","protocol":17,"map":"koth_highpass","folder":"tf","game":"Team Fortress","app_id":440,"player_count":0,"max_players":24,"Bots":0,"server_type":"Dedicated","server_os":"Linux","password":true,"vac":true,"version":"7757534","steam_id":85568392925397856,"keywords":["cp","nocrits","nodmgspread","uncletopia"],"game_id":440,"stv_port":27066,"stv_name":"Uncletopia | Warsaw | 6 | Community | STV","players":null}]}