{"status":true,"message":"","result":[{"server_id":9,"name":"Uncletopia | Atlanta | 1 | All Maps","name_short":"atl-1","host":"atl-1.us.uncletopia.com","port":27015,"enabled":true,"region":"us-east","cc":"us","latitude":33.753746,"longitude":-84.38633,"reserved":0,"last_update":"0001-01-01T00:00:00Z","name_a2s":"Uncletopia | Atlanta | 1 | All Maps","protocol":17,"map":"cp_badlands","folder":"tf","game":"Team Fortress","app_id":440,"player_count":24,"max_players":24,"Bots":0,"server_type":"Dedicated","server_os":"Linux","password":true,"vac":true,"version":"7961495","steam_id":85568392924469982,"keywords":["cp","nocrits","nodmgspread","uncletopia"],"game_id":440,"stv_port":27016,"stv_name":"Uncletopia | Atlanta | 1 | All Maps | STV","players":[{"user_id":118,"name":"Bearbot5","steam_id":76561198883262617,"connected_time":1091000000000,"state":"active","ping":84},{"user_id":98,"name":"Heathcliff","steam_id":76561198044288534,"connected_time":2600000000000,"state":"active","ping":65},{"user_id":91,"name":"DevSlashUser","steam_id":76561198805884205,"connected_time":2896000000000,"state":"active","ping":106},{"user_id":99,"name":"DualiTea","steam_id":76561198081733870,"connected_time":2597000000000,"state":"active","ping":73},{"user_id":87,"name":"sansa musa","steam_id":76561198163723555,"connected_time":3453000000000,"state":"active","ping":60},{"user_id":116,"name":"lil hog","steam_id":76561199230929836,"connected_time":1131000000000,"state":"active","ping":79},{"user_id":94,"name":"Erchius (she/her)","steam_id":76561198256892300,"connected_time":2761000000000,"state":"active","ping":46},{"user_id":119,"name":"nrvvs","steam_id":76561199134714492,"connected_time":1063000000000,"state":"active","ping":90},{"user_id":120,"name":"dog","steam_id":76561198263873491,"connected_time":1034000000000,"state":"active","ping":58},{"user_id":100,"name":"Window Licker #pride","steam_id":76561198386717007,"connected_time":2594000000000,"state":"active","ping":75},{"user_id":129,"name":"hat","steam_id":76561199041462058,"connected_time":614000000000,"state":"active","ping":73},{"user_id":126,"name":"The_Stomach_Stone_Surgeon","steam_id":76561198044643725,"connected_time":794000000000,"state":"active","ping":44},{"user_id":128,"name":"Dr.Inkmix(femboy)","steam_id":76561198854070384,"connected_time":714000000000,"state":"active","ping":99},{"user_id":50,"name":"Jesus Burgess","steam_id":76561199343316814,"connected_time":5213000000000,"state":"active","ping":46},{"user_id":112,"name":"Neckwear Visionary","steam_id":76561199124521979,"connected_time":1826000000000,"state":"active","ping":53},{"user_id":85,"name":"Skit","steam_id":76561198032675272,"connected_time":3534000000000,"state":"active","ping":75},{"user_id":122,"name":"Lavendeer","steam_id":76561198142770666,"connected_time":1021000000000,"state":"active","ping":72},{"user_id":105,"name":"Voodo133","steam_id":76561198042670351,"connected_time":2368000000000,"state":"active","ping":67},{"user_id":95,"name":"why","steam_id":76561199059732212,"connected_time":2657000000000,"state":"active","ping":56},{"user_id":114,"name":"Sleepy","steam_id":76561198978688451,"connected_time":1580000000000,"state":"active","ping":65},{"user_id":110,"name":"Reverie","steam_id":76561198987005784,"connected_time":1861000000000,"state":"active","ping":79},{"user_id":80,"name":"Electroid","steam_id":76561199092263960,"connected_time":3792000000000,"state":"active","ping":45},{"user_id":113,"name":"otwtomarsoffdabars(spacecore)","steam_id":76561199085974120,"connected_time":1668000000000,"state":"active","ping":63},{"user_id":127,"name":"Jin Gulilo","steam_id":76561198065151242,"connected_time":790000000000,"state":"active","ping":64}]},{"server_id":104,"name":"Uncletopia | Atlanta | 2 | All Maps","name_short":"atl-2","host":"atl-1.us.uncletopia.com","port":27025,"enabled":true,"region":"us-east","cc":"us","latitude":33.753746,"longitude":-84.38633,"reserved":0,"last_update":"0001-01-01T00:00:00Z","name_a2s":"Uncletopia | Atlanta | 2 | All Maps","protocol":17,"map":"koth_lakeside_final","folder":"tf","game":"Team Fortress","app_id":440,"player_count":0,"max_players":24,"Bots":0,"server_type":"Dedicated","server_os":"Linux","password":true,"vac":true,"version":"7961495","steam_id":85568392924469983,"keywords":["cp","nocrits","nodmgspread","uncletopia"],"game_id":440,"stv_port":27026,"stv_name":"Uncletopia | Atlanta | 2 | All Maps | STV","players":null},{"server_id":400,"name":"Uncletopia | Atlanta | 3 | Stopwatch","name_short":"atl-3","host":"atl-1.us.uncletopia.com","port":27035,"enabled":true,"region":"us-east","cc":"us","latitude":33.753746,"longitude":-84.38633,"reserved":0,"last_update":"0001-01-01T00:00:00Z","name_a2s":"Uncletopia | Atlanta | 3 | Stopwatch","protocol":17,"map":"workshop/pl_barnblitz_pro7.ugc582280235","folder":"tf","game":"Team Fortress","app_id":440,"player_count":23,"max_players":24,"Bots":0,"server_type":"Dedicated","server_os":"Linux","password":true,"vac":true,"version":"7961495","steam_id":85568392924515187,"keywords":["nocrits","nodmgspread","payload","uncletopia"],"game_id":440,"stv_port":27036,"stv_name":"Uncletopia | Atlanta | 3 | Stopwatch | STV","players":[{"user_id":117,"name":"el pan con pate","steam_id":76561199082491709,"connected_time":1901000000000,"state":"active","ping":165},{"user_id":104,"name":"Cuttle's Fish","steam_id":76561198280483257,"connected_time":2930000000000,"state":"active","ping":75},{"user_id":150,"name":"WM1 PYRO","steam_id":76561198045893896,"connected_time":257000000000,"state":"active","ping":115},{"user_id":111,"name":"Kisari15","steam_id":76561198204362701,"connected_time":2307000000000,"state":"active","ping":150},{"user_id":136,"name":"YOU WHAT?!","steam_id":76561198418679471,"connected_time":830000000000,"state":"active","ping":47},{"user_id":124,"name":"BMoney","steam_id":76561198799389030,"connected_time":1572000000000,"state":"active","ping":90},{"user_id":147,"name":"Sappho of Lesbos","steam_id":76561198115931381,"connected_time":440000000000,"state":"active","ping":48},{"user_id":133,"name":"isla","steam_id":76561198139759348,"connected_time":1141000000000,"state":"active","ping":58},{"user_id":152,"name":"Anomet","steam_id":76561198060246255,"connected_time":231000000000,"state":"active","ping":60},{"user_id":105,"name":"Helmet Hands","steam_id":76561197961141994,"connected_time":2903000000000,"state":"active","ping":105},{"user_id":151,"name":"comet sooicidy","steam_id":76561198025173479,"connected_time":257000000000,"state":"active","ping":71},{"user_id":93,"name":"Shaunymon","steam_id":76561198089311104,"connected_time":3348000000000,"state":"active","ping":90},{"user_id":140,"name":"uranium","steam_id":76561198836802899,"connected_time":702000000000,"state":"active","ping":165},{"user_id":153,"name":"rat","steam_id":76561198272622003,"connected_time":168000000000,"state":"active","ping":50},{"user_id":135,"name":"gaming?!","steam_id":76561198148059714,"connected_time":901000000000,"state":"active","ping":70},{"user_id":90,"name":"DawnNannas","steam_id":76561198042915117,"connected_time":3375000000000,"state":"active","ping":114},{"user_id":123,"name":"|-HyperCube-|","steam_id":76561198167133597,"connected_time":1622000000000,"state":"active","ping":83},{"user_id":91,"name":"Ginger Jesus","steam_id":76561198052386458,"connected_time":3369000000000,"state":"active","ping":63},{"user_id":128,"name":"Joshy","steam_id":76561198061405421,"connected_time":1493000000000,"state":"active","ping":82},{"user_id":154,"name":"Who?","steam_id":76561199229661082,"connected_time":147000000000,"state":"active","ping":45},{"user_id":141,"name":"Droptavious Le Quantavious","steam_id":76561198995972200,"connected_time":694000000000,"state":"active","ping":165},{"user_id":139,"name":"graffiti","steam_id":76561198044594230,"connected_time":724000000000,"state":"active","ping":63},{"user_id":146,"name":"Smartchicken","steam_id":76561198037744517,"connected_time":565000000000,"state":"active","ping":75}]},{"server_id":401,"name":"Uncletopia | Atlanta | 4 | Community","name_short":"atl-4","host":"atl-1.us.uncletopia.com","port":27045,"enabled":true,"region":"us-east","cc":"us","latitude":33.753746,"longitude":-84.38633,"reserved":0,"last_update":"0001-01-01T00:00:00Z","name_a2s":"Uncletopia | Atlanta | 4 | Community","protocol":17,"map":"workshop/pl_vigil_rc10.ugc1266210012","folder":"tf","game":"Team Fortress","app_id":440,"player_count":0,"max_players":24,"Bots":0,"server_type":"Dedicated","server_os":"Linux","password":true,"vac":true,"version":"7961495","steam_id":85568392924515188,"keywords":["nocrits","nodmgspread","payload","uncletopia"],"game_id":440,"stv_port":27046,"stv_name":"Uncletopia | Atlanta | 4 | Community | STV","players":null},{"server_id":2,"name":"Uncletopia | Chicago | 1 | All Maps","name_short":"chi-1","host":"chi-1.us.uncletopia.com","port":27015,"enabled":true,"region":"us-central","cc":"us","latitude":41.881832,"longitude":-87.62318,"reserved":0,"last_update":"0001-01-01T00:00:00Z","name_a2s":"Uncletopia | Chicago | 1 | All Maps","protocol":17,"map":"pl_barnblitz","folder":"tf","game":"Team Fortress","app_id":440,"player_count":25,"max_players":24,"Bots":0,"server_type":"Dedicated","server_os":"Linux","password":true,"vac":true,"version":"7961495","steam_id":85568392924469984,"keywords":["nocrits","nodmgspread","payload","uncletopia"],"game_id":440,"stv_port":27016,"stv_name":"Uncletopia | Chicago | 1 | All Maps | STV","players":[{"user_id":283,"name":"mkl","steam_id":76561197986401685,"connected_time":1449000000000,"state":"active","ping":85},{"user_id":298,"name":"Danger Dwarf","steam_id":76561198059490571,"connected_time":1125000000000,"state":"active","ping":65},{"user_id":348,"name":"Nestor","steam_id":76561198070782619,"connected_time":104000000000,"state":"active","ping":48},{"user_id":224,"name":"Srg-Waffle","steam_id":76561198204555116,"connected_time":3645000000000,"state":"active","ping":80},{"user_id":282,"name":"friends forever","steam_id":76561198282764599,"connected_time":1458000000000,"state":"active","ping":63},{"user_id":287,"name":"Mix","steam_id":76561198835593895,"connected_time":1352000000000,"state":"active","ping":49},{"user_id":240,"name":"Pierre Bourne","steam_id":76561199500265332,"connected_time":2653000000000,"state":"active","ping":72},{"user_id":337,"name":"JohnFMX","steam_id":76561198175608097,"connected_time":381000000000,"state":"active","ping":74},{"user_id":252,"name":"sock","steam_id":76561199117597830,"connected_time":2126000000000,"state":"active","ping":65},{"user_id":334,"name":"slafflow","steam_id":76561199381012350,"connected_time":401000000000,"state":"active","ping":79},{"user_id":258,"name":"DinkyDoink","steam_id":76561198240026004,"connected_time":1946000000000,"state":"active","ping":50},{"user_id":253,"name":"H0wlr","steam_id":76561198012332824,"connected_time":2083000000000,"state":"active","ping":61},{"user_id":208,"name":"Eomy","steam_id":76561198297783627,"connected_time":4967000000000,"state":"active","ping":63},{"user_id":285,"name":"Robertpuggle","steam_id":76561198045873652,"connected_time":1368000000000,"state":"active","ping":59},{"user_id":353,"name":"The jesus guy (FRNK)","steam_id":76561198237997622,"connected_time":3000000000,"state":"spawning","ping":165},{"user_id":291,"name":"Legit_Jaxer","steam_id":76561198172234053,"connected_time":1258000000000,"state":"active","ping":135},{"user_id":213,"name":"Imposter","steam_id":76561199043966809,"connected_time":4414000000000,"state":"active","ping":72},{"user_id":198,"name":"Ranger","steam_id":76561198064096654,"connected_time":5898000000000,"state":"active","ping":52},{"user_id":308,"name":"dormio","steam_id":76561198400723170,"connected_time":883000000000,"state":"active","ping":60},{"user_id":260,"name":"The Thing","steam_id":76561198974343695,"connected_time":1912000000000,"state":"active","ping":81},{"user_id":302,"name":"Aperture Science Intern","steam_id":76561198040553272,"connected_time":1009000000000,"state":"active","ping":68},{"user_id":280,"name":"Toxic Mercenary","steam_id":76561197988501611,"connected_time":1519000000000,"state":"active","ping":68},{"user_id":229,"name":"The Pootis'd Berd","steam_id":76561198141903490,"connected_time":3511000000000,"state":"active","ping":100},{"user_id":312,"name":"mrpineapple070","steam_id":76561199088278757,"connected_time":821000000000,"state":"active","ping":103},{"user_id":294,"name":"GreySweaterCat","steam_id":76561198351860293,"connected_time":1202000000000,"state":"active","ping":109}]},{"server_id":106,"name":"Uncletopia | Chicago | 2 | All Maps","name_short":"chi-2","host":"chi-1.us.uncletopia.com","port":27025,"enabled":true,"region":"us-central","cc":"us","latitude":41.881832,"longitude":-87.62318,"reserved":0,"last_update":"0001-01-01T00:00:00Z","name_a2s":"Uncletopia | Chicago | 2 | All Maps","protocol":17,"map":"pl_pier","folder":"tf","game":"Team Fortress","app_id":440,"player_count":23,"max_players":24,"Bots":0,"server_type":"Dedicated","server_os":"Linux","password":true,"vac":true,"version":"7961495","steam_id":85568392924469985,"keywords":["nocrits","nodmgspread","payload","uncletopia"],"game_id":440,"stv_port":27026,"stv_name":"Uncletopia | Chicago | 2 | All Maps | STV","players":[{"user_id":337,"name":"haileywestbrook123@gmail.com","steam_id":76561199169445769,"connected_time":948000000000,"state":"active","ping":75},{"user_id":331,"name":"Rein","steam_id":76561198300340427,"connected_time":1306000000000,"state":"active","ping":60},{"user_id":341,"name":"donkus","steam_id":76561198255787237,"connected_time":625000000000,"state":"active","ping":75},{"user_id":259,"name":"Nathan","steam_id":76561198127924646,"connected_time":6760000000000,"state":"active","ping":76},{"user_id":329,"name":"beep","steam_id":76561199096448766,"connected_time":1540000000000,"state":"active","ping":58},{"user_id":345,"name":"Sick Skeleton","steam_id":76561198097707557,"connected_time":442000000000,"state":"active","ping":107},{"user_id":342,"name":"Rufous","steam_id":76561198018954668,"connected_time":594000000000,"state":"active","ping":72},{"user_id":332,"name":"james_bondage","steam_id":76561199476062624,"connected_time":1301000000000,"state":"active","ping":59},{"user_id":318,"name":"Just a Good Friend","steam_id":76561198140052403,"connected_time":2553000000000,"state":"active","ping":75},{"user_id":343,"name":"Snaky","steam_id":76561199389427774,"connected_time":577000000000,"state":"active","ping":92},{"user_id":321,"name":"Waroslav","steam_id":76561198116604050,"connected_time":2393000000000,"state":"active","ping":142},{"user_id":335,"name":"olivia","steam_id":76561198051920905,"connected_time":1047000000000,"state":"active","ping":76},{"user_id":344,"name":"Admiral Angry","steam_id":76561198058199206,"connected_time":511000000000,"state":"active","ping":50},{"user_id":350,"name":"ameritech","steam_id":76561198064769089,"connected_time":23000000000,"state":"active","ping":54},{"user_id":319,"name":"ADRIEN BRODY","steam_id":76561198009299473,"connected_time":2511000000000,"state":"active","ping":64},{"user_id":334,"name":"Frontal Lobe","steam_id":76561198115937355,"connected_time":1087000000000,"state":"active","ping":62},{"user_id":258,"name":"kirby7","steam_id":76561199167006749,"connected_time":7328000000000,"state":"active","ping":68},{"user_id":204,"name":"Chromatic Bliss","steam_id":76561198252604816,"connected_time":11107000000000,"state":"active","ping":65},{"user_id":328,"name":"Local Gambling Adict","steam_id":76561199150424471,"connected_time":1641000000000,"state":"active","ping":103},{"user_id":349,"name":"Dr.StrangeGlove","steam_id":76561198286114229,"connected_time":53000000000,"state":"active","ping":62},{"user_id":346,"name":"Novu","steam_id":76561198886997024,"connected_time":437000000000,"state":"active","ping":74},{"user_id":284,"name":"Order for Delivery","steam_id":76561198070850386,"connected_time":4948000000000,"state":"active","ping":75},{"user_id":348,"name":"zzzz","steam_id":76561198310495200,"connected_time":396000000000,"state":"active","ping":45}]},{"server_id":402,"name":"Uncletopia | Chicago | 3 | All Maps","name_short":"chi-3","host":"chi-1.us.uncletopia.com","port":27035,"enabled":true,"region":"us-central","cc":"us","latitude":41.881832,"longitude":-87.62318,"reserved":0,"last_update":"0001-01-01T00:00:00Z","name_a2s":"Uncletopia | Chicago | 3 | All Maps","protocol":17,"map":"plr_pipeline","folder":"tf","game":"Team Fortress","app_id":440,"player_count":0,"max_players":24,"Bots":0,"server_type":"Dedicated","server_os":"Linux","password":true,"vac":true,"version":"7961495","steam_id":85568392924515191,"keywords":["nocrits","nodmgspread","payload","uncletopia"],"game_id":440,"stv_port":27036,"stv_name":"Uncletopia | Chicago | 3 | All Maps | STV","players":null},{"server_id":403,"name":"Uncletopia | Chicago | 4 | All Maps","name_short":"chi-4","host":"chi-1.us.uncletopia.com","port":27045,"enabled":true,"region":"us-central","cc":"us","latitude":41.881832,"longitude":-87.62318,"reserved":0,"last_update":"0001-01-01T00:00:00Z","name_a2s":"Uncletopia | Chicago | 4 | All Maps","protocol":17,"map":"cp_gorge","folder":"tf","game":"Team Fortress","app_id":440,"player_count":24,"max_players":24,"Bots":0,"server_type":"Dedicated","server_os":"Linux","password":true,"vac":true,"version":"7961495","steam_id":85568392924515193,"keywords":["cp","nocrits","nodmgspread","uncletopia"],"game_id":440,"stv_port":27046,"stv_name":"Uncletopia | Chicago | 4 | All Maps | STV","players":[{"user_id":150,"name":"vivian tf2","steam_id":76561198059229612,"connected_time":6620000000000,"state":"active","ping":55},{"user_id":212,"name":"ThatGamingKiwi","steam_id":76561199170522237,"connected_time":381000000000,"state":"active","ping":62},{"user_id":198,"name":"SecondCarpet","steam_id":76561199008323078,"connected_time":1715000000000,"state":"active","ping":57},{"user_id":180,"name":"castro","steam_id":76561198834358497,"connected_time":3998000000000,"state":"active","ping":75},{"user_id":205,"name":"Chadmander","steam_id":76561197974136337,"connected_time":1157000000000,"state":"active","ping":40},{"user_id":215,"name":"Felwo3","steam_id":76561199217352978,"connected_time":344000000000,"state":"active","ping":158},{"user_id":213,"name":"username_id","steam_id":76561198103759716,"connected_time":373000000000,"state":"active","ping":68},{"user_id":206,"name":"‚ô©Karmism‚ô©","steam_id":76561199453410299,"connected_time":1007000000000,"state":"active","ping":76},{"user_id":139,"name":"[MADTAS] The Madnetastrophe","steam_id":76561197995620232,"connected_time":6866000000000,"state":"active","ping":50},{"user_id":214,"name":"Jack","steam_id":76561198079575891,"connected_time":357000000000,"state":"active","ping":137},{"user_id":208,"name":"ChirpyDerpy","steam_id":76561198194756381,"connected_time":994000000000,"state":"active","ping":103},{"user_id":211,"name":"Berries","steam_id":76561198109312962,"connected_time":488000000000,"state":"active","ping":83},{"user_id":218,"name":"Sex","steam_id":76561199138993597,"connected_time":319000000000,"state":"active","ping":163},{"user_id":119,"name":"Rornir","steam_id":76561198081829615,"connected_time":8491000000000,"state":"active","ping":43},{"user_id":217,"name":"winrarFanatic","steam_id":76561198026538317,"connected_time":338000000000,"state":"active","ping":60},{"user_id":195,"name":"Jetsu","steam_id":76561198836931319,"connected_time":1908000000000,"state":"active","ping":59},{"user_id":207,"name":"[„èà] Bumpercars","steam_id":76561198061591743,"connected_time":1006000000000,"state":"active","ping":75},{"user_id":204,"name":"Scuba Steve","steam_id":76561198313018251,"connected_time":1528000000000,"state":"active","ping":71},{"user_id":219,"name":"Joe Swanson","steam_id":76561198065327106,"connected_time":288000000000,"state":"active","ping":74},{"user_id":221,"name":"Horrizan","steam_id":76561197965028480,"connected_time":114000000000,"state":"active","ping":62},{"user_id":137,"name":"airy","steam_id":76561198174632198,"connected_time":6885000000000,"state":"active","ping":77},{"user_id":220,"name":"Toxic-Fluid","steam_id":76561198115530353,"connected_time":275000000000,"state":"active","ping":60},{"user_id":222,"name":"Little Nipples","steam_id":76561198060502578,"connected_time":92000000000,"state":"active","ping":82},{"user_id":223,"name":"serialnumber435","steam_id":76561199466187650,"connected_time":6000000000,"state":"spawning","ping":149}]},{"server_id":36,"name":"Uncletopia | Chicago | 5 | All Maps","name_short":"chi-5","host":"chi-2.us.uncletopia.com","port":27015,"enabled":true,"region":"us-central","cc":"us","latitude":41.881832,"longitude":-87.62318,"reserved":0,"last_update":"0001-01-01T00:00:00Z","name_a2s":"Uncletopia | Chicago | 5 | All Maps","protocol":17,"map":"pl_borneo","folder":"tf","game":"Team Fortress","app_id":440,"player_count":0,"max_players":24,"Bots":0,"server_type":"Dedicated","server_os":"Linux","password":true,"vac":true,"version":"7961495","steam_id":85568392924866362,"keywords":["nocrits","nodmgspread","payload","uncletopia"],"game_id":440,"stv_port":27016,"stv_name":"Uncletopia | Chicago | 5 | All Maps | STV","players":null},{"server_id":37,"name":"Uncletopia | Chicago | 6 | All Maps","name_short":"chi-6","host":"chi-2.us.uncletopia.com","port":27025,"enabled":true,"region":"us-central","cc":"us","latitude":41.881832,"longitude":-87.62318,"reserved":0,"last_update":"0001-01-01T00:00:00Z","name_a2s":"Uncletopia | Chicago | 6 | All Maps","protocol":17,"map":"pl_frontier_final","folder":"tf","game":"Team Fortress","app_id":440,"player_count":0,"max_players":24,"Bots":0,"server_type":"Dedicated","server_os":"Linux","password":true,"vac":true,"version":"7961495","steam_id":85568392924866363,"keywords":["nocrits","nodmgspread","payload","uncletopia"],"game_id":440,"stv_port":27026,"stv_name":"Uncletopia | Chicago | 6 | All Maps | STV","players":null},{"server_id":38,"name":"Uncletopia | Chicago | 7 | Stopwatch","name_short":"chi-7","host":"chi-2.us.uncletopia.com","port":27035,"enabled":true,"region":"us-central","cc":"us","latitude":41.881832,"longitude":-87.62318,"reserved":0,"last_update":"0001-01-01T00:00:00Z","name_a2s":"Uncletopia | Chicago | 7 | Stopwatch","protocol":17,"map":"cp_snakewater_final1","folder":"tf","game":"Team Fortress","app_id":440,"player_count":0,"max_players":24,"Bots":0,"server_type":"Dedicated","server_os":"Linux","password":true,"vac":true,"version":"7961495","steam_id":85568392924866364,"keywords":["cp","nocrits","nodmgspread","uncletopia"],"game_id":440,"stv_port":27036,"stv_name":"Uncletopia | Chicago | 7 | Stopwatch | STV","players":null},{"server_id":39,"name":"Uncletopia | Chicago | 8 | Community","name_short":"chi-8","host":"chi-2.us.uncletopia.com","port":27045,"enabled":true,"region":"us-central","cc":"us","latitude":41.881832,"longitude":-87.62318,"reserved":0,"last_update":"0001-01-01T00:00:00Z","name_a2s":"Uncletopia | Chicago | 8 | Community","protocol":17,"map":"workshop/koth_slaughter_rc1.ugc1712845210","folder":"tf","game":"Team Fortress","app_id":440,"player_count":0,"max_players":24,"Bots":0,"server_type":"Dedicated","server_os":"Linux","password":true,"vac":true,"version":"7961495","steam_id":85568392924866365,"keywords":["cp","nocrits","nodmgspread","uncletopia"],"game_id":440,"stv_port":27046,"stv_name":"Uncletopia | Chicago | 8 | Community | STV","players":null},{"server_id":8,"name":"Uncletopia | Dallas | 1 | All Maps","name_short":"dal-1","host":"dal-1.us.uncletopia.com","port":27015,"enabled":true,"region":"us-central","cc":"us","latitude":32.779167,"longitude":-96.80889,"reserved":0,"last_update":"0001-01-01T00:00:00Z","name_a2s":"Uncletopia | Dallas | 1 | All Maps","protocol":17,"map":"cp_mountainlab","folder":"tf","game":"Team Fortress","app_id":440,"player_count":12,"max_players":24,"Bots":0,"server_type":"Dedicated","server_os":"Linux","password":true,"vac":true,"version":"7961495","steam_id":85568392924469986,"keywords":["cp","nocrits","nodmgspread","uncletopia"],"game_id":440,"stv_port":27016,"stv_name":"Uncletopia | Dallas | 1 | All Maps | STV","players":[{"user_id":322,"name":"Iron Argus","steam_id":76561198181088245,"connected_time":492000000000,"state":"active","ping":82},{"user_id":326,"name":"eevee","steam_id":76561198447072392,"connected_time":104000000000,"state":"active","ping":198},{"user_id":324,"name":"chrisd149","steam_id":76561198018710480,"connected_time":344000000000,"state":"active","ping":74},{"user_id":325,"name":"financial regret","steam_id":76561198448523433,"connected_time":333000000000,"state":"active","ping":184},{"user_id":319,"name":"Sweet Tooth","steam_id":76561198830158092,"connected_time":701000000000,"state":"active","ping":70},{"user_id":321,"name":"big fish","steam_id":76561198186479818,"connected_time":677000000000,"state":"active","ping":80},{"user_id":314,"name":"SubWay #SaveTf2","steam_id":76561198336722096,"connected_time":719000000000,"state":"active","ping":62},{"user_id":261,"name":"JustAnotherHuman","steam_id":76561199018122924,"connected_time":4861000000000,"state":"active","ping":108},{"user_id":300,"name":"Stiffy Magnum","steam_id":76561198000036722,"connected_time":2126000000000,"state":"active","ping":81},{"user_id":288,"name":"pablonchas","steam_id":76561198825922892,"connected_time":2557000000000,"state":"active","ping":61},{"user_id":317,"name":"theartistnathan","steam_id":76561198833787452,"connected_time":713000000000,"state":"active","ping":40},{"user_id":303,"name":"MiniatureTrumpet","steam_id":76561198807533157,"connected_time":2100000000000,"state":"active","ping":73}]},{"server_id":108,"name":"Uncletopia | Dallas | 2 | All Maps","name_short":"dal-2","host":"dal-1.us.uncletopia.com","port":27025,"enabled":true,"region":"us-central","cc":"us","latitude":32.779167,"longitude":-96.80889,"reserved":0,"last_update":"0001-01-01T00:00:00Z","name_a2s":"Uncletopia | Dallas | 2 | All Maps","protocol":17,"map":"koth_lakeside_final","folder":"tf","game":"Team Fortress","app_id":440,"player_count":0,"max_players":24,"Bots":0,"server_type":"Dedicated","server_os":"Linux","password":true,"vac":true,"version":"7961495","steam_id":85568392924469988,"keywords":["cp","nocrits","nodmgspread","uncletopia"],"game_id":440,"stv_port":27026,"stv_name":"Uncletopia | Dallas | 2 | All Maps | STV","players":null},{"server_id":404,"name":"Uncletopia | Dallas | 3 | All Maps","name_short":"dal-3","host":"dal-1.us.uncletopia.com","port":27035,"enabled":true,"region":"us-central","cc":"us","latitude":32.779167,"longitude":-96.80889,"reserved":0,"last_update":"0001-01-01T00:00:00Z","name_a2s":"Uncletopia | Dallas | 3 | All Maps","protocol":17,"map":"cp_coldfront","folder":"tf","game":"Team Fortress","app_id":440,"player_count":0,"max_players":24,"Bots":0,"server_type":"Dedicated","server_os":"Linux","password":true,"vac":true,"version":"7961495","steam_id":85568392924515219,"keywords":["cp","nocrits","nodmgspread","uncletopia"],"game_id":440,"stv_port":27036,"stv_name":"Uncletopia | Dallas | 3 | All Maps | STV","players":null},{"server_id":405,"name":"Uncletopia | Dallas | 4 | Community","name_short":"dal-4","host":"dal-1.us.uncletopia.com","port":27045,"enabled":true,"region":"us-central","cc":"us","latitude":32.779167,"longitude":-96.80889,"reserved":0,"last_update":"0001-01-01T00:00:00Z","name_a2s":"Uncletopia | Dallas | 4 | Community","protocol":17,"map":"workshop/koth_synthetic_rc6a.ugc1549817316","folder":"tf","game":"Team Fortress","app_id":440,"player_count":0,"max_players":24,"Bots":0,"server_type":"Dedicated","server_os":"Linux","password":true,"vac":true,"version":"7961495","steam_id":85568392924515220,"keywords":["cp","nocrits","nodmgspread","uncletopia"],"game_id":440,"stv_port":27046,"stv_name":"Uncletopia | Dallas | 4 | Community | STV","players":null},{"server_id":5,"name":"Uncletopia | Frankfurt | 1 | All Maps","name_short":"frk-1","host":"frk-1.de.uncletopia.com","port":27015,"enabled":true,"region":"eu","cc":"de","latitude":50.110924,"longitude":8.682127,"reserved":0,"last_update":"0001-01-01T00:00:00Z","name_a2s":"Uncletopia | Frankfurt | 1 | All Maps","protocol":17,"map":"pl_badwater","folder":"tf","game":"Team Fortress","app_id":440,"player_count":24,"max_players":24,"Bots":0,"server_type":"Dedicated","server_os":"Linux","password":true,"vac":true,"version":"7961495","steam_id":85568392924469989,"keywords":["nocrits","nodmgspread","payload","uncletopia"],"game_id":440,"stv_port":27016,"stv_name":"Uncletopia | Frankfurt | 1 | All Maps | STV","players":[{"user_id":498,"name":"herbal tea","steam_id":76561197980736364,"connected_time":1828000000000,"state":"active","ping":76},{"user_id":483,"name":"Thundergodstonelate","steam_id":76561198040893623,"connected_time":2570000000000,"state":"active","ping":85},{"user_id":499,"name":"Zerfesh","steam_id":76561198117534358,"connected_time":1542000000000,"state":"active","ping":80},{"user_id":488,"name":"\u0026","steam_id":76561198094268619,"connected_time":1971000000000,"state":"active","ping":61},{"user_id":490,"name":"hasky","steam_id":76561197986052798,"connected_time":1932000000000,"state":"active","ping":60},{"user_id":491,"name":"Gorgeous George","steam_id":76561198144256544,"connected_time":1931000000000,"state":"active","ping":61},{"user_id":484,"name":"SaintBonkers","steam_id":76561198043219263,"connected_time":2492000000000,"state":"active","ping":62},{"user_id":501,"name":"Sigma Gregory","steam_id":76561199040010283,"connected_time":1280000000000,"state":"active","ping":75},{"user_id":505,"name":"The Cool Ice Guy","steam_id":76561198146194820,"connected_time":1031000000000,"state":"active","ping":85},{"user_id":512,"name":"LOBZIK","steam_id":76561198114830120,"connected_time":6000000000,"state":"spawning","ping":76},{"user_id":494,"name":"Bloody","steam_id":76561198013249229,"connected_time":1875000000000,"state":"active","ping":55},{"user_id":468,"name":"Yonio","steam_id":76561198408428132,"connected_time":3249000000000,"state":"active","ping":74},{"user_id":489,"name":"SENSITIVITY OVERDRIVE!!!!","steam_id":76561198163615254,"connected_time":1950000000000,"state":"active","ping":59},{"user_id":508,"name":"Squidiot","steam_id":76561198042754907,"connected_time":587000000000,"state":"active","ping":80},{"user_id":473,"name":"VolcanicArts","steam_id":76561198063453246,"connected_time":3141000000000,"state":"active","ping":60},{"user_id":480,"name":"Nymph","steam_id":76561198042801329,"connected_time":2974000000000,"state":"active","ping":46},{"user_id":510,"name":"Deez nuts","steam_id":76561199429562693,"connected_time":147000000000,"state":"active","ping":72},{"user_id":506,"name":"G-Man Follower","steam_id":76561199384234822,"connected_time":924000000000,"state":"active","ping":51},{"user_id":482,"name":"Gay Truck","steam_id":76561198123648967,"connected_time":2638000000000,"state":"active","ping":69},{"user_id":477,"name":"Seven","steam_id":76561199010273376,"connected_time":3054000000000,"state":"active","ping":50},{"user_id":500,"name":"Yassine","steam_id":76561198140565712,"connected_time":1366000000000,"state":"active","ping":54},{"user_id":503,"name":"MR.spoder-man","steam_id":76561198392612294,"connected_time":1091000000000,"state":"active","ping":78},{"user_id":476,"name":"MoistMomMauler","steam_id":76561198069359049,"connected_time":3079000000000,"state":"active","ping":77},{"user_id":497,"name":"cactus sandwich","steam_id":76561198164210779,"connected_time":1853000000000,"state":"active","ping":89}]},{"server_id":110,"name":"Uncletopia | Frankfurt | 2 | All Maps","name_short":"frk-2","host":"frk-1.de.uncletopia.com","port":27025,"enabled":true,"region":"eu","cc":"de","latitude":50.110924,"longitude":8.682127,"reserved":0,"last_update":"0001-01-01T00:00:00Z","name_a2s":"Uncletopia | Frankfurt | 2 | All Maps","protocol":17,"map":"pl_swiftwater_final1","folder":"tf","game":"Team Fortress","app_id":440,"player_count":24,"max_players":24,"Bots":0,"server_type":"Dedicated","server_os":"Linux","password":true,"vac":true,"version":"7961495","steam_id":85568392924469990,"keywords":["nocrits","nodmgspread","payload","uncletopia"],"game_id":440,"stv_port":27026,"stv_name":"Uncletopia | Frankfurt | 2 | All Maps | STV","players":[{"user_id":536,"name":"0xConnectUser","steam_id":76561198441513355,"connected_time":542000000000,"state":"active","ping":77},{"user_id":540,"name":"Uganda Warrior","steam_id":76561198120502313,"connected_time":450000000000,"state":"active","ping":57},{"user_id":520,"name":"krsta","steam_id":76561198956447943,"connected_time":1138000000000,"state":"active","ping":70},{"user_id":550,"name":"EricToGo","steam_id":76561198068019642,"connected_time":22000000000,"state":"spawning","ping":47},{"user_id":541,"name":"Sunduchek","steam_id":76561198067934157,"connected_time":367000000000,"state":"active","ping":124},{"user_id":496,"name":"y0stErCix","steam_id":76561198219698192,"connected_time":2746000000000,"state":"active","ping":67},{"user_id":547,"name":"AwaDeMora","steam_id":76561198283945258,"connected_time":38000000000,"state":"active","ping":84},{"user_id":514,"name":"Corn Readyx","steam_id":76561198192185825,"connected_time":1567000000000,"state":"active","ping":64},{"user_id":551,"name":"the joy of recycling","steam_id":76561198415564349,"connected_time":19000000000,"state":"active","ping":65},{"user_id":515,"name":"Blackchantingrows","steam_id":76561198972312498,"connected_time":1556000000000,"state":"active","ping":60},{"user_id":543,"name":"Vel0city","steam_id":76561198049687798,"connected_time":274000000000,"state":"active","ping":49},{"user_id":517,"name":"Fingortar","steam_id":76561198277143302,"connected_time":1385000000000,"state":"active","ping":69},{"user_id":548,"name":"FroLon","steam_id":76561198066613542,"connected_time":38000000000,"state":"active","ping":62},{"user_id":533,"name":"—Ç—É–∫–∫—É –∏—Ä–º–∞","steam_id":76561197998715016,"connected_time":709000000000,"state":"active","ping":61},{"user_id":516,"name":"Maru","steam_id":76561198030931030,"connected_time":1543000000000,"state":"active","ping":49},{"user_id":535,"name":"tealoverr.190","steam_id":76561199028497703,"connected_time":591000000000,"state":"active","ping":105},{"user_id":549,"name":"pizza guy","steam_id":76561198214848887,"connected_time":37000000000,"state":"active","ping":69},{"user_id":542,"name":"KALACH","steam_id":76561198028664460,"connected_time":303000000000,"state":"active","ping":104},{"user_id":502,"name":"Ixsus\u003c3","steam_id":76561198094756869,"connected_time":2509000000000,"state":"active","ping":49},{"user_id":552,"name":"Prussian Crusader","steam_id":76561198889201823,"connected_time":0,"state":"spawning","ping":44},{"user_id":505,"name":"yush","steam_id":76561198121688934,"connected_time":2340000000000,"state":"active","ping":75},{"user_id":538,"name":"SoaCrow","steam_id":76561198069420717,"connected_time":538000000000,"state":"active","ping":55},{"user_id":508,"name":"Ace","steam_id":76561198279398145,"connected_time":2243000000000,"state":"active","ping":51},{"user_id":539,"name":"Windows Vista Cruiser","steam_id":76561198064102233,"connected_time":538000000000,"state":"active","ping":55}]},{"server_id":308,"name":"Uncletopia | Frankfurt | 3 | All Maps","name_short":"frk-3","host":"frk-1.de.uncletopia.com","port":27035,"enabled":true,"region":"eu","cc":"de","latitude":50.110924,"longitude":8.682127,"reserved":0,"last_update":"0001-01-01T00:00:00Z","name_a2s":"Uncletopia | Frankfurt | 3 | All Maps","protocol":17,"map":"koth_lakeside_final","folder":"tf","game":"Team Fortress","app_id":440,"player_count":2,"max_players":24,"Bots":0,"server_type":"Dedicated","server_os":"Linux","password":true,"vac":true,"version":"7961495","steam_id":85568392924504274,"keywords":["cp","nocrits","nodmgspread","uncletopia"],"game_id":440,"stv_port":27036,"stv_name":"Uncletopia | Frankfurt | 3 | All Maps | STV","players":[{"user_id":22,"name":"greg","steam_id":76561199052729791,"connected_time":690000000000,"state":"active","ping":61},{"user_id":23,"name":"Elipse","steam_id":76561198813531365,"connected_time":45000000000,"state":"active","ping":58}]},{"server_id":309,"name":"Uncletopia | Frankfurt | 4 | All Maps","name_short":"frk-4","host":"frk-1.de.uncletopia.com","port":27045,"enabled":true,"region":"eu","cc":"de","latitude":50.110924,"longitude":8.682127,"reserved":0,"last_update":"0001-01-01T00:00:00Z","name_a2s":"Uncletopia | Frankfurt | 4 | All Maps","protocol":17,"map":"pl_frontier_final","folder":"tf","game":"Team Fortress","app_id":440,"player_count":24,"max_players":24,"Bots":0,"server_type":"Dedicated","server_os":"Linux","password":true,"vac":true,"version":"7961495","steam_id":85568392924504275,"keywords":["nocrits","nodmgspread","payload","uncletopia"],"game_id":440,"stv_port":27046,"stv_name":"Uncletopia | Frankfurt | 4 | All Maps | STV","players":[{"user_id":332,"name":"leonardini.w","steam_id":76561199097963071,"connected_time":1776000000000,"state":"active","ping":92},{"user_id":315,"name":"chillrend_morphs_high_lod6","steam_id":76561198452963141,"connected_time":3146000000000,"state":"active","ping":75},{"user_id":352,"name":"Rez","steam_id":76561198410598772,"connected_time":911000000000,"state":"active","ping":48},{"user_id":302,"name":"IHaveConsumed50KmofMeth","steam_id":76561199221172552,"connected_time":3813000000000,"state":"active","ping":62},{"user_id":359,"name":"Mr. Mundy","steam_id":76561198132008918,"connected_time":742000000000,"state":"active","ping":70},{"user_id":326,"name":"StarDoc2222","steam_id":76561199389114520,"connected_time":2723000000000,"state":"active","ping":139},{"user_id":334,"name":"DrakeTheDuck","steam_id":76561199182279601,"connected_time":1709000000000,"state":"active","ping":94},{"user_id":258,"name":"john fortress","steam_id":76561198013237629,"connected_time":5891000000000,"state":"active","ping":111},{"user_id":365,"name":"Tea","steam_id":76561198799243030,"connected_time":365000000000,"state":"active","ping":62},{"user_id":313,"name":"Nick","steam_id":76561198036109469,"connected_time":3359000000000,"state":"active","ping":75},{"user_id":321,"name":"Unreliable, funny and dangerous","steam_id":76561198050709790,"connected_time":2930000000000,"state":"active","ping":86},{"user_id":347,"name":"Kiogeki","steam_id":76561197996707843,"connected_time":1198000000000,"state":"active","ping":51},{"user_id":354,"name":"H...","steam_id":76561197984299377,"connected_time":900000000000,"state":"active","ping":59},{"user_id":364,"name":"Lewylow","steam_id":76561198005425686,"connected_time":420000000000,"state":"active","ping":68},{"user_id":337,"name":"‚ò© Knightz ‚ò©","steam_id":76561198040936414,"connected_time":1677000000000,"state":"active","ping":107},{"user_id":356,"name":"dfcv rftgvb ghtb","steam_id":76561198397764042,"connected_time":808000000000,"state":"active","ping":81},{"user_id":357,"name":"Neko","steam_id":76561198075690128,"connected_time":756000000000,"state":"active","ping":58},{"user_id":363,"name":"Sandvich","steam_id":76561199079493666,"connected_time":508000000000,"state":"active","ping":81},{"user_id":360,"name":"finbar","steam_id":76561198056812396,"connected_time":722000000000,"state":"active","ping":75},{"user_id":331,"name":"Carry Krypl","steam_id":76561198136938121,"connected_time":1868000000000,"state":"active","ping":50},{"user_id":340,"name":"laido riteris","steam_id":76561199098499873,"connected_time":1655000000000,"state":"active","ping":54},{"user_id":327,"name":"Hexagon","steam_id":76561198151205758,"connected_time":2599000000000,"state":"active","ping":50},{"user_id":351,"name":"ChrisLuckycharm","steam_id":76561199490969322,"connected_time":1028000000000,"state":"active","ping":69},{"user_id":344,"name":"benifis163","steam_id":76561198420973492,"connected_time":1424000000000,"state":"active","ping":92}]},{"server_id":310,"name":"Uncletopia | Frankfurt | 5 | All Maps","name_short":"frk-5","host":"frk-1.de.uncletopia.com","port":27055,"enabled":true,"region":"eu","cc":"de","latitude":50.110924,"longitude":8.682127,"reserved":0,"last_update":"0001-01-01T00:00:00Z","name_a2s":"Uncletopia | Frankfurt | 5 | All Maps","protocol":17,"map":"pl_frontier_final","folder":"tf","game":"Team Fortress","app_id":440,"player_count":24,"max_players":24,"Bots":0,"server_type":"Dedicated","server_os":"Linux","password":true,"vac":true,"version":"7961495","steam_id":85568392924504277,"keywords":["nocrits","nodmgspread","payload","uncletopia"],"game_id":440,"stv_port":27056,"stv_name":"Uncletopia | Frankfurt | 5 | All Maps | STV","players":[{"user_id":333,"name":"Xens","steam_id":76561198208839507,"connected_time":1631000000000,"state":"active","ping":103},{"user_id":344,"name":"mokou fumo ·óúÀ¨·óú","steam_id":76561199373956263,"connected_time":490000000000,"state":"active","ping":44},{"user_id":341,"name":"ggwp","steam_id":76561199141037141,"connected_time":703000000000,"state":"active","ping":66},{"user_id":360,"name":"jeff","steam_id":76561198272815746,"connected_time":70000000000,"state":"active","ping":82},{"user_id":351,"name":"Benito Mussolini","steam_id":76561198362801147,"connected_time":344000000000,"state":"active","ping":94},{"user_id":346,"name":"Rejdory","steam_id":76561198416604100,"connected_time":427000000000,"state":"active","ping":53},{"user_id":332,"name":"Gbus","steam_id":76561198072335838,"connected_time":1799000000000,"state":"active","ping":52},{"user_id":347,"name":"Teddy","steam_id":76561198074888415,"connected_time":417000000000,"state":"active","ping":50},{"user_id":338,"name":"'Tis but a scratch","steam_id":76561198118517671,"connected_time":1261000000000,"state":"active","ping":92},{"user_id":348,"name":"üóªüé¥Hadrian Maloneüé¥üóª","steam_id":76561198036151103,"connected_time":390000000000,"state":"active","ping":64},{"user_id":318,"name":"Pixel-Jay","steam_id":76561198853840115,"connected_time":2699000000000,"state":"active","ping":50},{"user_id":355,"name":"please do not the cat","steam_id":76561198089003514,"connected_time":297000000000,"state":"active","ping":45},{"user_id":323,"name":"Retard","steam_id":76561198032709580,"connected_time":2339000000000,"state":"active","ping":60},{"user_id":350,"name":"Black Mesa Employee","steam_id":76561198184151394,"connected_time":356000000000,"state":"active","ping":60},{"user_id":352,"name":"Lucky B.üèÜ","steam_id":76561198077571162,"connected_time":340000000000,"state":"active","ping":45},{"user_id":358,"name":"Swiss_Nostalgia","steam_id":76561199159896259,"connected_time":264000000000,"state":"active","ping":52},{"user_id":331,"name":"Supercoxylac","steam_id":76561198376300138,"connected_time":2064000000000,"state":"active","ping":53},{"user_id":245,"name":"old man oberon","steam_id":76561198355291251,"connected_time":7211000000000,"state":"active","ping":91},{"user_id":317,"name":"moglimbo","steam_id":76561198083937378,"connected_time":2743000000000,"state":"active","ping":60},{"user_id":354,"name":"s a i","steam_id":76561197970379754,"connected_time":309000000000,"state":"active","ping":55},{"user_id":356,"name":"Oxer","steam_id":76561198055942412,"connected_time":296000000000,"state":"active","ping":83},{"user_id":302,"name":"Littleyoshifan","steam_id":76561198445491045,"connected_time":3972000000000,"state":"active","ping":56},{"user_id":359,"name":"1couver","steam_id":76561198168553215,"connected_time":187000000000,"state":"active","ping":150},{"user_id":324,"name":"habibi69","steam_id":76561198141989573,"connected_time":2317000000000,"state":"active","ping":70}]},{"server_id":311,"name":"Uncletopia | Frankfurt | 6 | All Maps","name_short":"frk-6","host":"frk-1.de.uncletopia.com","port":27065,"enabled":true,"region":"eu","cc":"de","latitude":50.110924,"longitude":8.682127,"reserved":0,"last_update":"0001-01-01T00:00:00Z","name_a2s":"Uncletopia | Frankfurt | 6 | All Maps","protocol":17,"map":"pl_pier","folder":"tf","game":"Team Fortress","app_id":440,"player_count":24,"max_players":24,"Bots":0,"server_type":"Dedicated","server_os":"Linux","password":true,"vac":true,"version":"7961495","steam_id":85568392924504278,"keywords":["nocrits","nodmgspread","payload","uncletopia"],"game_id":440,"stv_port":27066,"stv_name":"Uncletopia | Frankfurt | 6 | All Maps | STV","players":[{"user_id":421,"name":"Say Goodbye to Your Kneecaps","steam_id":76561198840150558,"connected_time":252000000000,"state":"active","ping":80},{"user_id":404,"name":"Eidolon","steam_id":76561198043919565,"connected_time":1198000000000,"state":"active","ping":69},{"user_id":420,"name":"MrRaccoonGetDown","steam_id":76561198110227355,"connected_time":302000000000,"state":"active","ping":57},{"user_id":406,"name":"skeleton_archer_1","steam_id":76561198407636430,"connected_time":1110000000000,"state":"active","ping":90},{"user_id":380,"name":"sex haver","steam_id":76561198798892497,"connected_time":2856000000000,"state":"active","ping":89},{"user_id":412,"name":"Trangler","steam_id":76561199470392679,"connected_time":934000000000,"state":"active","ping":79},{"user_id":422,"name":"Tekor","steam_id":76561198088542862,"connected_time":235000000000,"state":"active","ping":60},{"user_id":393,"name":"Combat Wombat","steam_id":76561197994720068,"connected_time":1844000000000,"state":"active","ping":63},{"user_id":405,"name":"Benzo Fury","steam_id":76561198025259336,"connected_time":1165000000000,"state":"active","ping":62},{"user_id":430,"name":"Kaza","steam_id":76561198033509686,"connected_time":111000000000,"state":"active","ping":46},{"user_id":424,"name":"selkie","steam_id":76561198329321007,"connected_time":207000000000,"state":"active","ping":96},{"user_id":425,"name":"gosi","steam_id":76561198084111532,"connected_time":203000000000,"state":"active","ping":58},{"user_id":426,"name":"DeCypher \u003c3","steam_id":76561198171992619,"connected_time":200000000000,"state":"active","ping":58},{"user_id":427,"name":"temanator","steam_id":76561198401227053,"connected_time":197000000000,"state":"active","ping":89},{"user_id":418,"name":"PLSNO (RYAN)","steam_id":76561198086542505,"connected_time":431000000000,"state":"active","ping":82},{"user_id":428,"name":"NothingMan","steam_id":76561198051284446,"connected_time":196000000000,"state":"active","ping":52},{"user_id":398,"name":"tete","steam_id":76561198045222850,"connected_time":1777000000000,"state":"active","ping":74},{"user_id":399,"name":"Slimeby","steam_id":76561198353438688,"connected_time":1758000000000,"state":"active","ping":80},{"user_id":413,"name":"FoOzTV","steam_id":76561197998636728,"connected_time":926000000000,"state":"active","ping":89},{"user_id":415,"name":"Escobar","steam_id":76561198089785078,"connected_time":776000000000,"state":"active","ping":89},{"user_id":432,"name":"Keroz1n","steam_id":76561197998681491,"connected_time":24000000000,"state":"active","ping":64},{"user_id":431,"name":"Ika","steam_id":76561198039208044,"connected_time":81000000000,"state":"active","ping":72},{"user_id":419,"name":"Mega Man Legends 3","steam_id":76561198014110199,"connected_time":416000000000,"state":"active","ping":60}]},{"server_id":23,"name":"Uncletopia | Frankfurt | 7 | Stopwatch","name_short":"frk-7","host":"frk-1.de.uncletopia.com","port":27075,"enabled":true,"region":"eu","cc":"de","latitude":50.110924,"longitude":8.682127,"reserved":0,"last_update":"0001-01-01T00:00:00Z","name_a2s":"Uncletopia | Frankfurt | 7 | Stopwatch","protocol":17,"map":"cp_granary","folder":"tf","game":"Team Fortress","app_id":440,"player_count":23,"max_players":24,"Bots":0,"server_type":"Dedicated","server_os":"Linux","password":true,"vac":true,"version":"7961495","steam_id":85568392924742827,"keywords":["cp","nocrits","nodmgspread","uncletopia"],"game_id":440,"stv_port":27076,"stv_name":"Uncletopia | Frankfurt | 7 | Stopwatch | STV","players":[{"user_id":160,"name":"StatT","steam_id":76561198147801590,"connected_time":1401000000000,"state":"active","ping":125},{"user_id":131,"name":"Doctor Medic","steam_id":76561198100957443,"connected_time":2875000000000,"state":"active","ping":73},{"user_id":161,"name":"Vibr√°tor (418 122 locomotive)","steam_id":76561198097789669,"connected_time":1399000000000,"state":"active","ping":60},{"user_id":162,"name":"spy in the base","steam_id":76561198284570752,"connected_time":1275000000000,"state":"active","ping":62},{"user_id":163,"name":"Jnet","steam_id":76561198001282720,"connected_time":1266000000000,"state":"active","ping":96},{"user_id":151,"name":"Drunken Goose","steam_id":76561198195711522,"connected_time":1838000000000,"state":"active","ping":88},{"user_id":165,"name":"jaredIV","steam_id":76561198336876675,"connected_time":1174000000000,"state":"active","ping":56},{"user_id":136,"name":"Saihtama","steam_id":76561198067497192,"connected_time":2679000000000,"state":"active","ping":93},{"user_id":166,"name":"skille","steam_id":76561198005794325,"connected_time":1098000000000,"state":"active","ping":47},{"user_id":102,"name":"Hussain_144","steam_id":76561198346029208,"connected_time":4755000000000,"state":"active","ping":185},{"user_id":143,"name":"ComradeCallie","steam_id":76561198853850941,"connected_time":2398000000000,"state":"active","ping":98},{"user_id":182,"name":"Finn.","steam_id":76561199041640689,"connected_time":279000000000,"state":"active","ping":83},{"user_id":180,"name":"Ve stylu","steam_id":76561198218257120,"connected_time":406000000000,"state":"active","ping":74},{"user_id":130,"name":"NOne","steam_id":76561198002359947,"connected_time":3038000000000,"state":"active","ping":70},{"user_id":178,"name":"breadbear \u003c3","steam_id":76561198036895007,"connected_time":552000000000,"state":"active","ping":75},{"user_id":183,"name":"Kayorta","steam_id":76561198344502070,"connected_time":111000000000,"state":"active","ping":64},{"user_id":174,"name":"Michael","steam_id":76561198003146906,"connected_time":683000000000,"state":"active","ping":60},{"user_id":175,"name":"Flying skyhigh","steam_id":76561198372971096,"connected_time":673000000000,"state":"active","ping":75},{"user_id":176,"name":"krishtanv","steam_id":76561198155492861,"connected_time":627000000000,"state":"active","ping":94},{"user_id":177,"name":"I-I","steam_id":76561198267969436,"connected_time":573000000000,"state":"active","ping":55},{"user_id":179,"name":"mental","steam_id":76561198803089656,"connected_time":527000000000,"state":"active","ping":62},{"user_id":181,"name":"6bIK_0CeMEHuTEJIb","steam_id":76561198992528373,"connected_time":347000000000,"state":"active","ping":76},{"user_id":154,"name":"Bigworldguy","steam_id":76561198998378933,"connected_time":1820000000000,"state":"active","ping":64}]},{"server_id":24,"name":"Uncletopia | Frankfurt | 8 | Community","name_short":"frk-8","host":"frk-1.de.uncletopia.com","port":27085,"enabled":true,"region":"eu","cc":"de","latitude":50.110924,"longitude":8.682127,"reserved":0,"last_update":"0001-01-01T00:00:00Z","name_a2s":"Uncletopia | Frankfurt | 8 | Community","protocol":17,"map":"workshop/koth_slaughter_rc1.ugc1712845210","folder":"tf","game":"Team Fortress","app_id":440,"player_count":0,"max_players":24,"Bots":0,"server_type":"Dedicated","server_os":"Linux","password":true,"vac":true,"version":"7961495","steam_id":85568392924742828,"keywords":["cp","nocrits","nodmgspread","uncletopia"],"game_id":440,"stv_port":27086,"stv_name":"Uncletopia | Frankfurt | 8 | Community | STV","players":null},{"server_id":202,"name":"Uncletopia | Hong Kong | 1 | All Maps","name_short":"hgk-1","host":"hgk-1.hk.uncletopia.com","port":27015,"enabled":true,"region":"asia","cc":"hk","latitude":22.302711,"longitude":114.177216,"reserved":0,"last_update":"0001-01-01T00:00:00Z","name_a2s":"Uncletopia | Hong Kong | 1 | All Maps","protocol":17,"map":"koth_lakeside_final","folder":"tf","game":"Team Fortress","app_id":440,"player_count":0,"max_players":24,"Bots":0,"server_type":"Dedicated","server_os":"Linux","password":true,"vac":true,"version":"7961495","steam_id":85568392924494504,"keywords":["cp","nocrits","nodmgspread","uncletopia"],"game_id":440,"stv_port":27016,"stv_name":"Uncletopia | Hong Kong | 1 | All Maps | STV","players":null},{"server_id":1,"name":"Uncletopia | Los Angeles | 1 | All Maps","name_short":"lax-1","host":"lax-1.us.uncletopia.com","port":27015,"enabled":true,"region":"us-west","cc":"us","latitude":33.94279,"longitude":-118.41004,"reserved":0,"last_update":"0001-01-01T00:00:00Z","name_a2s":"Uncletopia | Los Angeles | 1 | All Maps","protocol":17,"map":"cp_gorge","folder":"tf","game":"Team Fortress","app_id":440,"player_count":0,"max_players":24,"Bots":0,"server_type":"Dedicated","server_os":"Linux","password":true,"vac":true,"version":"7961495","steam_id":85568392924469991,"keywords":["cp","nocrits","nodmgspread","uncletopia"],"game_id":440,"stv_port":27016,"stv_name":"Uncletopia | Los Angeles | 1 | All Maps | STV","players":null},{"server_id":112,"name":"Uncletopia | Los Angeles | 2 | All Maps","name_short":"lax-2","host":"lax-1.us.uncletopia.com","port":27025,"enabled":true,"region":"us-west","cc":"us","latitude":33.94279,"longitude":-118.41004,"reserved":0,"last_update":"0001-01-01T00:00:00Z","name_a2s":"Uncletopia | Los Angeles | 2 | All Maps","protocol":17,"map":"koth_cascade","folder":"tf","game":"Team Fortress","app_id":440,"player_count":0,"max_players":24,"Bots":0,"server_type":"Dedicated","server_os":"Linux","password":true,"vac":true,"version":"7961495","steam_id":85568392924469992,"keywords":["cp","nocrits","nodmgspread","uncletopia"],"game_id":440,"stv_port":27026,"stv_name":"Uncletopia | Los Angeles | 2 | All Maps | STV","players":null},{"server_id":324,"name":"Uncletopia | Los Angeles | 3 | All Maps","name_short":"lax-3","host":"lax-1.us.uncletopia.com","port":27035,"enabled":true,"region":"us-west","cc":"us","latitude":33.94279,"longitude":-118.41004,"reserved":0,"last_update":"0001-01-01T00:00:00Z","name_a2s":"Uncletopia | Los Angeles | 3 | All Maps","protocol":17,"map":"pl_hoodoo_final","folder":"tf","game":"Team Fortress","app_id":440,"player_count":0,"max_players":24,"Bots":0,"server_type":"Dedicated","server_os":"Linux","password":true,"vac":true,"version":"7961495","steam_id":85568392924510198,"keywords":["nocrits","nodmgspread","payload","uncletopia"],"game_id":440,"stv_port":27036,"stv_name":"Uncletopia | Los Angeles | 3 | All Maps | STV","players":null},{"server_id":25,"name":"Uncletopia | Los Angeles | 4 | Stopwatch","name_short":"lax-4","host":"lax-1.us.uncletopia.com","port":27045,"enabled":true,"region":"us-west","cc":"us","latitude":33.94279,"longitude":-118.41004,"reserved":0,"last_update":"0001-01-01T00:00:00Z","name_a2s":"Uncletopia | Los Angeles | 4 | Stopwatch","protocol":17,"map":"pl_upward","folder":"tf","game":"Team Fortress","app_id":440,"player_count":0,"max_players":24,"Bots":0,"server_type":"Dedicated","server_os":"Linux","password":true,"vac":true,"version":"7961495","steam_id":85568392924510199,"keywords":["nocrits","nodmgspread","payload","uncletopia"],"game_id":440,"stv_port":27046,"stv_name":"Uncletopia | Los Angeles | 4 | Stopwatch | STV","players":null},{"server_id":11,"name":"Uncletopia | London | 1 | All Maps","name_short":"lon-1","host":"lon-1.uk.uncletopia.com","port":27015,"enabled":true,"region":"eu","cc":"gb","latitude":51.509865,"longitude":-0.118092,"reserved":0,"last_update":"0001-01-01T00:00:00Z","name_a2s":"Uncletopia | London | 1 | All Maps","protocol":17,"map":"cp_process_final","folder":"tf","game":"Team Fortress","app_id":440,"player_count":24,"max_players":24,"Bots":0,"server_type":"Dedicated","server_os":"Linux","password":true,"vac":true,"version":"7961495","steam_id":85568392924367362,"keywords":["cp","nocrits","nodmgspread","uncletopia"],"game_id":440,"stv_port":27016,"stv_name":"Uncletopia | London | 1 | All Maps | STV","players":[{"user_id":281,"name":"hoizil","steam_id":76561198800688436,"connected_time":218000000000,"state":"active","ping":65},{"user_id":261,"name":"Rusty","steam_id":76561198382642979,"connected_time":1172000000000,"state":"active","ping":99},{"user_id":207,"name":"Levis Saltator","steam_id":76561198035945247,"connected_time":4600000000000,"state":"active","ping":52},{"user_id":255,"name":"GMsU | Rebikas","steam_id":76561198077053764,"connected_time":1261000000000,"state":"active","ping":52},{"user_id":282,"name":"TomNoSocks","steam_id":76561198114071046,"connected_time":215000000000,"state":"active","ping":53},{"user_id":283,"name":"combustable lemons","steam_id":76561199093120228,"connected_time":161000000000,"state":"active","ping":48},{"user_id":257,"name":"GMsU | Acoul","steam_id":76561198229222992,"connected_time":1246000000000,"state":"active","ping":56},{"user_id":258,"name":"tomydjoh","steam_id":76561198077421906,"connected_time":1244000000000,"state":"active","ping":55},{"user_id":266,"name":"Archer","steam_id":76561197994239444,"connected_time":914000000000,"state":"active","ping":104},{"user_id":275,"name":"bAdmon","steam_id":76561197961785793,"connected_time":583000000000,"state":"active","ping":58},{"user_id":265,"name":"magÃ∂pÃ∂iÃ∂e ‚úø","steam_id":76561198797266244,"connected_time":939000000000,"state":"active","ping":68},{"user_id":259,"name":"GMsU | AuxiliusM","steam_id":76561198071903356,"connected_time":1244000000000,"state":"active","ping":56},{"user_id":284,"name":"BreadBubbles","steam_id":76561198174332826,"connected_time":16000000000,"state":"spawning","ping":63},{"user_id":200,"name":"ROX","steam_id":76561198272289320,"connected_time":5526000000000,"state":"active","ping":51},{"user_id":276,"name":"Neonlemurs","steam_id":76561198161147186,"connected_time":319000000000,"state":"active","ping":53},{"user_id":235,"name":"hitbox criminal","steam_id":76561198079277466,"connected_time":2535000000000,"state":"active","ping":69},{"user_id":250,"name":"doktor spiele","steam_id":76561199057953617,"connected_time":1802000000000,"state":"active","ping":73},{"user_id":263,"name":"\u003cGNGWD\u003e CrocAsaurus","steam_id":76561198213982408,"connected_time":1103000000000,"state":"active","ping":68},{"user_id":202,"name":"Ullr","steam_id":76561198140547483,"connected_time":5493000000000,"state":"active","ping":45},{"user_id":280,"name":"itransition UKRAINE","steam_id":76561198080912087,"connected_time":253000000000,"state":"active","ping":61},{"user_id":221,"name":"flappi","steam_id":76561198072892783,"connected_time":3505000000000,"state":"active","ping":70},{"user_id":197,"name":"DOKTOR MEOW","steam_id":76561198226378616,"connected_time":5603000000000,"state":"active","ping":83},{"user_id":264,"name":"An_Unoriginal_Gamer","steam_id":76561198864060760,"connected_time":1070000000000,"state":"active","ping":77},{"user_id":246,"name":"[KZ] TenGr1_G4m3r","steam_id":76561198107460765,"connected_time":2292000000000,"state":"active","ping":45}]},{"server_id":114,"name":"Uncletopia | London | 2 | All Maps","name_short":"lon-2","host":"lon-1.uk.uncletopia.com","port":27025,"enabled":true,"region":"eu","cc":"gb","latitude":51.509865,"longitude":-0.118092,"reserved":0,"last_update":"0001-01-01T00:00:00Z","name_a2s":"Uncletopia | London | 2 | All Maps","protocol":17,"map":"koth_nucleus","folder":"tf","game":"Team Fortress","app_id":440,"player_count":23,"max_players":24,"Bots":0,"server_type":"Dedicated","server_os":"Linux","password":true,"vac":true,"version":"7961495","steam_id":85568392924470941,"keywords":["cp","nocrits","nodmgspread","uncletopia"],"game_id":440,"stv_port":27026,"stv_name":"Uncletopia | London | 2 | All Maps | STV","players":[{"user_id":334,"name":"ali","steam_id":76561198148359093,"connected_time":2627000000000,"state":"active","ping":33},{"user_id":315,"name":"goofy goober","steam_id":76561198068054530,"connected_time":3973000000000,"state":"active","ping":75},{"user_id":360,"name":"ËìÆ Lotus","steam_id":76561198083141117,"connected_time":1419000000000,"state":"active","ping":61},{"user_id":391,"name":"Laru","steam_id":76561197998838438,"connected_time":202000000000,"state":"active","ping":83},{"user_id":385,"name":"medick","steam_id":76561199380849468,"connected_time":577000000000,"state":"active","ping":70},{"user_id":394,"name":"sexofone","steam_id":76561198079254320,"connected_time":62000000000,"state":"active","ping":77},{"user_id":395,"name":"RLCrazyCat3","steam_id":76561197983757878,"connected_time":55000000000,"state":"active","ping":50},{"user_id":355,"name":"m4tt","steam_id":76561198267909813,"connected_time":1468000000000,"state":"active","ping":66},{"user_id":353,"name":"three rats in a trenchcoat","steam_id":76561197983889333,"connected_time":1480000000000,"state":"active","ping":80},{"user_id":379,"name":"Dr. Sex","steam_id":76561198998186161,"connected_time":746000000000,"state":"active","ping":92},{"user_id":386,"name":"Mono","steam_id":76561198114569493,"connected_time":553000000000,"state":"active","ping":50},{"user_id":387,"name":"Constar","steam_id":76561198112021968,"connected_time":480000000000,"state":"active","ping":44},{"user_id":352,"name":"You slumber","steam_id":76561198344639692,"connected_time":1543000000000,"state":"active","ping":77},{"user_id":362,"name":"NALA","steam_id":76561198039806469,"connected_time":1379000000000,"state":"active","ping":79},{"user_id":389,"name":"Plep","steam_id":76561198840259819,"connected_time":332000000000,"state":"active","ping":60},{"user_id":377,"name":"jorts simp","steam_id":76561198399037367,"connected_time":882000000000,"state":"active","ping":75},{"user_id":390,"name":"Coac","steam_id":76561198085265740,"connected_time":241000000000,"state":"active","ping":71},{"user_id":319,"name":"zzz","steam_id":76561199167288279,"connected_time":3839000000000,"state":"active","ping":109},{"user_id":339,"name":"Aeinzalot","steam_id":76561198195288449,"connected_time":2433000000000,"state":"active","ping":48},{"user_id":393,"name":"CreepyYellowDuck","steam_id":76561198000479387,"connected_time":123000000000,"state":"active","ping":35},{"user_id":365,"name":"Jupes","steam_id":76561197989459160,"connected_time":1334000000000,"state":"active","ping":60},{"user_id":366,"name":"Clevetron","steam_id":76561198189743199,"connected_time":1314000000000,"state":"active","ping":55},{"user_id":376,"name":"Fatmagic Mukbang ASMR","steam_id":76561198063492110,"connected_time":933000000000,"state":"active","ping":75}]},{"server_id":320,"name":"Uncletopia | London | 3 | All Maps","name_short":"lon-3","host":"lon-1.uk.uncletopia.com","port":27035,"enabled":true,"region":"eu","cc":"gb","latitude":51.509865,"longitude":-0.118092,"reserved":0,"last_update":"0001-01-01T00:00:00Z","name_a2s":"Uncletopia | London | 3 | All Maps","protocol":17,"map":"cp_process_final","folder":"tf","game":"Team Fortress","app_id":440,"player_count":23,"max_players":24,"Bots":0,"server_type":"Dedicated","server_os":"Linux","password":true,"vac":true,"version":"7961495","steam_id":85568392924510192,"keywords":["cp","nocrits","nodmgspread","uncletopia"],"game_id":440,"stv_port":27036,"stv_name":"Uncletopia | London | 3 | All Maps | STV","players":[{"user_id":262,"name":"goop","steam_id":76561198190073005,"connected_time":912000000000,"state":"active","ping":41},{"user_id":260,"name":"Just Navlis","steam_id":76561198090479609,"connected_time":1330000000000,"state":"active","ping":60},{"user_id":223,"name":"Goldblade","steam_id":76561198382997614,"connected_time":3193000000000,"state":"active","ping":66},{"user_id":248,"name":"sloppy transgirl toppy","steam_id":76561198057092208,"connected_time":2381000000000,"state":"active","ping":73},{"user_id":263,"name":"gitlitwitit","steam_id":76561197980019054,"connected_time":694000000000,"state":"active","ping":59},{"user_id":244,"name":"Yrj√∂ Koskinen Yrj√∂-Koskinen","steam_id":76561198368181145,"connected_time":2582000000000,"state":"active","ping":87},{"user_id":267,"name":"–ë–æ–µ–≤–æ–π –∫–æ–º–∞—Ä","steam_id":76561198796564094,"connected_time":471000000000,"state":"active","ping":102},{"user_id":228,"name":"CallMeUnoriginal","steam_id":76561198977528294,"connected_time":2959000000000,"state":"active","ping":41},{"user_id":180,"name":"Peakey The Bard","steam_id":76561198196607831,"connected_time":4935000000000,"state":"active","ping":44},{"user_id":258,"name":"Alice","steam_id":76561198052410860,"connected_time":1580000000000,"state":"active","ping":140},{"user_id":265,"name":"Clown :o)","steam_id":76561198074657015,"connected_time":527000000000,"state":"active","ping":56},{"user_id":269,"name":"sniper's kangaroo wife","steam_id":76561198334042273,"connected_time":405000000000,"state":"active","ping":44},{"user_id":257,"name":"etc","steam_id":76561197998394797,"connected_time":1618000000000,"state":"active","ping":78},{"user_id":245,"name":"JC","steam_id":76561198029213352,"connected_time":2581000000000,"state":"active","ping":43},{"user_id":270,"name":"Bobirulez","steam_id":76561198009125458,"connected_time":313000000000,"state":"active","ping":75},{"user_id":218,"name":"DVS","steam_id":76561198062909843,"connected_time":3345000000000,"state":"active","ping":75},{"user_id":242,"name":"Bajas","steam_id":76561198179339326,"connected_time":2705000000000,"state":"active","ping":88},{"user_id":266,"name":"child cruncher","steam_id":76561199376433147,"connected_time":525000000000,"state":"active","ping":37},{"user_id":197,"name":"Surrealistic_Ganerson","steam_id":76561198029591931,"connected_time":4218000000000,"state":"active","ping":83},{"user_id":246,"name":"Nurdbot","steam_id":76561197972640060,"connected_time":2537000000000,"state":"active","ping":44},{"user_id":193,"name":"Bronchius Bonehead","steam_id":76561198133961416,"connected_time":4452000000000,"state":"active","ping":60},{"user_id":255,"name":"DidoSquarepants","steam_id":76561198813776572,"connected_time":1985000000000,"state":"active","ping":46},{"user_id":268,"name":"nug","steam_id":76561198055396568,"connected_time":454000000000,"state":"active","ping":56}]},{"server_id":321,"name":"Uncletopia | London | 4 | All Maps","name_short":"lon-4","host":"lon-1.uk.uncletopia.com","port":27045,"enabled":true,"region":"eu","cc":"gb","latitude":51.509865,"longitude":-0.118092,"reserved":0,"last_update":"0001-01-01T00:00:00Z","name_a2s":"Uncletopia | London | 4 | All Maps","protocol":17,"map":"pl_upward","folder":"tf","game":"Team Fortress","app_id":440,"player_count":24,"max_players":24,"Bots":0,"server_type":"Dedicated","server_os":"Linux","password":true,"vac":true,"version":"7961495","steam_id":85568392924510193,"keywords":["nocrits","nodmgspread","payload","uncletopia"],"game_id":440,"stv_port":27046,"stv_name":"Uncletopia | London | 4 | All Maps | STV","players":[{"user_id":14,"name":"Tankedup_","steam_id":76561198168659251,"connected_time":2034000000000,"state":"active","ping":44},{"user_id":15,"name":"B‚àûp | ‚ù§Hina‚ù§","steam_id":76561198058465921,"connected_time":1999000000000,"state":"active","ping":58},{"user_id":16,"name":"Shapeshifter","steam_id":76561198052898368,"connected_time":1934000000000,"state":"active","ping":80},{"user_id":17,"name":"Wire  Bash","steam_id":76561198033268371,"connected_time":1826000000000,"state":"active","ping":88},{"user_id":19,"name":"Goro Majima","steam_id":76561198003040222,"connected_time":1581000000000,"state":"active","ping":42},{"user_id":51,"name":"Daikon","steam_id":76561198044017083,"connected_time":584000000000,"state":"active","ping":60},{"user_id":21,"name":"BurningJoke","steam_id":76561199014358707,"connected_time":1493000000000,"state":"active","ping":58},{"user_id":22,"name":":3","steam_id":76561198169471853,"connected_time":1492000000000,"state":"active","ping":40},{"user_id":28,"name":"ws1md","steam_id":76561199405509062,"connected_time":1252000000000,"state":"active","ping":163},{"user_id":56,"name":"B‚àûp | ‚ù§Fasto‚ù§","steam_id":76561198118298527,"connected_time":403000000000,"state":"active","ping":60},{"user_id":29,"name":"Cheesus Christ","steam_id":76561198451328092,"connected_time":1184000000000,"state":"active","ping":78},{"user_id":53,"name":"Duke Fishlord","steam_id":76561198079928327,"connected_time":571000000000,"state":"active","ping":60},{"user_id":43,"name":"Cillian","steam_id":76561199046965320,"connected_time":888000000000,"state":"active","ping":59},{"user_id":49,"name":"kluri","steam_id":76561198084518962,"connected_time":700000000000,"state":"active","ping":83},{"user_id":40,"name":"Xpholos 51","steam_id":76561199121397349,"connected_time":931000000000,"state":"active","ping":42},{"user_id":36,"name":"Foreskin Gamer","steam_id":76561198283106341,"connected_time":958000000000,"state":"active","ping":57},{"user_id":57,"name":"Bgm_","steam_id":76561198056452044,"connected_time":396000000000,"state":"active","ping":63},{"user_id":50,"name":"GrosFumiste","steam_id":76561198850134909,"connected_time":636000000000,"state":"active","ping":52},{"user_id":48,"name":"fernandobmwm355555","steam_id":76561198086609447,"connected_time":757000000000,"state":"active","ping":66},{"user_id":42,"name":"myrlejon","steam_id":76561198092480015,"connected_time":910000000000,"state":"active","ping":57},{"user_id":44,"name":"Hans","steam_id":76561198030061999,"connected_time":878000000000,"state":"active","ping":64},{"user_id":58,"name":"Adam","steam_id":76561198083655265,"connected_time":116000000000,"state":"active","ping":57},{"user_id":52,"name":"DeBozMann_","steam_id":76561198266876790,"connected_time":583000000000,"state":"active","ping":59},{"user_id":47,"name":"doctor sex","steam_id":76561198029044617,"connected_time":826000000000,"state":"active","ping":48}]},{"server_id":21,"name":"Uncletopia | London | 5 | All Maps","name_short":"lon-5","host":"lon-1.uk.uncletopia.com","port":27055,"enabled":true,"region":"eu","cc":"gb","latitude":51.509865,"longitude":-0.118092,"reserved":0,"last_update":"0001-01-01T00:00:00Z","name_a2s":"Uncletopia | London | 5 | All Maps","protocol":17,"map":"koth_lakeside_final","folder":"tf","game":"Team Fortress","app_id":440,"player_count":1,"max_players":24,"Bots":0,"server_type":"Dedicated","server_os":"Linux","password":true,"vac":true,"version":"7961495","steam_id":85568392924742829,"keywords":["cp","nocrits","nodmgspread","uncletopia"],"game_id":440,"stv_port":27056,"stv_name":"Uncletopia | London | 5 | All Maps | STV","players":[{"user_id":386,"name":"Special","steam_id":76561199073634881,"connected_time":28000000000,"state":"active","ping":132}]},{"server_id":22,"name":"Uncletopia | London | 6 | All Maps","name_short":"lon-6","host":"lon-1.uk.uncletopia.com","port":27065,"enabled":true,"region":"eu","cc":"gb","latitude":51.509865,"longitude":-0.118092,"reserved":0,"last_update":"0001-01-01T00:00:00Z","name_a2s":"Uncletopia | London | 6 | All Maps","protocol":17,"map":"koth_cascade","folder":"tf","game":"Team Fortress","app_id":440,"player_count":0,"max_players":24,"Bots":0,"server_type":"Dedicated","server_os":"Linux","password":true,"vac":true,"version":"7961495","steam_id":85568392924742830,"keywords":["cp","nocrits","nodmgspread","uncletopia"],"game_id":440,"stv_port":27066,"stv_name":"Uncletopia | London | 6 | All Maps | STV","players":null},{"server_id":40,"name":"Uncletopia | London | 7 | Stopwatch","name_short":"lon-7","host":"lon-1.uk.uncletopia.com","port":27075,"enabled":true,"region":"eu","cc":"gb","latitude":51.509865,"longitude":-0.118092,"reserved":0,"last_update":"0001-01-01T00:00:00Z","name_a2s":"Uncletopia | London | 7 | Stopwatch","protocol":17,"map":"koth_highpass","folder":"tf","game":"Team Fortress","app_id":440,"player_count":4,"max_players":24,"Bots":0,"server_type":"Dedicated","server_os":"Linux","password":true,"vac":true,"version":"7961495","steam_id":85568392924964314,"keywords":["cp","nocrits","nodmgspread","uncletopia"],"game_id":440,"stv_port":27076,"stv_name":"Uncletopia | London | 7 | Stopwatch | STV","players":[{"user_id":7,"name":"ran is running","steam_id":76561199443185667,"connected_time":2822000000000,"state":"active","ping":112},{"user_id":8,"name":"piss man (real)","steam_id":76561198839843428,"connected_time":2810000000000,"state":"active","ping":113},{"user_id":15,"name":"Deemask√©","steam_id":76561199225833593,"connected_time":460000000000,"state":"active","ping":44},{"user_id":16,"name":"Von Leining","steam_id":76561198859983504,"connected_time":232000000000,"state":"active","ping":46}]},{"server_id":41,"name":"Uncletopia | London | 8 | Community","name_short":"lon-8","host":"lon-1.uk.uncletopia.com","port":27085,"enabled":true,"region":"eu","cc":"gb","latitude":51.509865,"longitude":-0.118092,"reserved":0,"last_update":"0001-01-01T00:00:00Z","name_a2s":"Uncletopia | London | 8 | Community","protocol":17,"map":"workshop/rd_asteroid_redux_b1.ugc2154902912","folder":"tf","game":"Team Fortress","app_id":440,"player_count":0,"max_players":24,"Bots":0,"server_type":"Dedicated","server_os":"Linux","password":true,"vac":true,"version":"7961495","steam_id":85568392924964315,"keywords":["beta","nocrits","nodmgspread","rd","uncletopia"],"game_id":440,"stv_port":27086,"stv_name":"Uncletopia | London | 8 | Community | STV","players":null},{"server_id":300,"name":"Uncletopia | Montr√©al | 1 | One Thousand Uncles","name_short":"mtl-1","host":"mtl-1.ca.uncletopia.com","port":27015,"enabled":true,"region":"us-east","cc":"ca","latitude":45.50889,"longitude":-73.56167,"reserved":0,"last_update":"0001-01-01T00:00:00Z","name_a2s":"Uncletopia | Montr√©al | 1 | One Thousand Uncles","protocol":17,"map":"pl_swiftwater_final1","folder":"tf","game":"Team Fortress","app_id":440,"player_count":19,"max_players":32,"Bots":16,"server_type":"Dedicated","server_os":"Linux","password":true,"vac":true,"version":"7961495","steam_id":85568392924500087,"keywords":["alltalk","bots","danepve","increased_maxplayers","norespawntime","payload","uncletopia"],"game_id":440,"stv_port":0,"stv_name":"","players":[{"user_id":59,"name":"teoisaverycoolguy","steam_id":76561199434109034,"connected_time":8120000000000,"state":"active","ping":156},{"user_id":126,"name":"Raizen","steam_id":76561199092445367,"connected_time":396000000000,"state":"active","ping":38},{"user_id":103,"name":"Pie Eater 9000","steam_id":76561198003791564,"connected_time":3395000000000,"state":"active","ping":64}]},{"server_id":301,"name":"Uncletopia | Montr√©al | 2 | One Thousand Uncles","name_short":"mtl-2","host":"mtl-1.ca.uncletopia.com","port":27025,"enabled":true,"region":"us-east","cc":"ca","latitude":45.50889,"longitude":-73.56167,"reserved":0,"last_update":"0001-01-01T00:00:00Z","name_a2s":"Uncletopia | Montr√©al | 2 | One Thousand Uncles","protocol":17,"map":"pl_chilly","folder":"tf","game":"Team Fortress","app_id":440,"player_count":0,"max_players":32,"Bots":0,"server_type":"Dedicated","server_os":"Linux","password":true,"vac":true,"version":"7961495","steam_id":85568392924500088,"keywords":["alltalk","danepve","increased_maxplayers","norespawntime","payload","uncletopia"],"game_id":440,"stv_port":0,"stv_name":"","players":null},{"server_id":302,"name":"Uncletopia | Montr√©al | 3 | One Thousand Uncles","name_short":"mtl-3","host":"mtl-1.ca.uncletopia.com","port":27035,"enabled":true,"region":"us-east","cc":"ca","latitude":45.50889,"longitude":-73.56167,"reserved":0,"last_update":"0001-01-01T00:00:00Z","name_a2s":"Uncletopia | Montr√©al | 3 | One Thousand Uncles","protocol":17,"map":"pl_upward","folder":"tf","game":"Team Fortress","app_id":440,"player_count":0,"max_players":32,"Bots":0,"server_type":"Dedicated","server_os":"Linux","password":true,"vac":true,"version":"7961495","steam_id":85568392924500089,"keywords":["alltalk","danepve","increased_maxplayers","norespawntime","payload","uncletopia"],"game_id":440,"stv_port":0,"stv_name":"","players":null},{"server_id":13,"name":"Uncletopia | New York City | 1 | All Maps","name_short":"nyc-1","host":"nyc-1.us.uncletopia.com","port":27015,"enabled":true,"region":"us-east","cc":"us","latitude":40.73061,"longitude":-73.93524,"reserved":0,"last_update":"0001-01-01T00:00:00Z","name_a2s":"Uncletopia | New York City | 1 | All Maps","protocol":17,"map":"koth_cascade","folder":"tf","game":"Team Fortress","app_id":440,"player_count":0,"max_players":24,"Bots":0,"server_type":"Dedicated","server_os":"Linux","password":true,"vac":true,"version":"7961495","steam_id":85568392924469993,"keywords":["cp","nocrits","nodmgspread","uncletopia"],"game_id":440,"stv_port":27016,"stv_name":"Uncletopia | New York City | 1 | All Maps | STV","players":null},{"server_id":14,"name":"Uncletopia | New York City | 2 | All Maps","name_short":"nyc-2","host":"nyc-1.us.uncletopia.com","port":27025,"enabled":true,"region":"us-east","cc":"us","latitude":40.73061,"longitude":-73.93524,"reserved":0,"last_update":"0001-01-01T00:00:00Z","name_a2s":"Uncletopia | New York City | 2 | All Maps","protocol":17,"map":"cp_sunshine","folder":"tf","game":"Team Fortress","app_id":440,"player_count":0,"max_players":24,"Bots":0,"server_type":"Dedicated","server_os":"Linux","password":true,"vac":true,"version":"7961495","steam_id":85568392924469994,"keywords":["cp","nocrits","nodmgspread","uncletopia"],"game_id":440,"stv_port":27026,"stv_name":"Uncletopia | New York City | 2 | All Maps | STV","players":null},{"server_id":15,"name":"Uncletopia | New York City | 3 | Stopwatch","name_short":"nyc-3","host":"nyc-1.us.uncletopia.com","port":27035,"enabled":true,"region":"us-east","cc":"us","latitude":40.73061,"longitude":-73.93524,"reserved":0,"last_update":"0001-01-01T00:00:00Z","name_a2s":"Uncletopia | New York City | 3 | Stopwatch","protocol":17,"map":"cp_snakewater_final1","folder":"tf","game":"Team Fortress","app_id":440,"player_count":0,"max_players":24,"Bots":0,"server_type":"Dedicated","server_os":"Linux","password":true,"vac":true,"version":"7961495","steam_id":85568392924742820,"keywords":["cp","nocrits","nodmgspread","uncletopia"],"game_id":440,"stv_port":27036,"stv_name":"Uncletopia | New York City | 3 | Stopwatch | STV","players":null},{"server_id":16,"name":"Uncletopia | New York City | 4 | Community","name_short":"nyc-4","host":"nyc-1.us.uncletopia.com","port":27045,"enabled":true,"region":"us-east","cc":"us","latitude":40.73061,"longitude":-73.93524,"reserved":0,"last_update":"0001-01-01T00:00:00Z","name_a2s":"Uncletopia | New York City | 4 | Community","protocol":17,"map":"workshop/cp_indulge.ugc528106646","folder":"tf","game":"Team Fortress","app_id":440,"player_count":0,"max_players":24,"Bots":0,"server_type":"Dedicated","server_os":"Linux","password":true,"vac":true,"version":"7961495","steam_id":85568392924742821,"keywords":["cp","nocrits","nodmgspread","uncletopia"],"game_id":440,"stv_port":27046,"stv_name":"Uncletopia | New York City | 4 | Community | STV","players":null},{"server_id":142,"name":"Uncletopia | S√£o Paulo | 1 | All Maps","name_short":"sao-1","host":"sao-1.br.uncletopia.com","port":27015,"enabled":true,"region":"sa","cc":"br","latitude":-23.533773,"longitude":-46.62529,"reserved":0,"last_update":"0001-01-01T00:00:00Z","name_a2s":"Uncletopia | S√£o Paulo | 1 | All Maps","protocol":17,"map":"koth_highpass","folder":"tf","game":"Team Fortress","app_id":440,"player_count":0,"max_players":24,"Bots":0,"server_type":"Dedicated","server_os":"Linux","password":true,"vac":true,"version":"7961495","steam_id":85568392924469996,"keywords":["cp","nocrits","nodmgspread","uncletopia"],"game_id":440,"stv_port":27016,"stv_name":"Uncletopia | S√£o Paulo | 1 | All Maps | STV","players":null},{"server_id":143,"name":"Uncletopia | S√£o Paulo | 2 | Community","name_short":"sao-2","host":"sao-2.br.uncletopia.com","port":27015,"enabled":true,"region":"sa","cc":"br","latitude":-23.533773,"longitude":-46.62529,"reserved":0,"last_update":"0001-01-01T00:00:00Z","name_a2s":"Uncletopia | S√£o Paulo | 2 | Community","protocol":17,"map":"workshop/cp_croissant_final.ugc458840209","folder":"tf","game":"Team Fortress","app_id":440,"player_count":0,"max_players":24,"Bots":0,"server_type":"Dedicated","server_os":"Linux","password":true,"vac":true,"version":"7961495","steam_id":85568392924485349,"keywords":["cp","nocrits","nodmgspread","uncletopia"],"game_id":440,"stv_port":27016,"stv_name":"Uncletopia | S√£o Paulo | 2 | Community | STV","players":null},{"server_id":7,"name":"Uncletopia | Seattle | 1 | All Maps","name_short":"sea-1","host":"sea-1.us.uncletopia.com","port":27015,"enabled":true,"region":"us-west","cc":"us","latitude":47.608013,"longitude":-122.33517,"reserved":0,"last_update":"0001-01-01T00:00:00Z","name_a2s":"Uncletopia | Seattle | 1 | All Maps","protocol":17,"map":"cp_steel","folder":"tf","game":"Team Fortress","app_id":440,"player_count":24,"max_players":24,"Bots":0,"server_type":"Dedicated","server_os":"Linux","password":true,"vac":true,"version":"7961495","steam_id":85568392924469997,"keywords":["cp","nocrits","nodmgspread","uncletopia"],"game_id":440,"stv_port":27016,"stv_name":"Uncletopia | Seattle | 1 | All Maps | STV","players":[{"user_id":74,"name":"Captain Buggy","steam_id":76561198024444448,"connected_time":1197000000000,"state":"active","ping":32},{"user_id":19,"name":"Muscle Man","steam_id":76561198248325252,"connected_time":5728000000000,"state":"active","ping":74},{"user_id":96,"name":"bobtheninjaman","steam_id":76561198066424544,"connected_time":356000000000,"state":"active","ping":74},{"user_id":92,"name":"I'mFromSpace","steam_id":76561198808969653,"connected_time":505000000000,"state":"active","ping":56},{"user_id":61,"name":"Engineer Gaming Live","steam_id":76561198045914603,"connected_time":3101000000000,"state":"active","ping":73},{"user_id":78,"name":"THE STINK","steam_id":76561199226110975,"connected_time":892000000000,"state":"active","ping":98},{"user_id":100,"name":"UltimaA","steam_id":76561198083618022,"connected_time":98000000000,"state":"active","ping":60},{"user_id":63,"name":"wendigo","steam_id":76561197994528974,"connected_time":2709000000000,"state":"active","ping":73},{"user_id":90,"name":"Gary Budussy","steam_id":76561197969793969,"connected_time":596000000000,"state":"active","ping":75},{"user_id":20,"name":"Confirmed Bachelor","steam_id":76561198441041496,"connected_time":5659000000000,"state":"active","ping":45},{"user_id":52,"name":"[TrC] Dackstrus","steam_id":76561197973518509,"connected_time":3947000000000,"state":"active","ping":53},{"user_id":64,"name":"Artgrendadier","steam_id":76561198063305359,"connected_time":2629000000000,"state":"active","ping":105},{"user_id":82,"name":"sleepy","steam_id":76561198288663776,"connected_time":780000000000,"state":"active","ping":51},{"user_id":91,"name":"John Arbuckle gaming","steam_id":76561199061503351,"connected_time":585000000000,"state":"active","ping":86},{"user_id":85,"name":"2 Point Tom","steam_id":76561198087617008,"connected_time":754000000000,"state":"active","ping":82},{"user_id":86,"name":"oo","steam_id":76561198119626492,"connected_time":744000000000,"state":"active","ping":91},{"user_id":57,"name":"Imitation Caucasian","steam_id":76561198320536166,"connected_time":3324000000000,"state":"active","ping":84},{"user_id":97,"name":"Nxy.","steam_id":76561198278018071,"connected_time":338000000000,"state":"active","ping":119},{"user_id":99,"name":"Keamy","steam_id":76561199471434875,"connected_time":216000000000,"state":"active","ping":41},{"user_id":41,"name":"kfc rat","steam_id":76561199055105944,"connected_time":4438000000000,"state":"active","ping":98},{"user_id":93,"name":"da_pig2290","steam_id":76561198974258097,"connected_time":469000000000,"state":"active","ping":80},{"user_id":94,"name":"epic cheeseburger","steam_id":76561198041995180,"connected_time":448000000000,"state":"active","ping":128},{"user_id":89,"name":"BLITZ","steam_id":76561198980779200,"connected_time":706000000000,"state":"active","ping":80},{"user_id":71,"name":"üëÅ sumixodic","steam_id":76561198090770710,"connected_time":1913000000000,"state":"active","ping":47}]},{"server_id":119,"name":"Uncletopia | Seattle | 2 | All Maps","name_short":"sea-2","host":"sea-1.us.uncletopia.com","port":27025,"enabled":true,"region":"us-west","cc":"us","latitude":47.608013,"longitude":-122.33517,"reserved":0,"last_update":"0001-01-01T00:00:00Z","name_a2s":"Uncletopia | Seattle | 2 | All Maps","protocol":17,"map":"koth_lakeside_final","folder":"tf","game":"Team Fortress","app_id":440,"player_count":0,"max_players":24,"Bots":0,"server_type":"Dedicated","server_os":"Linux","password":true,"vac":true,"version":"7961495","steam_id":85568392924469998,"keywords":["cp","nocrits","nodmgspread","uncletopia"],"game_id":440,"stv_port":27026,"stv_name":"Uncletopia | Seattle | 2 | All Maps | STV","players":null},{"server_id":406,"name":"Uncletopia | Seattle | 3 | Stopwatch","name_short":"sea-3","host":"sea-1.us.uncletopia.com","port":27035,"enabled":true,"region":"us-west","cc":"us","latitude":47.608013,"longitude":-122.33517,"reserved":0,"last_update":"0001-01-01T00:00:00Z","name_a2s":"Uncletopia | Seattle | 3 | Stopwatch","protocol":17,"map":"cp_gullywash_final1","folder":"tf","game":"Team Fortress","app_id":440,"player_count":0,"max_players":24,"Bots":0,"server_type":"Dedicated","server_os":"Linux","password":true,"vac":true,"version":"7961495","steam_id":85568392924515217,"keywords":["cp","nocrits","nodmgspread","uncletopia"],"game_id":440,"stv_port":27036,"stv_name":"Uncletopia | Seattle | 3 | Stopwatch | STV","players":null},{"server_id":17,"name":"Uncletopia | San Francisco | 1 | All Maps","name_short":"sfo-1","host":"sfo-1.us.uncletopia.com","port":27015,"enabled":true,"region":"us-west","cc":"us","latitude":37.77397,"longitude":-122.4313,"reserved":0,"last_update":"0001-01-01T00:00:00Z","name_a2s":"Uncletopia | San Francisco | 1 | All Maps","protocol":17,"map":"cp_altitude","folder":"tf","game":"Team Fortress","app_id":440,"player_count":0,"max_players":24,"Bots":0,"server_type":"Dedicated","server_os":"Linux","password":true,"vac":true,"version":"7961495","steam_id":85568392924469999,"keywords":["cp","nocrits","nodmgspread","uncletopia"],"game_id":440,"stv_port":27016,"stv_name":"Uncletopia | San Francisco | 1 | All Maps | STV","players":null},{"server_id":18,"name":"Uncletopia | San Francisco | 2 | All Maps","name_short":"sfo-2","host":"sfo-1.us.uncletopia.com","port":27025,"enabled":true,"region":"us-west","cc":"us","latitude":37.77397,"longitude":-122.4313,"reserved":0,"last_update":"0001-01-01T00:00:00Z","name_a2s":"Uncletopia | San Francisco | 2 | All Maps","protocol":17,"map":"cp_freight_final1","folder":"tf","game":"Team Fortress","app_id":440,"player_count":0,"max_players":24,"Bots":0,"server_type":"Dedicated","server_os":"Linux","password":true,"vac":true,"version":"7961495","steam_id":85568392924470000,"keywords":["cp","nocrits","nodmgspread","uncletopia"],"game_id":440,"stv_port":27026,"stv_name":"Uncletopia | San Francisco | 2 | All Maps | STV","players":null},{"server_id":19,"name":"Uncletopia | San Francisco | 3 | Stopwatch","name_short":"sfo-3","host":"sfo-1.us.uncletopia.com","port":27035,"enabled":true,"region":"us-west","cc":"us","latitude":37.77397,"longitude":-122.4313,"reserved":0,"last_update":"0001-01-01T00:00:00Z","name_a2s":"Uncletopia | San Francisco | 3 | Stopwatch","protocol":17,"map":"pl_swiftwater_final1","folder":"tf","game":"Team Fortress","app_id":440,"player_count":3,"max_players":24,"Bots":0,"server_type":"Dedicated","server_os":"Linux","password":true,"vac":true,"version":"7961495","steam_id":85568392924742824,"keywords":["nocrits","nodmgspread","payload","uncletopia"],"game_id":440,"stv_port":27036,"stv_name":"Uncletopia | San Francisco | 3 | Stopwatch | STV","players":[{"user_id":7,"name":"Varie","steam_id":76561199454930210,"connected_time":2719000000000,"state":"active","ping":108},{"user_id":11,"name":"thezranger","steam_id":76561198454086460,"connected_time":1263000000000,"state":"active","ping":38},{"user_id":10,"name":"Perfume Department","steam_id":76561198128299594,"connected_time":1326000000000,"state":"active","ping":48}]},{"server_id":20,"name":"Uncletopia | San Francisco | 4 | Community","name_short":"sfo-4","host":"sfo-1.us.uncletopia.com","port":27045,"enabled":true,"region":"us-west","cc":"us","latitude":37.77397,"longitude":-122.4313,"reserved":0,"last_update":"0001-01-01T00:00:00Z","name_a2s":"Uncletopia | San Francisco | 4 | Community","protocol":17,"map":"workshop/koth_slaughter_rc1.ugc1712845210","folder":"tf","game":"Team Fortress","app_id":440,"player_count":0,"max_players":24,"Bots":0,"server_type":"Dedicated","server_os":"Linux","password":true,"vac":true,"version":"7961495","steam_id":85568392924742826,"keywords":["cp","nocrits","nodmgspread","uncletopia"],"game_id":440,"stv_port":27046,"stv_name":"Uncletopia | San Francisco | 4 | Community | STV","players":null},{"server_id":141,"name":"Uncletopia | Sydney | 1 | All Maps","name_short":"syd-1","host":"syd-1.au.uncletopia.com","port":27015,"enabled":true,"region":"au","cc":"au","latitude":-33.865143,"longitude":151.2099,"reserved":0,"last_update":"0001-01-01T00:00:00Z","name_a2s":"Uncletopia | Sydney | 1 | All Maps","protocol":17,"map":"koth_lakeside_final","folder":"tf","game":"Team Fortress","app_id":440,"player_count":0,"max_players":24,"Bots":0,"server_type":"Dedicated","server_os":"Linux","password":true,"vac":true,"version":"7961495","steam_id":85568392924470001,"keywords":["cp","nocrits","nodmgspread","uncletopia"],"game_id":440,"stv_port":27016,"stv_name":"Uncletopia | Sydney | 1 | All Maps | STV","players":null},{"server_id":123,"name":"Uncletopia | Sydney | 2 | All Maps","name_short":"syd-2","host":"syd-1.au.uncletopia.com","port":27025,"enabled":true,"region":"au","cc":"au","latitude":-33.865143,"longitude":151.2099,"reserved":0,"last_update":"0001-01-01T00:00:00Z","name_a2s":"Uncletopia | Sydney | 2 | All Maps","protocol":17,"map":"pl_pier","folder":"tf","game":"Team Fortress","app_id":440,"player_count":0,"max_players":24,"Bots":0,"server_type":"Dedicated","server_os":"Linux","password":true,"vac":true,"version":"7961495","steam_id":85568392924470002,"keywords":["nocrits","nodmgspread","payload","uncletopia"],"game_id":440,"stv_port":27026,"stv_name":"Uncletopia | Sydney | 2 | All Maps | STV","players":null},{"server_id":395,"name":"Uncletopia | Sydney | 3 | All Maps","name_short":"syd-3","host":"syd-1.au.uncletopia.com","port":27035,"enabled":true,"region":"au","cc":"au","latitude":-33.865143,"longitude":151.2099,"reserved":0,"last_update":"0001-01-01T00:00:00Z","name_a2s":"Uncletopia | Sydney | 3 | All Maps","protocol":17,"map":"pl_frontier_final","folder":"tf","game":"Team Fortress","app_id":440,"player_count":0,"max_players":24,"Bots":0,"server_type":"Dedicated","server_os":"Linux","password":true,"vac":true,"version":"7961495","steam_id":85568392925194467,"keywords":["nocrits","nodmgspread","payload","uncletopia"],"game_id":440,"stv_port":27036,"stv_name":"Uncletopia | Sydney | 3 | All Maps | STV","players":null},{"server_id":396,"name":"Uncletopia | Sydney | 4 | All Maps","name_short":"syd-4","host":"syd-1.au.uncletopia.com","port":27045,"enabled":true,"region":"au","cc":"au","latitude":-33.865143,"longitude":151.2099,"reserved":0,"last_update":"0001-01-01T00:00:00Z","name_a2s":"Uncletopia | Sydney | 4 | All Maps","protocol":17,"map":"cp_dustbowl","folder":"tf","game":"Team Fortress","app_id":440,"player_count":0,"max_players":24,"Bots":0,"server_type":"Dedicated","server_os":"Linux","password":true,"vac":true,"version":"7961495","steam_id":85568392925397958,"keywords":["cp","nocrits","nodmgspread","uncletopia"],"game_id":440,"stv_port":27046,"stv_name":"Uncletopia | Sydney | 4 | All Maps | STV","players":null},{"server_id":58,"name":"Uncletopia | Sydney | 5 | Stopwatch","name_short":"syd-5","host":"syd-1.au.uncletopia.com","port":27055,"enabled":true,"region":"au","cc":"au","latitude":-33.865143,"longitude":151.2099,"reserved":0,"last_update":"0001-01-01T00:00:00Z","name_a2s":"Uncletopia | Sydney | 5 | Stopwatch","protocol":17,"map":"workshop/pl_badwater_pro_v12.ugc2142942074","folder":"tf","game":"Team Fortress","app_id":440,"player_count":0,"max_players":24,"Bots":0,"server_type":"Dedicated","server_os":"Linux","password":true,"vac":true,"version":"7961495","steam_id":85568392925397959,"keywords":["nocrits","nodmgspread","payload","uncletopia"],"game_id":440,"stv_port":27056,"stv_name":"Uncletopia | Sydney | 5 | Stopwatch | STV","players":null},{"server_id":59,"name":"Uncletopia | Sydney | 6 | Community","name_short":"syd-6","host":"syd-1.au.uncletopia.com","port":27065,"enabled":true,"region":"au","cc":"au","latitude":-33.865143,"longitude":151.2099,"reserved":0,"last_update":"0001-01-01T00:00:00Z","name_a2s":"Uncletopia | Sydney | 6 | Community","protocol":17,"map":"workshop/pl_shoreleave_rc2.ugc1238849347","folder":"tf","game":"Team Fortress","app_id":440,"player_count":0,"max_players":24,"Bots":0,"server_type":"Dedicated","server_os":"Linux","password":true,"vac":true,"version":"7961495","steam_id":85568392925397960,"keywords":["nocrits","nodmgspread","payload","uncletopia"],"game_id":440,"stv_port":27066,"stv_name":"Uncletopia | Sydney | 6 | Community | STV","players":null},{"server_id":49,"name":"Uncletopia | Warsaw | 1 | One Thousand Uncles","name_short":"waw-1","host":"waw-1.pl.uncletopia.com","port":27015,"enabled":true,"region":"eu","cc":"pl","latitude":52.2297,"longitude":21.017532,"reserved":0,"last_update":"0001-01-01T00:00:00Z","name_a2s":"Uncletopia | Warsaw | 1 | One Thousand Uncles","protocol":17,"map":"pl_upward","folder":"tf","game":"Team Fortress","app_id":440,"player_count":25,"max_players":32,"Bots":16,"server_type":"Dedicated","server_os":"Linux","password":true,"vac":true,"version":"7961495","steam_id":85568392925397850,"keywords":["alltalk","bots","danepve","increased_maxplayers","norespawntime","payload","uncletopia"],"game_id":440,"stv_port":0,"stv_name":"","players":[{"user_id":513,"name":"Diamhair","steam_id":76561198109020178,"connected_time":2082000000000,"state":"active","ping":82},{"user_id":532,"name":"skike","steam_id":76561198071079992,"connected_time":1892000000000,"state":"active","ping":88},{"user_id":535,"name":"MrHenry","steam_id":76561199249662743,"connected_time":1624000000000,"state":"active","ping":153},{"user_id":534,"name":"jeffywaffle","steam_id":76561199132792226,"connected_time":1872000000000,"state":"active","ping":88},{"user_id":548,"name":"Kretes","steam_id":76561198982786431,"connected_time":574000000000,"state":"active","ping":36},{"user_id":540,"name":"Valoxi","steam_id":76561197995042938,"connected_time":1325000000000,"state":"active","ping":74},{"user_id":549,"name":"Darkie","steam_id":76561198000388812,"connected_time":497000000000,"state":"active","ping":116},{"user_id":542,"name":"ViPower","steam_id":76561198882928076,"connected_time":1225000000000,"state":"active","ping":74},{"user_id":543,"name":"ByrakGG (f2p)","steam_id":76561199415957361,"connected_time":1204000000000,"state":"active","ping":119}]},{"server_id":50,"name":"Uncletopia | Warsaw | 2 | One Thousand Uncles","name_short":"waw-2","host":"waw-1.pl.uncletopia.com","port":27025,"enabled":true,"region":"eu","cc":"pl","latitude":52.2297,"longitude":21.017532,"reserved":0,"last_update":"0001-01-01T00:00:00Z","name_a2s":"Uncletopia | Warsaw | 2 | One Thousand Uncles","protocol":17,"map":"pl_upward","folder":"tf","game":"Team Fortress","app_id":440,"player_count":26,"max_players":32,"Bots":16,"server_type":"Dedicated","server_os":"Linux","password":true,"vac":true,"version":"7961495","steam_id":85568392925397851,"keywords":["alltalk","bots","danepve","increased_maxplayers","norespawntime","payload","uncletopia"],"game_id":440,"stv_port":0,"stv_name":"","players":[{"user_id":116,"name":"kovajatkaolevinaan","steam_id":76561199471146687,"connected_time":1404000000000,"state":"active","ping":98},{"user_id":96,"name":"adv6","steam_id":76561198029789989,"connected_time":3522000000000,"state":"active","ping":74},{"user_id":137,"name":"Shadowwalker","steam_id":76561198344642637,"connected_time":256000000000,"state":"active","ping":172},{"user_id":99,"name":"TarekInnit","steam_id":76561198298618127,"connected_time":3309000000000,"state":"active","ping":65},{"user_id":113,"name":"Lavi","steam_id":76561198000911853,"connected_time":1507000000000,"state":"active","ping":75},{"user_id":102,"name":"lisivi","steam_id":76561198365503306,"connected_time":2424000000000,"state":"active","ping":71},{"user_id":103,"name":"dank pank","steam_id":76561198995052713,"connected_time":2361000000000,"state":"active","ping":52},{"user_id":108,"name":"silicon based life form","steam_id":76561199127121346,"connected_time":1782000000000,"state":"active","ping":78},{"user_id":119,"name":"Spxndrej","steam_id":76561199426583978,"connected_time":943000000000,"state":"active","ping":46},{"user_id":120,"name":"Ghaghina","steam_id":76561199278537900,"connected_time":898000000000,"state":"active","ping":36}]},{"server_id":51,"name":"Uncletopia | Warsaw | 3 | All Maps","name_short":"waw-3","host":"waw-1.pl.uncletopia.com","port":27035,"enabled":true,"region":"eu","cc":"pl","latitude":52.2297,"longitude":21.017532,"reserved":0,"last_update":"0001-01-01T00:00:00Z","name_a2s":"Uncletopia | Warsaw | 3 | All Maps","protocol":17,"map":"koth_viaduct","folder":"tf","game":"Team Fortress","app_id":440,"player_count":0,"max_players":24,"Bots":0,"server_type":"Dedicated","server_os":"Linux","password":true,"vac":true,"version":"7961495","steam_id":85568392925397852,"keywords":["cp","nocrits","nodmgspread","uncletopia"],"game_id":440,"stv_port":27036,"stv_name":"Uncletopia | Warsaw | 3 | All Maps | STV","players":null},{"server_id":52,"name":"Uncletopia | Warsaw | 4 | All Maps","name_short":"waw-4","host":"waw-1.pl.uncletopia.com","port":27045,"enabled":true,"region":"eu","cc":"pl","latitude":52.2297,"longitude":21.017532,"reserved":0,"last_update":"0001-01-01T00:00:00Z","name_a2s":"Uncletopia | Warsaw | 4 | All Maps","protocol":17,"map":"cp_snakewater_final1","folder":"tf","game":"Team Fortress","app_id":440,"player_count":0,"max_players":24,"Bots":0,"server_type":"Dedicated","server_os":"Linux","password":true,"vac":true,"version":"7961495","steam_id":85568392925397853,"keywords":["cp","nocrits","nodmgspread","uncletopia"],"game_id":440,"stv_port":27046,"stv_name":"Uncletopia | Warsaw | 4 | All Maps | STV","players":null},{"server_id":53,"name":"Uncletopia | Warsaw | 5 | Stopwatch","name_short":"waw-5","host":"waw-1.pl.uncletopia.com","port":27055,"enabled":true,"region":"eu","cc":"pl","latitude":52.2297,"longitude":21.017532,"reserved":0,"last_update":"0001-01-01T00:00:00Z","name_a2s":"Uncletopia | Warsaw | 5 | Stopwatch","protocol":17,"map":"workshop/pl_vigil_rc10.ugc1266210012","folder":"tf","game":"Team Fortress","app_id":440,"player_count":0,"max_players":24,"Bots":0,"server_type":"Dedicated","server_os":"Linux","password":true,"vac":true,"version":"7961495","steam_id":85568392925397854,"keywords":["nocrits","nodmgspread","payload","uncletopia"],"game_id":440,"stv_port":27056,"stv_name":"Uncletopia | Warsaw | 5 | Stopwatch | STV","players":null},{"server_id":54,"name":"Uncletopia | Warsaw | 6 | Community","name_short":"waw-6","host":"waw-1.pl.uncletopia.com","port":27065,"enabled":true,"region":"eu","cc":"pl","latitude":52.2297,"longitude":21.017532,"reserved":0,"last_update":"0001-01-01T00:00:00Z","name_a2s":"Uncletopia | Warsaw | 6 | Community","protocol":17,"map":"workshop/cp_mannbase_rc2a.ugc1900737467","folder":"tf","game":"Team Fortress","app_id":440,"player_count":0,"max_players":24,"Bots":0,"server_type":"Dedicated","server_os":"Linux","password":true,"vac":true,"version":"7961495","steam_id":85568392925397856,"keywords":["cp","nocrits","nodmgspread","uncletopia"],"game_id":440,"stv_port":27066,"stv_name":"Uncletopia | Warsaw | 6 | Community | STV","players":null}]}