{"status":true,"message":"","result":[{"server_id":9,"name":"Uncletopia | Atlanta | 1 | All Maps","name_short":"atl-1","host":"atl-1.us.uncletopia.com","port":27015,"enabled":true,"region":"us-east","cc":"us","latitude":33.753746,"longitude":-84.38633,"reserved":0,"last_update":"0001-01-01T00:00:00Z","name_a2s":"Uncletopia | Atlanta | 1 | All Maps","protocol":17,"map":"pl_badwater","folder":"tf","game":"Team Fortress","app_id":440,"player_count":24,"max_players":24,"Bots":0,"server_type":"Dedicated","server_os":"Linux","password":true,"vac":true,"version":"7708610","steam_id":85568392924469982,"keywords":["nocrits","nodmgspread","payload","uncletopia"],"game_id":440,"stv_port":27016,"stv_name":"Uncletopia | Atlanta | 1 | All Maps | STV","players":[{"user_id":418,"name":"ATL1 | merryy","steam_id":76561198968001329,"connected_time":1498000000000,"state":"active","ping":47},{"user_id":437,"name":"ATL1 | eish","steam_id":76561198089463603,"connected_time":119000000000,"state":"active","ping":119},{"user_id":410,"name":"yomokha","steam_id":76561198063175935,"connected_time":1957000000000,"state":"active","ping":59},{"user_id":424,"name":"mommy grinch","steam_id":76561199230929836,"connected_time":637000000000,"state":"active","ping":81},{"user_id":421,"name":"FemboyNate","steam_id":76561198146636410,"connected_time":1472000000000,"state":"active","ping":75},{"user_id":430,"name":"Nate Dogg","steam_id":76561198118760077,"connected_time":403000000000,"state":"active","ping":52},{"user_id":364,"name":"Brown_Dream","steam_id":76561198975766145,"connected_time":5910000000000,"state":"active","ping":64},{"user_id":429,"name":"MOTORTREND TRUCK OF THE YEAR","steam_id":76561198077654131,"connected_time":412000000000,"state":"active","ping":79},{"user_id":351,"name":"‚ùÖAlyx‚ùÖ","steam_id":76561198024303978,"connected_time":6875000000000,"state":"active","ping":59},{"user_id":373,"name":"Jin Gulilo","steam_id":76561198065151242,"connected_time":4627000000000,"state":"active","ping":74},{"user_id":432,"name":"rose","steam_id":76561198048882285,"connected_time":198000000000,"state":"active","ping":62},{"user_id":343,"name":"merry trapmas","steam_id":76561198402801140,"connected_time":8073000000000,"state":"active","ping":104},{"user_id":438,"name":"Quansen","steam_id":76561198151594550,"connected_time":113000000000,"state":"active","ping":76},{"user_id":388,"name":"SnowStorm","steam_id":76561198095817025,"connected_time":3259000000000,"state":"active","ping":37},{"user_id":425,"name":"Sm0ky","steam_id":76561198418262145,"connected_time":636000000000,"state":"active","ping":110},{"user_id":411,"name":"snoops","steam_id":76561197986760351,"connected_time":1940000000000,"state":"active","ping":80},{"user_id":382,"name":"Wumbologist","steam_id":76561198188729514,"connected_time":3810000000000,"state":"active","ping":58},{"user_id":412,"name":"sansa musa","steam_id":76561198163723555,"connected_time":1829000000000,"state":"active","ping":75},{"user_id":426,"name":"usedhandle","steam_id":76561199095035476,"connected_time":636000000000,"state":"active","ping":46},{"user_id":376,"name":"Bames Jond","steam_id":76561198037252756,"connected_time":4422000000000,"state":"active","ping":99},{"user_id":419,"name":"Jackass in a box","steam_id":76561198355268305,"connected_time":1498000000000,"state":"active","ping":67},{"user_id":436,"name":"Singularity","steam_id":76561198000284742,"connected_time":158000000000,"state":"active","ping":54},{"user_id":434,"name":"Thotimus Begonimus","steam_id":76561197970275938,"connected_time":174000000000,"state":"active","ping":48},{"user_id":385,"name":"Nepeta Gamer","steam_id":76561198964321336,"connected_time":3554000000000,"state":"active","ping":56}]},{"server_id":400,"name":"Uncletopia | Atlanta | 3 | All Maps","name_short":"atl-3","host":"atl-1.us.uncletopia.com","port":27035,"enabled":true,"region":"us-east","cc":"us","latitude":33.753746,"longitude":-84.38633,"reserved":0,"last_update":"0001-01-01T00:00:00Z","name_a2s":"Uncletopia | Atlanta | 3 | All Maps","protocol":17,"map":"koth_viaduct","folder":"tf","game":"Team Fortress","app_id":440,"player_count":1,"max_players":24,"Bots":0,"server_type":"Dedicated","server_os":"Linux","password":true,"vac":true,"version":"7708610","steam_id":85568392924515187,"keywords":["cp","nocrits","nodmgspread","uncletopia"],"game_id":440,"stv_port":27036,"stv_name":"Uncletopia | Atlanta | 3 | All Maps | STV","players":[{"user_id":26,"name":"Salt","steam_id":76561198418001135,"connected_time":12000000000,"state":"active","ping":67}]},{"server_id":401,"name":"Uncletopia | Atlanta | 4 | No Payload","name_short":"atl-4","host":"atl-1.us.uncletopia.com","port":27045,"enabled":true,"region":"us-east","cc":"us","latitude":33.753746,"longitude":-84.38633,"reserved":0,"last_update":"0001-01-01T00:00:00Z","name_a2s":"Uncletopia | Atlanta | 4 | No Payload","protocol":17,"map":"plr_hightower","folder":"tf","game":"Team Fortress","app_id":440,"player_count":1,"max_players":24,"Bots":0,"server_type":"Dedicated","server_os":"Linux","password":true,"vac":true,"version":"7708610","steam_id":85568392924515188,"keywords":["nocrits","nodmgspread","payload","uncletopia"],"game_id":440,"stv_port":27046,"stv_name":"Uncletopia | Atlanta | 4 | No Payload | STV","players":[{"user_id":14,"name":"JustinGuy3991","steam_id":76561199285917322,"connected_time":163000000000,"state":"active","ping":294}]},{"server_id":2,"name":"Uncletopia | Chicago | 1 | All Maps","name_short":"chi-1","host":"chi-1.us.uncletopia.com","port":27015,"enabled":true,"region":"us-central","cc":"us","latitude":41.881832,"longitude":-87.62318,"reserved":0,"last_update":"0001-01-01T00:00:00Z","name_a2s":"Uncletopia | Chicago | 1 | All Maps","protocol":17,"map":"ctf_turbine","folder":"tf","game":"Team Fortress","app_id":440,"player_count":24,"max_players":24,"Bots":0,"server_type":"Dedicated","server_os":"Linux","password":true,"vac":true,"version":"7708610","steam_id":85568392924469984,"keywords":["ctf","nocrits","nodmgspread","uncletopia"],"game_id":440,"stv_port":27016,"stv_name":"Uncletopia | Chicago | 1 | All Maps | STV","players":[{"user_id":447,"name":"Rex","steam_id":76561198138365053,"connected_time":140000000000,"state":"active","ping":130},{"user_id":299,"name":"Cthuwu","steam_id":76561198272014414,"connected_time":7092000000000,"state":"active","ping":66},{"user_id":300,"name":"Kr4bKing 11","steam_id":76561198849444982,"connected_time":7089000000000,"state":"active","ping":60},{"user_id":331,"name":"baseba8311","steam_id":76561198327711144,"connected_time":6012000000000,"state":"active","ping":87},{"user_id":357,"name":"PKBEAST_7","steam_id":76561198177136537,"connected_time":2767000000000,"state":"active","ping":85},{"user_id":448,"name":"TheDapperTaco","steam_id":76561199103076602,"connected_time":109000000000,"state":"active","ping":89},{"user_id":224,"name":"dr peppah chug!","steam_id":76561198068835693,"connected_time":13611000000000,"state":"active","ping":89},{"user_id":422,"name":"Boyofender","steam_id":76561198861735284,"connected_time":772000000000,"state":"active","ping":126},{"user_id":259,"name":"Ras","steam_id":76561198123546775,"connected_time":11475000000000,"state":"active","ping":88},{"user_id":451,"name":"cyg","steam_id":76561198138012167,"connected_time":21000000000,"state":"active","ping":335},{"user_id":318,"name":"Luucyf3r","steam_id":76561198141820085,"connected_time":6490000000000,"state":"active","ping":75},{"user_id":359,"name":"garf","steam_id":76561198088228311,"connected_time":2489000000000,"state":"active","ping":66},{"user_id":321,"name":"Epicdisc","steam_id":76561198025483504,"connected_time":6415000000000,"state":"active","ping":61},{"user_id":385,"name":"Scrimblo Bimblo","steam_id":76561198077328818,"connected_time":1610000000000,"state":"active","ping":58},{"user_id":446,"name":"The Almighty Rizzard","steam_id":76561198839205387,"connected_time":182000000000,"state":"active","ping":86},{"user_id":408,"name":"IGotTheLettuce","steam_id":76561198062473897,"connected_time":1029000000000,"state":"active","ping":77},{"user_id":375,"name":"fancy chef","steam_id":76561198993641831,"connected_time":1777000000000,"state":"active","ping":66},{"user_id":361,"name":"im trying my best","steam_id":76561198919095185,"connected_time":2224000000000,"state":"active","ping":64},{"user_id":432,"name":"slep.py","steam_id":76561197988287144,"connected_time":643000000000,"state":"active","ping":59},{"user_id":439,"name":"‚ô• Femboy‚ô•Ventily ‚ô•","steam_id":76561198157260335,"connected_time":365000000000,"state":"active","ping":56},{"user_id":368,"name":"NUt","steam_id":76561198031007966,"connected_time":1978000000000,"state":"active","ping":60},{"user_id":387,"name":"FragAlicious","steam_id":76561197970523822,"connected_time":1566000000000,"state":"active","ping":131},{"user_id":329,"name":"AXELORDX","steam_id":76561198136639581,"connected_time":6279000000000,"state":"active","ping":64},{"user_id":442,"name":"NeoNova6107","steam_id":76561198158186864,"connected_time":327000000000,"state":"active","ping":74}]},{"server_id":106,"name":"Uncletopia | Chicago | 2 | All Maps","name_short":"chi-2","host":"chi-1.us.uncletopia.com","port":27025,"enabled":true,"region":"us-central","cc":"us","latitude":41.881832,"longitude":-87.62318,"reserved":0,"last_update":"0001-01-01T00:00:00Z","name_a2s":"Uncletopia | Chicago | 2 | All Maps","protocol":17,"map":"cp_process_final","folder":"tf","game":"Team Fortress","app_id":440,"player_count":23,"max_players":24,"Bots":0,"server_type":"Dedicated","server_os":"Linux","password":true,"vac":true,"version":"7708610","steam_id":85568392924469985,"keywords":["cp","nocrits","nodmgspread","uncletopia"],"game_id":440,"stv_port":27026,"stv_name":"Uncletopia | Chicago | 2 | All Maps | STV","players":[{"user_id":201,"name":"XxX_Yung_XxX_Pr0d1gy_XxX","steam_id":76561198076367669,"connected_time":3982000000000,"state":"active","ping":62},{"user_id":240,"name":"Overwatch 2 ¬Æ By Blizzard ENT.","steam_id":76561198824796895,"connected_time":1669000000000,"state":"active","ping":89},{"user_id":222,"name":"6*10^6 bees","steam_id":76561198400438007,"connected_time":2257000000000,"state":"active","ping":56},{"user_id":255,"name":"Candy Sparkles","steam_id":76561198126871264,"connected_time":170000000000,"state":"active","ping":81},{"user_id":242,"name":"Young-OG","steam_id":76561198058800479,"connected_time":1657000000000,"state":"active","ping":80},{"user_id":256,"name":"lambmyth","steam_id":76561199215261209,"connected_time":92000000000,"state":"active","ping":149},{"user_id":250,"name":"Gian","steam_id":76561198041434512,"connected_time":1572000000000,"state":"active","ping":111},{"user_id":190,"name":"ZekeThePlumber","steam_id":76561197995016724,"connected_time":4789000000000,"state":"active","ping":74},{"user_id":257,"name":"CFDv20","steam_id":76561198450073779,"connected_time":89000000000,"state":"active","ping":89},{"user_id":244,"name":"Soap Man","steam_id":76561198000490235,"connected_time":1653000000000,"state":"active","ping":110},{"user_id":253,"name":"Calamant","steam_id":76561198054650483,"connected_time":1280000000000,"state":"active","ping":73},{"user_id":245,"name":"JustSomePest","steam_id":76561198185573363,"connected_time":1650000000000,"state":"active","ping":75},{"user_id":218,"name":"medic enthusiast","steam_id":76561198323031964,"connected_time":2908000000000,"state":"active","ping":84},{"user_id":261,"name":"CD Cyber Dragon","steam_id":76561198275727749,"connected_time":28000000000,"state":"active","ping":129},{"user_id":258,"name":"Jules","steam_id":76561199065191952,"connected_time":55000000000,"state":"active","ping":78},{"user_id":239,"name":"Sleepy Brady","steam_id":76561198867378129,"connected_time":1755000000000,"state":"active","ping":69},{"user_id":260,"name":"asfd","steam_id":76561198012566405,"connected_time":41000000000,"state":"active","ping":61},{"user_id":219,"name":"fewny","steam_id":76561198225977000,"connected_time":2739000000000,"state":"active","ping":77},{"user_id":262,"name":"Tokey","steam_id":76561198825943127,"connected_time":16000000000,"state":"spawning","ping":100},{"user_id":263,"name":"Quincunx √ñlaavg√§√§rden","steam_id":76561198035618952,"connected_time":12000000000,"state":"active","ping":83},{"user_id":254,"name":"PlasmaElk","steam_id":76561198823281802,"connected_time":1119000000000,"state":"active","ping":70},{"user_id":235,"name":"dbelow_","steam_id":76561198056148853,"connected_time":1888000000000,"state":"active","ping":61},{"user_id":251,"name":"Cleric","steam_id":76561198045887994,"connected_time":1556000000000,"state":"active","ping":47}]},{"server_id":402,"name":"Uncletopia | Chicago | 3 | All Maps","name_short":"chi-3","host":"chi-1.us.uncletopia.com","port":27035,"enabled":true,"region":"us-central","cc":"us","latitude":41.881832,"longitude":-87.62318,"reserved":0,"last_update":"0001-01-01T00:00:00Z","name_a2s":"Uncletopia | Chicago | 3 | All Maps","protocol":17,"map":"cp_sunshine","folder":"tf","game":"Team Fortress","app_id":440,"player_count":24,"max_players":24,"Bots":0,"server_type":"Dedicated","server_os":"Linux","password":true,"vac":true,"version":"7708610","steam_id":85568392924515191,"keywords":["cp","nocrits","nodmgspread","uncletopia"],"game_id":440,"stv_port":27036,"stv_name":"Uncletopia | Chicago | 3 | All Maps | STV","players":[{"user_id":150,"name":"steakfarmasian","steam_id":76561198212754036,"connected_time":1148000000000,"state":"active","ping":60},{"user_id":164,"name":"Kyaaaaa!!!","steam_id":76561198066384337,"connected_time":595000000000,"state":"active","ping":52},{"user_id":173,"name":"Carl","steam_id":76561198103072673,"connected_time":296000000000,"state":"active","ping":85},{"user_id":168,"name":"Mr. Ruckus","steam_id":76561198339566190,"connected_time":511000000000,"state":"active","ping":77},{"user_id":163,"name":"valtiel","steam_id":76561198165212575,"connected_time":693000000000,"state":"active","ping":74},{"user_id":162,"name":"ly","steam_id":76561198062922146,"connected_time":721000000000,"state":"active","ping":74},{"user_id":176,"name":"Deborp","steam_id":76561198118868430,"connected_time":146000000000,"state":"active","ping":90},{"user_id":149,"name":"Dr Spaceman","steam_id":76561197969755657,"connected_time":1159000000000,"state":"active","ping":46},{"user_id":119,"name":"motorized bar of soap","steam_id":76561198882404753,"connected_time":3345000000000,"state":"active","ping":77},{"user_id":167,"name":"Ink","steam_id":76561198389914633,"connected_time":553000000000,"state":"active","ping":144},{"user_id":121,"name":"Griffin.","steam_id":76561197994750414,"connected_time":3310000000000,"state":"active","ping":75},{"user_id":171,"name":"Styx","steam_id":76561198104657428,"connected_time":465000000000,"state":"active","ping":69},{"user_id":174,"name":"exotic","steam_id":76561198126466112,"connected_time":172000000000,"state":"active","ping":52},{"user_id":172,"name":"febfowl","steam_id":76561198023888890,"connected_time":425000000000,"state":"active","ping":89},{"user_id":127,"name":"Derpy Banana","steam_id":76561198831085285,"connected_time":2516000000000,"state":"active","ping":52},{"user_id":124,"name":"Ye (I Love Hitler) West","steam_id":76561198068830312,"connected_time":2961000000000,"state":"active","ping":45},{"user_id":156,"name":"Lucid","steam_id":76561197998530400,"connected_time":1109000000000,"state":"active","ping":100},{"user_id":165,"name":"PzVIIIMaus","steam_id":76561198346559365,"connected_time":591000000000,"state":"active","ping":49},{"user_id":132,"name":"Inevitable","steam_id":76561198210050169,"connected_time":2468000000000,"state":"active","ping":60},{"user_id":133,"name":"NOLSEY","steam_id":76561198108959504,"connected_time":2462000000000,"state":"active","ping":54},{"user_id":123,"name":"WizzyKitty","steam_id":76561199063342104,"connected_time":3224000000000,"state":"active","ping":50},{"user_id":148,"name":"Flacc Attacc","steam_id":76561198057374871,"connected_time":1222000000000,"state":"active","ping":61},{"user_id":126,"name":"Season-Null","steam_id":76561198062791227,"connected_time":2577000000000,"state":"active","ping":67},{"user_id":170,"name":"Glenn Quagmire ‡´Æ À∂·µî ·µï \ufffd\ufffd","steam_id":76561198818500356,"connected_time":480000000000,"state":"active","ping":119}]},{"server_id":403,"name":"Uncletopia | Chicago | 4 | All Maps","name_short":"chi-4","host":"chi-1.us.uncletopia.com","port":27045,"enabled":true,"region":"us-central","cc":"us","latitude":41.881832,"longitude":-87.62318,"reserved":0,"last_update":"0001-01-01T00:00:00Z","name_a2s":"Uncletopia | Chicago | 4 | All Maps","protocol":17,"map":"cp_altitude","folder":"tf","game":"Team Fortress","app_id":440,"player_count":0,"max_players":24,"Bots":0,"server_type":"Dedicated","server_os":"Linux","password":true,"vac":true,"version":"7708610","steam_id":85568392924515193,"keywords":["cp","nocrits","nodmgspread","uncletopia"],"game_id":440,"stv_port":27046,"stv_name":"Uncletopia | Chicago | 4 | All Maps | STV","players":null},{"server_id":36,"name":"Uncletopia | Chicago | 5 | All Maps","name_short":"chi-5","host":"chi-2.us.uncletopia.com","port":27015,"enabled":true,"region":"us-central","cc":"us","latitude":41.881832,"longitude":-87.62318,"reserved":0,"last_update":"0001-01-01T00:00:00Z","name_a2s":"Uncletopia | Chicago | 5 | All Maps","protocol":17,"map":"koth_lakeside_final","folder":"tf","game":"Team Fortress","app_id":440,"player_count":16,"max_players":24,"Bots":0,"server_type":"Dedicated","server_os":"Linux","password":true,"vac":true,"version":"7708610","steam_id":85568392924866362,"keywords":["cp","nocrits","nodmgspread","uncletopia"],"game_id":440,"stv_port":27016,"stv_name":"Uncletopia | Chicago | 5 | All Maps | STV","players":[{"user_id":14,"name":"2fart","steam_id":76561198983539012,"connected_time":680000000000,"state":"active","ping":48},{"user_id":15,"name":"Icarus","steam_id":76561199093333752,"connected_time":661000000000,"state":"active","ping":62},{"user_id":18,"name":"Mediquette","steam_id":76561199122439945,"connected_time":558000000000,"state":"active","ping":76},{"user_id":19,"name":"Rose","steam_id":76561198095059249,"connected_time":518000000000,"state":"active","ping":68},{"user_id":22,"name":"Capitan Marijua","steam_id":76561199064758232,"connected_time":484000000000,"state":"active","ping":76},{"user_id":21,"name":"DimethylHydra„Äê=‚óàÔ∏ø‚óà=„Äë","steam_id":76561198044664670,"connected_time":508000000000,"state":"active","ping":63},{"user_id":23,"name":"Credox","steam_id":76561198073344670,"connected_time":453000000000,"state":"active","ping":67},{"user_id":24,"name":"D:\u003c","steam_id":76561198017121314,"connected_time":434000000000,"state":"active","ping":74},{"user_id":25,"name":"eryn üó∫","steam_id":76561198004433070,"connected_time":307000000000,"state":"active","ping":78},{"user_id":26,"name":"BEEM","steam_id":76561198806996995,"connected_time":294000000000,"state":"active","ping":56},{"user_id":27,"name":"leonardo doujinshi","steam_id":76561198025810326,"connected_time":244000000000,"state":"active","ping":78},{"user_id":28,"name":"Mr.ToasterOven","steam_id":76561199120586450,"connected_time":242000000000,"state":"active","ping":48},{"user_id":30,"name":"ÁÅ´Êòü | Marsy","steam_id":76561198014979892,"connected_time":192000000000,"state":"active","ping":66},{"user_id":31,"name":"Nah im fine","steam_id":76561199108830372,"connected_time":176000000000,"state":"active","ping":79},{"user_id":32,"name":"That Dude","steam_id":76561198980486227,"connected_time":174000000000,"state":"active","ping":95},{"user_id":33,"name":"Hogman","steam_id":76561198088935064,"connected_time":107000000000,"state":"active","ping":92}]},{"server_id":37,"name":"Uncletopia | Chicago | 6 | All Maps","name_short":"chi-6","host":"chi-2.us.uncletopia.com","port":27025,"enabled":true,"region":"us-central","cc":"us","latitude":41.881832,"longitude":-87.62318,"reserved":0,"last_update":"0001-01-01T00:00:00Z","name_a2s":"Uncletopia | Chicago | 6 | All Maps","protocol":17,"map":"pl_badwater","folder":"tf","game":"Team Fortress","app_id":440,"player_count":24,"max_players":24,"Bots":0,"server_type":"Dedicated","server_os":"Linux","password":true,"vac":true,"version":"7708610","steam_id":85568392924866363,"keywords":["nocrits","nodmgspread","payload","uncletopia"],"game_id":440,"stv_port":27026,"stv_name":"Uncletopia | Chicago | 6 | All Maps | STV","players":[{"user_id":8,"name":"ella üéÄ","steam_id":76561199123532358,"connected_time":5807000000000,"state":"active","ping":58},{"user_id":57,"name":"10 INCH TGIRL SCHLONG","steam_id":76561198122059018,"connected_time":1777000000000,"state":"active","ping":56},{"user_id":68,"name":"m yfrogs","steam_id":76561198371149432,"connected_time":1256000000000,"state":"active","ping":46},{"user_id":76,"name":"Halo","steam_id":76561198144909435,"connected_time":1009000000000,"state":"active","ping":105},{"user_id":79,"name":"bardy","steam_id":76561198043639662,"connected_time":342000000000,"state":"active","ping":68},{"user_id":66,"name":"Spy on cart","steam_id":76561198025466913,"connected_time":1270000000000,"state":"active","ping":95},{"user_id":88,"name":"Birdbern","steam_id":76561198122383177,"connected_time":16000000000,"state":"active","ping":54},{"user_id":70,"name":"sneef","steam_id":76561198083596435,"connected_time":1217000000000,"state":"active","ping":73},{"user_id":89,"name":"notmanhattan","steam_id":76561198143117561,"connected_time":4000000000,"state":"spawning","ping":43},{"user_id":87,"name":"hackersan","steam_id":76561199130583553,"connected_time":122000000000,"state":"active","ping":65},{"user_id":41,"name":"BERBBLES","steam_id":76561198815107994,"connected_time":2593000000000,"state":"active","ping":70},{"user_id":72,"name":"gloob","steam_id":76561198044215482,"connected_time":1212000000000,"state":"active","ping":74},{"user_id":77,"name":"Rocky","steam_id":76561198048158539,"connected_time":973000000000,"state":"active","ping":74},{"user_id":27,"name":"InstantSnowcone","steam_id":76561198067556825,"connected_time":3191000000000,"state":"active","ping":74},{"user_id":42,"name":"GreatColorGreen","steam_id":76561198284546954,"connected_time":2584000000000,"state":"active","ping":61},{"user_id":82,"name":"Sir Hinga Da Dingy Dinky","steam_id":76561198255787237,"connected_time":266000000000,"state":"active","ping":76},{"user_id":31,"name":"Maxwell Gaming","steam_id":76561198850684275,"connected_time":3010000000000,"state":"active","ping":52},{"user_id":73,"name":"Pal","steam_id":76561198079657093,"connected_time":1210000000000,"state":"active","ping":67},{"user_id":83,"name":"FreeWax","steam_id":76561198066726085,"connected_time":209000000000,"state":"active","ping":48},{"user_id":34,"name":"Estrogen Connoisseur","steam_id":76561198085813708,"connected_time":2848000000000,"state":"active","ping":67},{"user_id":74,"name":"NeoTr1x","steam_id":76561199092954930,"connected_time":1185000000000,"state":"active","ping":63},{"user_id":39,"name":"frid","steam_id":76561198005806915,"connected_time":2732000000000,"state":"active","ping":67},{"user_id":84,"name":"YAY","steam_id":76561198004021385,"connected_time":199000000000,"state":"active","ping":90},{"user_id":54,"name":"la loveiathenne","steam_id":76561198046394237,"connected_time":2128000000000,"state":"active","ping":98}]},{"server_id":38,"name":"Uncletopia | Chicago | 7 | No Payload","name_short":"chi-7","host":"chi-2.us.uncletopia.com","port":27035,"enabled":true,"region":"us-central","cc":"us","latitude":41.881832,"longitude":-87.62318,"reserved":0,"last_update":"0001-01-01T00:00:00Z","name_a2s":"Uncletopia | Chicago | 7 | No Payload","protocol":17,"map":"koth_badlands","folder":"tf","game":"Team Fortress","app_id":440,"player_count":0,"max_players":24,"Bots":0,"server_type":"Dedicated","server_os":"Linux","password":true,"vac":true,"version":"7708610","steam_id":85568392924866364,"keywords":["cp","nocrits","nodmgspread","uncletopia"],"game_id":440,"stv_port":27036,"stv_name":"Uncletopia | Chicago | 7 | No Payload | STV","players":null},{"server_id":39,"name":"Uncletopia | Chicago | 8 | Community","name_short":"chi-8","host":"chi-2.us.uncletopia.com","port":27045,"enabled":true,"region":"us-central","cc":"us","latitude":41.881832,"longitude":-87.62318,"reserved":0,"last_update":"0001-01-01T00:00:00Z","name_a2s":"Uncletopia | Chicago | 8 | Community","protocol":17,"map":"workshop/koth_ashville_final.ugc2130459942","folder":"tf","game":"Team Fortress","app_id":440,"player_count":0,"max_players":24,"Bots":0,"server_type":"Dedicated","server_os":"Linux","password":true,"vac":true,"version":"7708610","steam_id":85568392924866365,"keywords":["cp","nocrits","nodmgspread","uncletopia"],"game_id":440,"stv_port":27046,"stv_name":"Uncletopia | Chicago | 8 | Community | STV","players":null},{"server_id":8,"name":"Uncletopia | Dallas | 1 | All Maps","name_short":"dal-1","host":"dal-1.us.uncletopia.com","port":27015,"enabled":true,"region":"us-central","cc":"us","latitude":32.779167,"longitude":-96.80889,"reserved":0,"last_update":"0001-01-01T00:00:00Z","name_a2s":"Uncletopia | Dallas | 1 | All Maps","protocol":17,"map":"cp_process_final","folder":"tf","game":"Team Fortress","app_id":440,"player_count":24,"max_players":24,"Bots":0,"server_type":"Dedicated","server_os":"Linux","password":true,"vac":true,"version":"7708610","steam_id":85568392924469986,"keywords":["cp","nocrits","nodmgspread","uncletopia"],"game_id":440,"stv_port":27016,"stv_name":"Uncletopia | Dallas | 1 | All Maps | STV","players":[{"user_id":181,"name":"DSM-IVCE","steam_id":76561199438515797,"connected_time":6236000000000,"state":"active","ping":128},{"user_id":284,"name":"sex defender","steam_id":76561199122152458,"connected_time":421000000000,"state":"active","ping":57},{"user_id":201,"name":"WillsJit","steam_id":76561198064191759,"connected_time":5018000000000,"state":"active","ping":37},{"user_id":233,"name":"spaaaaace","steam_id":76561199085974120,"connected_time":3272000000000,"state":"active","ping":80},{"user_id":244,"name":"VixianUwU","steam_id":76561198948815060,"connected_time":2390000000000,"state":"active","ping":95},{"user_id":218,"name":"BOY‚ôÇNEXT‚ôÇDOOR","steam_id":76561198008124026,"connected_time":3625000000000,"state":"active","ping":61},{"user_id":282,"name":"melko","steam_id":76561198806496924,"connected_time":468000000000,"state":"active","ping":163},{"user_id":274,"name":"Bogg","steam_id":76561198111417325,"connected_time":590000000000,"state":"active","ping":91},{"user_id":275,"name":"CampinCarl","steam_id":76561197997373624,"connected_time":584000000000,"state":"active","ping":84},{"user_id":286,"name":"Wicked","steam_id":76561199041033438,"connected_time":287000000000,"state":"active","ping":49},{"user_id":272,"name":"RedPeng1","steam_id":76561198979539470,"connected_time":1013000000000,"state":"active","ping":69},{"user_id":277,"name":"Whoa","steam_id":76561197970353496,"connected_time":583000000000,"state":"active","ping":81},{"user_id":249,"name":"LeFunnyMan","steam_id":76561199081645289,"connected_time":2254000000000,"state":"active","ping":45},{"user_id":289,"name":"// €ûE–ØiC€û //","steam_id":76561197968436818,"connected_time":158000000000,"state":"active","ping":82},{"user_id":278,"name":"DragonHeart","steam_id":76561198013245625,"connected_time":575000000000,"state":"active","ping":70},{"user_id":279,"name":"white woman","steam_id":76561199116679777,"connected_time":570000000000,"state":"active","ping":76},{"user_id":287,"name":"Eightyy  Fourr","steam_id":76561197960374225,"connected_time":184000000000,"state":"active","ping":59},{"user_id":223,"name":"BayanTheBear","steam_id":76561198134537476,"connected_time":3525000000000,"state":"active","ping":78},{"user_id":288,"name":"Cam","steam_id":76561198139174433,"connected_time":166000000000,"state":"active","ping":72},{"user_id":225,"name":"R.","steam_id":76561198024545911,"connected_time":3434000000000,"state":"active","ping":96},{"user_id":273,"name":"BB Lorexav","steam_id":76561198207565988,"connected_time":738000000000,"state":"active","ping":75},{"user_id":285,"name":"no vc no c","steam_id":76561197989503095,"connected_time":337000000000,"state":"active","ping":174},{"user_id":236,"name":"the biggest bird","steam_id":76561198026393621,"connected_time":3140000000000,"state":"active","ping":90},{"user_id":271,"name":"Û†Ä°Û†Ä°","steam_id":76561198027546178,"connected_time":1020000000000,"state":"active","ping":72}]},{"server_id":108,"name":"Uncletopia | Dallas | 2 | All Maps","name_short":"dal-2","host":"dal-1.us.uncletopia.com","port":27025,"enabled":true,"region":"us-central","cc":"us","latitude":32.779167,"longitude":-96.80889,"reserved":0,"last_update":"0001-01-01T00:00:00Z","name_a2s":"Uncletopia | Dallas | 2 | All Maps","protocol":17,"map":"pl_upward","folder":"tf","game":"Team Fortress","app_id":440,"player_count":24,"max_players":24,"Bots":0,"server_type":"Dedicated","server_os":"Linux","password":true,"vac":true,"version":"7708610","steam_id":85568392924469988,"keywords":["nocrits","nodmgspread","payload","uncletopia"],"game_id":440,"stv_port":27026,"stv_name":"Uncletopia | Dallas | 2 | All Maps | STV","players":[{"user_id":101,"name":"Grayo","steam_id":76561198059652623,"connected_time":599000000000,"state":"active","ping":97},{"user_id":106,"name":"Nae Nae no Whip","steam_id":76561198138365728,"connected_time":446000000000,"state":"active","ping":61},{"user_id":90,"name":"Knightly Knight","steam_id":76561198399569659,"connected_time":1001000000000,"state":"active","ping":56},{"user_id":14,"name":"PootisPowHAHA","steam_id":76561199023536209,"connected_time":5422000000000,"state":"active","ping":83},{"user_id":108,"name":":3","steam_id":76561198078721142,"connected_time":131000000000,"state":"active","ping":78},{"user_id":92,"name":"newboi (F2P)","steam_id":76561199273882768,"connected_time":994000000000,"state":"active","ping":77},{"user_id":59,"name":"Sugercrash","steam_id":76561199187685119,"connected_time":2870000000000,"state":"active","ping":69},{"user_id":99,"name":"High Cotton","steam_id":76561197998894854,"connected_time":744000000000,"state":"active","ping":140},{"user_id":63,"name":"\"Gay Panic\"","steam_id":76561198132531594,"connected_time":2540000000000,"state":"active","ping":76},{"user_id":97,"name":"Cheeseburger","steam_id":76561199041672952,"connected_time":972000000000,"state":"active","ping":101},{"user_id":36,"name":"Zorlovo","steam_id":76561198006443283,"connected_time":3964000000000,"state":"active","ping":81},{"user_id":100,"name":"Snakeye3490","steam_id":76561198197060503,"connected_time":700000000000,"state":"active","ping":47},{"user_id":64,"name":"gravid baby","steam_id":76561198318646867,"connected_time":2496000000000,"state":"active","ping":103},{"user_id":94,"name":"The Squid Gamer‚Ñ¢","steam_id":76561198340621517,"connected_time":990000000000,"state":"active","ping":89},{"user_id":107,"name":"sin","steam_id":76561198145987627,"connected_time":433000000000,"state":"active","ping":74},{"user_id":66,"name":"neet","steam_id":76561197968115168,"connected_time":2464000000000,"state":"active","ping":74},{"user_id":95,"name":"setch","steam_id":76561198252328518,"connected_time":990000000000,"state":"active","ping":89},{"user_id":54,"name":"aeop","steam_id":76561198153671643,"connected_time":3100000000000,"state":"active","ping":89},{"user_id":89,"name":"Nodspine","steam_id":76561198253579994,"connected_time":1007000000000,"state":"active","ping":137},{"user_id":96,"name":"A Hard Boiled Egg","steam_id":76561197979078330,"connected_time":990000000000,"state":"active","ping":85},{"user_id":98,"name":"Fuzzy Toast","steam_id":76561198028067781,"connected_time":936000000000,"state":"active","ping":82},{"user_id":38,"name":"obbeymaster19","steam_id":76561199197244143,"connected_time":3915000000000,"state":"active","ping":89},{"user_id":102,"name":"novu","steam_id":76561198886997024,"connected_time":595000000000,"state":"active","ping":95},{"user_id":104,"name":"Jaydyn","steam_id":76561198140326797,"connected_time":541000000000,"state":"active","ping":88}]},{"server_id":5,"name":"Uncletopia | Frankfurt | 1 | All Maps","name_short":"frk-1","host":"frk-1.de.uncletopia.com","port":27015,"enabled":true,"region":"eu","cc":"de","latitude":50.110924,"longitude":8.682127,"reserved":0,"last_update":"0001-01-01T00:00:00Z","name_a2s":"Uncletopia | Frankfurt | 1 | All Maps","protocol":17,"map":"koth_lakeside_final","folder":"tf","game":"Team Fortress","app_id":440,"player_count":24,"max_players":24,"Bots":0,"server_type":"Dedicated","server_os":"Linux","password":true,"vac":true,"version":"7708610","steam_id":85568392924469989,"keywords":["cp","nocrits","nodmgspread","uncletopia"],"game_id":440,"stv_port":27016,"stv_name":"Uncletopia | Frankfurt | 1 | All Maps | STV","players":[{"user_id":1022,"name":"snowii","steam_id":76561198836246326,"connected_time":857000000000,"state":"active","ping":60},{"user_id":1020,"name":"leaf eater","steam_id":76561198083359604,"connected_time":887000000000,"state":"active","ping":57},{"user_id":1016,"name":"GrA1M","steam_id":76561199147118923,"connected_time":1481000000000,"state":"active","ping":208},{"user_id":1030,"name":"The Truest Waffle","steam_id":76561198318541439,"connected_time":537000000000,"state":"active","ping":149},{"user_id":1013,"name":"CactusFarms","steam_id":76561199009131802,"connected_time":1641000000000,"state":"active","ping":62},{"user_id":947,"name":"rogal","steam_id":76561198119355068,"connected_time":4956000000000,"state":"active","ping":83},{"user_id":969,"name":"Fome","steam_id":76561198180241217,"connected_time":3726000000000,"state":"active","ping":70},{"user_id":1023,"name":"shr1mple","steam_id":76561198173537027,"connected_time":840000000000,"state":"active","ping":41},{"user_id":968,"name":"PlebCord","steam_id":76561198120685803,"connected_time":4030000000000,"state":"active","ping":82},{"user_id":994,"name":"Luke SpyWalker","steam_id":76561198008643276,"connected_time":2833000000000,"state":"active","ping":63},{"user_id":1037,"name":"JcLONE","steam_id":76561198123510895,"connected_time":319000000000,"state":"active","ping":239},{"user_id":1024,"name":"Minimi","steam_id":76561198873850443,"connected_time":800000000000,"state":"active","ping":50},{"user_id":1038,"name":"Adrian Pimento","steam_id":76561197996149548,"connected_time":312000000000,"state":"active","ping":61},{"user_id":996,"name":"pryate","steam_id":76561198135960359,"connected_time":2649000000000,"state":"active","ping":65},{"user_id":1034,"name":"‚ô°‚ò†MORPHINE OVERDOSE‚ò†‚ô°","steam_id":76561198312877267,"connected_time":422000000000,"state":"active","ping":70},{"user_id":1014,"name":"a$ap rodoljub","steam_id":76561198081514713,"connected_time":1620000000000,"state":"active","ping":91},{"user_id":1027,"name":"googy doogy","steam_id":76561199025852100,"connected_time":720000000000,"state":"active","ping":126},{"user_id":1011,"name":"Nosyam","steam_id":76561198110297821,"connected_time":1714000000000,"state":"active","ping":96},{"user_id":1028,"name":"luser","steam_id":76561199186893169,"connected_time":699000000000,"state":"active","ping":145},{"user_id":1032,"name":"=PB=","steam_id":76561197999146612,"connected_time":486000000000,"state":"active","ping":61},{"user_id":944,"name":"DM_Tiz","steam_id":76561198061478257,"connected_time":5397000000000,"state":"active","ping":52},{"user_id":1019,"name":"it helps with the nausea","steam_id":76561198257287335,"connected_time":1192000000000,"state":"active","ping":118},{"user_id":993,"name":"Tomex999","steam_id":76561198049587675,"connected_time":2891000000000,"state":"active","ping":80},{"user_id":1035,"name":"Cheshireycat","steam_id":76561198067204908,"connected_time":420000000000,"state":"active","ping":67}]},{"server_id":110,"name":"Uncletopia | Frankfurt | 2 | All Maps","name_short":"frk-2","host":"frk-1.de.uncletopia.com","port":27025,"enabled":true,"region":"eu","cc":"de","latitude":50.110924,"longitude":8.682127,"reserved":0,"last_update":"0001-01-01T00:00:00Z","name_a2s":"Uncletopia | Frankfurt | 2 | All Maps","protocol":17,"map":"koth_lakeside_final","folder":"tf","game":"Team Fortress","app_id":440,"player_count":0,"max_players":24,"Bots":0,"server_type":"Dedicated","server_os":"Linux","password":true,"vac":true,"version":"7708610","steam_id":85568392924469990,"keywords":["cp","nocrits","nodmgspread","uncletopia"],"game_id":440,"stv_port":27026,"stv_name":"Uncletopia | Frankfurt | 2 | All Maps | STV","players":null},{"server_id":308,"name":"Uncletopia | Frankfurt | 3 | All Maps","name_short":"frk-3","host":"frk-1.de.uncletopia.com","port":27035,"enabled":true,"region":"eu","cc":"de","latitude":50.110924,"longitude":8.682127,"reserved":0,"last_update":"0001-01-01T00:00:00Z","name_a2s":"Uncletopia | Frankfurt | 3 | All Maps","protocol":17,"map":"pl_snowycoast","folder":"tf","game":"Team Fortress","app_id":440,"player_count":24,"max_players":24,"Bots":0,"server_type":"Dedicated","server_os":"Linux","password":true,"vac":true,"version":"7708610","steam_id":85568392924504274,"keywords":["nocrits","nodmgspread","payload","uncletopia"],"game_id":440,"stv_port":27036,"stv_name":"Uncletopia | Frankfurt | 3 | All Maps | STV","players":[{"user_id":683,"name":"salim shahidy","steam_id":76561198416945706,"connected_time":378000000000,"state":"active","ping":173},{"user_id":685,"name":"Buried Alive","steam_id":76561198367800260,"connected_time":299000000000,"state":"active","ping":54},{"user_id":660,"name":"Stam","steam_id":76561199233979726,"connected_time":1697000000000,"state":"active","ping":81},{"user_id":656,"name":"glyphoglossus molossus","steam_id":76561198191291749,"connected_time":1754000000000,"state":"active","ping":74},{"user_id":649,"name":"Samus","steam_id":76561198045943019,"connected_time":1940000000000,"state":"active","ping":45},{"user_id":616,"name":"pl_badwater","steam_id":76561198152184280,"connected_time":5306000000000,"state":"active","ping":65},{"user_id":669,"name":"Operation Bin Coup Hammer","steam_id":76561198449537647,"connected_time":1277000000000,"state":"active","ping":64},{"user_id":655,"name":"TurboTabs","steam_id":76561198009785131,"connected_time":1775000000000,"state":"active","ping":63},{"user_id":679,"name":"Scotty","steam_id":76561197991276547,"connected_time":455000000000,"state":"active","ping":52},{"user_id":684,"name":"KillerQueen (he/they/she)","steam_id":76561199019399725,"connected_time":373000000000,"state":"active","ping":61},{"user_id":680,"name":"ToTenLis","steam_id":76561198168581334,"connected_time":436000000000,"state":"active","ping":95},{"user_id":597,"name":"Fales","steam_id":76561198126124929,"connected_time":6718000000000,"state":"active","ping":67},{"user_id":686,"name":"D D","steam_id":76561198257836694,"connected_time":286000000000,"state":"active","ping":57},{"user_id":682,"name":"medick","steam_id":76561199380849468,"connected_time":412000000000,"state":"active","ping":61},{"user_id":687,"name":"‚ú™ Skrew","steam_id":76561197969501831,"connected_time":207000000000,"state":"active","ping":136},{"user_id":688,"name":"wieto","steam_id":76561198050626427,"connected_time":178000000000,"state":"active","ping":60},{"user_id":662,"name":"Foonguz","steam_id":76561198834610534,"connected_time":1665000000000,"state":"active","ping":59},{"user_id":676,"name":"DillZZ","steam_id":76561199067883507,"connected_time":542000000000,"state":"active","ping":140},{"user_id":637,"name":"Avsky","steam_id":76561198048870734,"connected_time":3737000000000,"state":"active","ping":74},{"user_id":689,"name":"mordecai.nmc","steam_id":76561197997223851,"connected_time":163000000000,"state":"active","ping":61},{"user_id":690,"name":"Qwerty","steam_id":76561198023525894,"connected_time":89000000000,"state":"active","ping":76},{"user_id":618,"name":"pl_z≈Çawoda","steam_id":76561198040588109,"connected_time":5287000000000,"state":"active","ping":77},{"user_id":631,"name":"Hoff","steam_id":76561198138540938,"connected_time":4173000000000,"state":"active","ping":78},{"user_id":667,"name":"cinny","steam_id":76561198832112629,"connected_time":1609000000000,"state":"active","ping":84}]},{"server_id":309,"name":"Uncletopia | Frankfurt | 4 | All Maps","name_short":"frk-4","host":"frk-1.de.uncletopia.com","port":27045,"enabled":true,"region":"eu","cc":"de","latitude":50.110924,"longitude":8.682127,"reserved":0,"last_update":"0001-01-01T00:00:00Z","name_a2s":"Uncletopia | Frankfurt | 4 | All Maps","protocol":17,"map":"pl_barnblitz","folder":"tf","game":"Team Fortress","app_id":440,"player_count":0,"max_players":24,"Bots":0,"server_type":"Dedicated","server_os":"Linux","password":true,"vac":true,"version":"7708610","steam_id":85568392924504275,"keywords":["nocrits","nodmgspread","payload","uncletopia"],"game_id":440,"stv_port":27046,"stv_name":"Uncletopia | Frankfurt | 4 | All Maps | STV","players":null},{"server_id":310,"name":"Uncletopia | Frankfurt | 5 | All Maps","name_short":"frk-5","host":"frk-1.de.uncletopia.com","port":27055,"enabled":true,"region":"eu","cc":"de","latitude":50.110924,"longitude":8.682127,"reserved":0,"last_update":"0001-01-01T00:00:00Z","name_a2s":"Uncletopia | Frankfurt | 5 | All Maps","protocol":17,"map":"pl_frontier_final","folder":"tf","game":"Team Fortress","app_id":440,"player_count":0,"max_players":24,"Bots":0,"server_type":"Dedicated","server_os":"Linux","password":true,"vac":true,"version":"7708610","steam_id":85568392924504277,"keywords":["nocrits","nodmgspread","payload","uncletopia"],"game_id":440,"stv_port":27056,"stv_name":"Uncletopia | Frankfurt | 5 | All Maps | STV","players":null},{"server_id":311,"name":"Uncletopia | Frankfurt | 6 | All Maps","name_short":"frk-6","host":"frk-1.de.uncletopia.com","port":27065,"enabled":true,"region":"eu","cc":"de","latitude":50.110924,"longitude":8.682127,"reserved":0,"last_update":"0001-01-01T00:00:00Z","name_a2s":"Uncletopia | Frankfurt | 6 | All Maps","protocol":17,"map":"koth_viaduct","folder":"tf","game":"Team Fortress","app_id":440,"player_count":0,"max_players":24,"Bots":0,"server_type":"Dedicated","server_os":"Linux","password":true,"vac":true,"version":"7708610","steam_id":85568392924504278,"keywords":["cp","nocrits","nodmgspread","uncletopia"],"game_id":440,"stv_port":27066,"stv_name":"Uncletopia | Frankfurt | 6 | All Maps | STV","players":null},{"server_id":23,"name":"Uncletopia | Frankfurt | 7 | No Payload","name_short":"frk-7","host":"frk-1.de.uncletopia.com","port":27075,"enabled":true,"region":"eu","cc":"de","latitude":50.110924,"longitude":8.682127,"reserved":0,"last_update":"0001-01-01T00:00:00Z","name_a2s":"Uncletopia | Frankfurt | 7 | No Payload","protocol":17,"map":"ctf_turbine","folder":"tf","game":"Team Fortress","app_id":440,"player_count":0,"max_players":24,"Bots":0,"server_type":"Dedicated","server_os":"Linux","password":true,"vac":true,"version":"7708610","steam_id":85568392924742827,"keywords":["ctf","nocrits","nodmgspread","uncletopia"],"game_id":440,"stv_port":27076,"stv_name":"Uncletopia | Frankfurt | 7 | No Payload | STV","players":null},{"server_id":24,"name":"Uncletopia | Frankfurt | 8 | Community","name_short":"frk-8","host":"frk-1.de.uncletopia.com","port":27085,"enabled":true,"region":"eu","cc":"de","latitude":50.110924,"longitude":8.682127,"reserved":0,"last_update":"0001-01-01T00:00:00Z","name_a2s":"Uncletopia | Frankfurt | 8 | Community","protocol":17,"map":"workshop/koth_ramjam_v2_b2.ugc2865676487","folder":"tf","game":"Team Fortress","app_id":440,"player_count":0,"max_players":24,"Bots":0,"server_type":"Dedicated","server_os":"Linux","password":true,"vac":true,"version":"7708610","steam_id":85568392924742828,"keywords":["cp","nocrits","nodmgspread","uncletopia"],"game_id":440,"stv_port":27086,"stv_name":"Uncletopia | Frankfurt | 8 | Community | STV","players":null},{"server_id":202,"name":"Uncletopia | Hong Kong | 1 | All Maps","name_short":"hgk-1","host":"hgk-1.hk.uncletopia.com","port":27015,"enabled":true,"region":"asia","cc":"hk","latitude":22.302711,"longitude":114.177216,"reserved":0,"last_update":"0001-01-01T00:00:00Z","name_a2s":"Uncletopia | Hong Kong | 1 | All Maps","protocol":17,"map":"pl_upward","folder":"tf","game":"Team Fortress","app_id":440,"player_count":0,"max_players":24,"Bots":0,"server_type":"Dedicated","server_os":"Linux","password":true,"vac":true,"version":"7708610","steam_id":85568392924494504,"keywords":["nocrits","nodmgspread","payload","uncletopia"],"game_id":440,"stv_port":27016,"stv_name":"Uncletopia | Hong Kong | 1 | All Maps | STV","players":null},{"server_id":1,"name":"Uncletopia | Los Angeles | 1 | All Maps","name_short":"lax-1","host":"lax-1.us.uncletopia.com","port":27015,"enabled":true,"region":"us-west","cc":"us","latitude":33.94279,"longitude":-118.41004,"reserved":0,"last_update":"0001-01-01T00:00:00Z","name_a2s":"Uncletopia | Los Angeles | 1 | All Maps","protocol":17,"map":"pl_badwater","folder":"tf","game":"Team Fortress","app_id":440,"player_count":21,"max_players":24,"Bots":0,"server_type":"Dedicated","server_os":"Linux","password":true,"vac":true,"version":"7708610","steam_id":85568392924469991,"keywords":["nocrits","nodmgspread","payload","uncletopia"],"game_id":440,"stv_port":27016,"stv_name":"Uncletopia | Los Angeles | 1 | All Maps | STV","players":[{"user_id":218,"name":"Consuo","steam_id":76561198868720856,"connected_time":1362000000000,"state":"active","ping":120},{"user_id":219,"name":"R4wbeef","steam_id":76561198178072673,"connected_time":1353000000000,"state":"active","ping":80},{"user_id":158,"name":"Soda","steam_id":76561198219209367,"connected_time":3854000000000,"state":"active","ping":55},{"user_id":217,"name":"Rawrsor","steam_id":76561198340562030,"connected_time":1383000000000,"state":"active","ping":41},{"user_id":229,"name":"SquirrelAway‚Ñ¢","steam_id":76561197998828619,"connected_time":10000000000,"state":"active","ping":130},{"user_id":220,"name":"Anomet","steam_id":76561198060246255,"connected_time":1340000000000,"state":"active","ping":74},{"user_id":206,"name":"Doc","steam_id":76561198265147327,"connected_time":1674000000000,"state":"active","ping":61},{"user_id":221,"name":"gulch","steam_id":76561199227946025,"connected_time":1322000000000,"state":"active","ping":104},{"user_id":201,"name":"oil","steam_id":76561198099980149,"connected_time":2230000000000,"state":"active","ping":54},{"user_id":210,"name":"DORATHEEXPLORER","steam_id":76561198124773931,"connected_time":1492000000000,"state":"active","ping":48},{"user_id":225,"name":"A Glazed Donut","steam_id":76561198297536267,"connected_time":474000000000,"state":"active","ping":46},{"user_id":182,"name":"Mom","steam_id":76561198207936000,"connected_time":2900000000000,"state":"active","ping":41},{"user_id":131,"name":"dodecadron","steam_id":76561198027397222,"connected_time":4755000000000,"state":"active","ping":80},{"user_id":222,"name":"M.L.JEW","steam_id":76561198997375055,"connected_time":1228000000000,"state":"active","ping":106},{"user_id":204,"name":"cunoesse","steam_id":76561198135404020,"connected_time":1891000000000,"state":"active","ping":43},{"user_id":226,"name":"Capit√°n √Ñxis-Flores","steam_id":76561198353865006,"connected_time":442000000000,"state":"active","ping":99},{"user_id":223,"name":"Roz257","steam_id":76561198842844532,"connected_time":1125000000000,"state":"active","ping":109},{"user_id":207,"name":"FizeePop","steam_id":76561199088679205,"connected_time":1662000000000,"state":"active","ping":45},{"user_id":208,"name":"Zamypkernoob","steam_id":76561198236850594,"connected_time":1652000000000,"state":"active","ping":56},{"user_id":46,"name":"IncogNeeto","steam_id":76561199091278006,"connected_time":9583000000000,"state":"active","ping":68},{"user_id":107,"name":"dude","steam_id":76561198253202693,"connected_time":6422000000000,"state":"active","ping":35}]},{"server_id":112,"name":"Uncletopia | Los Angeles | 2 | All Maps","name_short":"lax-2","host":"lax-1.us.uncletopia.com","port":27025,"enabled":true,"region":"us-west","cc":"us","latitude":33.94279,"longitude":-118.41004,"reserved":0,"last_update":"0001-01-01T00:00:00Z","name_a2s":"Uncletopia | Los Angeles | 2 | All Maps","protocol":17,"map":"pl_snowycoast","folder":"tf","game":"Team Fortress","app_id":440,"player_count":0,"max_players":24,"Bots":0,"server_type":"Dedicated","server_os":"Linux","password":true,"vac":true,"version":"7708610","steam_id":85568392924469992,"keywords":["nocrits","nodmgspread","payload","uncletopia"],"game_id":440,"stv_port":27026,"stv_name":"Uncletopia | Los Angeles | 2 | All Maps | STV","players":null},{"server_id":324,"name":"Uncletopia | Los Angeles | 3 | All Maps","name_short":"lax-3","host":"lax-1.us.uncletopia.com","port":27035,"enabled":true,"region":"us-west","cc":"us","latitude":33.94279,"longitude":-118.41004,"reserved":0,"last_update":"0001-01-01T00:00:00Z","name_a2s":"Uncletopia | Los Angeles | 3 | All Maps","protocol":17,"map":"cp_snakewater_final1","folder":"tf","game":"Team Fortress","app_id":440,"player_count":0,"max_players":24,"Bots":0,"server_type":"Dedicated","server_os":"Linux","password":true,"vac":true,"version":"7708610","steam_id":85568392924510198,"keywords":["cp","nocrits","nodmgspread","uncletopia"],"game_id":440,"stv_port":27036,"stv_name":"Uncletopia | Los Angeles | 3 | All Maps | STV","players":null},{"server_id":25,"name":"Uncletopia | Los Angeles | 4 | No Payload","name_short":"lax-4","host":"lax-1.us.uncletopia.com","port":27045,"enabled":true,"region":"us-west","cc":"us","latitude":33.94279,"longitude":-118.41004,"reserved":0,"last_update":"0001-01-01T00:00:00Z","name_a2s":"Uncletopia | Los Angeles | 4 | No Payload","protocol":17,"map":"ctf_well","folder":"tf","game":"Team Fortress","app_id":440,"player_count":0,"max_players":24,"Bots":0,"server_type":"Dedicated","server_os":"Linux","password":true,"vac":true,"version":"7708610","steam_id":85568392924510199,"keywords":["ctf","nocrits","nodmgspread","uncletopia"],"game_id":440,"stv_port":27046,"stv_name":"Uncletopia | Los Angeles | 4 | No Payload | STV","players":null},{"server_id":11,"name":"Uncletopia | London | 1 | All Maps","name_short":"lon-1","host":"lon-1.uk.uncletopia.com","port":27015,"enabled":true,"region":"eu","cc":"gb","latitude":51.509865,"longitude":-0.118092,"reserved":0,"last_update":"0001-01-01T00:00:00Z","name_a2s":"Uncletopia | London | 1 | All Maps","protocol":17,"map":"plr_bananabay","folder":"tf","game":"Team Fortress","app_id":440,"player_count":24,"max_players":24,"Bots":0,"server_type":"Dedicated","server_os":"Linux","password":true,"vac":true,"version":"7708610","steam_id":85568392924367362,"keywords":["nocrits","nodmgspread","payload","uncletopia"],"game_id":440,"stv_port":27016,"stv_name":"Uncletopia | London | 1 | All Maps | STV","players":[{"user_id":913,"name":"clraffell","steam_id":76561198904469197,"connected_time":3069000000000,"state":"active","ping":109},{"user_id":959,"name":"Joseph Stalin LFT","steam_id":76561198033199746,"connected_time":291000000000,"state":"active","ping":46},{"user_id":938,"name":"Linus Mudrocket","steam_id":76561197979606110,"connected_time":1281000000000,"state":"active","ping":51},{"user_id":939,"name":"Branide pirate","steam_id":76561198133716900,"connected_time":1250000000000,"state":"active","ping":53},{"user_id":955,"name":"aychar","steam_id":76561198033695429,"connected_time":725000000000,"state":"active","ping":44},{"user_id":868,"name":"Ruben Zo","steam_id":76561198063855616,"connected_time":5650000000000,"state":"active","ping":75},{"user_id":921,"name":"Road to 2k hours=75 complete","steam_id":76561198132995289,"connected_time":2544000000000,"state":"active","ping":80},{"user_id":922,"name":"Midoriaga","steam_id":76561198010699090,"connected_time":2483000000000,"state":"active","ping":45},{"user_id":918,"name":"BONA FIDE PISS","steam_id":76561198130020929,"connected_time":2636000000000,"state":"active","ping":34},{"user_id":919,"name":"ethan","steam_id":76561198119495513,"connected_time":2632000000000,"state":"active","ping":44},{"user_id":954,"name":"blaise","steam_id":76561199089563896,"connected_time":765000000000,"state":"active","ping":59},{"user_id":923,"name":"merry beebo","steam_id":76561199120277007,"connected_time":2479000000000,"state":"active","ping":42},{"user_id":924,"name":"Belithe","steam_id":76561198082612324,"connected_time":2478000000000,"state":"active","ping":61},{"user_id":945,"name":"GamingCarp","steam_id":76561198285235511,"connected_time":1073000000000,"state":"active","ping":36},{"user_id":957,"name":"fayaman","steam_id":76561198111807532,"connected_time":661000000000,"state":"active","ping":52},{"user_id":927,"name":"jones","steam_id":76561198044434971,"connected_time":2458000000000,"state":"active","ping":67},{"user_id":864,"name":"chrissymas","steam_id":76561198096547662,"connected_time":5742000000000,"state":"active","ping":56},{"user_id":947,"name":"dems","steam_id":76561198122546674,"connected_time":990000000000,"state":"active","ping":47},{"user_id":958,"name":"busgrabb","steam_id":76561198055768465,"connected_time":360000000000,"state":"active","ping":63},{"user_id":949,"name":"hellyea","steam_id":76561198073562913,"connected_time":939000000000,"state":"active","ping":75},{"user_id":950,"name":"FrostyFrontier","steam_id":76561198370530394,"connected_time":928000000000,"state":"active","ping":145},{"user_id":960,"name":"Its_Cally","steam_id":76561198351850972,"connected_time":268000000000,"state":"active","ping":54},{"user_id":928,"name":"sugartits","steam_id":76561198025603699,"connected_time":2411000000000,"state":"active","ping":58},{"user_id":952,"name":"Hugo","steam_id":76561198154628163,"connected_time":889000000000,"state":"active","ping":83}]},{"server_id":114,"name":"Uncletopia | London | 2 | All Maps","name_short":"lon-2","host":"lon-1.uk.uncletopia.com","port":27025,"enabled":true,"region":"eu","cc":"gb","latitude":51.509865,"longitude":-0.118092,"reserved":0,"last_update":"0001-01-01T00:00:00Z","name_a2s":"Uncletopia | London | 2 | All Maps","protocol":17,"map":"koth_viaduct","folder":"tf","game":"Team Fortress","app_id":440,"player_count":0,"max_players":24,"Bots":0,"server_type":"Dedicated","server_os":"Linux","password":true,"vac":true,"version":"7708610","steam_id":85568392924470941,"keywords":["cp","nocrits","nodmgspread","uncletopia"],"game_id":440,"stv_port":27026,"stv_name":"Uncletopia | London | 2 | All Maps | STV","players":null},{"server_id":320,"name":"Uncletopia | London | 3 | All Maps","name_short":"lon-3","host":"lon-1.uk.uncletopia.com","port":27035,"enabled":true,"region":"eu","cc":"gb","latitude":51.509865,"longitude":-0.118092,"reserved":0,"last_update":"0001-01-01T00:00:00Z","name_a2s":"Uncletopia | London | 3 | All Maps","protocol":17,"map":"koth_harvest_final","folder":"tf","game":"Team Fortress","app_id":440,"player_count":24,"max_players":24,"Bots":0,"server_type":"Dedicated","server_os":"Linux","password":true,"vac":true,"version":"7708610","steam_id":85568392924510192,"keywords":["cp","nocrits","nodmgspread","uncletopia"],"game_id":440,"stv_port":27036,"stv_name":"Uncletopia | London | 3 | All Maps | STV","players":[{"user_id":352,"name":"üíñYoshiiüíñ","steam_id":76561198174049277,"connected_time":4143000000000,"state":"active","ping":63},{"user_id":407,"name":"Yelowchy","steam_id":76561198199416121,"connected_time":1182000000000,"state":"active","ping":98},{"user_id":347,"name":"Kqyt","steam_id":76561198044885742,"connected_time":4641000000000,"state":"active","ping":61},{"user_id":353,"name":"grenade37","steam_id":76561198130622248,"connected_time":4134000000000,"state":"active","ping":55},{"user_id":395,"name":"Dwapking","steam_id":76561198039583834,"connected_time":1923000000000,"state":"active","ping":56},{"user_id":417,"name":"Uncle Ben's Pilau Rice","steam_id":76561198064795519,"connected_time":391000000000,"state":"active","ping":54},{"user_id":385,"name":"Spanns","steam_id":76561197998349793,"connected_time":2558000000000,"state":"active","ping":65},{"user_id":420,"name":"worry about it","steam_id":76561199414716848,"connected_time":93000000000,"state":"active","ping":75},{"user_id":371,"name":"–∞–º—Ñ–∏–ª–æ—Ö–∏—ò","steam_id":76561198091581881,"connected_time":3316000000000,"state":"active","ping":73},{"user_id":357,"name":"kaelan!","steam_id":76561198001425310,"connected_time":3903000000000,"state":"active","ping":74},{"user_id":377,"name":"Mari Christmas","steam_id":76561197997020707,"connected_time":2891000000000,"state":"active","ping":59},{"user_id":421,"name":"Steen","steam_id":76561198122992510,"connected_time":64000000000,"state":"active","ping":31},{"user_id":360,"name":"biohazard.pt","steam_id":76561198088367808,"connected_time":3811000000000,"state":"active","ping":97},{"user_id":412,"name":"born to shit forced to wipe","steam_id":76561198053116096,"connected_time":807000000000,"state":"active","ping":90},{"user_id":422,"name":"ƒåika Kure","steam_id":76561199002244505,"connected_time":54000000000,"state":"active","ping":69},{"user_id":319,"name":"Saken","steam_id":76561198049075295,"connected_time":7041000000000,"state":"active","ping":59},{"user_id":379,"name":"nedilya","steam_id":76561198039692077,"connected_time":2846000000000,"state":"active","ping":60},{"user_id":415,"name":"Charon","steam_id":76561198061714753,"connected_time":548000000000,"state":"active","ping":89},{"user_id":423,"name":"CiVillain","steam_id":76561198059617732,"connected_time":13000000000,"state":"spawning","ping":59},{"user_id":400,"name":"Pete Sandals","steam_id":76561198126710244,"connected_time":1464000000000,"state":"active","ping":53},{"user_id":387,"name":"brokenphilip","steam_id":76561198080960604,"connected_time":2404000000000,"state":"active","ping":82},{"user_id":326,"name":"lark","steam_id":76561198091724522,"connected_time":6948000000000,"state":"active","ping":48},{"user_id":405,"name":"Bulk","steam_id":76561199009814535,"connected_time":1233000000000,"state":"active","ping":112},{"user_id":414,"name":"manKe","steam_id":76561198008564860,"connected_time":763000000000,"state":"active","ping":48}]},{"server_id":321,"name":"Uncletopia | London | 4 | All Maps","name_short":"lon-4","host":"lon-1.uk.uncletopia.com","port":27045,"enabled":true,"region":"eu","cc":"gb","latitude":51.509865,"longitude":-0.118092,"reserved":0,"last_update":"0001-01-01T00:00:00Z","name_a2s":"Uncletopia | London | 4 | All Maps","protocol":17,"map":"koth_lakeside_final","folder":"tf","game":"Team Fortress","app_id":440,"player_count":0,"max_players":24,"Bots":0,"server_type":"Dedicated","server_os":"Linux","password":true,"vac":true,"version":"7708610","steam_id":85568392924510193,"keywords":["cp","nocrits","nodmgspread","uncletopia"],"game_id":440,"stv_port":27046,"stv_name":"Uncletopia | London | 4 | All Maps | STV","players":null},{"server_id":21,"name":"Uncletopia | London | 5 | All Maps","name_short":"lon-5","host":"lon-1.uk.uncletopia.com","port":27055,"enabled":true,"region":"eu","cc":"gb","latitude":51.509865,"longitude":-0.118092,"reserved":0,"last_update":"0001-01-01T00:00:00Z","name_a2s":"Uncletopia | London | 5 | All Maps","protocol":17,"map":"pl_swiftwater_final1","folder":"tf","game":"Team Fortress","app_id":440,"player_count":6,"max_players":24,"Bots":0,"server_type":"Dedicated","server_os":"Linux","password":true,"vac":true,"version":"7708610","steam_id":85568392924742829,"keywords":["nocrits","nodmgspread","payload","uncletopia"],"game_id":440,"stv_port":27056,"stv_name":"Uncletopia | London | 5 | All Maps | STV","players":[{"user_id":513,"name":"_kits","steam_id":76561198839256184,"connected_time":399000000000,"state":"active","ping":118},{"user_id":520,"name":"Daginberth","steam_id":76561198043811437,"connected_time":133000000000,"state":"active","ping":61},{"user_id":504,"name":"Oni_Nas","steam_id":76561198422064804,"connected_time":1531000000000,"state":"active","ping":61},{"user_id":510,"name":"its fly","steam_id":76561198044240229,"connected_time":1166000000000,"state":"active","ping":54},{"user_id":499,"name":"Femboy Gaming","steam_id":76561198174108515,"connected_time":2560000000000,"state":"active","ping":45},{"user_id":484,"name":"she strogan me off til i beef","steam_id":76561198166555207,"connected_time":4331000000000,"state":"active","ping":49}]},{"server_id":22,"name":"Uncletopia | London | 6 | All Maps","name_short":"lon-6","host":"lon-1.uk.uncletopia.com","port":27065,"enabled":true,"region":"eu","cc":"gb","latitude":51.509865,"longitude":-0.118092,"reserved":0,"last_update":"0001-01-01T00:00:00Z","name_a2s":"Uncletopia | London | 6 | All Maps","protocol":17,"map":"pl_snowycoast","folder":"tf","game":"Team Fortress","app_id":440,"player_count":2,"max_players":24,"Bots":0,"server_type":"Dedicated","server_os":"Linux","password":true,"vac":true,"version":"7708610","steam_id":85568392924742830,"keywords":["nocrits","nodmgspread","payload","uncletopia"],"game_id":440,"stv_port":27066,"stv_name":"Uncletopia | London | 6 | All Maps | STV","players":[{"user_id":17,"name":"ghostie","steam_id":76561199097303487,"connected_time":1609000000000,"state":"active","ping":53},{"user_id":18,"name":"saucytomato","steam_id":76561198299799951,"connected_time":1590000000000,"state":"active","ping":49}]},{"server_id":40,"name":"Uncletopia | London | 7 | No Payload","name_short":"lon-7","host":"lon-1.uk.uncletopia.com","port":27075,"enabled":true,"region":"eu","cc":"gb","latitude":51.509865,"longitude":-0.118092,"reserved":0,"last_update":"0001-01-01T00:00:00Z","name_a2s":"Uncletopia | London | 7 | No Payload","protocol":17,"map":"cp_snakewater_final1","folder":"tf","game":"Team Fortress","app_id":440,"player_count":0,"max_players":24,"Bots":0,"server_type":"Dedicated","server_os":"Linux","password":true,"vac":true,"version":"7708610","steam_id":85568392924964314,"keywords":["cp","nocrits","nodmgspread","uncletopia"],"game_id":440,"stv_port":27076,"stv_name":"Uncletopia | London | 7 | No Payload | STV","players":null},{"server_id":41,"name":"Uncletopia | London | 8 | Community","name_short":"lon-8","host":"lon-1.uk.uncletopia.com","port":27085,"enabled":true,"region":"eu","cc":"gb","latitude":51.509865,"longitude":-0.118092,"reserved":0,"last_update":"0001-01-01T00:00:00Z","name_a2s":"Uncletopia | London | 8 | Community","protocol":17,"map":"workshop/pl_cactuscanyon_redux_rc4b.ugc2579644293","folder":"tf","game":"Team Fortress","app_id":440,"player_count":0,"max_players":24,"Bots":0,"server_type":"Dedicated","server_os":"Linux","password":true,"vac":true,"version":"7708610","steam_id":85568392924964315,"keywords":["nocrits","nodmgspread","payload","uncletopia"],"game_id":440,"stv_port":27086,"stv_name":"Uncletopia | London | 8 | Community | STV","players":null},{"server_id":300,"name":"Uncletopia | Montr√©al | 1 | All Maps","name_short":"mtl-1","host":"mtl-1.ca.uncletopia.com","port":27015,"enabled":true,"region":"us-east","cc":"ca","latitude":45.50889,"longitude":-73.56167,"reserved":0,"last_update":"0001-01-01T00:00:00Z","name_a2s":"Uncletopia | Montr√©al | 1 | All Maps","protocol":17,"map":"pl_borneo","folder":"tf","game":"Team Fortress","app_id":440,"player_count":2,"max_players":24,"Bots":0,"server_type":"Dedicated","server_os":"Linux","password":true,"vac":true,"version":"7708610","steam_id":85568392924500087,"keywords":["nocrits","nodmgspread","payload","uncletopia"],"game_id":440,"stv_port":27016,"stv_name":"Uncletopia | Montr√©al | 1 | All Maps | STV","players":[{"user_id":9,"name":"cheems","steam_id":76561198284396583,"connected_time":129000000000,"state":"active","ping":236},{"user_id":10,"name":"TheOnlyBeast","steam_id":76561197993208453,"connected_time":110000000000,"state":"active","ping":75}]},{"server_id":301,"name":"Uncletopia | Montr√©al | 2 | All Maps","name_short":"mtl-2","host":"mtl-1.ca.uncletopia.com","port":27025,"enabled":true,"region":"us-east","cc":"ca","latitude":45.50889,"longitude":-73.56167,"reserved":0,"last_update":"0001-01-01T00:00:00Z","name_a2s":"Uncletopia | Montr√©al | 2 | All Maps","protocol":17,"map":"pl_borneo","folder":"tf","game":"Team Fortress","app_id":440,"player_count":0,"max_players":24,"Bots":0,"server_type":"Dedicated","server_os":"Linux","password":true,"vac":true,"version":"7708610","steam_id":85568392924500088,"keywords":["nocrits","nodmgspread","payload","uncletopia"],"game_id":440,"stv_port":27026,"stv_name":"Uncletopia | Montr√©al | 2 | All Maps | STV","players":null},{"server_id":302,"name":"Uncletopia | Montr√©al | 3 | All Maps","name_short":"mtl-3","host":"mtl-1.ca.uncletopia.com","port":27035,"enabled":true,"region":"us-east","cc":"ca","latitude":45.50889,"longitude":-73.56167,"reserved":0,"last_update":"0001-01-01T00:00:00Z","name_a2s":"Uncletopia | Montr√©al | 3 | All Maps","protocol":17,"map":"cp_process_final","folder":"tf","game":"Team Fortress","app_id":440,"player_count":0,"max_players":24,"Bots":0,"server_type":"Dedicated","server_os":"Linux","password":true,"vac":true,"version":"7708610","steam_id":85568392924500089,"keywords":["cp","nocrits","nodmgspread","uncletopia"],"game_id":440,"stv_port":27036,"stv_name":"Uncletopia | Montr√©al | 3 | All Maps | STV","players":null},{"server_id":303,"name":"Uncletopia | Montr√©al | 4 | No Payload","name_short":"mtl-4","host":"mtl-1.ca.uncletopia.com","port":27045,"enabled":true,"region":"us-east","cc":"ca","latitude":45.50889,"longitude":-73.56167,"reserved":0,"last_update":"0001-01-01T00:00:00Z","name_a2s":"Uncletopia | Montr√©al | 4 | No Payload","protocol":17,"map":"cp_gorge","folder":"tf","game":"Team Fortress","app_id":440,"player_count":0,"max_players":24,"Bots":0,"server_type":"Dedicated","server_os":"Linux","password":true,"vac":true,"version":"7708610","steam_id":85568392924500090,"keywords":["cp","nocrits","nodmgspread","uncletopia"],"game_id":440,"stv_port":27046,"stv_name":"Uncletopia | Montr√©al | 4 | No Payload | STV","players":null},{"server_id":13,"name":"Uncletopia | New York City | 1 | All Maps","name_short":"nyc-1","host":"nyc-1.us.uncletopia.com","port":27015,"enabled":true,"region":"us-east","cc":"us","latitude":40.73061,"longitude":-73.93524,"reserved":0,"last_update":"0001-01-01T00:00:00Z","name_a2s":"Uncletopia | New York City | 1 | All Maps","protocol":17,"map":"pl_barnblitz","folder":"tf","game":"Team Fortress","app_id":440,"player_count":24,"max_players":24,"Bots":0,"server_type":"Dedicated","server_os":"Linux","password":true,"vac":true,"version":"7708610","steam_id":85568392924469993,"keywords":["nocrits","nodmgspread","payload","uncletopia"],"game_id":440,"stv_port":27016,"stv_name":"Uncletopia | New York City | 1 | All Maps | STV","players":[{"user_id":188,"name":"ItsZappyinthehouse","steam_id":76561198934068068,"connected_time":1421000000000,"state":"active","ping":70},{"user_id":200,"name":"Riboflavin","steam_id":76561198077328593,"connected_time":1093000000000,"state":"active","ping":94},{"user_id":215,"name":"e0e0","steam_id":76561198293839750,"connected_time":453000000000,"state":"active","ping":54},{"user_id":199,"name":"Acher","steam_id":76561198117843951,"connected_time":1147000000000,"state":"active","ping":45},{"user_id":217,"name":"PinkLemonade","steam_id":76561198799286228,"connected_time":275000000000,"state":"active","ping":91},{"user_id":147,"name":"Ether","steam_id":76561198054806528,"connected_time":3295000000000,"state":"active","ping":52},{"user_id":209,"name":"Liguy?","steam_id":76561199013763755,"connected_time":528000000000,"state":"active","ping":46},{"user_id":202,"name":"Sorbet Shark Cookie","steam_id":76561198133082665,"connected_time":1025000000000,"state":"active","ping":50},{"user_id":201,"name":"Yukon Cornelius","steam_id":76561198261512781,"connected_time":1037000000000,"state":"active","ping":61},{"user_id":192,"name":"rainingmudkips","steam_id":76561198018010854,"connected_time":1331000000000,"state":"active","ping":76},{"user_id":155,"name":"Xavibite","steam_id":76561198209380493,"connected_time":2668000000000,"state":"active","ping":45},{"user_id":206,"name":"Frost ‚ô•","steam_id":76561198168870617,"connected_time":551000000000,"state":"active","ping":51},{"user_id":213,"name":"HanakoToast","steam_id":76561198045233131,"connected_time":517000000000,"state":"active","ping":128},{"user_id":177,"name":"level","steam_id":76561199050205487,"connected_time":1651000000000,"state":"active","ping":181},{"user_id":178,"name":"Penis but it rhymes with Venice","steam_id":76561197986420836,"connected_time":1640000000000,"state":"active","ping":59},{"user_id":211,"name":"what'd you say","steam_id":76561198284992433,"connected_time":521000000000,"state":"active","ping":64},{"user_id":219,"name":"Buzzard","steam_id":76561197980613355,"connected_time":189000000000,"state":"active","ping":60},{"user_id":216,"name":"Collin","steam_id":76561198341399913,"connected_time":293000000000,"state":"active","ping":48},{"user_id":220,"name":"the sexmeister","steam_id":76561199074079929,"connected_time":176000000000,"state":"active","ping":91},{"user_id":222,"name":"h4byn","steam_id":76561198284846714,"connected_time":92000000000,"state":"active","ping":72},{"user_id":181,"name":"Saigon Squidward","steam_id":76561198079525758,"connected_time":1565000000000,"state":"active","ping":58},{"user_id":221,"name":"Hol Horse","steam_id":76561198078207743,"connected_time":170000000000,"state":"active","ping":46},{"user_id":194,"name":"just tryna ball with my bros","steam_id":76561198026589960,"connected_time":1309000000000,"state":"active","ping":63},{"user_id":196,"name":"Emijon","steam_id":76561198255179590,"connected_time":1292000000000,"state":"active","ping":108}]},{"server_id":14,"name":"Uncletopia | New York City | 2 | All Maps","name_short":"nyc-2","host":"nyc-1.us.uncletopia.com","port":27025,"enabled":true,"region":"us-east","cc":"us","latitude":40.73061,"longitude":-73.93524,"reserved":0,"last_update":"0001-01-01T00:00:00Z","name_a2s":"Uncletopia | New York City | 2 | All Maps","protocol":17,"map":"pl_upward","folder":"tf","game":"Team Fortress","app_id":440,"player_count":23,"max_players":24,"Bots":0,"server_type":"Dedicated","server_os":"Linux","password":true,"vac":true,"version":"7708610","steam_id":85568392924469994,"keywords":["nocrits","nodmgspread","payload","uncletopia"],"game_id":440,"stv_port":27026,"stv_name":"Uncletopia | New York City | 2 | All Maps | STV","players":[{"user_id":113,"name":"dry AFK","steam_id":76561198008899411,"connected_time":1079000000000,"state":"active","ping":90},{"user_id":117,"name":"rikka","steam_id":76561197987763785,"connected_time":397000000000,"state":"active","ping":55},{"user_id":116,"name":"icecxld","steam_id":76561198079018805,"connected_time":540000000000,"state":"active","ping":75},{"user_id":13,"name":"Sprucelass","steam_id":76561197998391724,"connected_time":7322000000000,"state":"active","ping":60},{"user_id":122,"name":"Ceiling Man","steam_id":76561198003959902,"connected_time":376000000000,"state":"active","ping":43},{"user_id":123,"name":"gnome","steam_id":76561198262275475,"connected_time":338000000000,"state":"active","ping":63},{"user_id":114,"name":"spaint","steam_id":76561198014662930,"connected_time":814000000000,"state":"active","ping":45},{"user_id":104,"name":"KaiaDoggy","steam_id":76561197997096301,"connected_time":2052000000000,"state":"active","ping":92},{"user_id":126,"name":"Nuclearlala","steam_id":76561198009342477,"connected_time":310000000000,"state":"active","ping":59},{"user_id":130,"name":"‚ùÖ‚úøDrBlack‚úø‚ùÖ","steam_id":76561198450541151,"connected_time":83000000000,"state":"active","ping":45},{"user_id":125,"name":"BojackWojack","steam_id":76561198422425920,"connected_time":313000000000,"state":"active","ping":79},{"user_id":69,"name":"Typical Gentleman","steam_id":76561199229771413,"connected_time":4394000000000,"state":"active","ping":79},{"user_id":121,"name":"DJ Chalice","steam_id":76561197974872458,"connected_time":395000000000,"state":"active","ping":54},{"user_id":71,"name":"deckerhoff!","steam_id":76561198010741410,"connected_time":4347000000000,"state":"active","ping":80},{"user_id":127,"name":"epic","steam_id":76561199049865601,"connected_time":304000000000,"state":"active","ping":45},{"user_id":129,"name":"Catboy Potemkin","steam_id":76561198078474420,"connected_time":190000000000,"state":"active","ping":78},{"user_id":96,"name":"Shemply","steam_id":76561198193658910,"connected_time":2322000000000,"state":"active","ping":87},{"user_id":92,"name":"Convict Police Officers","steam_id":76561197993527275,"connected_time":3054000000000,"state":"active","ping":73},{"user_id":112,"name":"demoknight tf2","steam_id":76561198070393998,"connected_time":1215000000000,"state":"active","ping":73},{"user_id":94,"name":"Scrumlet","steam_id":76561198339806643,"connected_time":2837000000000,"state":"active","ping":85},{"user_id":111,"name":"Corey Corgins","steam_id":76561198102417626,"connected_time":1473000000000,"state":"active","ping":71},{"user_id":68,"name":"Just washed","steam_id":76561199030160932,"connected_time":4474000000000,"state":"active","ping":87},{"user_id":119,"name":"Ursus Ludius","steam_id":76561198025470722,"connected_time":397000000000,"state":"active","ping":58}]},{"server_id":15,"name":"Uncletopia | New York City | 3 | All Maps","name_short":"nyc-3","host":"nyc-1.us.uncletopia.com","port":27035,"enabled":true,"region":"us-east","cc":"us","latitude":40.73061,"longitude":-73.93524,"reserved":0,"last_update":"0001-01-01T00:00:00Z","name_a2s":"Uncletopia | New York City | 3 | All Maps","protocol":17,"map":"cp_altitude","folder":"tf","game":"Team Fortress","app_id":440,"player_count":25,"max_players":24,"Bots":0,"server_type":"Dedicated","server_os":"Linux","password":true,"vac":true,"version":"7708610","steam_id":85568392924742820,"keywords":["cp","nocrits","nodmgspread","uncletopia"],"game_id":440,"stv_port":27036,"stv_name":"Uncletopia | New York City | 3 | All Maps | STV","players":[{"user_id":9,"name":"piflle","steam_id":76561199283873577,"connected_time":5548000000000,"state":"active","ping":63},{"user_id":11,"name":"AquaTsunami","steam_id":76561199085473809,"connected_time":4392000000000,"state":"active","ping":62},{"user_id":21,"name":"Dread Pierat Squeaks","steam_id":76561198413602368,"connected_time":1131000000000,"state":"active","ping":60},{"user_id":16,"name":"Jesus Loves You57","steam_id":76561199058833769,"connected_time":1422000000000,"state":"active","ping":103},{"user_id":23,"name":"ghenotic","steam_id":76561199310269979,"connected_time":1111000000000,"state":"active","ping":70},{"user_id":69,"name":"Chaosfall","steam_id":76561198155492265,"connected_time":555000000000,"state":"active","ping":66},{"user_id":25,"name":"York67","steam_id":76561198079998681,"connected_time":982000000000,"state":"active","ping":80},{"user_id":63,"name":"Raincool","steam_id":76561198042953645,"connected_time":625000000000,"state":"active","ping":58},{"user_id":32,"name":"Compay_Chago","steam_id":76561198040834355,"connected_time":953000000000,"state":"active","ping":63},{"user_id":33,"name":"creamgravy573","steam_id":76561198093308746,"connected_time":949000000000,"state":"active","ping":60},{"user_id":34,"name":"syro","steam_id":76561198186713031,"connected_time":929000000000,"state":"active","ping":44},{"user_id":35,"name":"CthUwU","steam_id":76561198036541581,"connected_time":921000000000,"state":"active","ping":59},{"user_id":36,"name":"sphenisciformes","steam_id":76561198180282242,"connected_time":920000000000,"state":"active","ping":78},{"user_id":44,"name":"Regal","steam_id":76561198092422621,"connected_time":838000000000,"state":"active","ping":52},{"user_id":38,"name":"PaD_Ding","steam_id":76561198831202965,"connected_time":891000000000,"state":"active","ping":158},{"user_id":39,"name":"Huge","steam_id":76561199030987614,"connected_time":886000000000,"state":"active","ping":133},{"user_id":40,"name":"Cogenheimer","steam_id":76561198146321550,"connected_time":884000000000,"state":"active","ping":63},{"user_id":79,"name":"Soldier tf2","steam_id":76561199185627987,"connected_time":58000000000,"state":"active","ping":50},{"user_id":47,"name":"IronFangWill","steam_id":76561198103230537,"connected_time":794000000000,"state":"active","ping":51},{"user_id":43,"name":"TMKPresents","steam_id":76561198118999995,"connected_time":845000000000,"state":"active","ping":53},{"user_id":45,"name":"THRILLHO","steam_id":76561198371663047,"connected_time":817000000000,"state":"active","ping":45},{"user_id":81,"name":"Spammer206","steam_id":76561198045522549,"connected_time":12000000000,"state":"spawning","ping":62},{"user_id":49,"name":"Doxy_lsb","steam_id":76561198140441931,"connected_time":787000000000,"state":"active","ping":80},{"user_id":58,"name":"please remove sniper","steam_id":76561198850475407,"connected_time":724000000000,"state":"active","ping":67},{"user_id":53,"name":"ATL1 | J O V A","steam_id":76561198090333536,"connected_time":769000000000,"state":"active","ping":63}]},{"server_id":16,"name":"Uncletopia | New York City | 4 | Community","name_short":"nyc-4","host":"nyc-1.us.uncletopia.com","port":27045,"enabled":true,"region":"us-east","cc":"us","latitude":40.73061,"longitude":-73.93524,"reserved":0,"last_update":"0001-01-01T00:00:00Z","name_a2s":"Uncletopia | New York City | 4 | Community","protocol":17,"map":"workshop/koth_synthetic_rc6a.ugc1549817316","folder":"tf","game":"Team Fortress","app_id":440,"player_count":0,"max_players":24,"Bots":0,"server_type":"Dedicated","server_os":"Linux","password":true,"vac":true,"version":"7708610","steam_id":85568392924742821,"keywords":["cp","nocrits","nodmgspread","uncletopia"],"game_id":440,"stv_port":27046,"stv_name":"Uncletopia | New York City | 4 | Community | STV","players":null},{"server_id":142,"name":"Uncletopia | S√£o Paulo | 1 | All Maps","name_short":"sao-1","host":"sao-1.br.uncletopia.com","port":27015,"enabled":true,"region":"sa","cc":"br","latitude":-23.533773,"longitude":-46.62529,"reserved":0,"last_update":"0001-01-01T00:00:00Z","name_a2s":"Uncletopia | S√£o Paulo | 1 | All Maps","protocol":17,"map":"pl_barnblitz","folder":"tf","game":"Team Fortress","app_id":440,"player_count":2,"max_players":24,"Bots":0,"server_type":"Dedicated","server_os":"Linux","password":true,"vac":true,"version":"7708610","steam_id":85568392924469996,"keywords":["nocrits","nodmgspread","payload","uncletopia"],"game_id":440,"stv_port":27016,"stv_name":"Uncletopia | S√£o Paulo | 1 | All Maps | STV","players":[{"user_id":60,"name":"olavudante","steam_id":76561199385333299,"connected_time":297000000000,"state":"active","ping":74},{"user_id":58,"name":"Jexzoid","steam_id":76561198869921242,"connected_time":790000000000,"state":"active","ping":76}]},{"server_id":143,"name":"Uncletopia | S√£o Paulo | 2 | All Maps","name_short":"sao-2","host":"sao-2.br.uncletopia.com","port":27015,"enabled":true,"region":"sa","cc":"br","latitude":-23.533773,"longitude":-46.62529,"reserved":0,"last_update":"0001-01-01T00:00:00Z","name_a2s":"Uncletopia | S√£o Paulo | 2 | All Maps","protocol":17,"map":"cp_gorge","folder":"tf","game":"Team Fortress","app_id":440,"player_count":24,"max_players":24,"Bots":0,"server_type":"Dedicated","server_os":"Linux","password":true,"vac":true,"version":"7708610","steam_id":85568392924485349,"keywords":["cp","nocrits","nodmgspread","uncletopia"],"game_id":440,"stv_port":27016,"stv_name":"Uncletopia | S√£o Paulo | 2 | All Maps | STV","players":[{"user_id":86,"name":"Pathetic","steam_id":76561198051056987,"connected_time":7409000000000,"state":"active","ping":61},{"user_id":143,"name":"Pendrive is Insane","steam_id":76561199427354854,"connected_time":1459000000000,"state":"active","ping":46},{"user_id":123,"name":"Glenryn","steam_id":76561198115725511,"connected_time":2981000000000,"state":"active","ping":57},{"user_id":165,"name":"HeadShotGamerBR","steam_id":76561198116856702,"connected_time":294000000000,"state":"active","ping":63},{"user_id":144,"name":"MrRodje‚Ñ¢","steam_id":76561198058756855,"connected_time":1454000000000,"state":"active","ping":73},{"user_id":92,"name":"matheus_lanches","steam_id":76561199359501901,"connected_time":6022000000000,"state":"active","ping":45},{"user_id":148,"name":"jao","steam_id":76561198408082822,"connected_time":1213000000000,"state":"active","ping":59},{"user_id":158,"name":"DaisyIsBestGirl","steam_id":76561198353408382,"connected_time":414000000000,"state":"active","ping":109},{"user_id":155,"name":"whalecat","steam_id":76561198091614830,"connected_time":619000000000,"state":"active","ping":44},{"user_id":171,"name":"InkKnight","steam_id":76561198927983566,"connected_time":90000000000,"state":"active","ping":83},{"user_id":147,"name":"Dutch ‚ò≠","steam_id":76561199051066954,"connected_time":1245000000000,"state":"active","ping":58},{"user_id":169,"name":"Au Revoir","steam_id":76561198176626650,"connected_time":179000000000,"state":"active","ping":45},{"user_id":100,"name":"the one who knocks","steam_id":76561198080089883,"connected_time":5020000000000,"state":"active","ping":80},{"user_id":141,"name":"ebd_Failnaught","steam_id":76561198108041555,"connected_time":1569000000000,"state":"active","ping":57},{"user_id":168,"name":"C.","steam_id":76561198067026112,"connected_time":211000000000,"state":"active","ping":45},{"user_id":170,"name":"delta","steam_id":76561198288966901,"connected_time":124000000000,"state":"active","ping":57},{"user_id":146,"name":"Brawmario","steam_id":76561198025313430,"connected_time":1405000000000,"state":"active","ping":42},{"user_id":157,"name":"burghley","steam_id":76561199148843299,"connected_time":588000000000,"state":"active","ping":75},{"user_id":113,"name":"Pan","steam_id":76561198161899287,"connected_time":3650000000000,"state":"active","ping":86},{"user_id":150,"name":"T3chHS","steam_id":76561198066524053,"connected_time":1128000000000,"state":"active","ping":64},{"user_id":116,"name":"Leo","steam_id":76561198146075321,"connected_time":3517000000000,"state":"active","ping":49},{"user_id":159,"name":"Luna","steam_id":76561199026206764,"connected_time":412000000000,"state":"active","ping":44},{"user_id":152,"name":"Ice Whallow Come","steam_id":76561198063668057,"connected_time":1068000000000,"state":"active","ping":62},{"user_id":142,"name":"Neferious Acts Enjoyer","steam_id":76561198354898457,"connected_time":1567000000000,"state":"active","ping":49}]},{"server_id":7,"name":"Uncletopia | Seattle | 1 | All Maps","name_short":"sea-1","host":"sea-1.us.uncletopia.com","port":27015,"enabled":true,"region":"us-west","cc":"us","latitude":47.608013,"longitude":-122.33517,"reserved":0,"last_update":"0001-01-01T00:00:00Z","name_a2s":"Uncletopia | Seattle | 1 | All Maps","protocol":17,"map":"pl_badwater","folder":"tf","game":"Team Fortress","app_id":440,"player_count":24,"max_players":24,"Bots":0,"server_type":"Dedicated","server_os":"Linux","password":true,"vac":true,"version":"7708610","steam_id":85568392924469997,"keywords":["nocrits","nodmgspread","payload","uncletopia"],"game_id":440,"stv_port":27016,"stv_name":"Uncletopia | Seattle | 1 | All Maps | STV","players":[{"user_id":485,"name":"lukamine","steam_id":76561198166827208,"connected_time":336000000000,"state":"active","ping":47},{"user_id":486,"name":"Mikidy","steam_id":76561197972958970,"connected_time":333000000000,"state":"active","ping":75},{"user_id":470,"name":"Monketron","steam_id":76561198014225523,"connected_time":1734000000000,"state":"active","ping":80},{"user_id":487,"name":"Funky","steam_id":76561199444380483,"connected_time":321000000000,"state":"active","ping":95},{"user_id":475,"name":"Pan","steam_id":76561199122755987,"connected_time":1385000000000,"state":"active","ping":121},{"user_id":483,"name":"reiidieya","steam_id":76561198325306660,"connected_time":474000000000,"state":"active","ping":141},{"user_id":488,"name":"Shah","steam_id":76561198047508851,"connected_time":252000000000,"state":"active","ping":51},{"user_id":467,"name":"PaintMyMeow","steam_id":76561198056860387,"connected_time":1907000000000,"state":"active","ping":80},{"user_id":473,"name":"demomanfan2008","steam_id":76561198077030486,"connected_time":1524000000000,"state":"active","ping":73},{"user_id":490,"name":"when the","steam_id":76561199200502822,"connected_time":245000000000,"state":"active","ping":192},{"user_id":479,"name":"Kelly Goosecock","steam_id":76561198060731432,"connected_time":1014000000000,"state":"active","ping":123},{"user_id":491,"name":"MarioLandZ","steam_id":76561198247824646,"connected_time":243000000000,"state":"active","ping":121},{"user_id":457,"name":"Strikerbolt","steam_id":76561199095622897,"connected_time":2315000000000,"state":"active","ping":89},{"user_id":458,"name":"Synergy","steam_id":76561198098630198,"connected_time":2248000000000,"state":"active","ping":44},{"user_id":492,"name":"FireQuiz","steam_id":76561198107357249,"connected_time":223000000000,"state":"active","ping":54},{"user_id":493,"name":"FindItFixIt","steam_id":76561198104533371,"connected_time":197000000000,"state":"active","ping":90},{"user_id":477,"name":"Dabois","steam_id":76561199147193419,"connected_time":1063000000000,"state":"active","ping":91},{"user_id":494,"name":"yup","steam_id":76561199190800520,"connected_time":182000000000,"state":"active","ping":43},{"user_id":480,"name":"MarshallMellows","steam_id":76561198231561020,"connected_time":988000000000,"state":"active","ping":59},{"user_id":474,"name":"pat back","steam_id":76561198347225801,"connected_time":1415000000000,"state":"active","ping":51},{"user_id":472,"name":"Fh","steam_id":76561198000903511,"connected_time":1677000000000,"state":"active","ping":71},{"user_id":450,"name":"Dogg wader","steam_id":76561199090314340,"connected_time":2561000000000,"state":"active","ping":60},{"user_id":392,"name":"MY FAVORITE TYPE OF VIOLENCE","steam_id":76561198011675372,"connected_time":7672000000000,"state":"active","ping":61},{"user_id":478,"name":"D34dR4bbit","steam_id":76561198167411455,"connected_time":1063000000000,"state":"active","ping":51}]},{"server_id":119,"name":"Uncletopia | Seattle | 2 | All Maps","name_short":"sea-2","host":"sea-1.us.uncletopia.com","port":27025,"enabled":true,"region":"us-west","cc":"us","latitude":47.608013,"longitude":-122.33517,"reserved":0,"last_update":"0001-01-01T00:00:00Z","name_a2s":"Uncletopia | Seattle | 2 | All Maps","protocol":17,"map":"pl_badwater","folder":"tf","game":"Team Fortress","app_id":440,"player_count":19,"max_players":24,"Bots":0,"server_type":"Dedicated","server_os":"Linux","password":true,"vac":true,"version":"7708610","steam_id":85568392924469998,"keywords":["nocrits","nodmgspread","payload","uncletopia"],"game_id":440,"stv_port":27026,"stv_name":"Uncletopia | Seattle | 2 | All Maps | STV","players":[{"user_id":22,"name":"chompmastr","steam_id":76561199121805899,"connected_time":1005000000000,"state":"active","ping":53},{"user_id":23,"name":"Dosario","steam_id":76561198298095535,"connected_time":913000000000,"state":"active","ping":43},{"user_id":25,"name":"Nexo Fighter","steam_id":76561199187418090,"connected_time":802000000000,"state":"active","ping":167},{"user_id":26,"name":"CamWtheDestroyer","steam_id":76561198950777742,"connected_time":775000000000,"state":"active","ping":67},{"user_id":27,"name":"videogames1000","steam_id":76561198347394948,"connected_time":762000000000,"state":"active","ping":46},{"user_id":28,"name":"ANGRYDAD","steam_id":76561197989409766,"connected_time":695000000000,"state":"active","ping":61},{"user_id":36,"name":"Will (becoming Enlightened)","steam_id":76561198397037834,"connected_time":389000000000,"state":"active","ping":80},{"user_id":30,"name":"Vagrant","steam_id":76561198242536886,"connected_time":611000000000,"state":"active","ping":91},{"user_id":31,"name":"Oomitch","steam_id":76561198071702759,"connected_time":609000000000,"state":"active","ping":44},{"user_id":40,"name":"Ahzain","steam_id":76561198035894333,"connected_time":161000000000,"state":"active","ping":77},{"user_id":33,"name":"Nolan (Femboy)","steam_id":76561198082534795,"connected_time":518000000000,"state":"active","ping":108},{"user_id":34,"name":"TMG","steam_id":76561198911086022,"connected_time":493000000000,"state":"active","ping":111},{"user_id":35,"name":"Pinicle","steam_id":76561198163251509,"connected_time":489000000000,"state":"active","ping":85},{"user_id":37,"name":"Spearit5464","steam_id":76561199241807676,"connected_time":385000000000,"state":"active","ping":42},{"user_id":38,"name":"Akira The Vampire","steam_id":76561199041962505,"connected_time":381000000000,"state":"active","ping":139},{"user_id":39,"name":"Fish","steam_id":76561197974874355,"connected_time":202000000000,"state":"active","ping":106},{"user_id":41,"name":"Grassman (Cc)","steam_id":76561198026488532,"connected_time":144000000000,"state":"active","ping":65},{"user_id":42,"name":"Marie","steam_id":76561198056104899,"connected_time":53000000000,"state":"active","ping":142},{"user_id":43,"name":"nfseskimo","steam_id":76561198078745666,"connected_time":50000000000,"state":"active","ping":45}]},{"server_id":17,"name":"Uncletopia | San Francisco | 1 | All Maps","name_short":"sfo-1","host":"sfo-1.us.uncletopia.com","port":27015,"enabled":true,"region":"us-west","cc":"us","latitude":37.77397,"longitude":-122.4313,"reserved":0,"last_update":"0001-01-01T00:00:00Z","name_a2s":"Uncletopia | San Francisco | 1 | All Maps","protocol":17,"map":"koth_highpass","folder":"tf","game":"Team Fortress","app_id":440,"player_count":0,"max_players":24,"Bots":0,"server_type":"Dedicated","server_os":"Linux","password":true,"vac":true,"version":"7708610","steam_id":85568392924469999,"keywords":["cp","nocrits","nodmgspread","uncletopia"],"game_id":440,"stv_port":27016,"stv_name":"Uncletopia | San Francisco | 1 | All Maps | STV","players":null},{"server_id":18,"name":"Uncletopia | San Francisco | 2 | All Maps","name_short":"sfo-2","host":"sfo-1.us.uncletopia.com","port":27025,"enabled":true,"region":"us-west","cc":"us","latitude":37.77397,"longitude":-122.4313,"reserved":0,"last_update":"0001-01-01T00:00:00Z","name_a2s":"Uncletopia | San Francisco | 2 | All Maps","protocol":17,"map":"pl_upward","folder":"tf","game":"Team Fortress","app_id":440,"player_count":0,"max_players":24,"Bots":0,"server_type":"Dedicated","server_os":"Linux","password":true,"vac":true,"version":"7708610","steam_id":85568392924470000,"keywords":["nocrits","nodmgspread","payload","uncletopia"],"game_id":440,"stv_port":27026,"stv_name":"Uncletopia | San Francisco | 2 | All Maps | STV","players":null},{"server_id":19,"name":"Uncletopia | San Francisco | 3 | No Payload","name_short":"sfo-3","host":"sfo-1.us.uncletopia.com","port":27035,"enabled":true,"region":"us-west","cc":"us","latitude":37.77397,"longitude":-122.4313,"reserved":0,"last_update":"0001-01-01T00:00:00Z","name_a2s":"Uncletopia | San Francisco | 3 | No Payload","protocol":17,"map":"koth_lazarus","folder":"tf","game":"Team Fortress","app_id":440,"player_count":0,"max_players":24,"Bots":0,"server_type":"Dedicated","server_os":"Linux","password":true,"vac":true,"version":"7708610","steam_id":85568392924742824,"keywords":["cp","nocrits","nodmgspread","uncletopia"],"game_id":440,"stv_port":27036,"stv_name":"Uncletopia | San Francisco | 3 | No Payload | STV","players":null},{"server_id":20,"name":"Uncletopia | San Francisco | 4 | Community","name_short":"sfo-4","host":"sfo-1.us.uncletopia.com","port":27045,"enabled":true,"region":"us-west","cc":"us","latitude":37.77397,"longitude":-122.4313,"reserved":0,"last_update":"0001-01-01T00:00:00Z","name_a2s":"Uncletopia | San Francisco | 4 | Community","protocol":17,"map":"workshop/koth_slaughter_rc1.ugc1712845210","folder":"tf","game":"Team Fortress","app_id":440,"player_count":0,"max_players":24,"Bots":0,"server_type":"Dedicated","server_os":"Linux","password":true,"vac":true,"version":"7708610","steam_id":85568392924742826,"keywords":["cp","nocrits","nodmgspread","uncletopia"],"game_id":440,"stv_port":27046,"stv_name":"Uncletopia | San Francisco | 4 | Community | STV","players":null},{"server_id":141,"name":"Uncletopia | Sydney | 1 | All Maps","name_short":"syd-1","host":"syd-1.au.uncletopia.com","port":27015,"enabled":true,"region":"au","cc":"au","latitude":-33.865143,"longitude":151.2099,"reserved":0,"last_update":"0001-01-01T00:00:00Z","name_a2s":"Uncletopia | Sydney | 1 | All Maps","protocol":17,"map":"koth_viaduct","folder":"tf","game":"Team Fortress","app_id":440,"player_count":19,"max_players":24,"Bots":0,"server_type":"Dedicated","server_os":"Linux","password":true,"vac":true,"version":"7708610","steam_id":85568392924470001,"keywords":["cp","nocrits","nodmgspread","uncletopia"],"game_id":440,"stv_port":27016,"stv_name":"Uncletopia | Sydney | 1 | All Maps | STV","players":[{"user_id":9,"name":"El Chupacabra","steam_id":76561198070641651,"connected_time":2892000000000,"state":"active","ping":56},{"user_id":14,"name":"Lamp oil? Rope? Bombs?","steam_id":76561198984905448,"connected_time":1942000000000,"state":"active","ping":64},{"user_id":11,"name":"Catalyst is life","steam_id":76561199026240631,"connected_time":2802000000000,"state":"active","ping":60},{"user_id":40,"name":"bird","steam_id":76561198258514103,"connected_time":63000000000,"state":"active","ping":58},{"user_id":17,"name":"Dr Barry Mundy PhD","steam_id":76561198034512686,"connected_time":1803000000000,"state":"active","ping":40},{"user_id":18,"name":"INTENTIONS","steam_id":76561198241303512,"connected_time":1667000000000,"state":"active","ping":53},{"user_id":37,"name":"GrotesqueHorse","steam_id":76561198151298791,"connected_time":340000000000,"state":"active","ping":141},{"user_id":20,"name":"GLaDOS","steam_id":76561198238031616,"connected_time":1615000000000,"state":"active","ping":83},{"user_id":39,"name":"Banana","steam_id":76561198236284774,"connected_time":174000000000,"state":"active","ping":75},{"user_id":24,"name":"word","steam_id":76561198071981923,"connected_time":1115000000000,"state":"active","ping":142},{"user_id":25,"name":"Skyboi","steam_id":76561199017211623,"connected_time":924000000000,"state":"active","ping":76},{"user_id":26,"name":"Bagel","steam_id":76561199031854720,"connected_time":803000000000,"state":"active","ping":61},{"user_id":27,"name":"ProfessorSpyCrab","steam_id":76561198815433724,"connected_time":713000000000,"state":"active","ping":52},{"user_id":38,"name":"S.E.X. Soldier","steam_id":76561198977440993,"connected_time":210000000000,"state":"active","ping":58},{"user_id":41,"name":"Utilized_Premiere","steam_id":76561199184725455,"connected_time":43000000000,"state":"active","ping":261},{"user_id":32,"name":"SolitaryID","steam_id":76561198315502025,"connected_time":582000000000,"state":"active","ping":65},{"user_id":33,"name":"Nyda","steam_id":76561198152311904,"connected_time":517000000000,"state":"active","ping":63},{"user_id":36,"name":"Tr4iN","steam_id":76561198078677044,"connected_time":450000000000,"state":"active","ping":53},{"user_id":42,"name":"Rusty","steam_id":76561199287972489,"connected_time":38000000000,"state":"active","ping":269}]},{"server_id":123,"name":"Uncletopia | Sydney | 2 | All Maps","name_short":"syd-2","host":"syd-1.au.uncletopia.com","port":27025,"enabled":true,"region":"au","cc":"au","latitude":-33.865143,"longitude":151.2099,"reserved":0,"last_update":"0001-01-01T00:00:00Z","name_a2s":"Uncletopia | Sydney | 2 | All Maps","protocol":17,"map":"cp_dustbowl","folder":"tf","game":"Team Fortress","app_id":440,"player_count":0,"max_players":24,"Bots":0,"server_type":"Dedicated","server_os":"Linux","password":true,"vac":true,"version":"7708610","steam_id":85568392924470002,"keywords":["cp","nocrits","nodmgspread","uncletopia"],"game_id":440,"stv_port":27026,"stv_name":"Uncletopia | Sydney | 2 | All Maps | STV","players":null},{"server_id":395,"name":"Uncletopia | Sydney | 3 | All Maps","name_short":"syd-3","host":"syd-1.au.uncletopia.com","port":27035,"enabled":true,"region":"au","cc":"au","latitude":-33.865143,"longitude":151.2099,"reserved":0,"last_update":"0001-01-01T00:00:00Z","name_a2s":"Uncletopia | Sydney | 3 | All Maps","protocol":17,"map":"koth_viaduct","folder":"tf","game":"Team Fortress","app_id":440,"player_count":0,"max_players":24,"Bots":0,"server_type":"Dedicated","server_os":"Linux","password":true,"vac":true,"version":"7708610","steam_id":85568392925194467,"keywords":["cp","nocrits","nodmgspread","uncletopia"],"game_id":440,"stv_port":27036,"stv_name":"Uncletopia | Sydney | 3 | All Maps | STV","players":null},{"server_id":396,"name":"Uncletopia | Sydney | 4 | All Maps","name_short":"syd-4","host":"syd-1.au.uncletopia.com","port":27045,"enabled":true,"region":"au","cc":"au","latitude":-33.865143,"longitude":151.2099,"reserved":0,"last_update":"0001-01-01T00:00:00Z","name_a2s":"Uncletopia | Sydney | 4 | All Maps","protocol":17,"map":"pl_frontier_final","folder":"tf","game":"Team Fortress","app_id":440,"player_count":0,"max_players":24,"Bots":0,"server_type":"Dedicated","server_os":"Linux","password":true,"vac":true,"version":"7708610","steam_id":85568392925397958,"keywords":["nocrits","nodmgspread","payload","uncletopia"],"game_id":440,"stv_port":27046,"stv_name":"Uncletopia | Sydney | 4 | All Maps | STV","players":null},{"server_id":58,"name":"Uncletopia | Sydney | 5 | No Payload","name_short":"syd-5","host":"syd-1.au.uncletopia.com","port":27055,"enabled":true,"region":"au","cc":"au","latitude":-33.865143,"longitude":151.2099,"reserved":0,"last_update":"0001-01-01T00:00:00Z","name_a2s":"Uncletopia | Sydney | 5 | No Payload","protocol":17,"map":"pl_pier","folder":"tf","game":"Team Fortress","app_id":440,"player_count":0,"max_players":24,"Bots":0,"server_type":"Dedicated","server_os":"Linux","password":true,"vac":true,"version":"7708610","steam_id":85568392925397959,"keywords":["nocrits","nodmgspread","payload","uncletopia"],"game_id":440,"stv_port":27056,"stv_name":"Uncletopia | Sydney | 5 | No Payload | STV","players":null},{"server_id":59,"name":"Uncletopia | Sydney | 6 | Community","name_short":"syd-6","host":"syd-1.au.uncletopia.com","port":27065,"enabled":true,"region":"au","cc":"au","latitude":-33.865143,"longitude":151.2099,"reserved":0,"last_update":"0001-01-01T00:00:00Z","name_a2s":"Uncletopia | Sydney | 6 | Community","protocol":17,"map":"workshop/pl_barnblitz_pro7.ugc582280235","folder":"tf","game":"Team Fortress","app_id":440,"player_count":0,"max_players":24,"Bots":0,"server_type":"Dedicated","server_os":"Linux","password":true,"vac":true,"version":"7708610","steam_id":85568392925397960,"keywords":["nocrits","nodmgspread","payload","uncletopia"],"game_id":440,"stv_port":27066,"stv_name":"Uncletopia | Sydney | 6 | Community | STV","players":null},{"server_id":49,"name":"Uncletopia | Warsaw | 1 | All Maps","name_short":"waw-1","host":"waw-1.pl.uncletopia.com","port":27015,"enabled":true,"region":"eu","cc":"pl","latitude":52.2297,"longitude":21.017532,"reserved":0,"last_update":"0001-01-01T00:00:00Z","name_a2s":"Uncletopia | Warsaw | 1 | All Maps","protocol":17,"map":"cp_dustbowl","folder":"tf","game":"Team Fortress","app_id":440,"player_count":0,"max_players":24,"Bots":0,"server_type":"Dedicated","server_os":"Linux","password":true,"vac":true,"version":"7708610","steam_id":85568392925397850,"keywords":["cp","nocrits","nodmgspread","uncletopia"],"game_id":440,"stv_port":27016,"stv_name":"Uncletopia | Warsaw | 1 | All Maps | STV","players":null},{"server_id":50,"name":"Uncletopia | Warsaw | 2 | All Maps","name_short":"waw-2","host":"waw-1.pl.uncletopia.com","port":27025,"enabled":true,"region":"eu","cc":"pl","latitude":52.2297,"longitude":21.017532,"reserved":0,"last_update":"0001-01-01T00:00:00Z","name_a2s":"Uncletopia | Warsaw | 2 | All Maps","protocol":17,"map":"koth_highpass","folder":"tf","game":"Team Fortress","app_id":440,"player_count":0,"max_players":24,"Bots":0,"server_type":"Dedicated","server_os":"Linux","password":true,"vac":true,"version":"7708610","steam_id":85568392925397851,"keywords":["cp","nocrits","nodmgspread","uncletopia"],"game_id":440,"stv_port":27026,"stv_name":"Uncletopia | Warsaw | 2 | All Maps | STV","players":null},{"server_id":51,"name":"Uncletopia | Warsaw | 3 | All Maps","name_short":"waw-3","host":"waw-1.pl.uncletopia.com","port":27035,"enabled":true,"region":"eu","cc":"pl","latitude":52.2297,"longitude":21.017532,"reserved":0,"last_update":"0001-01-01T00:00:00Z","name_a2s":"Uncletopia | Warsaw | 3 | All Maps","protocol":17,"map":"cp_sunshine","folder":"tf","game":"Team Fortress","app_id":440,"player_count":0,"max_players":24,"Bots":0,"server_type":"Dedicated","server_os":"Linux","password":true,"vac":true,"version":"7708610","steam_id":85568392925397852,"keywords":["cp","nocrits","nodmgspread","uncletopia"],"game_id":440,"stv_port":27036,"stv_name":"Uncletopia | Warsaw | 3 | All Maps | STV","players":null},{"server_id":52,"name":"Uncletopia | Warsaw | 4 | All Maps","name_short":"waw-4","host":"waw-1.pl.uncletopia.com","port":27045,"enabled":true,"region":"eu","cc":"pl","latitude":52.2297,"longitude":21.017532,"reserved":0,"last_update":"0001-01-01T00:00:00Z","name_a2s":"Uncletopia | Warsaw | 4 | All Maps","protocol":17,"map":"pl_pier","folder":"tf","game":"Team Fortress","app_id":440,"player_count":0,"max_players":24,"Bots":0,"server_type":"Dedicated","server_os":"Linux","password":true,"vac":true,"version":"7708610","steam_id":85568392925397853,"keywords":["nocrits","nodmgspread","payload","uncletopia"],"game_id":440,"stv_port":27046,"stv_name":"Uncletopia | Warsaw | 4 | All Maps | STV","players":null},{"server_id":53,"name":"Uncletopia | Warsaw | 5 | No Payload","name_short":"waw-5","host":"waw-1.pl.uncletopia.com","port":27055,"enabled":true,"region":"eu","cc":"pl","latitude":52.2297,"longitude":21.017532,"reserved":0,"last_update":"0001-01-01T00:00:00Z","name_a2s":"Uncletopia | Warsaw | 5 | No Payload","protocol":17,"map":"pl_borneo","folder":"tf","game":"Team Fortress","app_id":440,"player_count":0,"max_players":24,"Bots":0,"server_type":"Dedicated","server_os":"Linux","password":true,"vac":true,"version":"7708610","steam_id":85568392925397854,"keywords":["nocrits","nodmgspread","payload","uncletopia"],"game_id":440,"stv_port":27056,"stv_name":"Uncletopia | Warsaw | 5 | No Payload | STV","players":null},{"server_id":54,"name":"Uncletopia | Warsaw | 6 | Community","name_short":"waw-6","host":"waw-1.pl.uncletopia.com","port":27065,"enabled":true,"region":"eu","cc":"pl","latitude":52.2297,"longitude":21.017532,"reserved":0,"last_update":"0001-01-01T00:00:00Z","name_a2s":"Uncletopia | Warsaw | 6 | Community","protocol":17,"map":"workshop/pl_barnblitz_pro7.ugc582280235","folder":"tf","game":"Team Fortress","app_id":440,"player_count":0,"max_players":24,"Bots":0,"server_type":"Dedicated","server_os":"Linux","password":true,"vac":true,"version":"7708610","steam_id":85568392925397856,"keywords":["nocrits","nodmgspread","payload","uncletopia"],"game_id":440,"stv_port":27066,"stv_name":"Uncletopia | Warsaw | 6 | Community | STV","players":null}]}