{"status":true,"message":"","result":[{"server_id":9,"name":"Uncletopia | Atlanta | 1 | All Maps","name_short":"atl-1","host":"atl-1.us.uncletopia.com","port":27015,"enabled":true,"region":"us-east","cc":"us","latitude":33.753746,"longitude":-84.38633,"reserved":0,"last_update":"0001-01-01T00:00:00Z","name_a2s":"Uncletopia | Atlanta | 1 | All Maps","protocol":17,"map":"pl_borneo","folder":"tf","game":"Team Fortress","app_id":440,"player_count":24,"max_players":24,"Bots":0,"server_type":"Dedicated","server_os":"Linux","password":true,"vac":true,"version":"7961495","steam_id":85568392924469982,"keywords":["nocrits","nodmgspread","payload","uncletopia"],"game_id":440,"stv_port":27016,"stv_name":"Uncletopia | Atlanta | 1 | All Maps | STV","players":[{"user_id":487,"name":"T√ñZI","steam_id":76561198045268695,"connected_time":4647000000000,"state":"active","ping":84},{"user_id":504,"name":"Albino Jellyfish","steam_id":76561198208561097,"connected_time":2576000000000,"state":"active","ping":50},{"user_id":507,"name":"Willly the WHALE","steam_id":76561198927517471,"connected_time":1695000000000,"state":"active","ping":45},{"user_id":488,"name":"loot","steam_id":76561198069954956,"connected_time":4491000000000,"state":"active","ping":54},{"user_id":519,"name":"NotoriousThicc","steam_id":76561198244650474,"connected_time":141000000000,"state":"active","ping":90},{"user_id":465,"name":"Sinta","steam_id":76561198098398841,"connected_time":6657000000000,"state":"active","ping":60},{"user_id":477,"name":"lynt","steam_id":76561198988333976,"connected_time":5045000000000,"state":"active","ping":46},{"user_id":492,"name":"DeezNoodlez","steam_id":76561198246700372,"connected_time":3879000000000,"state":"active","ping":61},{"user_id":517,"name":"LOFILE","steam_id":76561198083798918,"connected_time":774000000000,"state":"active","ping":59},{"user_id":508,"name":"Here I Go Again!","steam_id":76561198188722751,"connected_time":1587000000000,"state":"active","ping":105},{"user_id":254,"name":"Oxygen User","steam_id":76561199111975528,"connected_time":20030000000000,"state":"active","ping":56},{"user_id":496,"name":"Monkey Mode","steam_id":76561197961267543,"connected_time":3814000000000,"state":"active","ping":57},{"user_id":511,"name":"thomasdee725???","steam_id":76561199189526173,"connected_time":1233000000000,"state":"active","ping":73},{"user_id":479,"name":"Night time Dan","steam_id":76561199022178492,"connected_time":4953000000000,"state":"active","ping":44},{"user_id":497,"name":"Wingm4n","steam_id":76561198064127012,"connected_time":2895000000000,"state":"active","ping":46},{"user_id":500,"name":"ATL1 | cola","steam_id":76561198374390458,"connected_time":2655000000000,"state":"active","ping":60},{"user_id":502,"name":"Ashes!","steam_id":76561197998475441,"connected_time":2640000000000,"state":"active","ping":79},{"user_id":510,"name":"Heathcliff","steam_id":76561198044288534,"connected_time":1529000000000,"state":"active","ping":61},{"user_id":458,"name":"Onyx","steam_id":76561198275349640,"connected_time":6970000000000,"state":"active","ping":84},{"user_id":515,"name":"owlbortch","steam_id":76561198042849350,"connected_time":819000000000,"state":"active","ping":60},{"user_id":494,"name":"Le4n!!!","steam_id":76561198045522596,"connected_time":3871000000000,"state":"active","ping":74},{"user_id":495,"name":"joe","steam_id":76561198045781320,"connected_time":3870000000000,"state":"active","ping":60},{"user_id":464,"name":"lil hog","steam_id":76561199230929836,"connected_time":6796000000000,"state":"active","ping":83},{"user_id":518,"name":"Dr.Inkmix(femboy)","steam_id":76561198854070384,"connected_time":760000000000,"state":"active","ping":116}]},{"server_id":104,"name":"Uncletopia | Atlanta | 2 | All Maps","name_short":"atl-2","host":"atl-1.us.uncletopia.com","port":27025,"enabled":true,"region":"us-east","cc":"us","latitude":33.753746,"longitude":-84.38633,"reserved":0,"last_update":"0001-01-01T00:00:00Z","name_a2s":"Uncletopia | Atlanta | 2 | All Maps","protocol":17,"map":"pl_frontier_final","folder":"tf","game":"Team Fortress","app_id":440,"player_count":24,"max_players":24,"Bots":0,"server_type":"Dedicated","server_os":"Linux","password":true,"vac":true,"version":"7961495","steam_id":85568392924469983,"keywords":["nocrits","nodmgspread","payload","uncletopia"],"game_id":440,"stv_port":27026,"stv_name":"Uncletopia | Atlanta | 2 | All Maps | STV","players":[{"user_id":435,"name":"KennytheHedgehog","steam_id":76561198094607721,"connected_time":1477000000000,"state":"active","ping":73},{"user_id":439,"name":"Kiss Master","steam_id":76561198289572271,"connected_time":730000000000,"state":"active","ping":45},{"user_id":425,"name":"Lexitar369","steam_id":76561199089982129,"connected_time":1906000000000,"state":"active","ping":88},{"user_id":441,"name":"The One True Luke","steam_id":76561198180891187,"connected_time":714000000000,"state":"active","ping":75},{"user_id":436,"name":"barbecuesteve","steam_id":76561198048819671,"connected_time":1285000000000,"state":"active","ping":45},{"user_id":443,"name":"Two-Ton Heavy Thing","steam_id":76561198201724274,"connected_time":693000000000,"state":"active","ping":68},{"user_id":414,"name":"vastrobotmax","steam_id":76561198417110724,"connected_time":3126000000000,"state":"active","ping":75},{"user_id":332,"name":"LOVEDRAGON","steam_id":76561198089908485,"connected_time":8303000000000,"state":"active","ping":74},{"user_id":450,"name":"john trevolta","steam_id":76561197998867160,"connected_time":593000000000,"state":"active","ping":82},{"user_id":445,"name":"Rusted Cake","steam_id":76561198209755931,"connected_time":672000000000,"state":"active","ping":75},{"user_id":442,"name":"Skippa","steam_id":76561198181928613,"connected_time":707000000000,"state":"active","ping":68},{"user_id":451,"name":"duBstep","steam_id":76561198353928965,"connected_time":514000000000,"state":"active","ping":60},{"user_id":446,"name":"cowboy steve","steam_id":76561198007464245,"connected_time":668000000000,"state":"active","ping":63},{"user_id":437,"name":"BlueMew","steam_id":76561198060454348,"connected_time":932000000000,"state":"active","ping":60},{"user_id":409,"name":"CheetoSmoke7","steam_id":76561198095217273,"connected_time":3356000000000,"state":"active","ping":55},{"user_id":419,"name":"have blue","steam_id":76561198054260599,"connected_time":2646000000000,"state":"active","ping":83},{"user_id":412,"name":"simply","steam_id":76561198215728721,"connected_time":3332000000000,"state":"active","ping":59},{"user_id":424,"name":"Explise 209803","steam_id":76561198044413891,"connected_time":2106000000000,"state":"active","ping":125},{"user_id":447,"name":"Lane","steam_id":76561197965828506,"connected_time":656000000000,"state":"active","ping":60},{"user_id":406,"name":"Mr. Squirt","steam_id":76561198174755679,"connected_time":4504000000000,"state":"active","ping":51},{"user_id":452,"name":"Trigger Happy","steam_id":76561198046391327,"connected_time":224000000000,"state":"active","ping":162},{"user_id":449,"name":"R0B0T115","steam_id":76561198058907429,"connected_time":636000000000,"state":"active","ping":63},{"user_id":423,"name":"choi","steam_id":76561198053669887,"connected_time":2167000000000,"state":"active","ping":106},{"user_id":429,"name":"Steak-Pocketer","steam_id":76561198277651410,"connected_time":1799000000000,"state":"active","ping":50}]},{"server_id":400,"name":"Uncletopia | Atlanta | 3 | Stopwatch","name_short":"atl-3","host":"atl-1.us.uncletopia.com","port":27035,"enabled":true,"region":"us-east","cc":"us","latitude":33.753746,"longitude":-84.38633,"reserved":0,"last_update":"0001-01-01T00:00:00Z","name_a2s":"Uncletopia | Atlanta | 3 | Stopwatch","protocol":17,"map":"workshop/koth_product_final.ugc454272353","folder":"tf","game":"Team Fortress","app_id":440,"player_count":0,"max_players":24,"Bots":0,"server_type":"Dedicated","server_os":"Linux","password":true,"vac":true,"version":"7961495","steam_id":85568392924515187,"keywords":["cp","nocrits","nodmgspread","uncletopia"],"game_id":440,"stv_port":27036,"stv_name":"Uncletopia | Atlanta | 3 | Stopwatch | STV","players":null},{"server_id":401,"name":"Uncletopia | Atlanta | 4 | Community","name_short":"atl-4","host":"atl-1.us.uncletopia.com","port":27045,"enabled":true,"region":"us-east","cc":"us","latitude":33.753746,"longitude":-84.38633,"reserved":0,"last_update":"0001-01-01T00:00:00Z","name_a2s":"Uncletopia | Atlanta | 4 | Community","protocol":17,"map":"workshop/koth_ashville_final.ugc2130459942","folder":"tf","game":"Team Fortress","app_id":440,"player_count":0,"max_players":24,"Bots":0,"server_type":"Dedicated","server_os":"Linux","password":true,"vac":true,"version":"7961495","steam_id":85568392924515188,"keywords":["cp","nocrits","nodmgspread","uncletopia"],"game_id":440,"stv_port":27046,"stv_name":"Uncletopia | Atlanta | 4 | Community | STV","players":null},{"server_id":2,"name":"Uncletopia | Chicago | 1 | All Maps","name_short":"chi-1","host":"chi-1.us.uncletopia.com","port":27015,"enabled":true,"region":"us-central","cc":"us","latitude":41.881832,"longitude":-87.62318,"reserved":0,"last_update":"0001-01-01T00:00:00Z","name_a2s":"Uncletopia | Chicago | 1 | All Maps","protocol":17,"map":"pl_goldrush","folder":"tf","game":"Team Fortress","app_id":440,"player_count":24,"max_players":24,"Bots":0,"server_type":"Dedicated","server_os":"Linux","password":true,"vac":true,"version":"7961495","steam_id":85568392924469984,"keywords":["nocrits","nodmgspread","payload","uncletopia"],"game_id":440,"stv_port":27016,"stv_name":"Uncletopia | Chicago | 1 | All Maps | STV","players":[{"user_id":492,"name":"Word To Your Mothership","steam_id":76561198034329138,"connected_time":3032000000000,"state":"active","ping":106},{"user_id":515,"name":"Hankel Tom (The Hankeler)","steam_id":76561199446367874,"connected_time":1126000000000,"state":"active","ping":50},{"user_id":504,"name":"Comradical","steam_id":76561197990808285,"connected_time":2044000000000,"state":"active","ping":62},{"user_id":527,"name":"Dr. Pleasant","steam_id":76561198111945101,"connected_time":368000000000,"state":"active","ping":60},{"user_id":531,"name":"CHIPS","steam_id":76561199085414584,"connected_time":164000000000,"state":"active","ping":68},{"user_id":472,"name":"gaming elliptical","steam_id":76561198013456569,"connected_time":4645000000000,"state":"active","ping":47},{"user_id":516,"name":"Jerk Tryhard (roleplay)","steam_id":76561199470538309,"connected_time":1086000000000,"state":"active","ping":59},{"user_id":514,"name":"Siz","steam_id":76561198072962154,"connected_time":1138000000000,"state":"active","ping":70},{"user_id":526,"name":"‚ô•Bunny‚ô•Slut‚ô•","steam_id":76561198206376851,"connected_time":380000000000,"state":"active","ping":93},{"user_id":517,"name":"nhbiker","steam_id":76561198081277675,"connected_time":1083000000000,"state":"active","ping":60},{"user_id":491,"name":"Lia_Rein","steam_id":76561198151569597,"connected_time":3407000000000,"state":"active","ping":141},{"user_id":524,"name":"Big Business","steam_id":76561198353366625,"connected_time":666000000000,"state":"active","ping":87},{"user_id":434,"name":"THORNFIELDGAMER","steam_id":76561199087167473,"connected_time":6219000000000,"state":"active","ping":76},{"user_id":522,"name":"Timmy The Tyrant","steam_id":76561199156409732,"connected_time":1005000000000,"state":"active","ping":68},{"user_id":502,"name":"A Sun","steam_id":76561198142545364,"connected_time":2411000000000,"state":"active","ping":59},{"user_id":529,"name":"Louis Litt","steam_id":76561198170859755,"connected_time":282000000000,"state":"active","ping":76},{"user_id":469,"name":"qory","steam_id":76561198152064890,"connected_time":4978000000000,"state":"active","ping":56},{"user_id":523,"name":"Rukks","steam_id":76561197993918954,"connected_time":810000000000,"state":"active","ping":90},{"user_id":460,"name":"DuckKey","steam_id":76561198904477889,"connected_time":5260000000000,"state":"active","ping":61},{"user_id":505,"name":"Stacks63bs","steam_id":76561198067797130,"connected_time":2043000000000,"state":"active","ping":74},{"user_id":509,"name":"nav","steam_id":76561198872608266,"connected_time":1940000000000,"state":"active","ping":80},{"user_id":508,"name":"Anthid","steam_id":76561198074493797,"connected_time":2005000000000,"state":"active","ping":73},{"user_id":483,"name":"Snom","steam_id":76561198333827920,"connected_time":4188000000000,"state":"active","ping":82},{"user_id":512,"name":"neeK","steam_id":76561198106571410,"connected_time":1261000000000,"state":"active","ping":76}]},{"server_id":106,"name":"Uncletopia | Chicago | 2 | All Maps","name_short":"chi-2","host":"chi-1.us.uncletopia.com","port":27025,"enabled":true,"region":"us-central","cc":"us","latitude":41.881832,"longitude":-87.62318,"reserved":0,"last_update":"0001-01-01T00:00:00Z","name_a2s":"Uncletopia | Chicago | 2 | All Maps","protocol":17,"map":"cp_dustbowl","folder":"tf","game":"Team Fortress","app_id":440,"player_count":24,"max_players":24,"Bots":0,"server_type":"Dedicated","server_os":"Linux","password":true,"vac":true,"version":"7961495","steam_id":85568392924469985,"keywords":["cp","nocrits","nodmgspread","uncletopia"],"game_id":440,"stv_port":27026,"stv_name":"Uncletopia | Chicago | 2 | All Maps | STV","players":[{"user_id":437,"name":"Clean Lines","steam_id":76561197960691518,"connected_time":1905000000000,"state":"active","ping":58},{"user_id":442,"name":"pelt","steam_id":76561197993593754,"connected_time":1513000000000,"state":"active","ping":51},{"user_id":450,"name":"KazmirlYT","steam_id":76561198116008410,"connected_time":950000000000,"state":"active","ping":105},{"user_id":378,"name":"cali","steam_id":76561198326822403,"connected_time":5804000000000,"state":"active","ping":61},{"user_id":460,"name":"beep","steam_id":76561199096448766,"connected_time":274000000000,"state":"active","ping":60},{"user_id":457,"name":"Gamering_funy","steam_id":76561199006503777,"connected_time":382000000000,"state":"active","ping":44},{"user_id":363,"name":"beats (16:38)","steam_id":76561199245717718,"connected_time":7081000000000,"state":"active","ping":57},{"user_id":428,"name":"KrashBoomBang","steam_id":76561199002978777,"connected_time":2815000000000,"state":"active","ping":60},{"user_id":438,"name":"Boyyo","steam_id":76561198043375471,"connected_time":1806000000000,"state":"active","ping":103},{"user_id":455,"name":"BennyDerT√§nzer","steam_id":76561198129782675,"connected_time":597000000000,"state":"active","ping":140},{"user_id":464,"name":"zuchima","steam_id":76561198026152104,"connected_time":19000000000,"state":"active","ping":49},{"user_id":445,"name":"GUH","steam_id":76561199013202758,"connected_time":1186000000000,"state":"active","ping":76},{"user_id":459,"name":"berserker_tf2 )HE/SHE(","steam_id":76561198303464488,"connected_time":298000000000,"state":"active","ping":61},{"user_id":461,"name":"SCALED TO ONE","steam_id":76561197995620232,"connected_time":209000000000,"state":"active","ping":52},{"user_id":462,"name":"Cabbage","steam_id":76561198405573530,"connected_time":186000000000,"state":"active","ping":59},{"user_id":439,"name":"Average Pinkerton Enjoyer","steam_id":76561199376462977,"connected_time":1763000000000,"state":"active","ping":97},{"user_id":448,"name":"Negreta 777","steam_id":76561199006087169,"connected_time":1170000000000,"state":"active","ping":117},{"user_id":427,"name":"The one who knocks","steam_id":76561198863619592,"connected_time":2828000000000,"state":"active","ping":50},{"user_id":449,"name":"ono","steam_id":76561198024377986,"connected_time":1155000000000,"state":"active","ping":78},{"user_id":451,"name":"motherfucker 2.0","steam_id":76561198141189209,"connected_time":943000000000,"state":"active","ping":63},{"user_id":456,"name":"Torensz64(But weezer)","steam_id":76561198239036482,"connected_time":460000000000,"state":"active","ping":43},{"user_id":463,"name":"Cosmic","steam_id":76561198269223977,"connected_time":132000000000,"state":"active","ping":59},{"user_id":441,"name":"TofuCat","steam_id":76561198416746118,"connected_time":1667000000000,"state":"active","ping":71},{"user_id":420,"name":"I'm bad I know (controller)","steam_id":76561198058840477,"connected_time":3312000000000,"state":"active","ping":97}]},{"server_id":402,"name":"Uncletopia | Chicago | 3 | All Maps","name_short":"chi-3","host":"chi-1.us.uncletopia.com","port":27035,"enabled":true,"region":"us-central","cc":"us","latitude":41.881832,"longitude":-87.62318,"reserved":0,"last_update":"0001-01-01T00:00:00Z","name_a2s":"Uncletopia | Chicago | 3 | All Maps","protocol":17,"map":"pl_upward","folder":"tf","game":"Team Fortress","app_id":440,"player_count":24,"max_players":24,"Bots":0,"server_type":"Dedicated","server_os":"Linux","password":true,"vac":true,"version":"7961495","steam_id":85568392924515191,"keywords":["nocrits","nodmgspread","payload","uncletopia"],"game_id":440,"stv_port":27036,"stv_name":"Uncletopia | Chicago | 3 | All Maps | STV","players":[{"user_id":451,"name":"Fredrick","steam_id":76561197981419964,"connected_time":1091000000000,"state":"active","ping":52},{"user_id":455,"name":"El Duderino","steam_id":76561198084404539,"connected_time":789000000000,"state":"active","ping":75},{"user_id":415,"name":"comet sooicidy","steam_id":76561198025173479,"connected_time":2737000000000,"state":"active","ping":80},{"user_id":446,"name":"BarrowBaron","steam_id":76561198013633236,"connected_time":1515000000000,"state":"active","ping":53},{"user_id":414,"name":"Wukey","steam_id":76561197969001266,"connected_time":2819000000000,"state":"active","ping":47},{"user_id":378,"name":"delight","steam_id":76561197980280272,"connected_time":5109000000000,"state":"active","ping":93},{"user_id":458,"name":"Blue Shell Man Guy","steam_id":76561198157985901,"connected_time":615000000000,"state":"active","ping":98},{"user_id":438,"name":"chen","steam_id":76561198064872330,"connected_time":1701000000000,"state":"active","ping":87},{"user_id":449,"name":"Gheeotine","steam_id":76561198010181698,"connected_time":1293000000000,"state":"active","ping":83},{"user_id":463,"name":"rf","steam_id":76561198195359229,"connected_time":404000000000,"state":"active","ping":89},{"user_id":450,"name":"IPlayGamez","steam_id":76561198041387508,"connected_time":1173000000000,"state":"active","ping":65},{"user_id":419,"name":"Chuina","steam_id":76561198056871257,"connected_time":2696000000000,"state":"active","ping":71},{"user_id":452,"name":"Chloe","steam_id":76561199009068757,"connected_time":1037000000000,"state":"active","ping":76},{"user_id":428,"name":"TheSnipersHat","steam_id":76561198057684066,"connected_time":2089000000000,"state":"active","ping":58},{"user_id":448,"name":"H0wlr","steam_id":76561198012332824,"connected_time":1339000000000,"state":"active","ping":54},{"user_id":462,"name":"chok","steam_id":76561198242016100,"connected_time":409000000000,"state":"active","ping":75},{"user_id":379,"name":"serendipity","steam_id":76561198095087127,"connected_time":5106000000000,"state":"active","ping":59},{"user_id":424,"name":"hyazz","steam_id":76561199100342013,"connected_time":2129000000000,"state":"active","ping":102},{"user_id":464,"name":"Im totally a hacker","steam_id":76561198888005736,"connected_time":253000000000,"state":"active","ping":71},{"user_id":445,"name":"daemon","steam_id":76561198001541433,"connected_time":1545000000000,"state":"active","ping":59},{"user_id":435,"name":"Godmode","steam_id":76561198076240365,"connected_time":1725000000000,"state":"active","ping":63},{"user_id":460,"name":"chrissweep","steam_id":76561198072826791,"connected_time":600000000000,"state":"active","ping":72},{"user_id":457,"name":"SomeGuy","steam_id":76561199082880452,"connected_time":659000000000,"state":"active","ping":38},{"user_id":437,"name":"Kitt(eh)  ‚àë:3","steam_id":76561198110858518,"connected_time":1715000000000,"state":"active","ping":61}]},{"server_id":403,"name":"Uncletopia | Chicago | 4 | All Maps","name_short":"chi-4","host":"chi-1.us.uncletopia.com","port":27045,"enabled":true,"region":"us-central","cc":"us","latitude":41.881832,"longitude":-87.62318,"reserved":0,"last_update":"0001-01-01T00:00:00Z","name_a2s":"Uncletopia | Chicago | 4 | All Maps","protocol":17,"map":"ctf_2fort","folder":"tf","game":"Team Fortress","app_id":440,"player_count":24,"max_players":24,"Bots":0,"server_type":"Dedicated","server_os":"Linux","password":true,"vac":true,"version":"7961495","steam_id":85568392924515193,"keywords":["ctf","nocrits","nodmgspread","uncletopia"],"game_id":440,"stv_port":27046,"stv_name":"Uncletopia | Chicago | 4 | All Maps | STV","players":[{"user_id":323,"name":"Goochacho","steam_id":76561198036332747,"connected_time":399000000000,"state":"active","ping":64},{"user_id":326,"name":"lilicopter1","steam_id":76561199109281757,"connected_time":31000000000,"state":"active","ping":104},{"user_id":298,"name":"The_atom_bomb","steam_id":76561198139944683,"connected_time":1313000000000,"state":"active","ping":60},{"user_id":318,"name":"He rolls his own","steam_id":76561198058162684,"connected_time":589000000000,"state":"active","ping":64},{"user_id":232,"name":"On The Bright Side...","steam_id":76561198168785883,"connected_time":5077000000000,"state":"active","ping":47},{"user_id":291,"name":"Farmer Ron","steam_id":76561198862902851,"connected_time":1772000000000,"state":"active","ping":81},{"user_id":308,"name":"FrostStorm","steam_id":76561198142685151,"connected_time":1082000000000,"state":"active","ping":58},{"user_id":282,"name":"HollowMajin","steam_id":76561198122399227,"connected_time":2001000000000,"state":"active","ping":59},{"user_id":247,"name":"OldRavensFan","steam_id":76561198043919562,"connected_time":3508000000000,"state":"active","ping":54},{"user_id":324,"name":"Kritzburgh","steam_id":76561198149466938,"connected_time":264000000000,"state":"active","ping":63},{"user_id":325,"name":"category 5 girl moment","steam_id":76561198972801541,"connected_time":138000000000,"state":"active","ping":59},{"user_id":275,"name":"Toast","steam_id":76561198401995265,"connected_time":2238000000000,"state":"active","ping":52},{"user_id":320,"name":"Sagoogoo","steam_id":76561198176061614,"connected_time":494000000000,"state":"active","ping":78},{"user_id":315,"name":"Bagel","steam_id":76561198167747447,"connected_time":788000000000,"state":"active","ping":64},{"user_id":300,"name":"yeetyfreety","steam_id":76561198882735886,"connected_time":1291000000000,"state":"active","ping":59},{"user_id":322,"name":"Ginsai","steam_id":76561198107797443,"connected_time":436000000000,"state":"active","ping":71},{"user_id":316,"name":"Shyki","steam_id":76561199146984256,"connected_time":730000000000,"state":"active","ping":52},{"user_id":294,"name":"crazy german","steam_id":76561199046667189,"connected_time":1539000000000,"state":"active","ping":54},{"user_id":306,"name":"Trimpin' Jimmy","steam_id":76561198004759689,"connected_time":1143000000000,"state":"active","ping":59},{"user_id":287,"name":"Love Being an Owl","steam_id":76561198293422282,"connected_time":1900000000000,"state":"active","ping":79},{"user_id":302,"name":"Magik","steam_id":76561198099726660,"connected_time":1276000000000,"state":"active","ping":99},{"user_id":289,"name":"The Guy","steam_id":76561198072026302,"connected_time":1833000000000,"state":"active","ping":54},{"user_id":303,"name":"IlikeChowMien","steam_id":76561199466131782,"connected_time":1261000000000,"state":"active","ping":68},{"user_id":310,"name":"Goob Oy","steam_id":76561198889932456,"connected_time":1039000000000,"state":"active","ping":56}]},{"server_id":36,"name":"Uncletopia | Chicago | 5 | All Maps","name_short":"chi-5","host":"chi-2.us.uncletopia.com","port":27015,"enabled":true,"region":"us-central","cc":"us","latitude":41.881832,"longitude":-87.62318,"reserved":0,"last_update":"0001-01-01T00:00:00Z","name_a2s":"Uncletopia | Chicago | 5 | All Maps","protocol":17,"map":"pl_borneo","folder":"tf","game":"Team Fortress","app_id":440,"player_count":24,"max_players":24,"Bots":0,"server_type":"Dedicated","server_os":"Linux","password":true,"vac":true,"version":"7961495","steam_id":85568392924866362,"keywords":["nocrits","nodmgspread","payload","uncletopia"],"game_id":440,"stv_port":27016,"stv_name":"Uncletopia | Chicago | 5 | All Maps | STV","players":[{"user_id":599,"name":"a1ex","steam_id":76561198341411993,"connected_time":168000000000,"state":"active","ping":63},{"user_id":559,"name":"ark","steam_id":76561198041066271,"connected_time":3192000000000,"state":"active","ping":81},{"user_id":594,"name":"Kasane","steam_id":76561198209006780,"connected_time":798000000000,"state":"active","ping":69},{"user_id":504,"name":"Master Of Whales","steam_id":76561198349104889,"connected_time":5809000000000,"state":"active","ping":103},{"user_id":583,"name":"Solreaper34","steam_id":76561198391271782,"connected_time":1452000000000,"state":"active","ping":95},{"user_id":574,"name":"Mentally Ill Woman","steam_id":76561198072030567,"connected_time":2150000000000,"state":"active","ping":59},{"user_id":592,"name":"wise","steam_id":76561198030066204,"connected_time":1096000000000,"state":"active","ping":60},{"user_id":588,"name":"Vegerot","steam_id":76561197997843710,"connected_time":1290000000000,"state":"active","ping":61},{"user_id":593,"name":"Reiner","steam_id":76561199201762178,"connected_time":816000000000,"state":"active","ping":67},{"user_id":507,"name":"TheHumanTaco119","steam_id":76561198996107520,"connected_time":5747000000000,"state":"active","ping":105},{"user_id":589,"name":"-W3E- grim10465","steam_id":76561198045698581,"connected_time":1283000000000,"state":"active","ping":57},{"user_id":565,"name":"canakblasteran","steam_id":76561199472518822,"connected_time":3103000000000,"state":"active","ping":91},{"user_id":562,"name":"ultrapuffs","steam_id":76561198023463293,"connected_time":3127000000000,"state":"active","ping":61},{"user_id":590,"name":"Spy","steam_id":76561199498988144,"connected_time":1226000000000,"state":"active","ping":82},{"user_id":591,"name":"SicknTired","steam_id":76561198038829714,"connected_time":1222000000000,"state":"active","ping":94},{"user_id":499,"name":"HollyBlocky","steam_id":76561198030156100,"connected_time":6168000000000,"state":"active","ping":71},{"user_id":600,"name":"Smooth, Refreshing Bleach‚Ñ¢","steam_id":76561197981060504,"connected_time":47000000000,"state":"active","ping":48},{"user_id":586,"name":"Dirtbike rider","steam_id":76561198030457066,"connected_time":1372000000000,"state":"active","ping":89},{"user_id":582,"name":"Orb","steam_id":76561198353963523,"connected_time":1631000000000,"state":"active","ping":77},{"user_id":587,"name":"Frontier Psychiatrist","steam_id":76561198038689088,"connected_time":1358000000000,"state":"active","ping":78},{"user_id":553,"name":"The Soup","steam_id":76561198156746320,"connected_time":3802000000000,"state":"active","ping":50},{"user_id":598,"name":"krill issue","steam_id":76561198088201976,"connected_time":218000000000,"state":"active","ping":136},{"user_id":555,"name":"Juanelo","steam_id":76561199096390505,"connected_time":3797000000000,"state":"active","ping":83},{"user_id":577,"name":"Mint Jelly","steam_id":76561197991286751,"connected_time":2133000000000,"state":"active","ping":50}]},{"server_id":37,"name":"Uncletopia | Chicago | 6 | All Maps","name_short":"chi-6","host":"chi-2.us.uncletopia.com","port":27025,"enabled":true,"region":"us-central","cc":"us","latitude":41.881832,"longitude":-87.62318,"reserved":0,"last_update":"0001-01-01T00:00:00Z","name_a2s":"Uncletopia | Chicago | 6 | All Maps","protocol":17,"map":"pl_upward","folder":"tf","game":"Team Fortress","app_id":440,"player_count":24,"max_players":24,"Bots":0,"server_type":"Dedicated","server_os":"Linux","password":true,"vac":true,"version":"7961495","steam_id":85568392924866363,"keywords":["nocrits","nodmgspread","payload","uncletopia"],"game_id":440,"stv_port":27026,"stv_name":"Uncletopia | Chicago | 6 | All Maps | STV","players":[{"user_id":669,"name":"fusioN","steam_id":76561198079179612,"connected_time":4004000000000,"state":"active","ping":60},{"user_id":714,"name":"gnome zone","steam_id":76561198883349445,"connected_time":1010000000000,"state":"active","ping":102},{"user_id":658,"name":"Lunchboxx","steam_id":76561198079735916,"connected_time":5024000000000,"state":"active","ping":48},{"user_id":703,"name":"Gotta Move That Gear Up","steam_id":76561197993467034,"connected_time":1610000000000,"state":"active","ping":47},{"user_id":719,"name":"wheresgeorge","steam_id":76561198986281248,"connected_time":757000000000,"state":"active","ping":69},{"user_id":702,"name":"FastestPizzaNA","steam_id":76561198050008896,"connected_time":1690000000000,"state":"active","ping":72},{"user_id":694,"name":"peyton","steam_id":76561198219815228,"connected_time":2038000000000,"state":"active","ping":70},{"user_id":689,"name":"LocaKola","steam_id":76561198173435430,"connected_time":2344000000000,"state":"active","ping":60},{"user_id":704,"name":"leumas","steam_id":76561198240408540,"connected_time":1479000000000,"state":"active","ping":90},{"user_id":708,"name":"D(b) Hell","steam_id":76561198067869016,"connected_time":1284000000000,"state":"active","ping":45},{"user_id":710,"name":"Novu","steam_id":76561198886997024,"connected_time":1208000000000,"state":"active","ping":75},{"user_id":716,"name":"Max_Attack","steam_id":76561198944028607,"connected_time":972000000000,"state":"active","ping":69},{"user_id":706,"name":"rynz500","steam_id":76561198043872361,"connected_time":1403000000000,"state":"active","ping":77},{"user_id":720,"name":"ya ya breathe","steam_id":76561198075858067,"connected_time":687000000000,"state":"active","ping":64},{"user_id":605,"name":"Emerald_Knight","steam_id":76561198067372868,"connected_time":8598000000000,"state":"active","ping":50},{"user_id":700,"name":"Schizoid Despot","steam_id":76561198141902905,"connected_time":1889000000000,"state":"active","ping":51},{"user_id":722,"name":"Cr1spy","steam_id":76561198352080718,"connected_time":409000000000,"state":"active","ping":60},{"user_id":707,"name":"Onion My Ate Dog My","steam_id":76561198155848925,"connected_time":1362000000000,"state":"active","ping":61},{"user_id":670,"name":"Smartchicken","steam_id":76561198037744517,"connected_time":3768000000000,"state":"active","ping":67},{"user_id":717,"name":"deadpixel","steam_id":76561198150249843,"connected_time":879000000000,"state":"active","ping":52},{"user_id":698,"name":"woof","steam_id":76561198016562343,"connected_time":1944000000000,"state":"active","ping":60},{"user_id":718,"name":"Gliglamesh","steam_id":76561198058221449,"connected_time":859000000000,"state":"active","ping":59},{"user_id":709,"name":"Tony Slark","steam_id":76561198151256410,"connected_time":1211000000000,"state":"active","ping":142},{"user_id":725,"name":"Avenging Spirit","steam_id":76561198119572121,"connected_time":123000000000,"state":"active","ping":60}]},{"server_id":38,"name":"Uncletopia | Chicago | 7 | Stopwatch","name_short":"chi-7","host":"chi-2.us.uncletopia.com","port":27035,"enabled":true,"region":"us-central","cc":"us","latitude":41.881832,"longitude":-87.62318,"reserved":0,"last_update":"0001-01-01T00:00:00Z","name_a2s":"Uncletopia | Chicago | 7 | Stopwatch","protocol":17,"map":"workshop/koth_bagel_rc6.ugc2514036946","folder":"tf","game":"Team Fortress","app_id":440,"player_count":0,"max_players":24,"Bots":0,"server_type":"Dedicated","server_os":"Linux","password":true,"vac":true,"version":"7961495","steam_id":85568392924866364,"keywords":["cp","nocrits","nodmgspread","uncletopia"],"game_id":440,"stv_port":27036,"stv_name":"Uncletopia | Chicago | 7 | Stopwatch | STV","players":null},{"server_id":39,"name":"Uncletopia | Chicago | 8 | Community","name_short":"chi-8","host":"chi-2.us.uncletopia.com","port":27045,"enabled":true,"region":"us-central","cc":"us","latitude":41.881832,"longitude":-87.62318,"reserved":0,"last_update":"0001-01-01T00:00:00Z","name_a2s":"Uncletopia | Chicago | 8 | Community","protocol":17,"map":"workshop/cp_caldera_rc3.ugc2834196889","folder":"tf","game":"Team Fortress","app_id":440,"player_count":6,"max_players":24,"Bots":0,"server_type":"Dedicated","server_os":"Linux","password":true,"vac":true,"version":"7961495","steam_id":85568392924866365,"keywords":["cp","nocrits","nodmgspread","uncletopia"],"game_id":440,"stv_port":27046,"stv_name":"Uncletopia | Chicago | 8 | Community | STV","players":[{"user_id":151,"name":"Waos","steam_id":76561198329179651,"connected_time":2244000000000,"state":"active","ping":101},{"user_id":165,"name":"The Foreskin Knight","steam_id":76561197995525419,"connected_time":612000000000,"state":"active","ping":37},{"user_id":166,"name":"HecticMedic22","steam_id":76561198211153548,"connected_time":570000000000,"state":"active","ping":46},{"user_id":142,"name":"crimmson","steam_id":76561198416325300,"connected_time":2382000000000,"state":"active","ping":93},{"user_id":168,"name":"Giant Joseph Fan Boy","steam_id":76561199230019748,"connected_time":533000000000,"state":"active","ping":66},{"user_id":20,"name":"bin atlas from atlas","steam_id":76561198075089009,"connected_time":11504000000000,"state":"active","ping":111}]},{"server_id":8,"name":"Uncletopia | Dallas | 1 | All Maps","name_short":"dal-1","host":"dal-1.us.uncletopia.com","port":27015,"enabled":true,"region":"us-central","cc":"us","latitude":32.779167,"longitude":-96.80889,"reserved":0,"last_update":"0001-01-01T00:00:00Z","name_a2s":"Uncletopia | Dallas | 1 | All Maps","protocol":17,"map":"cp_dustbowl","folder":"tf","game":"Team Fortress","app_id":440,"player_count":24,"max_players":24,"Bots":0,"server_type":"Dedicated","server_os":"Linux","password":true,"vac":true,"version":"7961495","steam_id":85568392924469986,"keywords":["cp","nocrits","nodmgspread","uncletopia"],"game_id":440,"stv_port":27016,"stv_name":"Uncletopia | Dallas | 1 | All Maps | STV","players":[{"user_id":335,"name":"freesia","steam_id":76561198127525888,"connected_time":424000000000,"state":"active","ping":46},{"user_id":337,"name":"boo_thefeared","steam_id":76561198127967685,"connected_time":220000000000,"state":"active","ping":142},{"user_id":277,"name":"I AM A STURGEON üêüüêüüêü","steam_id":76561198119536224,"connected_time":4837000000000,"state":"active","ping":101},{"user_id":281,"name":"CeLeb144","steam_id":76561199089907740,"connected_time":4662000000000,"state":"active","ping":57},{"user_id":318,"name":"An Engineer","steam_id":76561198110381643,"connected_time":1235000000000,"state":"active","ping":45},{"user_id":330,"name":"joebot","steam_id":76561197975606100,"connected_time":628000000000,"state":"active","ping":82},{"user_id":315,"name":"sprite in the bong","steam_id":76561198233984300,"connected_time":1448000000000,"state":"active","ping":75},{"user_id":282,"name":"Amish Robot","steam_id":76561198041156065,"connected_time":4656000000000,"state":"active","ping":53},{"user_id":310,"name":"samsoeder","steam_id":76561198293741183,"connected_time":2668000000000,"state":"active","ping":100},{"user_id":317,"name":"FanaticSalt","steam_id":76561199380123059,"connected_time":1291000000000,"state":"active","ping":38},{"user_id":327,"name":"Major Woody","steam_id":76561198835541533,"connected_time":668000000000,"state":"active","ping":59},{"user_id":339,"name":"gogurt","steam_id":76561199051096093,"connected_time":133000000000,"state":"active","ping":86},{"user_id":271,"name":"trainmarine -bt","steam_id":76561198341784551,"connected_time":5200000000000,"state":"active","ping":56},{"user_id":288,"name":"Monte","steam_id":76561198097499917,"connected_time":4275000000000,"state":"active","ping":75},{"user_id":316,"name":"Pearez","steam_id":76561198158141878,"connected_time":1448000000000,"state":"active","ping":68},{"user_id":320,"name":"Lulee","steam_id":76561198044410549,"connected_time":1203000000000,"state":"active","ping":64},{"user_id":340,"name":"tack","steam_id":76561198408477421,"connected_time":129000000000,"state":"active","ping":76},{"user_id":341,"name":"defcon","steam_id":76561198100656328,"connected_time":105000000000,"state":"active","ping":75},{"user_id":286,"name":"Derblitz","steam_id":76561198040953176,"connected_time":4613000000000,"state":"active","ping":76},{"user_id":338,"name":"Ambatukam","steam_id":76561199083115222,"connected_time":219000000000,"state":"active","ping":99},{"user_id":325,"name":"Jacob Hornberger 2016","steam_id":76561198204549723,"connected_time":672000000000,"state":"active","ping":78},{"user_id":331,"name":"Ricky Dicky Doo Dah Grimes","steam_id":76561198868839264,"connected_time":626000000000,"state":"active","ping":40},{"user_id":326,"name":"Santa Gaming","steam_id":76561198078391538,"connected_time":672000000000,"state":"active","ping":76},{"user_id":308,"name":"Bheem","steam_id":76561198170453459,"connected_time":2686000000000,"state":"active","ping":102}]},{"server_id":108,"name":"Uncletopia | Dallas | 2 | All Maps","name_short":"dal-2","host":"dal-1.us.uncletopia.com","port":27025,"enabled":true,"region":"us-central","cc":"us","latitude":32.779167,"longitude":-96.80889,"reserved":0,"last_update":"0001-01-01T00:00:00Z","name_a2s":"Uncletopia | Dallas | 2 | All Maps","protocol":17,"map":"pl_borneo","folder":"tf","game":"Team Fortress","app_id":440,"player_count":24,"max_players":24,"Bots":0,"server_type":"Dedicated","server_os":"Linux","password":true,"vac":true,"version":"7961495","steam_id":85568392924469988,"keywords":["nocrits","nodmgspread","payload","uncletopia"],"game_id":440,"stv_port":27026,"stv_name":"Uncletopia | Dallas | 2 | All Maps | STV","players":[{"user_id":420,"name":"Cxxrupt","steam_id":76561198343510062,"connected_time":1008000000000,"state":"active","ping":115},{"user_id":422,"name":"Civilian (Real)","steam_id":76561198157878163,"connected_time":579000000000,"state":"active","ping":79},{"user_id":426,"name":"Saul Goodman","steam_id":76561199184839884,"connected_time":397000000000,"state":"active","ping":85},{"user_id":409,"name":"IHateThisMap","steam_id":76561197980597646,"connected_time":1777000000000,"state":"active","ping":73},{"user_id":398,"name":"Bowl of Cereal Gaming","steam_id":76561199042252292,"connected_time":2752000000000,"state":"active","ping":80},{"user_id":395,"name":"Bullwinkle J. Moose","steam_id":76561198075977196,"connected_time":3168000000000,"state":"active","ping":104},{"user_id":408,"name":"Zetta","steam_id":76561198045710113,"connected_time":1910000000000,"state":"active","ping":89},{"user_id":428,"name":"sebjzy ‚ô•","steam_id":76561198009959034,"connected_time":172000000000,"state":"active","ping":58},{"user_id":430,"name":"the rat gets the cheese","steam_id":76561199077027954,"connected_time":53000000000,"state":"active","ping":62},{"user_id":410,"name":"meursault","steam_id":76561198151071386,"connected_time":1759000000000,"state":"active","ping":90},{"user_id":415,"name":"DeColdest ToEvaDoit Crawford","steam_id":76561198205346760,"connected_time":1434000000000,"state":"active","ping":72},{"user_id":416,"name":"Laurbler","steam_id":76561198132094572,"connected_time":1366000000000,"state":"active","ping":46},{"user_id":429,"name":"Arm","steam_id":76561198116535637,"connected_time":156000000000,"state":"active","ping":45},{"user_id":427,"name":"DMM","steam_id":76561198065426171,"connected_time":250000000000,"state":"active","ping":55},{"user_id":391,"name":"Smug","steam_id":76561198448205229,"connected_time":3761000000000,"state":"active","ping":67},{"user_id":402,"name":"mkl","steam_id":76561197986401685,"connected_time":2614000000000,"state":"active","ping":55},{"user_id":425,"name":"aggressively mediocre","steam_id":76561199051374573,"connected_time":463000000000,"state":"active","ping":64},{"user_id":401,"name":"kyrgyzstan3","steam_id":76561198207940136,"connected_time":2718000000000,"state":"active","ping":58},{"user_id":390,"name":"shinon","steam_id":76561198373626848,"connected_time":3795000000000,"state":"active","ping":78},{"user_id":406,"name":"JustAnotherHuman","steam_id":76561199018122924,"connected_time":2476000000000,"state":"active","ping":110},{"user_id":413,"name":"oncologist","steam_id":76561197997321386,"connected_time":1526000000000,"state":"active","ping":61},{"user_id":412,"name":"Tea Leaf","steam_id":76561198123549027,"connected_time":1682000000000,"state":"active","ping":92},{"user_id":418,"name":"cavelife","steam_id":76561198091369097,"connected_time":1304000000000,"state":"active","ping":89},{"user_id":392,"name":"Broadsword #LGM","steam_id":76561198011160411,"connected_time":3735000000000,"state":"active","ping":90}]},{"server_id":404,"name":"Uncletopia | Dallas | 3 | All Maps","name_short":"dal-3","host":"dal-1.us.uncletopia.com","port":27035,"enabled":true,"region":"us-central","cc":"us","latitude":32.779167,"longitude":-96.80889,"reserved":0,"last_update":"0001-01-01T00:00:00Z","name_a2s":"Uncletopia | Dallas | 3 | All Maps","protocol":17,"map":"koth_highpass","folder":"tf","game":"Team Fortress","app_id":440,"player_count":0,"max_players":24,"Bots":0,"server_type":"Dedicated","server_os":"Linux","password":true,"vac":true,"version":"7961495","steam_id":85568392924515219,"keywords":["cp","nocrits","nodmgspread","uncletopia"],"game_id":440,"stv_port":27036,"stv_name":"Uncletopia | Dallas | 3 | All Maps | STV","players":null},{"server_id":405,"name":"Uncletopia | Dallas | 4 | Community","name_short":"dal-4","host":"dal-1.us.uncletopia.com","port":27045,"enabled":true,"region":"us-central","cc":"us","latitude":32.779167,"longitude":-96.80889,"reserved":0,"last_update":"0001-01-01T00:00:00Z","name_a2s":"Uncletopia | Dallas | 4 | Community","protocol":17,"map":"workshop/koth_synthetic_rc6a.ugc1549817316","folder":"tf","game":"Team Fortress","app_id":440,"player_count":0,"max_players":24,"Bots":0,"server_type":"Dedicated","server_os":"Linux","password":true,"vac":true,"version":"7961495","steam_id":85568392924515220,"keywords":["cp","nocrits","nodmgspread","uncletopia"],"game_id":440,"stv_port":27046,"stv_name":"Uncletopia | Dallas | 4 | Community | STV","players":null},{"server_id":5,"name":"Uncletopia | Frankfurt | 1 | All Maps","name_short":"frk-1","host":"frk-1.de.uncletopia.com","port":27015,"enabled":true,"region":"eu","cc":"de","latitude":50.110924,"longitude":8.682127,"reserved":0,"last_update":"0001-01-01T00:00:00Z","name_a2s":"Uncletopia | Frankfurt | 1 | All Maps","protocol":17,"map":"koth_highpass","folder":"tf","game":"Team Fortress","app_id":440,"player_count":0,"max_players":24,"Bots":0,"server_type":"Dedicated","server_os":"Linux","password":true,"vac":true,"version":"7961495","steam_id":85568392924469989,"keywords":["cp","nocrits","nodmgspread","uncletopia"],"game_id":440,"stv_port":27016,"stv_name":"Uncletopia | Frankfurt | 1 | All Maps | STV","players":null},{"server_id":110,"name":"Uncletopia | Frankfurt | 2 | All Maps","name_short":"frk-2","host":"frk-1.de.uncletopia.com","port":27025,"enabled":true,"region":"eu","cc":"de","latitude":50.110924,"longitude":8.682127,"reserved":0,"last_update":"0001-01-01T00:00:00Z","name_a2s":"Uncletopia | Frankfurt | 2 | All Maps","protocol":17,"map":"koth_viaduct","folder":"tf","game":"Team Fortress","app_id":440,"player_count":0,"max_players":24,"Bots":0,"server_type":"Dedicated","server_os":"Linux","password":true,"vac":true,"version":"7961495","steam_id":85568392924469990,"keywords":["cp","nocrits","nodmgspread","uncletopia"],"game_id":440,"stv_port":27026,"stv_name":"Uncletopia | Frankfurt | 2 | All Maps | STV","players":null},{"server_id":308,"name":"Uncletopia | Frankfurt | 3 | All Maps","name_short":"frk-3","host":"frk-1.de.uncletopia.com","port":27035,"enabled":true,"region":"eu","cc":"de","latitude":50.110924,"longitude":8.682127,"reserved":0,"last_update":"0001-01-01T00:00:00Z","name_a2s":"Uncletopia | Frankfurt | 3 | All Maps","protocol":17,"map":"koth_cascade","folder":"tf","game":"Team Fortress","app_id":440,"player_count":0,"max_players":24,"Bots":0,"server_type":"Dedicated","server_os":"Linux","password":true,"vac":true,"version":"7961495","steam_id":85568392924504274,"keywords":["cp","nocrits","nodmgspread","uncletopia"],"game_id":440,"stv_port":27036,"stv_name":"Uncletopia | Frankfurt | 3 | All Maps | STV","players":null},{"server_id":309,"name":"Uncletopia | Frankfurt | 4 | All Maps","name_short":"frk-4","host":"frk-1.de.uncletopia.com","port":27045,"enabled":true,"region":"eu","cc":"de","latitude":50.110924,"longitude":8.682127,"reserved":0,"last_update":"0001-01-01T00:00:00Z","name_a2s":"Uncletopia | Frankfurt | 4 | All Maps","protocol":17,"map":"koth_cascade","folder":"tf","game":"Team Fortress","app_id":440,"player_count":0,"max_players":24,"Bots":0,"server_type":"Dedicated","server_os":"Linux","password":true,"vac":true,"version":"7961495","steam_id":85568392924504275,"keywords":["cp","nocrits","nodmgspread","uncletopia"],"game_id":440,"stv_port":27046,"stv_name":"Uncletopia | Frankfurt | 4 | All Maps | STV","players":null},{"server_id":310,"name":"Uncletopia | Frankfurt | 5 | All Maps","name_short":"frk-5","host":"frk-1.de.uncletopia.com","port":27055,"enabled":true,"region":"eu","cc":"de","latitude":50.110924,"longitude":8.682127,"reserved":0,"last_update":"0001-01-01T00:00:00Z","name_a2s":"Uncletopia | Frankfurt | 5 | All Maps","protocol":17,"map":"koth_cascade","folder":"tf","game":"Team Fortress","app_id":440,"player_count":0,"max_players":24,"Bots":0,"server_type":"Dedicated","server_os":"Linux","password":true,"vac":true,"version":"7961495","steam_id":85568392924504277,"keywords":["cp","nocrits","nodmgspread","uncletopia"],"game_id":440,"stv_port":27056,"stv_name":"Uncletopia | Frankfurt | 5 | All Maps | STV","players":null},{"server_id":311,"name":"Uncletopia | Frankfurt | 6 | All Maps","name_short":"frk-6","host":"frk-1.de.uncletopia.com","port":27065,"enabled":true,"region":"eu","cc":"de","latitude":50.110924,"longitude":8.682127,"reserved":0,"last_update":"0001-01-01T00:00:00Z","name_a2s":"Uncletopia | Frankfurt | 6 | All Maps","protocol":17,"map":"pl_swiftwater_final1","folder":"tf","game":"Team Fortress","app_id":440,"player_count":24,"max_players":24,"Bots":0,"server_type":"Dedicated","server_os":"Linux","password":true,"vac":true,"version":"7961495","steam_id":85568392924504278,"keywords":["nocrits","nodmgspread","payload","uncletopia"],"game_id":440,"stv_port":27066,"stv_name":"Uncletopia | Frankfurt | 6 | All Maps | STV","players":[{"user_id":441,"name":"bryophyta","steam_id":76561197968945306,"connected_time":2055000000000,"state":"active","ping":75},{"user_id":473,"name":"Jangli","steam_id":76561198103923652,"connected_time":73000000000,"state":"active","ping":183},{"user_id":463,"name":"WEEP","steam_id":76561199499933159,"connected_time":893000000000,"state":"active","ping":55},{"user_id":469,"name":"Dr Bondus Bolongus Dongus","steam_id":76561198378657692,"connected_time":554000000000,"state":"active","ping":55},{"user_id":436,"name":"tealoverr.190","steam_id":76561199028497703,"connected_time":2427000000000,"state":"active","ping":103},{"user_id":459,"name":"Springfield Crack","steam_id":76561198044818161,"connected_time":920000000000,"state":"active","ping":92},{"user_id":455,"name":"Doctor Rudy G. Numpad","steam_id":76561198440881106,"connected_time":1204000000000,"state":"active","ping":61},{"user_id":451,"name":"ŒìŒ±œÑŒØ","steam_id":76561198347020945,"connected_time":1748000000000,"state":"active","ping":85},{"user_id":440,"name":"Krefa12","steam_id":76561198268375393,"connected_time":2084000000000,"state":"active","ping":75},{"user_id":387,"name":"CumbustiblePunda","steam_id":76561197974274677,"connected_time":6263000000000,"state":"active","ping":45},{"user_id":409,"name":"meriones","steam_id":76561198034234373,"connected_time":5033000000000,"state":"active","ping":55},{"user_id":475,"name":"Infantile Pillock","steam_id":76561198283851362,"connected_time":2000000000,"state":"spawning","ping":49},{"user_id":445,"name":"habibi69","steam_id":76561198141989573,"connected_time":1971000000000,"state":"active","ping":60},{"user_id":466,"name":"Pedro Sanchez baloncesto","steam_id":76561198134192269,"connected_time":699000000000,"state":"active","ping":70},{"user_id":453,"name":"tomydjoh","steam_id":76561198077421906,"connected_time":1722000000000,"state":"active","ping":59},{"user_id":464,"name":"compact disc","steam_id":76561198154677956,"connected_time":874000000000,"state":"active","ping":61},{"user_id":471,"name":"Medic Main","steam_id":76561198057918945,"connected_time":335000000000,"state":"active","ping":77},{"user_id":472,"name":"Siegmeyer","steam_id":76561198328543549,"connected_time":244000000000,"state":"active","ping":79},{"user_id":457,"name":"Furious_Coder cashingout Qs!","steam_id":76561198146046621,"connected_time":933000000000,"state":"active","ping":96},{"user_id":404,"name":"Snowmotion","steam_id":76561198075022454,"connected_time":5274000000000,"state":"active","ping":46},{"user_id":448,"name":"Skaza","steam_id":76561198010292540,"connected_time":1894000000000,"state":"active","ping":64},{"user_id":470,"name":"spy","steam_id":76561199402711007,"connected_time":456000000000,"state":"active","ping":124},{"user_id":474,"name":"Qwerty","steam_id":76561198023525894,"connected_time":66000000000,"state":"active","ping":72},{"user_id":467,"name":"JB","steam_id":76561198058419404,"connected_time":679000000000,"state":"active","ping":71}]},{"server_id":23,"name":"Uncletopia | Frankfurt | 7 | Stopwatch","name_short":"frk-7","host":"frk-1.de.uncletopia.com","port":27075,"enabled":true,"region":"eu","cc":"de","latitude":50.110924,"longitude":8.682127,"reserved":0,"last_update":"0001-01-01T00:00:00Z","name_a2s":"Uncletopia | Frankfurt | 7 | Stopwatch","protocol":17,"map":"cp_metalworks","folder":"tf","game":"Team Fortress","app_id":440,"player_count":0,"max_players":24,"Bots":0,"server_type":"Dedicated","server_os":"Linux","password":true,"vac":true,"version":"7961495","steam_id":85568392924742827,"keywords":["cp","nocrits","nodmgspread","uncletopia"],"game_id":440,"stv_port":27076,"stv_name":"Uncletopia | Frankfurt | 7 | Stopwatch | STV","players":null},{"server_id":24,"name":"Uncletopia | Frankfurt | 8 | Community","name_short":"frk-8","host":"frk-1.de.uncletopia.com","port":27085,"enabled":true,"region":"eu","cc":"de","latitude":50.110924,"longitude":8.682127,"reserved":0,"last_update":"0001-01-01T00:00:00Z","name_a2s":"Uncletopia | Frankfurt | 8 | Community","protocol":17,"map":"workshop/koth_synthetic_rc6a.ugc1549817316","folder":"tf","game":"Team Fortress","app_id":440,"player_count":0,"max_players":24,"Bots":0,"server_type":"Dedicated","server_os":"Linux","password":true,"vac":true,"version":"7961495","steam_id":85568392924742828,"keywords":["cp","nocrits","nodmgspread","uncletopia"],"game_id":440,"stv_port":27086,"stv_name":"Uncletopia | Frankfurt | 8 | Community | STV","players":null},{"server_id":202,"name":"Uncletopia | Hong Kong | 1 | All Maps","name_short":"hgk-1","host":"hgk-1.hk.uncletopia.com","port":27015,"enabled":true,"region":"asia","cc":"hk","latitude":22.302711,"longitude":114.177216,"reserved":0,"last_update":"0001-01-01T00:00:00Z","name_a2s":"Uncletopia | Hong Kong | 1 | All Maps","protocol":17,"map":"pl_upward","folder":"tf","game":"Team Fortress","app_id":440,"player_count":0,"max_players":24,"Bots":0,"server_type":"Dedicated","server_os":"Linux","password":true,"vac":true,"version":"7961495","steam_id":85568392924494504,"keywords":["nocrits","nodmgspread","payload","uncletopia"],"game_id":440,"stv_port":27016,"stv_name":"Uncletopia | Hong Kong | 1 | All Maps | STV","players":null},{"server_id":1,"name":"Uncletopia | Los Angeles | 1 | All Maps","name_short":"lax-1","host":"lax-1.us.uncletopia.com","port":27015,"enabled":true,"region":"us-west","cc":"us","latitude":33.94279,"longitude":-118.41004,"reserved":0,"last_update":"0001-01-01T00:00:00Z","name_a2s":"Uncletopia | Los Angeles | 1 | All Maps","protocol":17,"map":"cp_altitude","folder":"tf","game":"Team Fortress","app_id":440,"player_count":0,"max_players":24,"Bots":0,"server_type":"Dedicated","server_os":"Linux","password":true,"vac":true,"version":"7961495","steam_id":85568392924469991,"keywords":["cp","nocrits","nodmgspread","uncletopia"],"game_id":440,"stv_port":27016,"stv_name":"Uncletopia | Los Angeles | 1 | All Maps | STV","players":null},{"server_id":112,"name":"Uncletopia | Los Angeles | 2 | All Maps","name_short":"lax-2","host":"lax-1.us.uncletopia.com","port":27025,"enabled":true,"region":"us-west","cc":"us","latitude":33.94279,"longitude":-118.41004,"reserved":0,"last_update":"0001-01-01T00:00:00Z","name_a2s":"Uncletopia | Los Angeles | 2 | All Maps","protocol":17,"map":"pl_swiftwater_final1","folder":"tf","game":"Team Fortress","app_id":440,"player_count":0,"max_players":24,"Bots":0,"server_type":"Dedicated","server_os":"Linux","password":true,"vac":true,"version":"7961495","steam_id":85568392924469992,"keywords":["nocrits","nodmgspread","payload","uncletopia"],"game_id":440,"stv_port":27026,"stv_name":"Uncletopia | Los Angeles | 2 | All Maps | STV","players":null},{"server_id":324,"name":"Uncletopia | Los Angeles | 3 | All Maps","name_short":"lax-3","host":"lax-1.us.uncletopia.com","port":27035,"enabled":true,"region":"us-west","cc":"us","latitude":33.94279,"longitude":-118.41004,"reserved":0,"last_update":"0001-01-01T00:00:00Z","name_a2s":"Uncletopia | Los Angeles | 3 | All Maps","protocol":17,"map":"pl_thundermountain","folder":"tf","game":"Team Fortress","app_id":440,"player_count":20,"max_players":24,"Bots":0,"server_type":"Dedicated","server_os":"Linux","password":true,"vac":true,"version":"7961495","steam_id":85568392924510198,"keywords":["nocrits","nodmgspread","payload","uncletopia"],"game_id":440,"stv_port":27036,"stv_name":"Uncletopia | Los Angeles | 3 | All Maps | STV","players":[{"user_id":153,"name":"An00bis","steam_id":76561198044084508,"connected_time":10000000000,"state":"active","ping":49},{"user_id":77,"name":"Colossal Falafel","steam_id":76561198108086245,"connected_time":5319000000000,"state":"active","ping":92},{"user_id":154,"name":"vanillain","steam_id":76561198058617608,"connected_time":10000000000,"state":"spawning","ping":302},{"user_id":125,"name":"Ralph Kramden (Slim Charles)","steam_id":76561197981687895,"connected_time":2315000000000,"state":"active","ping":47},{"user_id":150,"name":"Kilian","steam_id":76561197964374101,"connected_time":201000000000,"state":"active","ping":67},{"user_id":101,"name":"fish","steam_id":76561198054070811,"connected_time":3646000000000,"state":"active","ping":40},{"user_id":152,"name":"Daruke","steam_id":76561198300686262,"connected_time":69000000000,"state":"active","ping":104},{"user_id":149,"name":"Hakuyer","steam_id":76561198098618247,"connected_time":336000000000,"state":"active","ping":61},{"user_id":93,"name":"Chad MorningWood","steam_id":76561198139832291,"connected_time":4218000000000,"state":"active","ping":47},{"user_id":98,"name":"Soda","steam_id":76561198219209367,"connected_time":3717000000000,"state":"active","ping":63},{"user_id":146,"name":"fudo myoo","steam_id":76561198456258164,"connected_time":847000000000,"state":"active","ping":98},{"user_id":148,"name":"ReubenSalsa","steam_id":76561198110060815,"connected_time":369000000000,"state":"active","ping":106},{"user_id":144,"name":"Alkimia","steam_id":76561198385763137,"connected_time":875000000000,"state":"active","ping":94},{"user_id":64,"name":"rat","steam_id":76561198130412963,"connected_time":6722000000000,"state":"active","ping":86},{"user_id":30,"name":"nanoboosts","steam_id":76561199500861337,"connected_time":7524000000000,"state":"active","ping":54},{"user_id":79,"name":"Username","steam_id":76561198198918781,"connected_time":5257000000000,"state":"active","ping":57},{"user_id":114,"name":"ATLS1 | Strange Festive","steam_id":76561198050385093,"connected_time":3104000000000,"state":"active","ping":117},{"user_id":151,"name":"·≤º·≤º·≤º","steam_id":76561198845246815,"connected_time":198000000000,"state":"active","ping":56},{"user_id":133,"name":"WillieMakit","steam_id":76561197985391684,"connected_time":1810000000000,"state":"active","ping":54},{"user_id":147,"name":"Jerry","steam_id":76561198044717045,"connected_time":847000000000,"state":"active","ping":36}]},{"server_id":25,"name":"Uncletopia | Los Angeles | 4 | Stopwatch","name_short":"lax-4","host":"lax-1.us.uncletopia.com","port":27045,"enabled":true,"region":"us-west","cc":"us","latitude":33.94279,"longitude":-118.41004,"reserved":0,"last_update":"0001-01-01T00:00:00Z","name_a2s":"Uncletopia | Los Angeles | 4 | Stopwatch","protocol":17,"map":"koth_highpass","folder":"tf","game":"Team Fortress","app_id":440,"player_count":0,"max_players":24,"Bots":0,"server_type":"Dedicated","server_os":"Linux","password":true,"vac":true,"version":"7961495","steam_id":85568392924510199,"keywords":["cp","nocrits","nodmgspread","uncletopia"],"game_id":440,"stv_port":27046,"stv_name":"Uncletopia | Los Angeles | 4 | Stopwatch | STV","players":null},{"server_id":11,"name":"Uncletopia | London | 1 | All Maps","name_short":"lon-1","host":"lon-1.uk.uncletopia.com","port":27015,"enabled":true,"region":"eu","cc":"gb","latitude":51.509865,"longitude":-0.118092,"reserved":0,"last_update":"0001-01-01T00:00:00Z","name_a2s":"Uncletopia | London | 1 | All Maps","protocol":17,"map":"pl_pier","folder":"tf","game":"Team Fortress","app_id":440,"player_count":23,"max_players":24,"Bots":0,"server_type":"Dedicated","server_os":"Linux","password":true,"vac":true,"version":"7961495","steam_id":85568392924367362,"keywords":["nocrits","nodmgspread","payload","uncletopia"],"game_id":440,"stv_port":27016,"stv_name":"Uncletopia | London | 1 | All Maps | STV","players":[{"user_id":747,"name":"GIRLBITER alice","steam_id":76561198180361759,"connected_time":4575000000000,"state":"active","ping":42},{"user_id":787,"name":"Mads Mikkelsen","steam_id":76561198083482001,"connected_time":781000000000,"state":"active","ping":69},{"user_id":772,"name":"biohazard (#1 beebo fan)","steam_id":76561198162873354,"connected_time":1787000000000,"state":"active","ping":95},{"user_id":776,"name":"Daan77","steam_id":76561198129940468,"connected_time":1756000000000,"state":"active","ping":53},{"user_id":779,"name":"suicidal","steam_id":76561199383437138,"connected_time":1597000000000,"state":"active","ping":113},{"user_id":757,"name":"xTheDarkLight","steam_id":76561198239128298,"connected_time":2826000000000,"state":"active","ping":59},{"user_id":754,"name":"Emilio Juarez","steam_id":76561198179693110,"connected_time":3638000000000,"state":"active","ping":42},{"user_id":755,"name":"Alice","steam_id":76561198052410860,"connected_time":2994000000000,"state":"active","ping":143},{"user_id":785,"name":"LeonCactus","steam_id":76561198102360825,"connected_time":875000000000,"state":"active","ping":41},{"user_id":773,"name":"Gry","steam_id":76561198053961616,"connected_time":1783000000000,"state":"active","ping":49},{"user_id":652,"name":"Sandshee","steam_id":76561198088574666,"connected_time":13291000000000,"state":"active","ping":45},{"user_id":780,"name":"doctor sex","steam_id":76561198343097164,"connected_time":1366000000000,"state":"active","ping":80},{"user_id":746,"name":"Laru","steam_id":76561197998838438,"connected_time":4653000000000,"state":"active","ping":75},{"user_id":782,"name":"Urtaras","steam_id":76561198085604412,"connected_time":1147000000000,"state":"active","ping":44},{"user_id":784,"name":"BreadBubbles","steam_id":76561198174332826,"connected_time":1022000000000,"state":"active","ping":59},{"user_id":741,"name":"beebo","steam_id":76561199120277007,"connected_time":5715000000000,"state":"active","ping":38},{"user_id":750,"name":"SENSITIVITY OVERDRIVE!!!!","steam_id":76561198163615254,"connected_time":4365000000000,"state":"active","ping":59},{"user_id":774,"name":"Don Draper","steam_id":76561198148359093,"connected_time":1783000000000,"state":"active","ping":44},{"user_id":789,"name":"Onecoinsachi","steam_id":76561199085984801,"connected_time":695000000000,"state":"active","ping":49},{"user_id":793,"name":"Swagmaster","steam_id":76561198045828392,"connected_time":92000000000,"state":"active","ping":54},{"user_id":791,"name":"Slifer the Egyptian God Furry","steam_id":76561198062255803,"connected_time":467000000000,"state":"active","ping":71},{"user_id":678,"name":"Speed-Dial","steam_id":76561198012428315,"connected_time":12849000000000,"state":"active","ping":44},{"user_id":737,"name":"sora (live)","steam_id":76561198096547662,"connected_time":6795000000000,"state":"active","ping":46}]},{"server_id":114,"name":"Uncletopia | London | 2 | All Maps","name_short":"lon-2","host":"lon-1.uk.uncletopia.com","port":27025,"enabled":true,"region":"eu","cc":"gb","latitude":51.509865,"longitude":-0.118092,"reserved":0,"last_update":"0001-01-01T00:00:00Z","name_a2s":"Uncletopia | London | 2 | All Maps","protocol":17,"map":"cp_snakewater_final1","folder":"tf","game":"Team Fortress","app_id":440,"player_count":0,"max_players":24,"Bots":0,"server_type":"Dedicated","server_os":"Linux","password":true,"vac":true,"version":"7961495","steam_id":85568392924470941,"keywords":["cp","nocrits","nodmgspread","uncletopia"],"game_id":440,"stv_port":27026,"stv_name":"Uncletopia | London | 2 | All Maps | STV","players":null},{"server_id":320,"name":"Uncletopia | London | 3 | All Maps","name_short":"lon-3","host":"lon-1.uk.uncletopia.com","port":27035,"enabled":true,"region":"eu","cc":"gb","latitude":51.509865,"longitude":-0.118092,"reserved":0,"last_update":"0001-01-01T00:00:00Z","name_a2s":"Uncletopia | London | 3 | All Maps","protocol":17,"map":"koth_highpass","folder":"tf","game":"Team Fortress","app_id":440,"player_count":0,"max_players":24,"Bots":0,"server_type":"Dedicated","server_os":"Linux","password":true,"vac":true,"version":"7961495","steam_id":85568392924510192,"keywords":["cp","nocrits","nodmgspread","uncletopia"],"game_id":440,"stv_port":27036,"stv_name":"Uncletopia | London | 3 | All Maps | STV","players":null},{"server_id":321,"name":"Uncletopia | London | 4 | All Maps","name_short":"lon-4","host":"lon-1.uk.uncletopia.com","port":27045,"enabled":true,"region":"eu","cc":"gb","latitude":51.509865,"longitude":-0.118092,"reserved":0,"last_update":"0001-01-01T00:00:00Z","name_a2s":"Uncletopia | London | 4 | All Maps","protocol":17,"map":"cp_sunshine","folder":"tf","game":"Team Fortress","app_id":440,"player_count":24,"max_players":24,"Bots":0,"server_type":"Dedicated","server_os":"Linux","password":true,"vac":true,"version":"7961495","steam_id":85568392924510193,"keywords":["cp","nocrits","nodmgspread","uncletopia"],"game_id":440,"stv_port":27046,"stv_name":"Uncletopia | London | 4 | All Maps | STV","players":[{"user_id":914,"name":"Venwood","steam_id":76561198126973175,"connected_time":2525000000000,"state":"active","ping":45},{"user_id":902,"name":"Houlles","steam_id":76561198095277383,"connected_time":3301000000000,"state":"active","ping":49},{"user_id":923,"name":"Ostara","steam_id":76561198200054489,"connected_time":1152000000000,"state":"active","ping":38},{"user_id":875,"name":"Cosmetic brain","steam_id":76561198055936410,"connected_time":5053000000000,"state":"active","ping":78},{"user_id":866,"name":"Bajas","steam_id":76561198179339326,"connected_time":5426000000000,"state":"active","ping":86},{"user_id":909,"name":"Cranbury","steam_id":76561198079170457,"connected_time":2909000000000,"state":"active","ping":49},{"user_id":899,"name":"perfectemu","steam_id":76561199147866624,"connected_time":3454000000000,"state":"active","ping":141},{"user_id":908,"name":"monsterISfun","steam_id":76561198121734867,"connected_time":2975000000000,"state":"active","ping":70},{"user_id":880,"name":"chillrend_morphs_high_lod6","steam_id":76561198452963141,"connected_time":4889000000000,"state":"active","ping":92},{"user_id":881,"name":"Nomakh","steam_id":76561198096414653,"connected_time":4873000000000,"state":"active","ping":89},{"user_id":928,"name":"leeloo","steam_id":76561199256962353,"connected_time":517000000000,"state":"active","ping":73},{"user_id":911,"name":"Ryan Gosling (Literally me)","steam_id":76561198438150893,"connected_time":2823000000000,"state":"active","ping":106},{"user_id":932,"name":"Summer ‚ô•","steam_id":76561198047723907,"connected_time":177000000000,"state":"active","ping":33},{"user_id":894,"name":"Live Ruby Reaction","steam_id":76561198304902462,"connected_time":3814000000000,"state":"active","ping":31},{"user_id":884,"name":"Vershal Smershal","steam_id":76561198116223995,"connected_time":4767000000000,"state":"active","ping":57},{"user_id":930,"name":"Nassu","steam_id":76561198147367577,"connected_time":288000000000,"state":"active","ping":146},{"user_id":915,"name":"one bad day off","steam_id":76561198201648919,"connected_time":2181000000000,"state":"active","ping":112},{"user_id":929,"name":"Spooky","steam_id":76561198296063143,"connected_time":452000000000,"state":"active","ping":69},{"user_id":926,"name":"Ash","steam_id":76561198148738525,"connected_time":652000000000,"state":"active","ping":104},{"user_id":918,"name":"elijah","steam_id":76561198093936708,"connected_time":1747000000000,"state":"active","ping":46},{"user_id":931,"name":"bunga_grunga","steam_id":76561199127325952,"connected_time":285000000000,"state":"active","ping":137},{"user_id":925,"name":"Hank J Wimbleton","steam_id":76561198408623293,"connected_time":696000000000,"state":"active","ping":54},{"user_id":913,"name":"Cooldude95","steam_id":76561198881847928,"connected_time":2745000000000,"state":"active","ping":120},{"user_id":822,"name":"Marcel","steam_id":76561198348686648,"connected_time":8776000000000,"state":"active","ping":45}]},{"server_id":21,"name":"Uncletopia | London | 5 | All Maps","name_short":"lon-5","host":"lon-1.uk.uncletopia.com","port":27055,"enabled":true,"region":"eu","cc":"gb","latitude":51.509865,"longitude":-0.118092,"reserved":0,"last_update":"0001-01-01T00:00:00Z","name_a2s":"Uncletopia | London | 5 | All Maps","protocol":17,"map":"pl_snowycoast","folder":"tf","game":"Team Fortress","app_id":440,"player_count":24,"max_players":24,"Bots":0,"server_type":"Dedicated","server_os":"Linux","password":true,"vac":true,"version":"7961495","steam_id":85568392924742829,"keywords":["nocrits","nodmgspread","payload","uncletopia"],"game_id":440,"stv_port":27056,"stv_name":"Uncletopia | London | 5 | All Maps | STV","players":[{"user_id":480,"name":"Lyncurion","steam_id":76561199260022725,"connected_time":1431000000000,"state":"active","ping":75},{"user_id":483,"name":"Proto-arc","steam_id":76561198012776747,"connected_time":1283000000000,"state":"active","ping":46},{"user_id":449,"name":"Smartest Person In the Universe","steam_id":76561199444636848,"connected_time":4125000000000,"state":"active","ping":37},{"user_id":492,"name":"BuzzBees ‚ù§","steam_id":76561198101502273,"connected_time":916000000000,"state":"active","ping":51},{"user_id":476,"name":"Valfezant","steam_id":76561199063983797,"connected_time":2153000000000,"state":"active","ping":73},{"user_id":496,"name":"eMcP","steam_id":76561198382509396,"connected_time":433000000000,"state":"active","ping":53},{"user_id":452,"name":"Ruvik","steam_id":76561198031040533,"connected_time":3956000000000,"state":"active","ping":48},{"user_id":482,"name":"bruh","steam_id":76561198109262927,"connected_time":1326000000000,"state":"active","ping":76},{"user_id":485,"name":"Piellino","steam_id":76561198156873276,"connected_time":1277000000000,"state":"active","ping":105},{"user_id":379,"name":"Unreliable, funny and dangerous","steam_id":76561198050709790,"connected_time":8304000000000,"state":"active","ping":89},{"user_id":481,"name":"blurry","steam_id":76561198884908952,"connected_time":1354000000000,"state":"active","ping":52},{"user_id":486,"name":"Shadoxa","steam_id":76561198000421236,"connected_time":1270000000000,"state":"active","ping":36},{"user_id":437,"name":"rummy","steam_id":76561197997573379,"connected_time":4903000000000,"state":"active","ping":45},{"user_id":487,"name":"Chatis","steam_id":76561198042781257,"connected_time":1264000000000,"state":"active","ping":74},{"user_id":479,"name":"Dei Genetrix","steam_id":76561198305678122,"connected_time":2037000000000,"state":"active","ping":45},{"user_id":475,"name":"Rapha√´l Ambrosius Costeau","steam_id":76561198142478237,"connected_time":2235000000000,"state":"active","ping":50},{"user_id":495,"name":"puck","steam_id":76561198121260981,"connected_time":722000000000,"state":"active","ping":45},{"user_id":497,"name":"Œ∂(s)","steam_id":76561198043868994,"connected_time":371000000000,"state":"active","ping":38},{"user_id":491,"name":"i pity the drool.","steam_id":76561199330937686,"connected_time":1066000000000,"state":"active","ping":69},{"user_id":466,"name":"Scuffed katana+9 PvP stones+4","steam_id":76561199375170916,"connected_time":2984000000000,"state":"active","ping":106},{"user_id":489,"name":"Skelet","steam_id":76561198051685232,"connected_time":1254000000000,"state":"active","ping":45},{"user_id":456,"name":"Onions","steam_id":76561198150195195,"connected_time":3337000000000,"state":"active","ping":56},{"user_id":490,"name":"KittyKate ‚ù§","steam_id":76561198116340817,"connected_time":1251000000000,"state":"active","ping":60},{"user_id":474,"name":"travis","steam_id":76561198138119811,"connected_time":2384000000000,"state":"active","ping":45}]},{"server_id":22,"name":"Uncletopia | London | 6 | All Maps","name_short":"lon-6","host":"lon-1.uk.uncletopia.com","port":27065,"enabled":true,"region":"eu","cc":"gb","latitude":51.509865,"longitude":-0.118092,"reserved":0,"last_update":"0001-01-01T00:00:00Z","name_a2s":"Uncletopia | London | 6 | All Maps","protocol":17,"map":"koth_viaduct","folder":"tf","game":"Team Fortress","app_id":440,"player_count":2,"max_players":24,"Bots":0,"server_type":"Dedicated","server_os":"Linux","password":true,"vac":true,"version":"7961495","steam_id":85568392924742830,"keywords":["cp","nocrits","nodmgspread","uncletopia"],"game_id":440,"stv_port":27066,"stv_name":"Uncletopia | London | 6 | All Maps | STV","players":[{"user_id":460,"name":"Frazzles","steam_id":76561199228009586,"connected_time":128000000000,"state":"active","ping":44},{"user_id":461,"name":"CBT","steam_id":76561199439141531,"connected_time":85000000000,"state":"active","ping":54}]},{"server_id":40,"name":"Uncletopia | London | 7 | Stopwatch","name_short":"lon-7","host":"lon-1.uk.uncletopia.com","port":27075,"enabled":true,"region":"eu","cc":"gb","latitude":51.509865,"longitude":-0.118092,"reserved":0,"last_update":"0001-01-01T00:00:00Z","name_a2s":"Uncletopia | London | 7 | Stopwatch","protocol":17,"map":"cp_snakewater_final1","folder":"tf","game":"Team Fortress","app_id":440,"player_count":0,"max_players":24,"Bots":0,"server_type":"Dedicated","server_os":"Linux","password":true,"vac":true,"version":"7961495","steam_id":85568392924964314,"keywords":["cp","nocrits","nodmgspread","uncletopia"],"game_id":440,"stv_port":27076,"stv_name":"Uncletopia | London | 7 | Stopwatch | STV","players":null},{"server_id":41,"name":"Uncletopia | London | 8 | Community","name_short":"lon-8","host":"lon-1.uk.uncletopia.com","port":27085,"enabled":true,"region":"eu","cc":"gb","latitude":51.509865,"longitude":-0.118092,"reserved":0,"last_update":"0001-01-01T00:00:00Z","name_a2s":"Uncletopia | London | 8 | Community","protocol":17,"map":"workshop/cp_villa_b19.ugc2113052569","folder":"tf","game":"Team Fortress","app_id":440,"player_count":0,"max_players":24,"Bots":0,"server_type":"Dedicated","server_os":"Linux","password":true,"vac":true,"version":"7961495","steam_id":85568392924964315,"keywords":["cp","nocrits","nodmgspread","uncletopia"],"game_id":440,"stv_port":27086,"stv_name":"Uncletopia | London | 8 | Community | STV","players":null},{"server_id":300,"name":"Uncletopia | Montr√©al | 1 | One Thousand Uncles","name_short":"mtl-1","host":"mtl-1.ca.uncletopia.com","port":27015,"enabled":true,"region":"us-east","cc":"ca","latitude":45.50889,"longitude":-73.56167,"reserved":0,"last_update":"0001-01-01T00:00:00Z","name_a2s":"Uncletopia | Montr√©al | 1 | One Thousand Uncles","protocol":17,"map":"pl_badwater","folder":"tf","game":"Team Fortress","app_id":440,"player_count":29,"max_players":32,"Bots":16,"server_type":"Dedicated","server_os":"Linux","password":true,"vac":true,"version":"7961495","steam_id":85568392924500087,"keywords":["alltalk","bots","danepve","increased_maxplayers","norespawntime","payload","uncletopia"],"game_id":440,"stv_port":0,"stv_name":"","players":[{"user_id":361,"name":"CCTV CAMERA","steam_id":76561198079973828,"connected_time":5038000000000,"state":"active","ping":80},{"user_id":380,"name":"Wooper","steam_id":76561198047491931,"connected_time":2647000000000,"state":"active","ping":45},{"user_id":382,"name":"okay","steam_id":76561198024973008,"connected_time":2183000000000,"state":"active","ping":63},{"user_id":378,"name":"Berlioz","steam_id":76561198040532757,"connected_time":3571000000000,"state":"active","ping":79},{"user_id":350,"name":"HI_THERE","steam_id":76561198436389409,"connected_time":5821000000000,"state":"active","ping":59},{"user_id":399,"name":"Why not Zoidberg?","steam_id":76561197982207556,"connected_time":1834000000000,"state":"active","ping":79},{"user_id":379,"name":"Grand Wizard","steam_id":76561199382783363,"connected_time":3232000000000,"state":"active","ping":77},{"user_id":400,"name":"giant_dork","steam_id":76561199105606956,"connected_time":1807000000000,"state":"active","ping":74},{"user_id":414,"name":"nonagon infinity","steam_id":76561198397662124,"connected_time":106000000000,"state":"active","ping":91},{"user_id":402,"name":"Prosecutor Edgeworth","steam_id":76561198108612294,"connected_time":1368000000000,"state":"active","ping":76},{"user_id":403,"name":"Robert Nutbar","steam_id":76561198062334757,"connected_time":1275000000000,"state":"active","ping":67},{"user_id":416,"name":"Ramen","steam_id":76561198152762458,"connected_time":71000000000,"state":"active","ping":56},{"user_id":412,"name":"Derplish","steam_id":76561198831714443,"connected_time":348000000000,"state":"active","ping":71}]},{"server_id":301,"name":"Uncletopia | Montr√©al | 2 | One Thousand Uncles","name_short":"mtl-2","host":"mtl-1.ca.uncletopia.com","port":27025,"enabled":true,"region":"us-east","cc":"ca","latitude":45.50889,"longitude":-73.56167,"reserved":0,"last_update":"0001-01-01T00:00:00Z","name_a2s":"Uncletopia | Montr√©al | 2 | One Thousand Uncles","protocol":17,"map":"pl_chilly","folder":"tf","game":"Team Fortress","app_id":440,"player_count":0,"max_players":32,"Bots":0,"server_type":"Dedicated","server_os":"Linux","password":true,"vac":true,"version":"7961495","steam_id":85568392924500088,"keywords":["alltalk","danepve","increased_maxplayers","norespawntime","payload","uncletopia"],"game_id":440,"stv_port":0,"stv_name":"","players":null},{"server_id":302,"name":"Uncletopia | Montr√©al | 3 | One Thousand Uncles","name_short":"mtl-3","host":"mtl-1.ca.uncletopia.com","port":27035,"enabled":true,"region":"us-east","cc":"ca","latitude":45.50889,"longitude":-73.56167,"reserved":0,"last_update":"0001-01-01T00:00:00Z","name_a2s":"Uncletopia | Montr√©al | 3 | One Thousand Uncles","protocol":17,"map":"pl_pier","folder":"tf","game":"Team Fortress","app_id":440,"player_count":0,"max_players":32,"Bots":0,"server_type":"Dedicated","server_os":"Linux","password":true,"vac":true,"version":"7961495","steam_id":85568392924500089,"keywords":["alltalk","danepve","increased_maxplayers","norespawntime","payload","uncletopia"],"game_id":440,"stv_port":0,"stv_name":"","players":null},{"server_id":13,"name":"Uncletopia | New York City | 1 | All Maps","name_short":"nyc-1","host":"nyc-1.us.uncletopia.com","port":27015,"enabled":true,"region":"us-east","cc":"us","latitude":40.73061,"longitude":-73.93524,"reserved":0,"last_update":"0001-01-01T00:00:00Z","name_a2s":"Uncletopia | New York City | 1 | All Maps","protocol":17,"map":"pl_upward","folder":"tf","game":"Team Fortress","app_id":440,"player_count":23,"max_players":24,"Bots":0,"server_type":"Dedicated","server_os":"Linux","password":true,"vac":true,"version":"7961495","steam_id":85568392924469993,"keywords":["nocrits","nodmgspread","payload","uncletopia"],"game_id":440,"stv_port":27016,"stv_name":"Uncletopia | New York City | 1 | All Maps | STV","players":[{"user_id":536,"name":"jaytheking05","steam_id":76561198856419769,"connected_time":446000000000,"state":"active","ping":35},{"user_id":497,"name":"Samercam","steam_id":76561198189403190,"connected_time":3136000000000,"state":"active","ping":79},{"user_id":529,"name":"‚ô©Karmism‚ô©","steam_id":76561199453410299,"connected_time":937000000000,"state":"active","ping":77},{"user_id":513,"name":"Whisk #GOOD GAMER","steam_id":76561198272318229,"connected_time":1828000000000,"state":"active","ping":54},{"user_id":528,"name":"CRAZY engineer","steam_id":76561198887937902,"connected_time":1236000000000,"state":"active","ping":61},{"user_id":537,"name":"Berb","steam_id":76561198193911899,"connected_time":426000000000,"state":"active","ping":69},{"user_id":498,"name":"Boot Mcstink","steam_id":76561199226873917,"connected_time":3123000000000,"state":"active","ping":81},{"user_id":425,"name":"whatever","steam_id":76561197994759007,"connected_time":7168000000000,"state":"active","ping":75},{"user_id":506,"name":"Mr.Bady","steam_id":76561199094651706,"connected_time":2451000000000,"state":"active","ping":46},{"user_id":521,"name":"emotional suppport e-cigarette","steam_id":76561198172120615,"connected_time":1385000000000,"state":"active","ping":38},{"user_id":538,"name":"John Fortnite","steam_id":76561198076608253,"connected_time":165000000000,"state":"active","ping":45},{"user_id":539,"name":"doop","steam_id":76561198370487545,"connected_time":103000000000,"state":"active","ping":53},{"user_id":507,"name":"yedno glov ye mam","steam_id":76561198143826450,"connected_time":2304000000000,"state":"active","ping":65},{"user_id":447,"name":"Satan's Salad","steam_id":76561198043965827,"connected_time":5949000000000,"state":"active","ping":61},{"user_id":530,"name":"Beep Berokee Beux Bille","steam_id":76561198362044261,"connected_time":935000000000,"state":"active","ping":56},{"user_id":527,"name":"Chadmander","steam_id":76561197974136337,"connected_time":1237000000000,"state":"active","ping":60},{"user_id":522,"name":"Bee","steam_id":76561198074681324,"connected_time":1349000000000,"state":"active","ping":55},{"user_id":531,"name":"Unfortunate Son","steam_id":76561199123285878,"connected_time":740000000000,"state":"active","ping":65},{"user_id":532,"name":"THE SYSTEM!","steam_id":76561198138723795,"connected_time":739000000000,"state":"active","ping":56},{"user_id":535,"name":"CAVAECHRIST","steam_id":76561199092677510,"connected_time":503000000000,"state":"active","ping":43},{"user_id":525,"name":"Scarecrow","steam_id":76561198045870511,"connected_time":1342000000000,"state":"active","ping":67},{"user_id":468,"name":"zpalmtree","steam_id":76561198134307620,"connected_time":5035000000000,"state":"active","ping":75},{"user_id":526,"name":"spaint","steam_id":76561198014662930,"connected_time":1342000000000,"state":"active","ping":49}]},{"server_id":14,"name":"Uncletopia | New York City | 2 | All Maps","name_short":"nyc-2","host":"nyc-1.us.uncletopia.com","port":27025,"enabled":true,"region":"us-east","cc":"us","latitude":40.73061,"longitude":-73.93524,"reserved":0,"last_update":"0001-01-01T00:00:00Z","name_a2s":"Uncletopia | New York City | 2 | All Maps","protocol":17,"map":"cp_well","folder":"tf","game":"Team Fortress","app_id":440,"player_count":23,"max_players":24,"Bots":0,"server_type":"Dedicated","server_os":"Linux","password":true,"vac":true,"version":"7961495","steam_id":85568392924469994,"keywords":["cp","nocrits","nodmgspread","uncletopia"],"game_id":440,"stv_port":27026,"stv_name":"Uncletopia | New York City | 2 | All Maps | STV","players":[{"user_id":602,"name":"KrazyKid","steam_id":76561199074429644,"connected_time":4318000000000,"state":"active","ping":85},{"user_id":650,"name":"Nerrrd_","steam_id":76561198870129960,"connected_time":1828000000000,"state":"active","ping":41},{"user_id":667,"name":"Inevitable","steam_id":76561198210050169,"connected_time":1041000000000,"state":"active","ping":45},{"user_id":605,"name":"bobbymcbobington","steam_id":76561199089411172,"connected_time":4279000000000,"state":"active","ping":122},{"user_id":659,"name":"Orange Triangle","steam_id":76561198320498182,"connected_time":1374000000000,"state":"active","ping":60},{"user_id":673,"name":"Bi Panic","steam_id":76561198426306122,"connected_time":121000000000,"state":"active","ping":46},{"user_id":675,"name":"munki„ÉÑ","steam_id":76561198841270249,"connected_time":4000000000,"state":"spawning","ping":44},{"user_id":648,"name":"Rated_C","steam_id":76561199226478414,"connected_time":1896000000000,"state":"active","ping":88},{"user_id":599,"name":"rstrom","steam_id":76561197961225022,"connected_time":4426000000000,"state":"active","ping":61},{"user_id":651,"name":"Pasta La Vista","steam_id":76561198129450033,"connected_time":1817000000000,"state":"active","ping":39},{"user_id":665,"name":"Just washed","steam_id":76561199030160932,"connected_time":1214000000000,"state":"active","ping":75},{"user_id":670,"name":"caberknight tf2  (f2p-ish)","steam_id":76561199273882768,"connected_time":962000000000,"state":"active","ping":50},{"user_id":674,"name":"NiŒªiwiŒªi, ‚ñºiscount of ‚ñºio","steam_id":76561198009193777,"connected_time":27000000000,"state":"spawning","ping":56},{"user_id":672,"name":"lonely fortnite gamer girl","steam_id":76561198272948471,"connected_time":841000000000,"state":"active","ping":62},{"user_id":630,"name":"Windows 7 Ultimate","steam_id":76561198337692867,"connected_time":2881000000000,"state":"active","ping":78},{"user_id":646,"name":"sanxi's cave","steam_id":76561199034371191,"connected_time":2087000000000,"state":"active","ping":175},{"user_id":669,"name":"Motorol¬™","steam_id":76561198358119669,"connected_time":1016000000000,"state":"active","ping":124},{"user_id":666,"name":"Exhiet","steam_id":76561198218111020,"connected_time":1085000000000,"state":"active","ping":60},{"user_id":640,"name":"Hot Cheese Sundae","steam_id":76561198061189527,"connected_time":2297000000000,"state":"active","ping":72},{"user_id":655,"name":"your very own pocket medic","steam_id":76561199489320369,"connected_time":1765000000000,"state":"active","ping":45},{"user_id":627,"name":"DrMania82","steam_id":76561198113086878,"connected_time":3214000000000,"state":"active","ping":75},{"user_id":656,"name":"Coke Himmy","steam_id":76561198397459211,"connected_time":1762000000000,"state":"active","ping":53},{"user_id":639,"name":"mazikin","steam_id":76561198018523154,"connected_time":2438000000000,"state":"active","ping":61}]},{"server_id":15,"name":"Uncletopia | New York City | 3 | Stopwatch","name_short":"nyc-3","host":"nyc-1.us.uncletopia.com","port":27035,"enabled":true,"region":"us-east","cc":"us","latitude":40.73061,"longitude":-73.93524,"reserved":0,"last_update":"0001-01-01T00:00:00Z","name_a2s":"Uncletopia | New York City | 3 | Stopwatch","protocol":17,"map":"workshop/koth_ashville_final.ugc2130459942","folder":"tf","game":"Team Fortress","app_id":440,"player_count":0,"max_players":24,"Bots":0,"server_type":"Dedicated","server_os":"Linux","password":true,"vac":true,"version":"7961495","steam_id":85568392924742820,"keywords":["cp","nocrits","nodmgspread","uncletopia"],"game_id":440,"stv_port":27036,"stv_name":"Uncletopia | New York City | 3 | Stopwatch | STV","players":null},{"server_id":16,"name":"Uncletopia | New York City | 4 | Community","name_short":"nyc-4","host":"nyc-1.us.uncletopia.com","port":27045,"enabled":true,"region":"us-east","cc":"us","latitude":40.73061,"longitude":-73.93524,"reserved":0,"last_update":"0001-01-01T00:00:00Z","name_a2s":"Uncletopia | New York City | 4 | Community","protocol":17,"map":"workshop/koth_slaughter_rc1.ugc1712845210","folder":"tf","game":"Team Fortress","app_id":440,"player_count":0,"max_players":24,"Bots":0,"server_type":"Dedicated","server_os":"Linux","password":true,"vac":true,"version":"7961495","steam_id":85568392924742821,"keywords":["cp","nocrits","nodmgspread","uncletopia"],"game_id":440,"stv_port":27046,"stv_name":"Uncletopia | New York City | 4 | Community | STV","players":null},{"server_id":142,"name":"Uncletopia | S√£o Paulo | 1 | All Maps","name_short":"sao-1","host":"sao-1.br.uncletopia.com","port":27015,"enabled":true,"region":"sa","cc":"br","latitude":-23.533773,"longitude":-46.62529,"reserved":0,"last_update":"0001-01-01T00:00:00Z","name_a2s":"Uncletopia | S√£o Paulo | 1 | All Maps","protocol":17,"map":"pl_badwater","folder":"tf","game":"Team Fortress","app_id":440,"player_count":12,"max_players":24,"Bots":0,"server_type":"Dedicated","server_os":"Linux","password":true,"vac":true,"version":"7961495","steam_id":85568392924469996,"keywords":["nocrits","nodmgspread","payload","uncletopia"],"game_id":440,"stv_port":27016,"stv_name":"Uncletopia | S√£o Paulo | 1 | All Maps | STV","players":[{"user_id":49,"name":"yurisaka","steam_id":76561198164992977,"connected_time":551000000000,"state":"active","ping":65},{"user_id":43,"name":"Shaunymon","steam_id":76561198089311104,"connected_time":1620000000000,"state":"active","ping":210},{"user_id":33,"name":"randomuserxd69","steam_id":76561199434896929,"connected_time":3382000000000,"state":"active","ping":73},{"user_id":34,"name":"eles pegaram minha maconha","steam_id":76561199359501901,"connected_time":3128000000000,"state":"active","ping":44},{"user_id":38,"name":"Moonstar (Rt30)","steam_id":76561198041960690,"connected_time":2112000000000,"state":"active","ping":43},{"user_id":44,"name":"Kisari15","steam_id":76561198204362701,"connected_time":1575000000000,"state":"active","ping":277},{"user_id":50,"name":"Balls nuttem","steam_id":76561199486680251,"connected_time":468000000000,"state":"active","ping":101},{"user_id":47,"name":"XxLIBRAL_DESTROYAxX","steam_id":76561198995575441,"connected_time":1001000000000,"state":"active","ping":50},{"user_id":52,"name":"jr_","steam_id":76561198313937899,"connected_time":116000000000,"state":"active","ping":43},{"user_id":53,"name":"sense","steam_id":76561198126243974,"connected_time":77000000000,"state":"active","ping":67},{"user_id":51,"name":"darkvoid","steam_id":76561198094512992,"connected_time":289000000000,"state":"active","ping":180},{"user_id":54,"name":"Mikael_01","steam_id":76561199080253129,"connected_time":2000000000,"state":"spawning","ping":48}]},{"server_id":143,"name":"Uncletopia | S√£o Paulo | 2 | Community","name_short":"sao-2","host":"sao-2.br.uncletopia.com","port":27015,"enabled":true,"region":"sa","cc":"br","latitude":-23.533773,"longitude":-46.62529,"reserved":0,"last_update":"0001-01-01T00:00:00Z","name_a2s":"Uncletopia | S√£o Paulo | 2 | Community","protocol":17,"map":"workshop/koth_kemptown_rc1.ugc767410655","folder":"tf","game":"Team Fortress","app_id":440,"player_count":0,"max_players":24,"Bots":0,"server_type":"Dedicated","server_os":"Linux","password":true,"vac":true,"version":"7961495","steam_id":85568392924485349,"keywords":["cp","nocrits","nodmgspread","uncletopia"],"game_id":440,"stv_port":27016,"stv_name":"Uncletopia | S√£o Paulo | 2 | Community | STV","players":null},{"server_id":7,"name":"Uncletopia | Seattle | 1 | All Maps","name_short":"sea-1","host":"sea-1.us.uncletopia.com","port":27015,"enabled":true,"region":"us-west","cc":"us","latitude":47.608013,"longitude":-122.33517,"reserved":0,"last_update":"0001-01-01T00:00:00Z","name_a2s":"Uncletopia | Seattle | 1 | All Maps","protocol":17,"map":"koth_harvest_final","folder":"tf","game":"Team Fortress","app_id":440,"player_count":24,"max_players":24,"Bots":0,"server_type":"Dedicated","server_os":"Linux","password":true,"vac":true,"version":"7961495","steam_id":85568392924469997,"keywords":["cp","nocrits","nodmgspread","uncletopia"],"game_id":440,"stv_port":27016,"stv_name":"Uncletopia | Seattle | 1 | All Maps | STV","players":[{"user_id":550,"name":"Hoodie_85","steam_id":76561199471600489,"connected_time":540000000000,"state":"active","ping":112},{"user_id":532,"name":"Dova","steam_id":76561198079481047,"connected_time":1274000000000,"state":"active","ping":75},{"user_id":334,"name":"Nom Skirrett","steam_id":76561198014600788,"connected_time":9527000000000,"state":"active","ping":60},{"user_id":523,"name":"dearender the burger fan","steam_id":76561199427644498,"connected_time":1569000000000,"state":"active","ping":52},{"user_id":549,"name":"Mango","steam_id":76561198266322471,"connected_time":549000000000,"state":"active","ping":29},{"user_id":543,"name":"Walter White","steam_id":76561199102963294,"connected_time":757000000000,"state":"active","ping":61},{"user_id":548,"name":"manchego gaming","steam_id":76561198069895678,"connected_time":660000000000,"state":"active","ping":58},{"user_id":556,"name":"[COS]SonneyDonkeh","steam_id":76561198091284496,"connected_time":304000000000,"state":"active","ping":69},{"user_id":524,"name":"Battle Bug","steam_id":76561198005793034,"connected_time":1538000000000,"state":"active","ping":30},{"user_id":551,"name":"movement is a channel","steam_id":76561198086406706,"connected_time":523000000000,"state":"active","ping":98},{"user_id":542,"name":"Mocha Josie","steam_id":76561198066452726,"connected_time":847000000000,"state":"active","ping":69},{"user_id":540,"name":"Skoad","steam_id":76561198104650528,"connected_time":900000000000,"state":"active","ping":76},{"user_id":539,"name":"jumpyjumpjumpjumps","steam_id":76561199176218871,"connected_time":903000000000,"state":"active","ping":49},{"user_id":516,"name":"Arsonist Goose","steam_id":76561198147441830,"connected_time":1969000000000,"state":"active","ping":75},{"user_id":545,"name":"K2f","steam_id":76561198049600563,"connected_time":720000000000,"state":"active","ping":76},{"user_id":555,"name":"AT‚ú™MIC","steam_id":76561198100385184,"connected_time":371000000000,"state":"active","ping":85},{"user_id":553,"name":"Dextersbrain","steam_id":76561198011831579,"connected_time":433000000000,"state":"active","ping":56},{"user_id":552,"name":"Warlock","steam_id":76561199033164093,"connected_time":516000000000,"state":"active","ping":35},{"user_id":496,"name":"Amateur Glaswegian","steam_id":76561198030851956,"connected_time":4157000000000,"state":"active","ping":45},{"user_id":554,"name":"Spectre‚Åπ‚Åπ‚Åπ","steam_id":76561198037535169,"connected_time":408000000000,"state":"active","ping":74},{"user_id":510,"name":"MaDeuce","steam_id":76561198110732835,"connected_time":2704000000000,"state":"active","ping":62},{"user_id":533,"name":"Caramel_Chalice","steam_id":76561198307609692,"connected_time":1207000000000,"state":"active","ping":48},{"user_id":383,"name":"\u003c blank \u003e","steam_id":76561198097188001,"connected_time":7136000000000,"state":"active","ping":45},{"user_id":535,"name":"Wolviren","steam_id":76561198088276375,"connected_time":1170000000000,"state":"active","ping":85}]},{"server_id":119,"name":"Uncletopia | Seattle | 2 | All Maps","name_short":"sea-2","host":"sea-1.us.uncletopia.com","port":27025,"enabled":true,"region":"us-west","cc":"us","latitude":47.608013,"longitude":-122.33517,"reserved":0,"last_update":"0001-01-01T00:00:00Z","name_a2s":"Uncletopia | Seattle | 2 | All Maps","protocol":17,"map":"pl_frontier_final","folder":"tf","game":"Team Fortress","app_id":440,"player_count":1,"max_players":24,"Bots":0,"server_type":"Dedicated","server_os":"Linux","password":true,"vac":true,"version":"7961495","steam_id":85568392924469998,"keywords":["nocrits","nodmgspread","payload","uncletopia"],"game_id":440,"stv_port":27026,"stv_name":"Uncletopia | Seattle | 2 | All Maps | STV","players":[{"user_id":31,"name":"TheFireBase","steam_id":76561198299379768,"connected_time":129000000000,"state":"active","ping":49}]},{"server_id":406,"name":"Uncletopia | Seattle | 3 | Stopwatch","name_short":"sea-3","host":"sea-1.us.uncletopia.com","port":27035,"enabled":true,"region":"us-west","cc":"us","latitude":47.608013,"longitude":-122.33517,"reserved":0,"last_update":"0001-01-01T00:00:00Z","name_a2s":"Uncletopia | Seattle | 3 | Stopwatch","protocol":17,"map":"workshop/koth_product_final.ugc454272353","folder":"tf","game":"Team Fortress","app_id":440,"player_count":0,"max_players":24,"Bots":0,"server_type":"Dedicated","server_os":"Linux","password":true,"vac":true,"version":"7961495","steam_id":85568392924515217,"keywords":["cp","nocrits","nodmgspread","uncletopia"],"game_id":440,"stv_port":27036,"stv_name":"Uncletopia | Seattle | 3 | Stopwatch | STV","players":null},{"server_id":17,"name":"Uncletopia | San Francisco | 1 | All Maps","name_short":"sfo-1","host":"sfo-1.us.uncletopia.com","port":27015,"enabled":true,"region":"us-west","cc":"us","latitude":37.77397,"longitude":-122.4313,"reserved":0,"last_update":"0001-01-01T00:00:00Z","name_a2s":"Uncletopia | San Francisco | 1 | All Maps","protocol":17,"map":"pl_upward","folder":"tf","game":"Team Fortress","app_id":440,"player_count":24,"max_players":24,"Bots":0,"server_type":"Dedicated","server_os":"Linux","password":true,"vac":true,"version":"7961495","steam_id":85568392924469999,"keywords":["nocrits","nodmgspread","payload","uncletopia"],"game_id":440,"stv_port":27016,"stv_name":"Uncletopia | San Francisco | 1 | All Maps | STV","players":[{"user_id":36,"name":"asm_ghost","steam_id":76561199205363547,"connected_time":2697000000000,"state":"active","ping":63},{"user_id":71,"name":"ButYouDisagree","steam_id":76561198044128052,"connected_time":306000000000,"state":"active","ping":105},{"user_id":68,"name":"Urban","steam_id":76561198840725170,"connected_time":431000000000,"state":"active","ping":63},{"user_id":66,"name":"Mum","steam_id":76561198059209643,"connected_time":536000000000,"state":"active","ping":52},{"user_id":34,"name":"[Industrial] A_HUMBLEBUMBLED","steam_id":76561198064771878,"connected_time":2928000000000,"state":"active","ping":57},{"user_id":72,"name":"nil","steam_id":76561198339527138,"connected_time":231000000000,"state":"active","ping":66},{"user_id":46,"name":"ninety9dragonfly","steam_id":76561198363406983,"connected_time":1952000000000,"state":"active","ping":55},{"user_id":38,"name":"Lard","steam_id":76561198290315229,"connected_time":2465000000000,"state":"active","ping":61},{"user_id":42,"name":"Evarrel","steam_id":76561199508242414,"connected_time":2051000000000,"state":"active","ping":77},{"user_id":40,"name":"The_Cow.mp4","steam_id":76561198398709316,"connected_time":2452000000000,"state":"active","ping":60},{"user_id":73,"name":"Pah-Wraith Gul Dukat","steam_id":76561198033918106,"connected_time":50000000000,"state":"active","ping":57},{"user_id":45,"name":"PlasticPepsiCan","steam_id":76561199226783116,"connected_time":2016000000000,"state":"active","ping":56},{"user_id":48,"name":"\u003c3","steam_id":76561198287590881,"connected_time":1877000000000,"state":"active","ping":124},{"user_id":49,"name":"HOG RIDER","steam_id":76561198298589502,"connected_time":1866000000000,"state":"active","ping":63},{"user_id":55,"name":"thats crazy","steam_id":76561198095480838,"connected_time":1570000000000,"state":"active","ping":61},{"user_id":52,"name":"celestia ludenberg","steam_id":76561199196437823,"connected_time":1689000000000,"state":"active","ping":69},{"user_id":67,"name":"MeKaso TropStar","steam_id":76561199109895840,"connected_time":480000000000,"state":"active","ping":137},{"user_id":69,"name":"pafijohn","steam_id":76561198002535190,"connected_time":397000000000,"state":"active","ping":60},{"user_id":56,"name":"Starfruit66","steam_id":76561198069917277,"connected_time":1527000000000,"state":"active","ping":61},{"user_id":57,"name":"golebdoo","steam_id":76561198237496978,"connected_time":1511000000000,"state":"active","ping":60},{"user_id":58,"name":"what're ya buyin","steam_id":76561199277633460,"connected_time":1474000000000,"state":"active","ping":58},{"user_id":59,"name":"Capitalism","steam_id":76561198068677316,"connected_time":1466000000000,"state":"active","ping":63},{"user_id":61,"name":"poole party","steam_id":76561198099234665,"connected_time":1435000000000,"state":"active","ping":55},{"user_id":63,"name":"IMPROBABLE FLIPPING","steam_id":76561198045964573,"connected_time":1177000000000,"state":"active","ping":60}]},{"server_id":18,"name":"Uncletopia | San Francisco | 2 | All Maps","name_short":"sfo-2","host":"sfo-1.us.uncletopia.com","port":27025,"enabled":true,"region":"us-west","cc":"us","latitude":37.77397,"longitude":-122.4313,"reserved":0,"last_update":"0001-01-01T00:00:00Z","name_a2s":"Uncletopia | San Francisco | 2 | All Maps","protocol":17,"map":"pl_thundermountain","folder":"tf","game":"Team Fortress","app_id":440,"player_count":22,"max_players":24,"Bots":0,"server_type":"Dedicated","server_os":"Linux","password":true,"vac":true,"version":"7961495","steam_id":85568392924470000,"keywords":["nocrits","nodmgspread","payload","uncletopia"],"game_id":440,"stv_port":27026,"stv_name":"Uncletopia | San Francisco | 2 | All Maps | STV","players":[{"user_id":176,"name":"RainboomCrash","steam_id":76561198065612273,"connected_time":4041000000000,"state":"active","ping":64},{"user_id":185,"name":"HanakoToast","steam_id":76561198045233131,"connected_time":3289000000000,"state":"active","ping":62},{"user_id":194,"name":"SmallErection","steam_id":76561198071770147,"connected_time":2387000000000,"state":"active","ping":90},{"user_id":209,"name":"Alijah_The_EP","steam_id":76561198399423292,"connected_time":176000000000,"state":"active","ping":69},{"user_id":202,"name":"Pixelated Pussy","steam_id":76561198002511088,"connected_time":860000000000,"state":"active","ping":57},{"user_id":196,"name":"gulch","steam_id":76561199227946025,"connected_time":2367000000000,"state":"active","ping":85},{"user_id":189,"name":"OGBobbyJohns","steam_id":76561197964339077,"connected_time":2901000000000,"state":"active","ping":61},{"user_id":200,"name":"[TGP] T-Virus","steam_id":76561198001963208,"connected_time":1523000000000,"state":"active","ping":60},{"user_id":212,"name":"Limp Pumpo Discography Fan Club","steam_id":76561198145748479,"connected_time":104000000000,"state":"active","ping":69},{"user_id":159,"name":"Igrium","steam_id":76561198119549811,"connected_time":4608000000000,"state":"active","ping":49},{"user_id":197,"name":"Mirce","steam_id":76561198100889621,"connected_time":2362000000000,"state":"active","ping":104},{"user_id":188,"name":"Keamy","steam_id":76561199471434875,"connected_time":2972000000000,"state":"active","ping":60},{"user_id":211,"name":"pyrotechnic","steam_id":76561198043558709,"connected_time":150000000000,"state":"active","ping":74},{"user_id":201,"name":"Cacophony","steam_id":76561198047474050,"connected_time":1386000000000,"state":"active","ping":60},{"user_id":184,"name":"Seriously Bruh","steam_id":76561198070408485,"connected_time":3497000000000,"state":"active","ping":79},{"user_id":213,"name":"Scoutdestroyer556","steam_id":76561199123314673,"connected_time":84000000000,"state":"active","ping":56},{"user_id":181,"name":"GreenBlah","steam_id":76561198009178916,"connected_time":3713000000000,"state":"active","ping":64},{"user_id":204,"name":"ForAPessimistImPrettyOptimistic","steam_id":76561198170128009,"connected_time":473000000000,"state":"active","ping":58},{"user_id":178,"name":"some nerd","steam_id":76561198297272878,"connected_time":3954000000000,"state":"active","ping":52},{"user_id":153,"name":"noceof","steam_id":76561198043656816,"connected_time":5018000000000,"state":"active","ping":158},{"user_id":179,"name":"Dr. Juvenal","steam_id":76561198114553453,"connected_time":3922000000000,"state":"active","ping":65},{"user_id":199,"name":"Viewie","steam_id":76561198280108853,"connected_time":2310000000000,"state":"active","ping":113}]},{"server_id":19,"name":"Uncletopia | San Francisco | 3 | Stopwatch","name_short":"sfo-3","host":"sfo-1.us.uncletopia.com","port":27035,"enabled":true,"region":"us-west","cc":"us","latitude":37.77397,"longitude":-122.4313,"reserved":0,"last_update":"0001-01-01T00:00:00Z","name_a2s":"Uncletopia | San Francisco | 3 | Stopwatch","protocol":17,"map":"workshop/koth_product_final.ugc454272353","folder":"tf","game":"Team Fortress","app_id":440,"player_count":0,"max_players":24,"Bots":0,"server_type":"Dedicated","server_os":"Linux","password":true,"vac":true,"version":"7961495","steam_id":85568392924742824,"keywords":["cp","nocrits","nodmgspread","uncletopia"],"game_id":440,"stv_port":27036,"stv_name":"Uncletopia | San Francisco | 3 | Stopwatch | STV","players":null},{"server_id":20,"name":"Uncletopia | San Francisco | 4 | Community","name_short":"sfo-4","host":"sfo-1.us.uncletopia.com","port":27045,"enabled":true,"region":"us-west","cc":"us","latitude":37.77397,"longitude":-122.4313,"reserved":0,"last_update":"0001-01-01T00:00:00Z","name_a2s":"Uncletopia | San Francisco | 4 | Community","protocol":17,"map":"workshop/cp_alloy_rc3.ugc592805587","folder":"tf","game":"Team Fortress","app_id":440,"player_count":0,"max_players":24,"Bots":0,"server_type":"Dedicated","server_os":"Linux","password":true,"vac":true,"version":"7961495","steam_id":85568392924742826,"keywords":["cp","nocrits","nodmgspread","uncletopia"],"game_id":440,"stv_port":27046,"stv_name":"Uncletopia | San Francisco | 4 | Community | STV","players":null},{"server_id":141,"name":"Uncletopia | Sydney | 1 | All Maps","name_short":"syd-1","host":"syd-1.au.uncletopia.com","port":27015,"enabled":true,"region":"au","cc":"au","latitude":-33.865143,"longitude":151.2099,"reserved":0,"last_update":"0001-01-01T00:00:00Z","name_a2s":"Uncletopia | Sydney | 1 | All Maps","protocol":17,"map":"koth_nucleus","folder":"tf","game":"Team Fortress","app_id":440,"player_count":0,"max_players":24,"Bots":0,"server_type":"Dedicated","server_os":"Linux","password":true,"vac":true,"version":"7961495","steam_id":85568392924470001,"keywords":["cp","nocrits","nodmgspread","uncletopia"],"game_id":440,"stv_port":27016,"stv_name":"Uncletopia | Sydney | 1 | All Maps | STV","players":null},{"server_id":123,"name":"Uncletopia | Sydney | 2 | All Maps","name_short":"syd-2","host":"syd-1.au.uncletopia.com","port":27025,"enabled":true,"region":"au","cc":"au","latitude":-33.865143,"longitude":151.2099,"reserved":0,"last_update":"0001-01-01T00:00:00Z","name_a2s":"Uncletopia | Sydney | 2 | All Maps","protocol":17,"map":"cp_fastlane","folder":"tf","game":"Team Fortress","app_id":440,"player_count":0,"max_players":24,"Bots":0,"server_type":"Dedicated","server_os":"Linux","password":true,"vac":true,"version":"7961495","steam_id":85568392924470002,"keywords":["cp","nocrits","nodmgspread","uncletopia"],"game_id":440,"stv_port":27026,"stv_name":"Uncletopia | Sydney | 2 | All Maps | STV","players":null},{"server_id":395,"name":"Uncletopia | Sydney | 3 | All Maps","name_short":"syd-3","host":"syd-1.au.uncletopia.com","port":27035,"enabled":true,"region":"au","cc":"au","latitude":-33.865143,"longitude":151.2099,"reserved":0,"last_update":"0001-01-01T00:00:00Z","name_a2s":"Uncletopia | Sydney | 3 | All Maps","protocol":17,"map":"cp_metalworks","folder":"tf","game":"Team Fortress","app_id":440,"player_count":0,"max_players":24,"Bots":0,"server_type":"Dedicated","server_os":"Linux","password":true,"vac":true,"version":"7961495","steam_id":85568392925194467,"keywords":["cp","nocrits","nodmgspread","uncletopia"],"game_id":440,"stv_port":27036,"stv_name":"Uncletopia | Sydney | 3 | All Maps | STV","players":null},{"server_id":396,"name":"Uncletopia | Sydney | 4 | All Maps","name_short":"syd-4","host":"syd-1.au.uncletopia.com","port":27045,"enabled":true,"region":"au","cc":"au","latitude":-33.865143,"longitude":151.2099,"reserved":0,"last_update":"0001-01-01T00:00:00Z","name_a2s":"Uncletopia | Sydney | 4 | All Maps","protocol":17,"map":"koth_cascade","folder":"tf","game":"Team Fortress","app_id":440,"player_count":0,"max_players":24,"Bots":0,"server_type":"Dedicated","server_os":"Linux","password":true,"vac":true,"version":"7961495","steam_id":85568392925397958,"keywords":["cp","nocrits","nodmgspread","uncletopia"],"game_id":440,"stv_port":27046,"stv_name":"Uncletopia | Sydney | 4 | All Maps | STV","players":null},{"server_id":58,"name":"Uncletopia | Sydney | 5 | Stopwatch","name_short":"syd-5","host":"syd-1.au.uncletopia.com","port":27055,"enabled":true,"region":"au","cc":"au","latitude":-33.865143,"longitude":151.2099,"reserved":0,"last_update":"0001-01-01T00:00:00Z","name_a2s":"Uncletopia | Sydney | 5 | Stopwatch","protocol":17,"map":"workshop/koth_product_final.ugc454272353","folder":"tf","game":"Team Fortress","app_id":440,"player_count":0,"max_players":24,"Bots":0,"server_type":"Dedicated","server_os":"Linux","password":true,"vac":true,"version":"7961495","steam_id":85568392925397959,"keywords":["cp","nocrits","nodmgspread","uncletopia"],"game_id":440,"stv_port":27056,"stv_name":"Uncletopia | Sydney | 5 | Stopwatch | STV","players":null},{"server_id":59,"name":"Uncletopia | Sydney | 6 | Community","name_short":"syd-6","host":"syd-1.au.uncletopia.com","port":27065,"enabled":true,"region":"au","cc":"au","latitude":-33.865143,"longitude":151.2099,"reserved":0,"last_update":"0001-01-01T00:00:00Z","name_a2s":"Uncletopia | Sydney | 6 | Community","protocol":17,"map":"workshop/koth_trenchfoot_ab1.ugc731436616","folder":"tf","game":"Team Fortress","app_id":440,"player_count":0,"max_players":24,"Bots":0,"server_type":"Dedicated","server_os":"Linux","password":true,"vac":true,"version":"7961495","steam_id":85568392925397960,"keywords":["cp","nocrits","nodmgspread","uncletopia"],"game_id":440,"stv_port":27066,"stv_name":"Uncletopia | Sydney | 6 | Community | STV","players":null},{"server_id":49,"name":"Uncletopia | Warsaw | 1 | One Thousand Uncles","name_short":"waw-1","host":"waw-1.pl.uncletopia.com","port":27015,"enabled":true,"region":"eu","cc":"pl","latitude":52.2297,"longitude":21.017532,"reserved":0,"last_update":"0001-01-01T00:00:00Z","name_a2s":"Uncletopia | Warsaw | 1 | One Thousand Uncles","protocol":17,"map":"cp_mercenarypark","folder":"tf","game":"Team Fortress","app_id":440,"player_count":0,"max_players":32,"Bots":0,"server_type":"Dedicated","server_os":"Linux","password":true,"vac":true,"version":"7961495","steam_id":85568392925397850,"keywords":["alltalk","cp","danepve","increased_maxplayers","norespawntime","uncletopia"],"game_id":440,"stv_port":0,"stv_name":"","players":null},{"server_id":50,"name":"Uncletopia | Warsaw | 2 | One Thousand Uncles","name_short":"waw-2","host":"waw-1.pl.uncletopia.com","port":27025,"enabled":true,"region":"eu","cc":"pl","latitude":52.2297,"longitude":21.017532,"reserved":0,"last_update":"0001-01-01T00:00:00Z","name_a2s":"Uncletopia | Warsaw | 2 | One Thousand Uncles","protocol":17,"map":"pl_thundermountain","folder":"tf","game":"Team Fortress","app_id":440,"player_count":23,"max_players":32,"Bots":16,"server_type":"Dedicated","server_os":"Linux","password":true,"vac":true,"version":"7961495","steam_id":85568392925397851,"keywords":["alltalk","bots","danepve","increased_maxplayers","norespawntime","payload","uncletopia"],"game_id":440,"stv_port":0,"stv_name":"","players":[{"user_id":824,"name":"Tx_madmash","steam_id":76561198924656512,"connected_time":1161000000000,"state":"active","ping":90},{"user_id":746,"name":"Damin","steam_id":76561198204500297,"connected_time":7913000000000,"state":"active","ping":59},{"user_id":822,"name":"Dapper Pan Man","steam_id":76561197981874399,"connected_time":1347000000000,"state":"active","ping":54},{"user_id":817,"name":"Voks_","steam_id":76561198159687785,"connected_time":1982000000000,"state":"active","ping":77},{"user_id":823,"name":"Mr_Pulse_","steam_id":76561198095001602,"connected_time":1336000000000,"state":"active","ping":106},{"user_id":828,"name":"ÌîºÌîÑ","steam_id":76561198068554832,"connected_time":420000000000,"state":"active","ping":65},{"user_id":577,"name":"Phisor","steam_id":76561198233450952,"connected_time":23566000000000,"state":"active","ping":62}]},{"server_id":51,"name":"Uncletopia | Warsaw | 3 | All Maps","name_short":"waw-3","host":"waw-1.pl.uncletopia.com","port":27035,"enabled":true,"region":"eu","cc":"pl","latitude":52.2297,"longitude":21.017532,"reserved":0,"last_update":"0001-01-01T00:00:00Z","name_a2s":"Uncletopia | Warsaw | 3 | All Maps","protocol":17,"map":"koth_highpass","folder":"tf","game":"Team Fortress","app_id":440,"player_count":0,"max_players":24,"Bots":0,"server_type":"Dedicated","server_os":"Linux","password":true,"vac":true,"version":"7961495","steam_id":85568392925397852,"keywords":["cp","nocrits","nodmgspread","uncletopia"],"game_id":440,"stv_port":27036,"stv_name":"Uncletopia | Warsaw | 3 | All Maps | STV","players":null},{"server_id":52,"name":"Uncletopia | Warsaw | 4 | All Maps","name_short":"waw-4","host":"waw-1.pl.uncletopia.com","port":27045,"enabled":true,"region":"eu","cc":"pl","latitude":52.2297,"longitude":21.017532,"reserved":0,"last_update":"0001-01-01T00:00:00Z","name_a2s":"Uncletopia | Warsaw | 4 | All Maps","protocol":17,"map":"koth_highpass","folder":"tf","game":"Team Fortress","app_id":440,"player_count":0,"max_players":24,"Bots":0,"server_type":"Dedicated","server_os":"Linux","password":true,"vac":true,"version":"7961495","steam_id":85568392925397853,"keywords":["cp","nocrits","nodmgspread","uncletopia"],"game_id":440,"stv_port":27046,"stv_name":"Uncletopia | Warsaw | 4 | All Maps | STV","players":null},{"server_id":53,"name":"Uncletopia | Warsaw | 5 | Stopwatch","name_short":"waw-5","host":"waw-1.pl.uncletopia.com","port":27055,"enabled":true,"region":"eu","cc":"pl","latitude":52.2297,"longitude":21.017532,"reserved":0,"last_update":"0001-01-01T00:00:00Z","name_a2s":"Uncletopia | Warsaw | 5 | Stopwatch","protocol":17,"map":"workshop/koth_clearcut_b15.ugc2107050255","folder":"tf","game":"Team Fortress","app_id":440,"player_count":0,"max_players":24,"Bots":0,"server_type":"Dedicated","server_os":"Linux","password":true,"vac":true,"version":"7961495","steam_id":85568392925397854,"keywords":["cp","nocrits","nodmgspread","uncletopia"],"game_id":440,"stv_port":27056,"stv_name":"Uncletopia | Warsaw | 5 | Stopwatch | STV","players":null},{"server_id":54,"name":"Uncletopia | Warsaw | 6 | Community","name_short":"waw-6","host":"waw-1.pl.uncletopia.com","port":27065,"enabled":true,"region":"eu","cc":"pl","latitude":52.2297,"longitude":21.017532,"reserved":0,"last_update":"0001-01-01T00:00:00Z","name_a2s":"Uncletopia | Warsaw | 6 | Community","protocol":17,"map":"workshop/cp_coilblaze_rc7.ugc1272700588","folder":"tf","game":"Team Fortress","app_id":440,"player_count":0,"max_players":24,"Bots":0,"server_type":"Dedicated","server_os":"Linux","password":true,"vac":true,"version":"7961495","steam_id":85568392925397856,"keywords":["cp","nocrits","nodmgspread","uncletopia"],"game_id":440,"stv_port":27066,"stv_name":"Uncletopia | Warsaw | 6 | Community | STV","players":null}]}