{"status":true,"message":"","result":[{"server_id":9,"name":"Uncletopia | Atlanta | 1 | All Maps","name_short":"atl-1","host":"atl-1.us.uncletopia.com","port":27015,"enabled":true,"region":"us-east","cc":"us","latitude":33.753746,"longitude":-84.38633,"reserved":0,"last_update":"0001-01-01T00:00:00Z","name_a2s":"Uncletopia | Atlanta | 1 | All Maps","protocol":17,"map":"cp_dustbowl","folder":"tf","game":"Team Fortress","app_id":440,"player_count":25,"max_players":24,"Bots":0,"server_type":"Dedicated","server_os":"Linux","password":true,"vac":true,"version":"7757534","steam_id":85568392924469982,"keywords":["cp","nocrits","nodmgspread","uncletopia"],"game_id":440,"stv_port":27016,"stv_name":"Uncletopia | Atlanta | 1 | All Maps | STV","players":[{"user_id":189,"name":"Yoru","steam_id":76561198119698950,"connected_time":769000000000,"state":"active","ping":124},{"user_id":144,"name":"T17","steam_id":76561198064249841,"connected_time":4866000000000,"state":"active","ping":70},{"user_id":187,"name":"David De Bergerac","steam_id":76561198010306294,"connected_time":831000000000,"state":"active","ping":76},{"user_id":173,"name":"TDG | iTrez","steam_id":76561198045788316,"connected_time":2183000000000,"state":"active","ping":93},{"user_id":194,"name":"Spy_Is_Pye","steam_id":76561199439622967,"connected_time":187000000000,"state":"active","ping":72},{"user_id":192,"name":"Frenemy \u003e:D","steam_id":76561198011363677,"connected_time":630000000000,"state":"active","ping":73},{"user_id":196,"name":"Bobafett88954","steam_id":76561198384658616,"connected_time":87000000000,"state":"active","ping":70},{"user_id":183,"name":"--_Cook_--","steam_id":76561198080855748,"connected_time":1203000000000,"state":"active","ping":49},{"user_id":184,"name":"bendera","steam_id":76561197965486503,"connected_time":1179000000000,"state":"active","ping":79},{"user_id":175,"name":"Devilkid","steam_id":76561199082474364,"connected_time":2087000000000,"state":"active","ping":67},{"user_id":157,"name":"The Builder","steam_id":76561198093432863,"connected_time":3598000000000,"state":"active","ping":68},{"user_id":188,"name":"BLU1 | Pango","steam_id":76561198069811545,"connected_time":798000000000,"state":"active","ping":45},{"user_id":190,"name":"Mel","steam_id":76561198327775249,"connected_time":767000000000,"state":"active","ping":135},{"user_id":150,"name":"viscodolante","steam_id":76561198013650292,"connected_time":4551000000000,"state":"active","ping":90},{"user_id":167,"name":"vid_","steam_id":76561198065159053,"connected_time":2675000000000,"state":"active","ping":52},{"user_id":193,"name":"Nightfall","steam_id":76561198169718867,"connected_time":363000000000,"state":"active","ping":99},{"user_id":191,"name":"BLU1| Inky (Coolest)","steam_id":76561198968337022,"connected_time":749000000000,"state":"active","ping":57},{"user_id":113,"name":"Huge","steam_id":76561199030987614,"connected_time":7894000000000,"state":"active","ping":110},{"user_id":197,"name":"Rockhead","steam_id":76561197995196535,"connected_time":3000000000,"state":"spawning","ping":62},{"user_id":186,"name":"Ollie","steam_id":76561198069372661,"connected_time":1127000000000,"state":"active","ping":61},{"user_id":159,"name":"\u003c blank \u003e","steam_id":76561199468200174,"connected_time":3594000000000,"state":"active","ping":36},{"user_id":153,"name":"goober","steam_id":76561198943598378,"connected_time":4186000000000,"state":"active","ping":48},{"user_id":195,"name":"Brandonazz","steam_id":76561197994366351,"connected_time":116000000000,"state":"active","ping":78},{"user_id":198,"name":"Obamacare","steam_id":76561198018894553,"connected_time":3000000000,"state":"spawning","ping":73},{"user_id":161,"name":"DontaeRiceArt (DMR)","steam_id":76561198042659150,"connected_time":3590000000000,"state":"active","ping":73}]},{"server_id":400,"name":"Uncletopia | Atlanta | 3 | Community","name_short":"atl-3","host":"atl-1.us.uncletopia.com","port":27035,"enabled":true,"region":"us-east","cc":"us","latitude":33.753746,"longitude":-84.38633,"reserved":0,"last_update":"0001-01-01T00:00:00Z","name_a2s":"Uncletopia | Atlanta | 3 | Community","protocol":17,"map":"workshop/pl_vigil_rc9.ugc1266210012","folder":"tf","game":"Team Fortress","app_id":440,"player_count":0,"max_players":24,"Bots":0,"server_type":"Dedicated","server_os":"Linux","password":true,"vac":true,"version":"7757534","steam_id":85568392924515187,"keywords":["nocrits","nodmgspread","payload","uncletopia"],"game_id":440,"stv_port":27036,"stv_name":"Uncletopia | Atlanta | 3 | Community | STV","players":null},{"server_id":401,"name":"Uncletopia | Atlanta | 4 | No Payload","name_short":"atl-4","host":"atl-1.us.uncletopia.com","port":27045,"enabled":true,"region":"us-east","cc":"us","latitude":33.753746,"longitude":-84.38633,"reserved":0,"last_update":"0001-01-01T00:00:00Z","name_a2s":"","protocol":0,"map":"","folder":"","game":"","app_id":0,"player_count":0,"max_players":0,"Bots":0,"server_type":"","server_os":"","password":false,"vac":false,"version":"","steam_id":0,"keywords":null,"game_id":0,"stv_port":0,"stv_name":"","players":null},{"server_id":2,"name":"Uncletopia | Chicago | 1 | All Maps","name_short":"chi-1","host":"chi-1.us.uncletopia.com","port":27015,"enabled":true,"region":"us-central","cc":"us","latitude":41.881832,"longitude":-87.62318,"reserved":0,"last_update":"0001-01-01T00:00:00Z","name_a2s":"Uncletopia | Chicago | 1 | All Maps","protocol":17,"map":"pl_badwater","folder":"tf","game":"Team Fortress","app_id":440,"player_count":24,"max_players":24,"Bots":0,"server_type":"Dedicated","server_os":"Linux","password":true,"vac":true,"version":"7757534","steam_id":85568392924469984,"keywords":["nocrits","nodmgspread","payload","uncletopia"],"game_id":440,"stv_port":27016,"stv_name":"Uncletopia | Chicago | 1 | All Maps | STV","players":[{"user_id":498,"name":"wiiblob","steam_id":76561198109106242,"connected_time":1531000000000,"state":"active","ping":141},{"user_id":505,"name":"Snoball","steam_id":76561198205838372,"connected_time":438000000000,"state":"active","ping":85},{"user_id":425,"name":"no way","steam_id":76561198082496000,"connected_time":6992000000000,"state":"active","ping":84},{"user_id":479,"name":"Dog Food Lid","steam_id":76561198360097175,"connected_time":3035000000000,"state":"active","ping":47},{"user_id":507,"name":"Cambonieboo","steam_id":76561198139174433,"connected_time":48000000000,"state":"active","ping":87},{"user_id":484,"name":"Ye ( I Love Caulk ) West","steam_id":76561198068830312,"connected_time":2224000000000,"state":"active","ping":45},{"user_id":469,"name":"ThatGuyBruh","steam_id":76561199069652292,"connected_time":3459000000000,"state":"active","ping":159},{"user_id":499,"name":"Giacomo","steam_id":76561198058560798,"connected_time":1529000000000,"state":"active","ping":47},{"user_id":439,"name":"Cerabond","steam_id":76561199230915333,"connected_time":5022000000000,"state":"active","ping":77},{"user_id":488,"name":"creal","steam_id":76561198127116199,"connected_time":1916000000000,"state":"active","ping":50},{"user_id":489,"name":"Eins","steam_id":76561199030343810,"connected_time":1900000000000,"state":"active","ping":63},{"user_id":496,"name":"beethan","steam_id":76561198148199120,"connected_time":1732000000000,"state":"active","ping":87},{"user_id":485,"name":"blob","steam_id":76561198122375328,"connected_time":1991000000000,"state":"active","ping":67},{"user_id":508,"name":"SuaveFrenchman","steam_id":76561198043762683,"connected_time":46000000000,"state":"active","ping":90},{"user_id":500,"name":"KooKooKachue","steam_id":76561198391195262,"connected_time":1192000000000,"state":"active","ping":92},{"user_id":481,"name":"A Man Named Pancho","steam_id":76561197984895522,"connected_time":2599000000000,"state":"active","ping":99},{"user_id":480,"name":"The Drunk Clown","steam_id":76561197986850426,"connected_time":2718000000000,"state":"active","ping":75},{"user_id":506,"name":"pepsibobby","steam_id":76561198853864511,"connected_time":88000000000,"state":"active","ping":85},{"user_id":456,"name":"debin","steam_id":76561198070711217,"connected_time":4395000000000,"state":"active","ping":56},{"user_id":503,"name":"BlueAnimated","steam_id":76561199227588613,"connected_time":1048000000000,"state":"active","ping":77},{"user_id":510,"name":"primordialheath","steam_id":76561199386942638,"connected_time":2000000000,"state":"spawning","ping":76},{"user_id":504,"name":"[PFF] Shogun Omega","steam_id":76561198390387069,"connected_time":640000000000,"state":"active","ping":93},{"user_id":502,"name":"JimmyWings","steam_id":76561198999925713,"connected_time":1144000000000,"state":"active","ping":65},{"user_id":447,"name":"Olimar","steam_id":76561197993812175,"connected_time":4903000000000,"state":"active","ping":67}]},{"server_id":106,"name":"Uncletopia | Chicago | 2 | All Maps","name_short":"chi-2","host":"chi-1.us.uncletopia.com","port":27025,"enabled":true,"region":"us-central","cc":"us","latitude":41.881832,"longitude":-87.62318,"reserved":0,"last_update":"0001-01-01T00:00:00Z","name_a2s":"Uncletopia | Chicago | 2 | All Maps","protocol":17,"map":"pl_badwater","folder":"tf","game":"Team Fortress","app_id":440,"player_count":15,"max_players":24,"Bots":0,"server_type":"Dedicated","server_os":"Linux","password":true,"vac":true,"version":"7757534","steam_id":85568392924469985,"keywords":["nocrits","nodmgspread","payload","uncletopia"],"game_id":440,"stv_port":27026,"stv_name":"Uncletopia | Chicago | 2 | All Maps | STV","players":[{"user_id":186,"name":"Toasty Gyro","steam_id":76561198001026643,"connected_time":33000000000,"state":"connecting","ping":55},{"user_id":122,"name":"spooky","steam_id":76561198122964663,"connected_time":2221000000000,"state":"connecting","ping":83},{"user_id":185,"name":"InvaderAlex","steam_id":76561198039232451,"connected_time":69000000000,"state":"connecting","ping":90},{"user_id":175,"name":"Mikael_01","steam_id":76561199080253129,"connected_time":675000000000,"state":"connecting","ping":196},{"user_id":105,"name":"ContinuedBear4","steam_id":76561198265176919,"connected_time":2423000000000,"state":"connecting","ping":82},{"user_id":106,"name":"SaucySandwichKid","steam_id":76561199372590934,"connected_time":2422000000000,"state":"connecting","ping":78},{"user_id":142,"name":"an inebriated newt fancier","steam_id":76561197985428155,"connected_time":1534000000000,"state":"connecting","ping":81},{"user_id":114,"name":"astron","steam_id":76561198058546328,"connected_time":2333000000000,"state":"connecting","ping":112},{"user_id":182,"name":"popfulmail","steam_id":76561198865971290,"connected_time":444000000000,"state":"connecting","ping":100},{"user_id":110,"name":"playing on a raspberry pi","steam_id":76561198035969198,"connected_time":2411000000000,"state":"connecting","ping":134},{"user_id":180,"name":"Tyrone","steam_id":76561198189429665,"connected_time":533000000000,"state":"connecting","ping":88},{"user_id":184,"name":"Random Dog Guy","steam_id":76561198033132263,"connected_time":131000000000,"state":"connecting","ping":78},{"user_id":138,"name":"ericgoodheart","steam_id":76561198871056612,"connected_time":1602000000000,"state":"connecting","ping":82},{"user_id":151,"name":"Gandalf Gaming","steam_id":76561198368151490,"connected_time":1341000000000,"state":"connecting","ping":81},{"user_id":181,"name":"the real babytron","steam_id":76561197989627918,"connected_time":502000000000,"state":"connecting","ping":93}]},{"server_id":402,"name":"Uncletopia | Chicago | 3 | All Maps","name_short":"chi-3","host":"chi-1.us.uncletopia.com","port":27035,"enabled":true,"region":"us-central","cc":"us","latitude":41.881832,"longitude":-87.62318,"reserved":0,"last_update":"0001-01-01T00:00:00Z","name_a2s":"Uncletopia | Chicago | 3 | All Maps","protocol":17,"map":"pl_swiftwater_final1","folder":"tf","game":"Team Fortress","app_id":440,"player_count":24,"max_players":24,"Bots":0,"server_type":"Dedicated","server_os":"Linux","password":true,"vac":true,"version":"7757534","steam_id":85568392924515191,"keywords":["nocrits","nodmgspread","payload","uncletopia"],"game_id":440,"stv_port":27036,"stv_name":"Uncletopia | Chicago | 3 | All Maps | STV","players":[{"user_id":112,"name":"Wahooka","steam_id":76561197962240925,"connected_time":989000000000,"state":"active","ping":59},{"user_id":114,"name":"nhbiker","steam_id":76561198081277675,"connected_time":852000000000,"state":"active","ping":60},{"user_id":115,"name":"ChristLovesMeTTV ‚Ä†","steam_id":76561198070635731,"connected_time":838000000000,"state":"active","ping":62},{"user_id":108,"name":"Soup0fTheDay","steam_id":76561199039857744,"connected_time":1177000000000,"state":"active","ping":48},{"user_id":110,"name":"Dokkibai","steam_id":76561198355935693,"connected_time":1137000000000,"state":"active","ping":49},{"user_id":137,"name":"e","steam_id":76561198131245396,"connected_time":28000000000,"state":"active","ping":52},{"user_id":124,"name":"starfungus","steam_id":76561198158312789,"connected_time":667000000000,"state":"active","ping":78},{"user_id":120,"name":"vanxi","steam_id":76561198089852954,"connected_time":750000000000,"state":"active","ping":92},{"user_id":134,"name":"mr. beaver","steam_id":76561198081361768,"connected_time":128000000000,"state":"active","ping":65},{"user_id":119,"name":"entering mandom","steam_id":76561198133360797,"connected_time":768000000000,"state":"active","ping":106},{"user_id":121,"name":"slimjim557","steam_id":76561199094710853,"connected_time":731000000000,"state":"active","ping":71},{"user_id":99,"name":"jstn","steam_id":76561198845283665,"connected_time":1972000000000,"state":"active","ping":70},{"user_id":122,"name":"Willy","steam_id":76561198046508940,"connected_time":719000000000,"state":"active","ping":62},{"user_id":105,"name":"Grand Rat Warlock","steam_id":76561199102985277,"connected_time":1383000000000,"state":"active","ping":100},{"user_id":136,"name":"Randy \"the Man\" Johnson","steam_id":76561198039124445,"connected_time":51000000000,"state":"active","ping":93},{"user_id":126,"name":"smugdoug","steam_id":76561198021381678,"connected_time":617000000000,"state":"active","ping":65},{"user_id":109,"name":"Recursive Gamer","steam_id":76561198042102952,"connected_time":1156000000000,"state":"active","ping":64},{"user_id":131,"name":"Warsh Cloth","steam_id":76561198059761344,"connected_time":403000000000,"state":"active","ping":55},{"user_id":128,"name":"BillButtLicker69","steam_id":76561198070119268,"connected_time":594000000000,"state":"active","ping":108},{"user_id":135,"name":"$3.99 Shrimps","steam_id":76561198077272494,"connected_time":116000000000,"state":"active","ping":49},{"user_id":129,"name":"Azula's #1 Fan","steam_id":76561198133111058,"connected_time":587000000000,"state":"active","ping":75},{"user_id":104,"name":"The_Quiet_One","steam_id":76561198132476501,"connected_time":1537000000000,"state":"active","ping":58},{"user_id":130,"name":"demoknight tf2","steam_id":76561198070393998,"connected_time":582000000000,"state":"active","ping":61},{"user_id":73,"name":"cotton candy thief","steam_id":76561198058998371,"connected_time":4814000000000,"state":"active","ping":66}]},{"server_id":403,"name":"Uncletopia | Chicago | 4 | All Maps","name_short":"chi-4","host":"chi-1.us.uncletopia.com","port":27045,"enabled":true,"region":"us-central","cc":"us","latitude":41.881832,"longitude":-87.62318,"reserved":0,"last_update":"0001-01-01T00:00:00Z","name_a2s":"Uncletopia | Chicago | 4 | All Maps","protocol":17,"map":"pl_badwater","folder":"tf","game":"Team Fortress","app_id":440,"player_count":24,"max_players":24,"Bots":0,"server_type":"Dedicated","server_os":"Linux","password":true,"vac":true,"version":"7757534","steam_id":85568392924515193,"keywords":["nocrits","nodmgspread","payload","uncletopia"],"game_id":440,"stv_port":27046,"stv_name":"Uncletopia | Chicago | 4 | All Maps | STV","players":[{"user_id":403,"name":"LargerThanAverageDragon","steam_id":76561198152036300,"connected_time":2339000000000,"state":"active","ping":65},{"user_id":419,"name":"Dabbledornk","steam_id":76561198065241300,"connected_time":979000000000,"state":"active","ping":60},{"user_id":420,"name":"Duvet","steam_id":76561199151206130,"connected_time":964000000000,"state":"active","ping":49},{"user_id":421,"name":"Elizabeth truss","steam_id":76561198058250979,"connected_time":953000000000,"state":"active","ping":103},{"user_id":390,"name":"KevCraft","steam_id":76561199000622939,"connected_time":3017000000000,"state":"active","ping":72},{"user_id":391,"name":"wack","steam_id":76561198095697330,"connected_time":3009000000000,"state":"active","ping":75},{"user_id":404,"name":"FancyBattlePants","steam_id":76561198197130311,"connected_time":2316000000000,"state":"active","ping":101},{"user_id":422,"name":"leumas","steam_id":76561198240408540,"connected_time":932000000000,"state":"active","ping":77},{"user_id":394,"name":"Arilotl (she/her)","steam_id":76561199057752358,"connected_time":2791000000000,"state":"active","ping":61},{"user_id":412,"name":"dookiemoto.com","steam_id":76561198402434159,"connected_time":1593000000000,"state":"active","ping":69},{"user_id":415,"name":"GRIM GAMING","steam_id":76561198107491637,"connected_time":1175000000000,"state":"active","ping":54},{"user_id":423,"name":"hedahman","steam_id":76561198052398134,"connected_time":927000000000,"state":"active","ping":101},{"user_id":395,"name":"b4rry","steam_id":76561198365887154,"connected_time":2782000000000,"state":"active","ping":72},{"user_id":402,"name":"Dr. Dick","steam_id":76561198138011922,"connected_time":2382000000000,"state":"active","ping":84},{"user_id":426,"name":"flexer_2000","steam_id":76561198084422657,"connected_time":230000000000,"state":"active","ping":91},{"user_id":424,"name":"baklava","steam_id":76561198124591302,"connected_time":917000000000,"state":"active","ping":63},{"user_id":406,"name":"Nexus","steam_id":76561198187929865,"connected_time":2264000000000,"state":"active","ping":57},{"user_id":416,"name":"Johnny Esports","steam_id":76561198115812405,"connected_time":1173000000000,"state":"active","ping":71},{"user_id":400,"name":"chiswola","steam_id":76561198046920142,"connected_time":2449000000000,"state":"active","ping":73},{"user_id":407,"name":"Jeugh","steam_id":76561198073498865,"connected_time":2250000000000,"state":"active","ping":91},{"user_id":408,"name":"willsmith69","steam_id":76561198365512706,"connected_time":2249000000000,"state":"active","ping":60},{"user_id":409,"name":"lemon","steam_id":76561198086406706,"connected_time":2249000000000,"state":"active","ping":45},{"user_id":413,"name":"deech","steam_id":76561198066429444,"connected_time":1420000000000,"state":"active","ping":73},{"user_id":427,"name":"CR4YCR4Y","steam_id":76561198009310297,"connected_time":57000000000,"state":"active","ping":70}]},{"server_id":36,"name":"Uncletopia | Chicago | 5 | All Maps","name_short":"chi-5","host":"chi-2.us.uncletopia.com","port":27015,"enabled":true,"region":"us-central","cc":"us","latitude":41.881832,"longitude":-87.62318,"reserved":0,"last_update":"0001-01-01T00:00:00Z","name_a2s":"Uncletopia | Chicago | 5 | All Maps","protocol":17,"map":"koth_cascade","folder":"tf","game":"Team Fortress","app_id":440,"player_count":0,"max_players":24,"Bots":0,"server_type":"Dedicated","server_os":"Linux","password":true,"vac":true,"version":"7757534","steam_id":85568392924866362,"keywords":["cp","nocrits","nodmgspread","uncletopia"],"game_id":440,"stv_port":27016,"stv_name":"Uncletopia | Chicago | 5 | All Maps | STV","players":null},{"server_id":37,"name":"Uncletopia | Chicago | 6 | All Maps","name_short":"chi-6","host":"chi-2.us.uncletopia.com","port":27025,"enabled":true,"region":"us-central","cc":"us","latitude":41.881832,"longitude":-87.62318,"reserved":0,"last_update":"0001-01-01T00:00:00Z","name_a2s":"Uncletopia | Chicago | 6 | All Maps","protocol":17,"map":"pl_upward","folder":"tf","game":"Team Fortress","app_id":440,"player_count":24,"max_players":24,"Bots":0,"server_type":"Dedicated","server_os":"Linux","password":true,"vac":true,"version":"7757534","steam_id":85568392924866363,"keywords":["nocrits","nodmgspread","payload","uncletopia"],"game_id":440,"stv_port":27026,"stv_name":"Uncletopia | Chicago | 6 | All Maps | STV","players":[{"user_id":361,"name":"Printified","steam_id":76561198063534010,"connected_time":1560000000000,"state":"active","ping":67},{"user_id":325,"name":"poiuytrewqwqwqwqwqwqwqwqwqwqwqw","steam_id":76561199105253001,"connected_time":3865000000000,"state":"active","ping":73},{"user_id":369,"name":"ProbiusSC","steam_id":76561198379167322,"connected_time":1354000000000,"state":"active","ping":85},{"user_id":378,"name":"ZplitZ","steam_id":76561198093629868,"connected_time":463000000000,"state":"active","ping":68},{"user_id":384,"name":"[DEEP] Roz257","steam_id":76561198842844532,"connected_time":199000000000,"state":"active","ping":58},{"user_id":385,"name":"ItJustGetsWorse","steam_id":76561198078385108,"connected_time":188000000000,"state":"active","ping":82},{"user_id":380,"name":"IPlayGamez","steam_id":76561198041387508,"connected_time":402000000000,"state":"active","ping":60},{"user_id":364,"name":"howtobepker","steam_id":76561198115053865,"connected_time":1442000000000,"state":"active","ping":87},{"user_id":367,"name":"Hellen Keller Gaming","steam_id":76561198060071360,"connected_time":1423000000000,"state":"active","ping":72},{"user_id":352,"name":"Billybob7712","steam_id":76561199000291076,"connected_time":2262000000000,"state":"active","ping":133},{"user_id":327,"name":"thomasdee725","steam_id":76561199189526173,"connected_time":3825000000000,"state":"active","ping":89},{"user_id":386,"name":"jack merridew","steam_id":76561199206622559,"connected_time":49000000000,"state":"spawning","ping":75},{"user_id":376,"name":"Mikey","steam_id":76561199027332418,"connected_time":1030000000000,"state":"active","ping":98},{"user_id":381,"name":"Pork Tenderloin","steam_id":76561198138663842,"connected_time":393000000000,"state":"active","ping":79},{"user_id":356,"name":"ScoutMoment420","steam_id":76561199316368867,"connected_time":2000000000000,"state":"active","ping":75},{"user_id":365,"name":"Vegerot","steam_id":76561197997843710,"connected_time":1433000000000,"state":"active","ping":60},{"user_id":348,"name":"Zin","steam_id":76561199041369507,"connected_time":2572000000000,"state":"active","ping":82},{"user_id":382,"name":"twix","steam_id":76561198040912048,"connected_time":381000000000,"state":"active","ping":58},{"user_id":366,"name":"theRainyMute","steam_id":76561198127625760,"connected_time":1430000000000,"state":"active","ping":70},{"user_id":329,"name":"innisfree","steam_id":76561198109065124,"connected_time":3809000000000,"state":"active","ping":77},{"user_id":371,"name":"festive medic gaming","steam_id":76561199386847009,"connected_time":1314000000000,"state":"active","ping":71},{"user_id":383,"name":"Large Man","steam_id":76561198880396651,"connected_time":364000000000,"state":"active","ping":88},{"user_id":321,"name":"Grify","steam_id":76561198012292317,"connected_time":4172000000000,"state":"active","ping":88},{"user_id":377,"name":"Volkan, Pervert Extraordinaire","steam_id":76561198004569575,"connected_time":481000000000,"state":"active","ping":76}]},{"server_id":38,"name":"Uncletopia | Chicago | 7 | Stopwatch Beta","name_short":"chi-7","host":"chi-2.us.uncletopia.com","port":27035,"enabled":true,"region":"us-central","cc":"us","latitude":41.881832,"longitude":-87.62318,"reserved":0,"last_update":"0001-01-01T00:00:00Z","name_a2s":"Uncletopia | Chicago | 7 | Stopwatch Beta","protocol":17,"map":"pl_upward","folder":"tf","game":"Team Fortress","app_id":440,"player_count":0,"max_players":24,"Bots":0,"server_type":"Dedicated","server_os":"Linux","password":true,"vac":true,"version":"7757534","steam_id":85568392924866364,"keywords":["nocrits","nodmgspread","payload","uncletopia"],"game_id":440,"stv_port":27036,"stv_name":"Uncletopia | Chicago | 7 | Stopwatch Beta | STV","players":null},{"server_id":39,"name":"Uncletopia | Chicago | 8 | Community","name_short":"chi-8","host":"chi-2.us.uncletopia.com","port":27045,"enabled":true,"region":"us-central","cc":"us","latitude":41.881832,"longitude":-87.62318,"reserved":0,"last_update":"0001-01-01T00:00:00Z","name_a2s":"Uncletopia | Chicago | 8 | Community","protocol":17,"map":"workshop/pl_barnblitz_pro7.ugc582280235","folder":"tf","game":"Team Fortress","app_id":440,"player_count":0,"max_players":24,"Bots":0,"server_type":"Dedicated","server_os":"Linux","password":true,"vac":true,"version":"7757534","steam_id":85568392924866365,"keywords":["nocrits","nodmgspread","payload","uncletopia"],"game_id":440,"stv_port":27046,"stv_name":"Uncletopia | Chicago | 8 | Community | STV","players":null},{"server_id":8,"name":"Uncletopia | Dallas | 1 | All Maps","name_short":"dal-1","host":"dal-1.us.uncletopia.com","port":27015,"enabled":true,"region":"us-central","cc":"us","latitude":32.779167,"longitude":-96.80889,"reserved":0,"last_update":"0001-01-01T00:00:00Z","name_a2s":"Uncletopia | Dallas | 1 | All Maps","protocol":17,"map":"cp_process_final","folder":"tf","game":"Team Fortress","app_id":440,"player_count":23,"max_players":24,"Bots":0,"server_type":"Dedicated","server_os":"Linux","password":true,"vac":true,"version":"7757534","steam_id":85568392924469986,"keywords":["cp","nocrits","nodmgspread","uncletopia"],"game_id":440,"stv_port":27016,"stv_name":"Uncletopia | Dallas | 1 | All Maps | STV","players":[{"user_id":203,"name":"Tes, Queen of the Girldick Army","steam_id":76561198305808089,"connected_time":1274000000000,"state":"active","ping":81},{"user_id":214,"name":"The Overmind #RizzGang","steam_id":76561199170229428,"connected_time":554000000000,"state":"active","ping":94},{"user_id":204,"name":"Arcwrench","steam_id":76561198426111854,"connected_time":1243000000000,"state":"active","ping":87},{"user_id":228,"name":"Infinitive","steam_id":76561199454352648,"connected_time":119000000000,"state":"active","ping":99},{"user_id":207,"name":"Cretin32","steam_id":76561198986265728,"connected_time":1151000000000,"state":"active","ping":72},{"user_id":209,"name":"TechnoFlare","steam_id":76561198067720081,"connected_time":1086000000000,"state":"active","ping":83},{"user_id":226,"name":"usedhalfcart","steam_id":76561198072621852,"connected_time":260000000000,"state":"active","ping":109},{"user_id":211,"name":"Cake","steam_id":76561198318604761,"connected_time":870000000000,"state":"active","ping":55},{"user_id":212,"name":"Angelskittle","steam_id":76561198273975824,"connected_time":810000000000,"state":"active","ping":86},{"user_id":213,"name":"shovel","steam_id":76561199122369814,"connected_time":634000000000,"state":"active","ping":81},{"user_id":218,"name":"Huntpk","steam_id":76561198340591674,"connected_time":457000000000,"state":"active","ping":62},{"user_id":219,"name":"Metal Silver","steam_id":76561198422159570,"connected_time":455000000000,"state":"active","ping":54},{"user_id":148,"name":"Indicative","steam_id":76561199076612537,"connected_time":5915000000000,"state":"active","ping":59},{"user_id":220,"name":"spherewithahat","steam_id":76561199122192660,"connected_time":382000000000,"state":"active","ping":101},{"user_id":222,"name":"Jesus Loves You57","steam_id":76561199058833769,"connected_time":350000000000,"state":"active","ping":88},{"user_id":224,"name":"IVY","steam_id":76561198062892174,"connected_time":304000000000,"state":"active","ping":89},{"user_id":225,"name":"Felix Argyle :3","steam_id":76561198999454961,"connected_time":294000000000,"state":"active","ping":87},{"user_id":229,"name":"faze pantalla","steam_id":76561198250215734,"connected_time":106000000000,"state":"active","ping":85},{"user_id":230,"name":"Skins McKenzie","steam_id":76561198043160642,"connected_time":100000000000,"state":"active","ping":80},{"user_id":231,"name":"faze waadden","steam_id":76561198325569425,"connected_time":99000000000,"state":"active","ping":85},{"user_id":232,"name":"gritty 2024","steam_id":76561198165567310,"connected_time":89000000000,"state":"active","ping":75},{"user_id":198,"name":"JesusLovesYouYAY","steam_id":76561199146362676,"connected_time":1842000000000,"state":"active","ping":99},{"user_id":234,"name":"MechanicalMenace14","steam_id":76561199063956054,"connected_time":71000000000,"state":"active","ping":104}]},{"server_id":108,"name":"Uncletopia | Dallas | 2 | All Maps","name_short":"dal-2","host":"dal-1.us.uncletopia.com","port":27025,"enabled":true,"region":"us-central","cc":"us","latitude":32.779167,"longitude":-96.80889,"reserved":0,"last_update":"0001-01-01T00:00:00Z","name_a2s":"Uncletopia | Dallas | 2 | All Maps","protocol":17,"map":"pl_badwater","folder":"tf","game":"Team Fortress","app_id":440,"player_count":24,"max_players":24,"Bots":0,"server_type":"Dedicated","server_os":"Linux","password":true,"vac":true,"version":"7757534","steam_id":85568392924469988,"keywords":["nocrits","nodmgspread","payload","uncletopia"],"game_id":440,"stv_port":27026,"stv_name":"Uncletopia | Dallas | 2 | All Maps | STV","players":[{"user_id":85,"name":"animesuki2010","steam_id":76561198059574361,"connected_time":191000000000,"state":"active","ping":79},{"user_id":55,"name":"The Squid Gamer‚Ñ¢","steam_id":76561198340621517,"connected_time":1733000000000,"state":"active","ping":89},{"user_id":86,"name":"iphoneibong","steam_id":76561198054647777,"connected_time":185000000000,"state":"active","ping":35},{"user_id":87,"name":"evan_is_sauce","steam_id":76561199086802383,"connected_time":158000000000,"state":"active","ping":69},{"user_id":81,"name":"Nurew","steam_id":76561198052589498,"connected_time":496000000000,"state":"active","ping":95},{"user_id":16,"name":"The World's Softest Sandwich","steam_id":76561198015577707,"connected_time":4340000000000,"state":"active","ping":72},{"user_id":18,"name":"RC Cola ¬Æ","steam_id":76561198165074941,"connected_time":4231000000000,"state":"active","ping":78},{"user_id":19,"name":"Shwee","steam_id":76561199439625082,"connected_time":4203000000000,"state":"active","ping":100},{"user_id":78,"name":"Joshy","steam_id":76561198061405421,"connected_time":818000000000,"state":"active","ping":90},{"user_id":22,"name":"LeFunnyMan","steam_id":76561199081645289,"connected_time":4109000000000,"state":"active","ping":71},{"user_id":80,"name":"ArmaViviente","steam_id":76561198084098079,"connected_time":801000000000,"state":"active","ping":85},{"user_id":73,"name":"Gibby","steam_id":76561199336569123,"connected_time":852000000000,"state":"active","ping":119},{"user_id":27,"name":"rumes","steam_id":76561198349219467,"connected_time":3900000000000,"state":"active","ping":72},{"user_id":89,"name":"Johnny Lawrence #JohnnyMaxxing","steam_id":76561199367141671,"connected_time":87000000000,"state":"active","ping":90},{"user_id":62,"name":"Void","steam_id":76561198308290211,"connected_time":1475000000000,"state":"active","ping":98},{"user_id":74,"name":"Legit_Jaxer","steam_id":76561198172234053,"connected_time":852000000000,"state":"active","ping":105},{"user_id":70,"name":"Lo-Pan","steam_id":76561198085670133,"connected_time":949000000000,"state":"active","ping":59},{"user_id":83,"name":"BigBubble42","steam_id":76561198136286123,"connected_time":452000000000,"state":"active","ping":29},{"user_id":75,"name":"Socialism Doesn't Work","steam_id":76561198044115698,"connected_time":842000000000,"state":"active","ping":83},{"user_id":76,"name":"mangoface","steam_id":76561199028760996,"connected_time":836000000000,"state":"active","ping":175},{"user_id":41,"name":"FG7","steam_id":76561198381197197,"connected_time":3323000000000,"state":"active","ping":116},{"user_id":77,"name":"mepng","steam_id":76561199018758598,"connected_time":832000000000,"state":"active","ping":87},{"user_id":79,"name":"Adawnby","steam_id":76561198103057295,"connected_time":808000000000,"state":"active","ping":57},{"user_id":84,"name":"FloppyUser","steam_id":76561197968560891,"connected_time":380000000000,"state":"active","ping":157}]},{"server_id":5,"name":"Uncletopia | Frankfurt | 1 | All Maps","name_short":"frk-1","host":"frk-1.de.uncletopia.com","port":27015,"enabled":true,"region":"eu","cc":"de","latitude":50.110924,"longitude":8.682127,"reserved":0,"last_update":"0001-01-01T00:00:00Z","name_a2s":"Uncletopia | Frankfurt | 1 | All Maps","protocol":17,"map":"cp_snakewater_final1","folder":"tf","game":"Team Fortress","app_id":440,"player_count":3,"max_players":24,"Bots":0,"server_type":"Dedicated","server_os":"Linux","password":true,"vac":true,"version":"7757534","steam_id":85568392924469989,"keywords":["cp","nocrits","nodmgspread","uncletopia"],"game_id":440,"stv_port":27016,"stv_name":"Uncletopia | Frankfurt | 1 | All Maps | STV","players":[{"user_id":463,"name":"Jeeworth","steam_id":76561198797972504,"connected_time":1000000000000,"state":"active","ping":72},{"user_id":464,"name":"Moss","steam_id":76561199084162765,"connected_time":948000000000,"state":"active","ping":64},{"user_id":465,"name":"Ederbiener","steam_id":76561198201899018,"connected_time":751000000000,"state":"active","ping":68}]},{"server_id":110,"name":"Uncletopia | Frankfurt | 2 | All Maps","name_short":"frk-2","host":"frk-1.de.uncletopia.com","port":27025,"enabled":true,"region":"eu","cc":"de","latitude":50.110924,"longitude":8.682127,"reserved":0,"last_update":"0001-01-01T00:00:00Z","name_a2s":"Uncletopia | Frankfurt | 2 | All Maps","protocol":17,"map":"koth_lakeside_final","folder":"tf","game":"Team Fortress","app_id":440,"player_count":19,"max_players":24,"Bots":0,"server_type":"Dedicated","server_os":"Linux","password":true,"vac":true,"version":"7757534","steam_id":85568392924469990,"keywords":["cp","nocrits","nodmgspread","uncletopia"],"game_id":440,"stv_port":27026,"stv_name":"Uncletopia | Frankfurt | 2 | All Maps | STV","players":[{"user_id":201,"name":"–∏–≤–∞–Ω","steam_id":76561198072730591,"connected_time":2341000000000,"state":"active","ping":58},{"user_id":225,"name":"Melon","steam_id":76561198150893860,"connected_time":1085000000000,"state":"active","ping":61},{"user_id":238,"name":"Fofenho","steam_id":76561198436817109,"connected_time":222000000000,"state":"active","ping":74},{"user_id":174,"name":"loukritia","steam_id":76561199041313603,"connected_time":5393000000000,"state":"active","ping":81},{"user_id":236,"name":"Treachery","steam_id":76561199042470246,"connected_time":283000000000,"state":"active","ping":51},{"user_id":233,"name":"Daddy Donovan","steam_id":76561198140938904,"connected_time":451000000000,"state":"active","ping":82},{"user_id":205,"name":"God's Goofiest Goober","steam_id":76561198103175187,"connected_time":2288000000000,"state":"active","ping":65},{"user_id":234,"name":"RTX Sentry (real)","steam_id":76561199466725756,"connected_time":395000000000,"state":"active","ping":157},{"user_id":152,"name":"Captain Slow","steam_id":76561199071095638,"connected_time":7111000000000,"state":"active","ping":81},{"user_id":235,"name":"Dean Craig Pelton From Communit","steam_id":76561198155010055,"connected_time":379000000000,"state":"active","ping":124},{"user_id":231,"name":"Priceybay","steam_id":76561198055389492,"connected_time":810000000000,"state":"active","ping":61},{"user_id":237,"name":"Scazzing","steam_id":76561198052954318,"connected_time":241000000000,"state":"active","ping":55},{"user_id":239,"name":"Call Me Meme","steam_id":76561198342092670,"connected_time":99000000000,"state":"active","ping":85},{"user_id":241,"name":"Naho","steam_id":76561198077169715,"connected_time":46000000000,"state":"active","ping":80},{"user_id":216,"name":"John Daly","steam_id":76561197993849325,"connected_time":1901000000000,"state":"active","ping":80},{"user_id":219,"name":"Linux Mint","steam_id":76561199009412563,"connected_time":1631000000000,"state":"active","ping":101},{"user_id":224,"name":"King Harkinian","steam_id":76561197987699948,"connected_time":1118000000000,"state":"active","ping":81},{"user_id":227,"name":"Crab","steam_id":76561198269167544,"connected_time":1050000000000,"state":"active","ping":104},{"user_id":191,"name":"vani","steam_id":76561197991778291,"connected_time":3943000000000,"state":"active","ping":75}]},{"server_id":308,"name":"Uncletopia | Frankfurt | 3 | All Maps","name_short":"frk-3","host":"frk-1.de.uncletopia.com","port":27035,"enabled":true,"region":"eu","cc":"de","latitude":50.110924,"longitude":8.682127,"reserved":0,"last_update":"0001-01-01T00:00:00Z","name_a2s":"Uncletopia | Frankfurt | 3 | All Maps","protocol":17,"map":"pl_borneo","folder":"tf","game":"Team Fortress","app_id":440,"player_count":23,"max_players":24,"Bots":0,"server_type":"Dedicated","server_os":"Linux","password":true,"vac":true,"version":"7757534","steam_id":85568392924504274,"keywords":["nocrits","nodmgspread","payload","uncletopia"],"game_id":440,"stv_port":27036,"stv_name":"Uncletopia | Frankfurt | 3 | All Maps | STV","players":[{"user_id":419,"name":"Cock Thief","steam_id":76561199213400234,"connected_time":1221000000000,"state":"active","ping":67},{"user_id":412,"name":"G6 sherlock","steam_id":76561198802967796,"connected_time":2202000000000,"state":"active","ping":116},{"user_id":414,"name":"[ALT_F4]dottor_cacabula_m8","steam_id":76561198173192267,"connected_time":1602000000000,"state":"active","ping":71},{"user_id":411,"name":"Toasty5050","steam_id":76561198073540881,"connected_time":2375000000000,"state":"active","ping":42},{"user_id":430,"name":"Tlad2","steam_id":76561198854897667,"connected_time":365000000000,"state":"active","ping":74},{"user_id":424,"name":"New","steam_id":76561198402195911,"connected_time":801000000000,"state":"active","ping":120},{"user_id":423,"name":"giclure :;","steam_id":76561197986362828,"connected_time":960000000000,"state":"active","ping":60},{"user_id":433,"name":"GR1M","steam_id":76561198056812931,"connected_time":334000000000,"state":"active","ping":73},{"user_id":416,"name":"Femboypawnguy","steam_id":76561198274894771,"connected_time":1356000000000,"state":"active","ping":53},{"user_id":396,"name":"LEGEND FUMO.","steam_id":76561198061033903,"connected_time":2712000000000,"state":"active","ping":47},{"user_id":408,"name":"Rimx","steam_id":76561198053034840,"connected_time":2481000000000,"state":"active","ping":92},{"user_id":427,"name":"Happy Little Accidents","steam_id":76561198153810367,"connected_time":397000000000,"state":"active","ping":62},{"user_id":407,"name":"becky","steam_id":76561198038671894,"connected_time":2499000000000,"state":"active","ping":65},{"user_id":431,"name":"scantron","steam_id":76561199103959197,"connected_time":359000000000,"state":"active","ping":93},{"user_id":437,"name":"dragoon","steam_id":76561198241320498,"connected_time":21000000000,"state":"active","ping":66},{"user_id":340,"name":"grip","steam_id":76561198088201976,"connected_time":5036000000000,"state":"active","ping":44},{"user_id":418,"name":"crouds","steam_id":76561198094204545,"connected_time":1312000000000,"state":"active","ping":60},{"user_id":413,"name":"Kaspar","steam_id":76561198081849206,"connected_time":1990000000000,"state":"active","ping":62},{"user_id":394,"name":"Ayaka","steam_id":76561198028078806,"connected_time":2812000000000,"state":"active","ping":51},{"user_id":436,"name":"Linku","steam_id":76561198063792691,"connected_time":118000000000,"state":"active","ping":68},{"user_id":435,"name":"teona","steam_id":76561198008107656,"connected_time":148000000000,"state":"active","ping":61},{"user_id":426,"name":"DZ.Algerian üá©üáø","steam_id":76561199266754351,"connected_time":753000000000,"state":"active","ping":103},{"user_id":429,"name":"Mortuus","steam_id":76561198040743288,"connected_time":384000000000,"state":"active","ping":60}]},{"server_id":309,"name":"Uncletopia | Frankfurt | 4 | All Maps","name_short":"frk-4","host":"frk-1.de.uncletopia.com","port":27045,"enabled":true,"region":"eu","cc":"de","latitude":50.110924,"longitude":8.682127,"reserved":0,"last_update":"0001-01-01T00:00:00Z","name_a2s":"Uncletopia | Frankfurt | 4 | All Maps","protocol":17,"map":"pl_badwater","folder":"tf","game":"Team Fortress","app_id":440,"player_count":23,"max_players":24,"Bots":0,"server_type":"Dedicated","server_os":"Linux","password":true,"vac":true,"version":"7757534","steam_id":85568392924504275,"keywords":["nocrits","nodmgspread","payload","uncletopia"],"game_id":440,"stv_port":27046,"stv_name":"Uncletopia | Frankfurt | 4 | All Maps | STV","players":[{"user_id":346,"name":"Z√°por√°k","steam_id":76561198207175503,"connected_time":291000000000,"state":"active","ping":60},{"user_id":271,"name":"Vershal Smershal","steam_id":76561198116223995,"connected_time":5178000000000,"state":"active","ping":59},{"user_id":331,"name":"Udinese Dion","steam_id":76561198067931573,"connected_time":1241000000000,"state":"active","ping":45},{"user_id":323,"name":"jo bidn' | ETLARTORM","steam_id":76561198869576262,"connected_time":2766000000000,"state":"active","ping":104},{"user_id":294,"name":"Yangus","steam_id":76561198147796010,"connected_time":3750000000000,"state":"active","ping":57},{"user_id":313,"name":"eduardo","steam_id":76561198014491925,"connected_time":2956000000000,"state":"active","ping":78},{"user_id":340,"name":"Tywhip","steam_id":76561199207545191,"connected_time":888000000000,"state":"active","ping":59},{"user_id":328,"name":"niaerniopawrjnko","steam_id":76561198030408772,"connected_time":2229000000000,"state":"active","ping":60},{"user_id":261,"name":"Carrotcracker","steam_id":76561198034862396,"connected_time":5349000000000,"state":"active","ping":62},{"user_id":254,"name":"nedilya","steam_id":76561198039692077,"connected_time":6285000000000,"state":"active","ping":55},{"user_id":334,"name":"on1on (pickled)","steam_id":76561197995304137,"connected_time":1101000000000,"state":"active","ping":64},{"user_id":335,"name":"tekt","steam_id":76561198044554387,"connected_time":1094000000000,"state":"active","ping":93},{"user_id":329,"name":"Pilaarius","steam_id":76561198120273212,"connected_time":2099000000000,"state":"active","ping":103},{"user_id":320,"name":"sofa","steam_id":76561198058012525,"connected_time":2910000000000,"state":"active","ping":70},{"user_id":336,"name":"no weed","steam_id":76561199024279010,"connected_time":1091000000000,"state":"active","ping":75},{"user_id":338,"name":"Swift","steam_id":76561197998799889,"connected_time":1020000000000,"state":"active","ping":71},{"user_id":343,"name":"Shirty Mop","steam_id":76561198202445780,"connected_time":449000000000,"state":"active","ping":79},{"user_id":300,"name":"√Ñ√§rik ‚ô£","steam_id":76561198131871737,"connected_time":3668000000000,"state":"active","ping":54},{"user_id":330,"name":"SteelForce","steam_id":76561199158386096,"connected_time":2095000000000,"state":"active","ping":67},{"user_id":321,"name":"(;Ôπè;)","steam_id":76561198076494034,"connected_time":2871000000000,"state":"active","ping":55},{"user_id":339,"name":"DeleteTrickster","steam_id":76561198397120242,"connected_time":988000000000,"state":"active","ping":78},{"user_id":281,"name":"Steen","steam_id":76561198122992510,"connected_time":4799000000000,"state":"active","ping":46},{"user_id":309,"name":"Mi Manchi","steam_id":76561198171573129,"connected_time":3180000000000,"state":"active","ping":56}]},{"server_id":310,"name":"Uncletopia | Frankfurt | 5 | All Maps","name_short":"frk-5","host":"frk-1.de.uncletopia.com","port":27055,"enabled":true,"region":"eu","cc":"de","latitude":50.110924,"longitude":8.682127,"reserved":0,"last_update":"0001-01-01T00:00:00Z","name_a2s":"Uncletopia | Frankfurt | 5 | All Maps","protocol":17,"map":"pl_goldrush","folder":"tf","game":"Team Fortress","app_id":440,"player_count":24,"max_players":24,"Bots":0,"server_type":"Dedicated","server_os":"Linux","password":true,"vac":true,"version":"7757534","steam_id":85568392924504277,"keywords":["nocrits","nodmgspread","payload","uncletopia"],"game_id":440,"stv_port":27056,"stv_name":"Uncletopia | Frankfurt | 5 | All Maps | STV","players":[{"user_id":495,"name":"Ted Kaczynski","steam_id":76561198064795519,"connected_time":507000000000,"state":"active","ping":85},{"user_id":482,"name":"neta GAMING GAMING","steam_id":76561198262910410,"connected_time":1447000000000,"state":"active","ping":96},{"user_id":489,"name":"Scipionemiliano","steam_id":76561198027646559,"connected_time":824000000000,"state":"active","ping":218},{"user_id":498,"name":"Paddy","steam_id":76561198081025602,"connected_time":95000000000,"state":"active","ping":55},{"user_id":457,"name":"Hexabit","steam_id":76561198028625661,"connected_time":3305000000000,"state":"active","ping":70},{"user_id":468,"name":"CarbonaraConLaPanna","steam_id":76561198265722644,"connected_time":2265000000000,"state":"active","ping":91},{"user_id":463,"name":"Pietro Badoglio","steam_id":76561198302435743,"connected_time":2364000000000,"state":"active","ping":73},{"user_id":485,"name":"3xample","steam_id":76561198805049375,"connected_time":1090000000000,"state":"active","ping":60},{"user_id":499,"name":"Robuchodonosor","steam_id":76561197968575924,"connected_time":92000000000,"state":"active","ping":67},{"user_id":472,"name":"JohnTraveltime","steam_id":76561199244281754,"connected_time":1972000000000,"state":"active","ping":87},{"user_id":458,"name":"Subnet001","steam_id":76561198029163028,"connected_time":3303000000000,"state":"active","ping":70},{"user_id":490,"name":"milikazard","steam_id":76561198030516801,"connected_time":816000000000,"state":"active","ping":132},{"user_id":475,"name":"Stoned Jesus","steam_id":76561198021493865,"connected_time":1907000000000,"state":"active","ping":105},{"user_id":487,"name":"„É†GeRmAn |√óUA√ó„É†","steam_id":76561199044754898,"connected_time":922000000000,"state":"active","ping":69},{"user_id":462,"name":"Fish","steam_id":76561198182278770,"connected_time":2624000000000,"state":"active","ping":82},{"user_id":501,"name":"beamer","steam_id":76561198206037191,"connected_time":38000000000,"state":"active","ping":245},{"user_id":412,"name":"COLAN","steam_id":76561198111255418,"connected_time":6219000000000,"state":"active","ping":54},{"user_id":476,"name":"Cosmetic brain","steam_id":76561198055936410,"connected_time":1876000000000,"state":"active","ping":87},{"user_id":480,"name":"Pasta sauce","steam_id":76561198232919072,"connected_time":1730000000000,"state":"active","ping":57},{"user_id":493,"name":"Sans Undertale","steam_id":76561198055747050,"connected_time":572000000000,"state":"active","ping":73},{"user_id":477,"name":"Renard pos4","steam_id":76561197998908594,"connected_time":1860000000000,"state":"active","ping":71},{"user_id":492,"name":"Big Mac Gaming","steam_id":76561198158209651,"connected_time":697000000000,"state":"active","ping":75},{"user_id":497,"name":"iceberg17885","steam_id":76561198850036594,"connected_time":240000000000,"state":"active","ping":110},{"user_id":488,"name":"ZePequenio","steam_id":76561197968506094,"connected_time":911000000000,"state":"active","ping":69}]},{"server_id":311,"name":"Uncletopia | Frankfurt | 6 | All Maps","name_short":"frk-6","host":"frk-1.de.uncletopia.com","port":27065,"enabled":true,"region":"eu","cc":"de","latitude":50.110924,"longitude":8.682127,"reserved":0,"last_update":"0001-01-01T00:00:00Z","name_a2s":"Uncletopia | Frankfurt | 6 | All Maps","protocol":17,"map":"pl_borneo","folder":"tf","game":"Team Fortress","app_id":440,"player_count":21,"max_players":24,"Bots":0,"server_type":"Dedicated","server_os":"Linux","password":true,"vac":true,"version":"7757534","steam_id":85568392924504278,"keywords":["nocrits","nodmgspread","payload","uncletopia"],"game_id":440,"stv_port":27066,"stv_name":"Uncletopia | Frankfurt | 6 | All Maps | STV","players":[{"user_id":352,"name":"rummy","steam_id":76561197997573379,"connected_time":3664000000000,"state":"active","ping":71},{"user_id":418,"name":"Zero (Orbital Gear Mastermind)","steam_id":76561198017416816,"connected_time":172000000000,"state":"active","ping":60},{"user_id":396,"name":"jhonny el sins","steam_id":76561198982787752,"connected_time":976000000000,"state":"active","ping":56},{"user_id":394,"name":"Fizzing Fool","steam_id":76561198425415033,"connected_time":1308000000000,"state":"active","ping":83},{"user_id":346,"name":"i always miss","steam_id":76561199379233899,"connected_time":3968000000000,"state":"active","ping":91},{"user_id":420,"name":"MgrunL","steam_id":76561198389947352,"connected_time":96000000000,"state":"active","ping":197},{"user_id":406,"name":"Ziy???","steam_id":76561197995765491,"connected_time":529000000000,"state":"active","ping":73},{"user_id":403,"name":"generational hater","steam_id":76561198054162681,"connected_time":568000000000,"state":"active","ping":93},{"user_id":350,"name":"Salih","steam_id":76561198287934839,"connected_time":3874000000000,"state":"active","ping":55},{"user_id":399,"name":"Misctek","steam_id":76561199037541925,"connected_time":707000000000,"state":"active","ping":75},{"user_id":408,"name":"hawkblob","steam_id":76561198803720565,"connected_time":451000000000,"state":"active","ping":65},{"user_id":345,"name":"minespweper ‚òÜ","steam_id":76561199096919345,"connected_time":4006000000000,"state":"active","ping":66},{"user_id":419,"name":"Bilaterial Newt","steam_id":76561198074655679,"connected_time":164000000000,"state":"active","ping":75},{"user_id":386,"name":"Penis Contortionist","steam_id":76561198073663784,"connected_time":2280000000000,"state":"active","ping":60},{"user_id":411,"name":"AmadStatistician","steam_id":76561198163654770,"connected_time":378000000000,"state":"active","ping":70},{"user_id":388,"name":"Kati","steam_id":76561198007231088,"connected_time":2201000000000,"state":"active","ping":56},{"user_id":407,"name":"awsomemcawsome","steam_id":76561198223232604,"connected_time":481000000000,"state":"active","ping":87},{"user_id":355,"name":"Gr8gy","steam_id":76561198801350782,"connected_time":3621000000000,"state":"active","ping":88},{"user_id":421,"name":"Repays","steam_id":76561198082993000,"connected_time":95000000000,"state":"active","ping":72},{"user_id":417,"name":"Frylock","steam_id":76561198050292560,"connected_time":223000000000,"state":"active","ping":47},{"user_id":423,"name":"Denton","steam_id":76561198367991717,"connected_time":67000000000,"state":"active","ping":68}]},{"server_id":23,"name":"Uncletopia | Frankfurt | 7 | Stopwatch Beta","name_short":"frk-7","host":"frk-1.de.uncletopia.com","port":27075,"enabled":true,"region":"eu","cc":"de","latitude":50.110924,"longitude":8.682127,"reserved":0,"last_update":"0001-01-01T00:00:00Z","name_a2s":"Uncletopia | Frankfurt | 7 | Stopwatch Beta","protocol":17,"map":"koth_highpass","folder":"tf","game":"Team Fortress","app_id":440,"player_count":0,"max_players":24,"Bots":0,"server_type":"Dedicated","server_os":"Linux","password":true,"vac":true,"version":"7757534","steam_id":85568392924742827,"keywords":["cp","nocrits","nodmgspread","uncletopia"],"game_id":440,"stv_port":27076,"stv_name":"Uncletopia | Frankfurt | 7 | Stopwatch Beta | STV","players":null},{"server_id":24,"name":"Uncletopia | Frankfurt | 8 | Community","name_short":"frk-8","host":"frk-1.de.uncletopia.com","port":27085,"enabled":true,"region":"eu","cc":"de","latitude":50.110924,"longitude":8.682127,"reserved":0,"last_update":"0001-01-01T00:00:00Z","name_a2s":"Uncletopia | Frankfurt | 8 | Community","protocol":17,"map":"workshop/pl_cactuscanyon_redux_rc4b.ugc2579644293","folder":"tf","game":"Team Fortress","app_id":440,"player_count":0,"max_players":24,"Bots":0,"server_type":"Dedicated","server_os":"Linux","password":true,"vac":true,"version":"7757534","steam_id":85568392924742828,"keywords":["nocrits","nodmgspread","payload","uncletopia"],"game_id":440,"stv_port":27086,"stv_name":"Uncletopia | Frankfurt | 8 | Community | STV","players":null},{"server_id":202,"name":"Uncletopia | Hong Kong | 1 | All Maps","name_short":"hgk-1","host":"hgk-1.hk.uncletopia.com","port":27015,"enabled":true,"region":"asia","cc":"hk","latitude":22.302711,"longitude":114.177216,"reserved":0,"last_update":"0001-01-01T00:00:00Z","name_a2s":"Uncletopia | Hong Kong | 1 | All Maps","protocol":17,"map":"cp_dustbowl","folder":"tf","game":"Team Fortress","app_id":440,"player_count":0,"max_players":24,"Bots":0,"server_type":"Dedicated","server_os":"Linux","password":true,"vac":true,"version":"7757534","steam_id":85568392924494504,"keywords":["cp","nocrits","nodmgspread","uncletopia"],"game_id":440,"stv_port":27016,"stv_name":"Uncletopia | Hong Kong | 1 | All Maps | STV","players":null},{"server_id":1,"name":"Uncletopia | Los Angeles | 1 | All Maps","name_short":"lax-1","host":"lax-1.us.uncletopia.com","port":27015,"enabled":true,"region":"us-west","cc":"us","latitude":33.94279,"longitude":-118.41004,"reserved":0,"last_update":"0001-01-01T00:00:00Z","name_a2s":"Uncletopia | Los Angeles | 1 | All Maps","protocol":17,"map":"koth_lakeside_final","folder":"tf","game":"Team Fortress","app_id":440,"player_count":0,"max_players":24,"Bots":0,"server_type":"Dedicated","server_os":"Linux","password":true,"vac":true,"version":"7757534","steam_id":85568392924469991,"keywords":["cp","nocrits","nodmgspread","uncletopia"],"game_id":440,"stv_port":27016,"stv_name":"Uncletopia | Los Angeles | 1 | All Maps | STV","players":null},{"server_id":112,"name":"Uncletopia | Los Angeles | 2 | All Maps","name_short":"lax-2","host":"lax-1.us.uncletopia.com","port":27025,"enabled":true,"region":"us-west","cc":"us","latitude":33.94279,"longitude":-118.41004,"reserved":0,"last_update":"0001-01-01T00:00:00Z","name_a2s":"Uncletopia | Los Angeles | 2 | All Maps","protocol":17,"map":"cp_process_final","folder":"tf","game":"Team Fortress","app_id":440,"player_count":0,"max_players":24,"Bots":0,"server_type":"Dedicated","server_os":"Linux","password":true,"vac":true,"version":"7757534","steam_id":85568392924469992,"keywords":["cp","nocrits","nodmgspread","uncletopia"],"game_id":440,"stv_port":27026,"stv_name":"Uncletopia | Los Angeles | 2 | All Maps | STV","players":null},{"server_id":324,"name":"Uncletopia | Los Angeles | 3 | All Maps","name_short":"lax-3","host":"lax-1.us.uncletopia.com","port":27035,"enabled":true,"region":"us-west","cc":"us","latitude":33.94279,"longitude":-118.41004,"reserved":0,"last_update":"0001-01-01T00:00:00Z","name_a2s":"Uncletopia | Los Angeles | 3 | All Maps","protocol":17,"map":"pl_rumford_event","folder":"tf","game":"Team Fortress","app_id":440,"player_count":0,"max_players":24,"Bots":0,"server_type":"Dedicated","server_os":"Linux","password":true,"vac":true,"version":"7757534","steam_id":85568392924510198,"keywords":["nocrits","nodmgspread","payload","uncletopia"],"game_id":440,"stv_port":27036,"stv_name":"Uncletopia | Los Angeles | 3 | All Maps | STV","players":null},{"server_id":25,"name":"Uncletopia | Los Angeles | 4 | Stopwatch Beta","name_short":"lax-4","host":"lax-1.us.uncletopia.com","port":27045,"enabled":true,"region":"us-west","cc":"us","latitude":33.94279,"longitude":-118.41004,"reserved":0,"last_update":"0001-01-01T00:00:00Z","name_a2s":"Uncletopia | Los Angeles | 4 | Stopwatch Beta","protocol":17,"map":"pl_frontier_final","folder":"tf","game":"Team Fortress","app_id":440,"player_count":0,"max_players":24,"Bots":0,"server_type":"Dedicated","server_os":"Linux","password":true,"vac":true,"version":"7757534","steam_id":85568392924510199,"keywords":["nocrits","nodmgspread","payload","uncletopia"],"game_id":440,"stv_port":27046,"stv_name":"Uncletopia | Los Angeles | 4 | Stopwatch Beta | STV","players":null},{"server_id":11,"name":"Uncletopia | London | 1 | All Maps","name_short":"lon-1","host":"lon-1.uk.uncletopia.com","port":27015,"enabled":true,"region":"eu","cc":"gb","latitude":51.509865,"longitude":-0.118092,"reserved":0,"last_update":"0001-01-01T00:00:00Z","name_a2s":"Uncletopia | London | 1 | All Maps","protocol":17,"map":"pl_badwater","folder":"tf","game":"Team Fortress","app_id":440,"player_count":24,"max_players":24,"Bots":0,"server_type":"Dedicated","server_os":"Linux","password":true,"vac":true,"version":"7757534","steam_id":85568392924367362,"keywords":["nocrits","nodmgspread","payload","uncletopia"],"game_id":440,"stv_port":27016,"stv_name":"Uncletopia | London | 1 | All Maps | STV","players":[{"user_id":554,"name":"British Rage","steam_id":76561198009585209,"connected_time":3977000000000,"state":"active","ping":54},{"user_id":590,"name":"The real Slim Shady","steam_id":76561198001377076,"connected_time":1392000000000,"state":"active","ping":94},{"user_id":547,"name":"KPhii","steam_id":76561198970587061,"connected_time":4614000000000,"state":"active","ping":80},{"user_id":571,"name":"@realMasayoshiTakanaka","steam_id":76561198166682199,"connected_time":2930000000000,"state":"active","ping":56},{"user_id":563,"name":"Dwevy","steam_id":76561198090379437,"connected_time":3519000000000,"state":"active","ping":54},{"user_id":508,"name":"dec","steam_id":76561198009660168,"connected_time":7040000000000,"state":"active","ping":52},{"user_id":537,"name":"SOAPIIEE","steam_id":76561198443798981,"connected_time":5311000000000,"state":"active","ping":57},{"user_id":555,"name":"Headers","steam_id":76561198094216514,"connected_time":3971000000000,"state":"active","ping":69},{"user_id":591,"name":"MaypulSoyrup","steam_id":76561199213966821,"connected_time":1321000000000,"state":"active","ping":80},{"user_id":543,"name":"Bad and Wuji","steam_id":76561199385280253,"connected_time":4683000000000,"state":"active","ping":132},{"user_id":594,"name":"Peace Sells...But Who`s Buying?","steam_id":76561198063156236,"connected_time":369000000000,"state":"active","ping":70},{"user_id":564,"name":"FERME_TA_GUEULE","steam_id":76561198087713683,"connected_time":3517000000000,"state":"active","ping":58},{"user_id":546,"name":"J3LLY","steam_id":76561198048453764,"connected_time":4628000000000,"state":"active","ping":50},{"user_id":582,"name":"garry","steam_id":76561198019078145,"connected_time":2348000000000,"state":"active","ping":89},{"user_id":578,"name":"Real (Real)","steam_id":76561198323425034,"connected_time":2492000000000,"state":"active","ping":84},{"user_id":575,"name":"Mr_Pulse_","steam_id":76561198095001602,"connected_time":2633000000000,"state":"active","ping":114},{"user_id":530,"name":"Kahvi","steam_id":76561198723244199,"connected_time":6089000000000,"state":"active","ping":76},{"user_id":584,"name":"Celtins","steam_id":76561198839837475,"connected_time":2191000000000,"state":"active","ping":58},{"user_id":558,"name":"Chloemew","steam_id":76561198042071762,"connected_time":3735000000000,"state":"active","ping":43},{"user_id":565,"name":"BX","steam_id":76561197962889211,"connected_time":3515000000000,"state":"active","ping":63},{"user_id":566,"name":"Dominus.","steam_id":76561199065917088,"connected_time":3514000000000,"state":"active","ping":66},{"user_id":589,"name":"efrasierhead","steam_id":76561198060646182,"connected_time":1455000000000,"state":"active","ping":52},{"user_id":592,"name":"Ruralchain","steam_id":76561198803915402,"connected_time":1320000000000,"state":"active","ping":100},{"user_id":593,"name":"Major","steam_id":76561198086483282,"connected_time":578000000000,"state":"active","ping":59}]},{"server_id":114,"name":"Uncletopia | London | 2 | All Maps","name_short":"lon-2","host":"lon-1.uk.uncletopia.com","port":27025,"enabled":true,"region":"eu","cc":"gb","latitude":51.509865,"longitude":-0.118092,"reserved":0,"last_update":"0001-01-01T00:00:00Z","name_a2s":"Uncletopia | London | 2 | All Maps","protocol":17,"map":"cp_mountainlab","folder":"tf","game":"Team Fortress","app_id":440,"player_count":23,"max_players":24,"Bots":0,"server_type":"Dedicated","server_os":"Linux","password":true,"vac":true,"version":"7757534","steam_id":85568392924470941,"keywords":["cp","nocrits","nodmgspread","uncletopia"],"game_id":440,"stv_port":27026,"stv_name":"Uncletopia | London | 2 | All Maps | STV","players":[{"user_id":606,"name":"(1)jolleter","steam_id":76561198172260583,"connected_time":356000000000,"state":"active","ping":31},{"user_id":557,"name":"soda","steam_id":76561198202990635,"connected_time":3613000000000,"state":"active","ping":75},{"user_id":599,"name":"Caerot","steam_id":76561198839000676,"connected_time":655000000000,"state":"active","ping":75},{"user_id":600,"name":"8 Ball","steam_id":76561197960988736,"connected_time":618000000000,"state":"active","ping":45},{"user_id":602,"name":"jolleter","steam_id":76561198891983664,"connected_time":464000000000,"state":"active","ping":77},{"user_id":583,"name":"Fat Pigeon","steam_id":76561198817940142,"connected_time":1724000000000,"state":"active","ping":56},{"user_id":575,"name":"Jank","steam_id":76561198251508752,"connected_time":2491000000000,"state":"active","ping":57},{"user_id":319,"name":"Autumnsky","steam_id":76561198055161203,"connected_time":21816000000000,"state":"active","ping":69},{"user_id":560,"name":"Anri Okita's Massive Milkers","steam_id":76561199186352720,"connected_time":3552000000000,"state":"active","ping":70},{"user_id":601,"name":"Cocsam","steam_id":76561198050827179,"connected_time":580000000000,"state":"active","ping":74},{"user_id":536,"name":"Bobo","steam_id":76561198052308399,"connected_time":5294000000000,"state":"active","ping":69},{"user_id":586,"name":"skille","steam_id":76561198005794325,"connected_time":1567000000000,"state":"active","ping":76},{"user_id":588,"name":"Mr. Dick‚Ñ¢","steam_id":76561198047309044,"connected_time":1482000000000,"state":"active","ping":123},{"user_id":592,"name":"Estrogen Overdoser","steam_id":76561198288776967,"connected_time":1124000000000,"state":"active","ping":81},{"user_id":582,"name":"wouris","steam_id":76561198876188003,"connected_time":1808000000000,"state":"active","ping":74},{"user_id":565,"name":"Mad_Scientist","steam_id":76561198121431854,"connected_time":3435000000000,"state":"active","ping":62},{"user_id":610,"name":"·óúÀ∞·óú","steam_id":76561198148074472,"connected_time":31000000000,"state":"active","ping":59},{"user_id":590,"name":"stonebum","steam_id":76561198057004606,"connected_time":1273000000000,"state":"active","ping":70},{"user_id":577,"name":"JustAnIrishLad","steam_id":76561198130773016,"connected_time":2473000000000,"state":"active","ping":72},{"user_id":609,"name":"Grizz","steam_id":76561198171010107,"connected_time":149000000000,"state":"active","ping":61},{"user_id":545,"name":"Piteras","steam_id":76561198858532207,"connected_time":5208000000000,"state":"active","ping":91},{"user_id":595,"name":"Kiwimpediment","steam_id":76561198322781400,"connected_time":1003000000000,"state":"active","ping":147},{"user_id":597,"name":"Na'vi Misato (by popular demand","steam_id":76561198130860698,"connected_time":936000000000,"state":"active","ping":63}]},{"server_id":320,"name":"Uncletopia | London | 3 | All Maps","name_short":"lon-3","host":"lon-1.uk.uncletopia.com","port":27035,"enabled":true,"region":"eu","cc":"gb","latitude":51.509865,"longitude":-0.118092,"reserved":0,"last_update":"0001-01-01T00:00:00Z","name_a2s":"Uncletopia | London | 3 | All Maps","protocol":17,"map":"cp_snakewater_final1","folder":"tf","game":"Team Fortress","app_id":440,"player_count":0,"max_players":24,"Bots":0,"server_type":"Dedicated","server_os":"Linux","password":true,"vac":true,"version":"7757534","steam_id":85568392924510192,"keywords":["cp","nocrits","nodmgspread","uncletopia"],"game_id":440,"stv_port":27036,"stv_name":"Uncletopia | London | 3 | All Maps | STV","players":null},{"server_id":321,"name":"Uncletopia | London | 4 | All Maps","name_short":"lon-4","host":"lon-1.uk.uncletopia.com","port":27045,"enabled":true,"region":"eu","cc":"gb","latitude":51.509865,"longitude":-0.118092,"reserved":0,"last_update":"0001-01-01T00:00:00Z","name_a2s":"Uncletopia | London | 4 | All Maps","protocol":17,"map":"pl_badwater","folder":"tf","game":"Team Fortress","app_id":440,"player_count":24,"max_players":24,"Bots":0,"server_type":"Dedicated","server_os":"Linux","password":true,"vac":true,"version":"7757534","steam_id":85568392924510193,"keywords":["nocrits","nodmgspread","payload","uncletopia"],"game_id":440,"stv_port":27046,"stv_name":"Uncletopia | London | 4 | All Maps | STV","players":[{"user_id":92,"name":"OHMtheOHM","steam_id":76561198201846190,"connected_time":2483000000000,"state":"active","ping":73},{"user_id":91,"name":"defamoz","steam_id":76561198928258592,"connected_time":2493000000000,"state":"active","ping":86},{"user_id":114,"name":"Medic on a fucking motorcycle","steam_id":76561199128282369,"connected_time":939000000000,"state":"active","ping":61},{"user_id":107,"name":"Glitchas","steam_id":76561198883610618,"connected_time":1426000000000,"state":"active","ping":108},{"user_id":56,"name":"Ice_cold_magic","steam_id":76561199209065777,"connected_time":4887000000000,"state":"active","ping":64},{"user_id":105,"name":"Zoey The Trans Hoey","steam_id":76561199171843194,"connected_time":1534000000000,"state":"active","ping":49},{"user_id":110,"name":"Derp","steam_id":76561198197901062,"connected_time":1131000000000,"state":"active","ping":92},{"user_id":103,"name":"Meki","steam_id":76561198108279631,"connected_time":1606000000000,"state":"active","ping":88},{"user_id":118,"name":"lee.braith","steam_id":76561199121812416,"connected_time":503000000000,"state":"active","ping":94},{"user_id":117,"name":"Posture Check","steam_id":76561198053897197,"connected_time":636000000000,"state":"active","ping":41},{"user_id":109,"name":"OTP DynamoDM","steam_id":76561198150755391,"connected_time":1328000000000,"state":"active","ping":35},{"user_id":68,"name":"Owl","steam_id":76561198248266580,"connected_time":3652000000000,"state":"active","ping":76},{"user_id":93,"name":"BigBustyBiden","steam_id":76561198155187233,"connected_time":2467000000000,"state":"active","ping":67},{"user_id":70,"name":"Daddyflabburger","steam_id":76561198104352907,"connected_time":3576000000000,"state":"active","ping":57},{"user_id":113,"name":"AWJ ÀÜ-ÀÜ","steam_id":76561198053628243,"connected_time":974000000000,"state":"active","ping":113},{"user_id":100,"name":"Peakey The Bard","steam_id":76561198196607831,"connected_time":2125000000000,"state":"active","ping":57},{"user_id":97,"name":"Artur ‚òª","steam_id":76561198264297604,"connected_time":2243000000000,"state":"active","ping":81},{"user_id":74,"name":"SlwoF√∏","steam_id":76561198049663931,"connected_time":3399000000000,"state":"active","ping":61},{"user_id":76,"name":"not drunk","steam_id":76561199184873889,"connected_time":3371000000000,"state":"active","ping":64},{"user_id":102,"name":"Aeglos","steam_id":76561198248698294,"connected_time":1899000000000,"state":"active","ping":49},{"user_id":79,"name":"holykyckling","steam_id":76561198040661615,"connected_time":3258000000000,"state":"active","ping":78},{"user_id":80,"name":"tapeworms!","steam_id":76561198069649097,"connected_time":3253000000000,"state":"active","ping":48},{"user_id":101,"name":"Alexei","steam_id":76561197987169026,"connected_time":2011000000000,"state":"active","ping":49},{"user_id":108,"name":"glyph","steam_id":76561197980736364,"connected_time":1382000000000,"state":"active","ping":90}]},{"server_id":21,"name":"Uncletopia | London | 5 | All Maps","name_short":"lon-5","host":"lon-1.uk.uncletopia.com","port":27055,"enabled":true,"region":"eu","cc":"gb","latitude":51.509865,"longitude":-0.118092,"reserved":0,"last_update":"0001-01-01T00:00:00Z","name_a2s":"Uncletopia | London | 5 | All Maps","protocol":17,"map":"pl_barnblitz","folder":"tf","game":"Team Fortress","app_id":440,"player_count":24,"max_players":24,"Bots":0,"server_type":"Dedicated","server_os":"Linux","password":true,"vac":true,"version":"7757534","steam_id":85568392924742829,"keywords":["nocrits","nodmgspread","payload","uncletopia"],"game_id":440,"stv_port":27056,"stv_name":"Uncletopia | London | 5 | All Maps | STV","players":[{"user_id":869,"name":"Jobs and Growth","steam_id":76561198039361208,"connected_time":647000000000,"state":"active","ping":89},{"user_id":840,"name":"justalilbit","steam_id":76561198254030118,"connected_time":1996000000000,"state":"active","ping":66},{"user_id":874,"name":"E","steam_id":76561198166340115,"connected_time":322000000000,"state":"active","ping":52},{"user_id":871,"name":"bAdmon","steam_id":76561197961785793,"connected_time":370000000000,"state":"active","ping":60},{"user_id":872,"name":"Haha?","steam_id":76561198056882245,"connected_time":354000000000,"state":"active","ping":39},{"user_id":875,"name":"BuzzBees ‚ù§","steam_id":76561198101502273,"connected_time":319000000000,"state":"active","ping":45},{"user_id":873,"name":"KittyKate ‚ù§","steam_id":76561198116340817,"connected_time":348000000000,"state":"active","ping":62},{"user_id":864,"name":"lunaire","steam_id":76561198163344452,"connected_time":721000000000,"state":"active","ping":104},{"user_id":882,"name":"Dictatorial Karelian","steam_id":76561198196736457,"connected_time":23000000000,"state":"active","ping":84},{"user_id":772,"name":"darktheif54","steam_id":76561198043650119,"connected_time":5794000000000,"state":"active","ping":56},{"user_id":876,"name":"JonTurn","steam_id":76561198128323383,"connected_time":302000000000,"state":"active","ping":44},{"user_id":816,"name":"Hertz Donut","steam_id":76561197983040945,"connected_time":3176000000000,"state":"active","ping":142},{"user_id":877,"name":"whatever","steam_id":76561198095943461,"connected_time":294000000000,"state":"active","ping":74},{"user_id":867,"name":"Uncle Owen","steam_id":76561198157999291,"connected_time":692000000000,"state":"active","ping":90},{"user_id":878,"name":"gOLDEN","steam_id":76561198126162546,"connected_time":292000000000,"state":"active","ping":158},{"user_id":851,"name":"ducks","steam_id":76561198166148685,"connected_time":1456000000000,"state":"active","ping":30},{"user_id":848,"name":"Mach |=|20BB|)","steam_id":76561198952487564,"connected_time":1782000000000,"state":"active","ping":90},{"user_id":868,"name":"frosty","steam_id":76561198094560834,"connected_time":682000000000,"state":"active","ping":45},{"user_id":879,"name":"ultralex","steam_id":76561198024910383,"connected_time":283000000000,"state":"active","ping":44},{"user_id":880,"name":"PlacebO.-","steam_id":76561197973577950,"connected_time":278000000000,"state":"active","ping":71},{"user_id":881,"name":"Lennox","steam_id":76561198069063554,"connected_time":196000000000,"state":"active","ping":59},{"user_id":845,"name":"MAX PALMER","steam_id":76561198019959517,"connected_time":1925000000000,"state":"active","ping":83},{"user_id":797,"name":"RandoART","steam_id":76561198818165503,"connected_time":4132000000000,"state":"active","ping":107},{"user_id":815,"name":"ejskelerx","steam_id":76561199203662885,"connected_time":3277000000000,"state":"active","ping":79}]},{"server_id":22,"name":"Uncletopia | London | 6 | All Maps","name_short":"lon-6","host":"lon-1.uk.uncletopia.com","port":27065,"enabled":true,"region":"eu","cc":"gb","latitude":51.509865,"longitude":-0.118092,"reserved":0,"last_update":"0001-01-01T00:00:00Z","name_a2s":"Uncletopia | London | 6 | All Maps","protocol":17,"map":"pl_snowycoast","folder":"tf","game":"Team Fortress","app_id":440,"player_count":24,"max_players":24,"Bots":0,"server_type":"Dedicated","server_os":"Linux","password":true,"vac":true,"version":"7757534","steam_id":85568392924742830,"keywords":["nocrits","nodmgspread","payload","uncletopia"],"game_id":440,"stv_port":27066,"stv_name":"Uncletopia | London | 6 | All Maps | STV","players":[{"user_id":220,"name":"Hotgamerdad","steam_id":76561198085940613,"connected_time":271000000000,"state":"active","ping":62},{"user_id":153,"name":"Swayer","steam_id":76561198056192460,"connected_time":4926000000000,"state":"active","ping":64},{"user_id":206,"name":"Fran","steam_id":76561199070516960,"connected_time":1061000000000,"state":"active","ping":78},{"user_id":208,"name":"bingle","steam_id":76561198359413453,"connected_time":955000000000,"state":"active","ping":133},{"user_id":159,"name":"supermariogrows","steam_id":76561198200238915,"connected_time":4772000000000,"state":"active","ping":43},{"user_id":187,"name":"Hu Yuu Hai Ding","steam_id":76561198254210743,"connected_time":2650000000000,"state":"active","ping":54},{"user_id":151,"name":"there is no Fred","steam_id":76561198045505082,"connected_time":5079000000000,"state":"active","ping":81},{"user_id":174,"name":"Benzo Fury","steam_id":76561198025259336,"connected_time":3424000000000,"state":"active","ping":39},{"user_id":188,"name":"Daga","steam_id":76561198055450219,"connected_time":2422000000000,"state":"active","ping":44},{"user_id":194,"name":"ekimaister","steam_id":76561197992949623,"connected_time":2330000000000,"state":"active","ping":82},{"user_id":215,"name":"Baron","steam_id":76561198119502396,"connected_time":698000000000,"state":"active","ping":77},{"user_id":177,"name":"Dewotter","steam_id":76561198007653168,"connected_time":3391000000000,"state":"active","ping":58},{"user_id":185,"name":"lukanislol","steam_id":76561198188691434,"connected_time":3014000000000,"state":"active","ping":75},{"user_id":182,"name":"Hilldog","steam_id":76561198082209322,"connected_time":3127000000000,"state":"active","ping":74},{"user_id":149,"name":"Bounter","steam_id":76561198072614188,"connected_time":5438000000000,"state":"active","ping":86},{"user_id":207,"name":"Mr. Rogers","steam_id":76561198296190438,"connected_time":1057000000000,"state":"active","ping":126},{"user_id":163,"name":"cookies yom","steam_id":76561198097507847,"connected_time":4722000000000,"state":"active","ping":82},{"user_id":217,"name":"√âs muita maricas","steam_id":76561198043515389,"connected_time":567000000000,"state":"active","ping":74},{"user_id":199,"name":"Dispenser Gaming","steam_id":76561198855333841,"connected_time":1988000000000,"state":"active","ping":81},{"user_id":173,"name":"„ÄéDorarhim„Äè","steam_id":76561198220232352,"connected_time":4206000000000,"state":"active","ping":59},{"user_id":145,"name":"Tort","steam_id":76561198329646769,"connected_time":5520000000000,"state":"active","ping":59},{"user_id":221,"name":"croco.","steam_id":76561198988882521,"connected_time":135000000000,"state":"active","ping":86},{"user_id":191,"name":"The Monsu","steam_id":76561198013939666,"connected_time":2385000000000,"state":"active","ping":111},{"user_id":213,"name":"ptsd","steam_id":76561199382587543,"connected_time":858000000000,"state":"active","ping":71}]},{"server_id":40,"name":"Uncletopia | London | 7 | No Payload","name_short":"lon-7","host":"lon-1.uk.uncletopia.com","port":27075,"enabled":true,"region":"eu","cc":"gb","latitude":51.509865,"longitude":-0.118092,"reserved":0,"last_update":"0001-01-01T00:00:00Z","name_a2s":"Uncletopia | London | 7 | No Payload","protocol":17,"map":"cp_metalworks","folder":"tf","game":"Team Fortress","app_id":440,"player_count":0,"max_players":24,"Bots":0,"server_type":"Dedicated","server_os":"Linux","password":true,"vac":true,"version":"7757534","steam_id":85568392924964314,"keywords":["cp","nocrits","nodmgspread","uncletopia"],"game_id":440,"stv_port":27076,"stv_name":"Uncletopia | London | 7 | No Payload | STV","players":null},{"server_id":41,"name":"Uncletopia | London | 8 | Community","name_short":"lon-8","host":"lon-1.uk.uncletopia.com","port":27085,"enabled":true,"region":"eu","cc":"gb","latitude":51.509865,"longitude":-0.118092,"reserved":0,"last_update":"0001-01-01T00:00:00Z","name_a2s":"Uncletopia | London | 8 | Community","protocol":17,"map":"workshop/rd_asteroid_redux_b1.ugc2154902912","folder":"tf","game":"Team Fortress","app_id":440,"player_count":0,"max_players":24,"Bots":0,"server_type":"Dedicated","server_os":"Linux","password":true,"vac":true,"version":"7757534","steam_id":85568392924964315,"keywords":["beta","nocrits","nodmgspread","rd","uncletopia"],"game_id":440,"stv_port":27086,"stv_name":"Uncletopia | London | 8 | Community | STV","players":null},{"server_id":300,"name":"Uncletopia | Montr√©al | 1 | All Maps","name_short":"mtl-1","host":"mtl-1.ca.uncletopia.com","port":27015,"enabled":true,"region":"us-east","cc":"ca","latitude":45.50889,"longitude":-73.56167,"reserved":0,"last_update":"0001-01-01T00:00:00Z","name_a2s":"Uncletopia | Montr√©al | 1 | All Maps","protocol":17,"map":"pl_borneo","folder":"tf","game":"Team Fortress","app_id":440,"player_count":0,"max_players":24,"Bots":0,"server_type":"Dedicated","server_os":"Linux","password":true,"vac":true,"version":"7757534","steam_id":85568392924500087,"keywords":["nocrits","nodmgspread","payload","uncletopia"],"game_id":440,"stv_port":27016,"stv_name":"Uncletopia | Montr√©al | 1 | All Maps | STV","players":null},{"server_id":301,"name":"Uncletopia | Montr√©al | 2 | All Maps","name_short":"mtl-2","host":"mtl-1.ca.uncletopia.com","port":27025,"enabled":true,"region":"us-east","cc":"ca","latitude":45.50889,"longitude":-73.56167,"reserved":0,"last_update":"0001-01-01T00:00:00Z","name_a2s":"Uncletopia | Montr√©al | 2 | All Maps","protocol":17,"map":"pl_snowycoast","folder":"tf","game":"Team Fortress","app_id":440,"player_count":0,"max_players":24,"Bots":0,"server_type":"Dedicated","server_os":"Linux","password":true,"vac":true,"version":"7757534","steam_id":85568392924500088,"keywords":["nocrits","nodmgspread","payload","uncletopia"],"game_id":440,"stv_port":27026,"stv_name":"Uncletopia | Montr√©al | 2 | All Maps | STV","players":null},{"server_id":302,"name":"Uncletopia | Montr√©al | 3 | All Maps","name_short":"mtl-3","host":"mtl-1.ca.uncletopia.com","port":27035,"enabled":true,"region":"us-east","cc":"ca","latitude":45.50889,"longitude":-73.56167,"reserved":0,"last_update":"0001-01-01T00:00:00Z","name_a2s":"Uncletopia | Montr√©al | 3 | All Maps","protocol":17,"map":"cp_snakewater_final1","folder":"tf","game":"Team Fortress","app_id":440,"player_count":0,"max_players":24,"Bots":0,"server_type":"Dedicated","server_os":"Linux","password":true,"vac":true,"version":"7757534","steam_id":85568392924500089,"keywords":["cp","nocrits","nodmgspread","uncletopia"],"game_id":440,"stv_port":27036,"stv_name":"Uncletopia | Montr√©al | 3 | All Maps | STV","players":null},{"server_id":303,"name":"Uncletopia | Montr√©al | 4 | No Payload","name_short":"mtl-4","host":"mtl-1.ca.uncletopia.com","port":27045,"enabled":true,"region":"us-east","cc":"ca","latitude":45.50889,"longitude":-73.56167,"reserved":0,"last_update":"0001-01-01T00:00:00Z","name_a2s":"Uncletopia | Montr√©al | 4 | No Payload","protocol":17,"map":"pl_borneo","folder":"tf","game":"Team Fortress","app_id":440,"player_count":0,"max_players":24,"Bots":0,"server_type":"Dedicated","server_os":"Linux","password":true,"vac":true,"version":"7757534","steam_id":85568392924500090,"keywords":["nocrits","nodmgspread","payload","uncletopia"],"game_id":440,"stv_port":27046,"stv_name":"Uncletopia | Montr√©al | 4 | No Payload | STV","players":null},{"server_id":13,"name":"Uncletopia | New York City | 1 | All Maps","name_short":"nyc-1","host":"nyc-1.us.uncletopia.com","port":27015,"enabled":true,"region":"us-east","cc":"us","latitude":40.73061,"longitude":-73.93524,"reserved":0,"last_update":"0001-01-01T00:00:00Z","name_a2s":"Uncletopia | New York City | 1 | All Maps","protocol":17,"map":"pl_badwater","folder":"tf","game":"Team Fortress","app_id":440,"player_count":24,"max_players":24,"Bots":0,"server_type":"Dedicated","server_os":"Linux","password":true,"vac":true,"version":"7757534","steam_id":85568392924469993,"keywords":["nocrits","nodmgspread","payload","uncletopia"],"game_id":440,"stv_port":27016,"stv_name":"Uncletopia | New York City | 1 | All Maps | STV","players":[{"user_id":16,"name":"Munchyjr","steam_id":76561198041498014,"connected_time":3060000000000,"state":"active","ping":44},{"user_id":17,"name":"DBlackjack21","steam_id":76561198073241855,"connected_time":3017000000000,"state":"active","ping":146},{"user_id":18,"name":"Futo","steam_id":76561198023185653,"connected_time":2931000000000,"state":"active","ping":80},{"user_id":19,"name":"Yams","steam_id":76561198068084541,"connected_time":2910000000000,"state":"active","ping":91},{"user_id":20,"name":"Naramon","steam_id":76561198025645021,"connected_time":2810000000000,"state":"active","ping":108},{"user_id":21,"name":"CheddarCake","steam_id":76561198061993725,"connected_time":2792000000000,"state":"active","ping":52},{"user_id":22,"name":"Cindernaut","steam_id":76561198034274982,"connected_time":2749000000000,"state":"active","ping":80},{"user_id":44,"name":"silentpieceofbacon","steam_id":76561198869323351,"connected_time":1116000000000,"state":"active","ping":85},{"user_id":24,"name":"SonicSteve","steam_id":76561198044714546,"connected_time":2687000000000,"state":"active","ping":88},{"user_id":43,"name":"Bongson","steam_id":76561198056664898,"connected_time":1126000000000,"state":"active","ping":141},{"user_id":29,"name":"High Quality Ice","steam_id":76561198969178047,"connected_time":2120000000000,"state":"active","ping":57},{"user_id":31,"name":"Maple-Syrup","steam_id":76561198013047242,"connected_time":1992000000000,"state":"active","ping":74},{"user_id":28,"name":"Spirit","steam_id":76561199069322627,"connected_time":2347000000000,"state":"active","ping":66},{"user_id":30,"name":"Scout","steam_id":76561198201578589,"connected_time":2114000000000,"state":"active","ping":54},{"user_id":45,"name":"mud drater","steam_id":76561198018680492,"connected_time":1011000000000,"state":"active","ping":57},{"user_id":33,"name":"Hunto","steam_id":76561198328052562,"connected_time":1966000000000,"state":"active","ping":105},{"user_id":34,"name":"Bliztank | RGL.gg","steam_id":76561198019252798,"connected_time":1862000000000,"state":"active","ping":45},{"user_id":35,"name":"Deeg","steam_id":76561198175970806,"connected_time":1827000000000,"state":"active","ping":55},{"user_id":36,"name":"The Guy Who Let The Dogs Out","steam_id":76561198052639137,"connected_time":1780000000000,"state":"active","ping":119},{"user_id":37,"name":"i feel nauseous","steam_id":76561198128363064,"connected_time":1769000000000,"state":"active","ping":75},{"user_id":38,"name":"Nose","steam_id":76561198362418490,"connected_time":1752000000000,"state":"active","ping":93},{"user_id":47,"name":"ShinyOrion (She/Her)","steam_id":76561198408378321,"connected_time":256000000000,"state":"active","ping":52},{"user_id":46,"name":"Morde","steam_id":76561198050920687,"connected_time":601000000000,"state":"active","ping":58},{"user_id":41,"name":"thundermuffin","steam_id":76561198067770965,"connected_time":1648000000000,"state":"active","ping":59}]},{"server_id":14,"name":"Uncletopia | New York City | 2 | All Maps","name_short":"nyc-2","host":"nyc-1.us.uncletopia.com","port":27025,"enabled":true,"region":"us-east","cc":"us","latitude":40.73061,"longitude":-73.93524,"reserved":0,"last_update":"0001-01-01T00:00:00Z","name_a2s":"Uncletopia | New York City | 2 | All Maps","protocol":17,"map":"cp_process_final","folder":"tf","game":"Team Fortress","app_id":440,"player_count":24,"max_players":24,"Bots":0,"server_type":"Dedicated","server_os":"Linux","password":true,"vac":true,"version":"7757534","steam_id":85568392924469994,"keywords":["cp","nocrits","nodmgspread","uncletopia"],"game_id":440,"stv_port":27026,"stv_name":"Uncletopia | New York City | 2 | All Maps | STV","players":[{"user_id":149,"name":"I Am Ze Spy","steam_id":76561198402171052,"connected_time":179000000000,"state":"active","ping":74},{"user_id":134,"name":"Sone","steam_id":76561198069601032,"connected_time":1133000000000,"state":"active","ping":51},{"user_id":137,"name":"confused","steam_id":76561198018654093,"connected_time":811000000000,"state":"active","ping":54},{"user_id":138,"name":"Local Talent","steam_id":76561199053290637,"connected_time":776000000000,"state":"active","ping":74},{"user_id":120,"name":"Havok","steam_id":76561198063455003,"connected_time":2001000000000,"state":"active","ping":52},{"user_id":150,"name":"Nuts","steam_id":76561198066494938,"connected_time":147000000000,"state":"active","ping":52},{"user_id":102,"name":"Rein","steam_id":76561198300340427,"connected_time":3250000000000,"state":"active","ping":77},{"user_id":139,"name":"Weerk","steam_id":76561199209543551,"connected_time":745000000000,"state":"active","ping":76},{"user_id":130,"name":"Astrozombeez","steam_id":76561198113754079,"connected_time":1544000000000,"state":"active","ping":86},{"user_id":135,"name":"Ghoulish in Nature","steam_id":76561198058840585,"connected_time":873000000000,"state":"active","ping":53},{"user_id":140,"name":"Quansen","steam_id":76561198151594550,"connected_time":734000000000,"state":"active","ping":62},{"user_id":103,"name":"Lapakada","steam_id":76561198841702232,"connected_time":3247000000000,"state":"active","ping":61},{"user_id":40,"name":"Obelix","steam_id":76561198274715109,"connected_time":9091000000000,"state":"active","ping":44},{"user_id":121,"name":"fudo myoo","steam_id":76561198456258164,"connected_time":1969000000000,"state":"active","ping":70},{"user_id":100,"name":"ThePacBruno","steam_id":76561198046084545,"connected_time":3262000000000,"state":"active","ping":178},{"user_id":124,"name":"Dr Pyroneer","steam_id":76561199172545278,"connected_time":1799000000000,"state":"active","ping":83},{"user_id":142,"name":"Dr. Enforcicle (real)","steam_id":76561198964471859,"connected_time":653000000000,"state":"active","ping":69},{"user_id":143,"name":"CyberZayne","steam_id":76561198002351356,"connected_time":650000000000,"state":"active","ping":102},{"user_id":151,"name":"TravelerFinis","steam_id":76561199181244690,"connected_time":105000000000,"state":"active","ping":116},{"user_id":144,"name":"Nic0","steam_id":76561198305690218,"connected_time":646000000000,"state":"active","ping":56},{"user_id":146,"name":"Pourpel","steam_id":76561198059125470,"connected_time":593000000000,"state":"active","ping":83},{"user_id":129,"name":"moodi catgirl","steam_id":76561198124028045,"connected_time":1602000000000,"state":"active","ping":51},{"user_id":148,"name":"Coyface","steam_id":76561198010977367,"connected_time":214000000000,"state":"active","ping":58},{"user_id":147,"name":"Miller‚Ñ¢","steam_id":76561198085090516,"connected_time":586000000000,"state":"active","ping":74}]},{"server_id":15,"name":"Uncletopia | New York City | 3 | Stopwatch Beta","name_short":"nyc-3","host":"nyc-1.us.uncletopia.com","port":27035,"enabled":true,"region":"us-east","cc":"us","latitude":40.73061,"longitude":-73.93524,"reserved":0,"last_update":"0001-01-01T00:00:00Z","name_a2s":"Uncletopia | New York City | 3 | Stopwatch Beta","protocol":17,"map":"workshop/pl_vigil_rc9.ugc1266210012","folder":"tf","game":"Team Fortress","app_id":440,"player_count":0,"max_players":24,"Bots":0,"server_type":"Dedicated","server_os":"Linux","password":true,"vac":true,"version":"7757534","steam_id":85568392924742820,"keywords":["nocrits","nodmgspread","payload","uncletopia"],"game_id":440,"stv_port":27036,"stv_name":"Uncletopia | New York City | 3 | Stopwatch Beta | STV","players":null},{"server_id":16,"name":"Uncletopia | New York City | 4 | Community","name_short":"nyc-4","host":"nyc-1.us.uncletopia.com","port":27045,"enabled":true,"region":"us-east","cc":"us","latitude":40.73061,"longitude":-73.93524,"reserved":0,"last_update":"0001-01-01T00:00:00Z","name_a2s":"Uncletopia | New York City | 4 | Community","protocol":17,"map":"workshop/koth_bagel_rc5.ugc2514036946","folder":"tf","game":"Team Fortress","app_id":440,"player_count":10,"max_players":24,"Bots":0,"server_type":"Dedicated","server_os":"Linux","password":true,"vac":true,"version":"7757534","steam_id":85568392924742821,"keywords":["cp","nocrits","nodmgspread","uncletopia"],"game_id":440,"stv_port":27046,"stv_name":"Uncletopia | New York City | 4 | Community | STV","players":[{"user_id":11,"name":"Super D Duper","steam_id":76561198078203677,"connected_time":2037000000000,"state":"active","ping":50},{"user_id":12,"name":"Hook, Line, and Sphincter","steam_id":76561198078207743,"connected_time":2014000000000,"state":"active","ping":43},{"user_id":13,"name":"MysteryMan","steam_id":76561198451939441,"connected_time":1867000000000,"state":"active","ping":52},{"user_id":18,"name":"FooFLit","steam_id":76561198236967080,"connected_time":555000000000,"state":"active","ping":69},{"user_id":15,"name":"Ginger Jesus","steam_id":76561198052386458,"connected_time":1040000000000,"state":"active","ping":40},{"user_id":16,"name":"merge without looking","steam_id":76561198056702628,"connected_time":818000000000,"state":"active","ping":75},{"user_id":17,"name":"crabapples","steam_id":76561198075818655,"connected_time":780000000000,"state":"active","ping":67},{"user_id":19,"name":"Inevitable","steam_id":76561198210050169,"connected_time":441000000000,"state":"active","ping":45},{"user_id":20,"name":"BugsAreMyWorstEnemy","steam_id":76561199440395505,"connected_time":349000000000,"state":"active","ping":221},{"user_id":21,"name":"Thequirka","steam_id":76561198968058652,"connected_time":255000000000,"state":"active","ping":115}]},{"server_id":142,"name":"Uncletopia | S√£o Paulo | 1 | All Maps","name_short":"sao-1","host":"sao-1.br.uncletopia.com","port":27015,"enabled":true,"region":"sa","cc":"br","latitude":-23.533773,"longitude":-46.62529,"reserved":0,"last_update":"0001-01-01T00:00:00Z","name_a2s":"Uncletopia | S√£o Paulo | 1 | All Maps","protocol":17,"map":"koth_cascade","folder":"tf","game":"Team Fortress","app_id":440,"player_count":0,"max_players":24,"Bots":0,"server_type":"Dedicated","server_os":"Linux","password":true,"vac":true,"version":"7757534","steam_id":85568392924469996,"keywords":["cp","nocrits","nodmgspread","uncletopia"],"game_id":440,"stv_port":27016,"stv_name":"Uncletopia | S√£o Paulo | 1 | All Maps | STV","players":null},{"server_id":143,"name":"Uncletopia | S√£o Paulo | 2 | All Maps","name_short":"sao-2","host":"sao-2.br.uncletopia.com","port":27015,"enabled":true,"region":"sa","cc":"br","latitude":-23.533773,"longitude":-46.62529,"reserved":0,"last_update":"0001-01-01T00:00:00Z","name_a2s":"Uncletopia | S√£o Paulo | 2 | All Maps","protocol":17,"map":"cp_snakewater_final1","folder":"tf","game":"Team Fortress","app_id":440,"player_count":2,"max_players":24,"Bots":0,"server_type":"Dedicated","server_os":"Linux","password":true,"vac":true,"version":"7757534","steam_id":85568392924485349,"keywords":["cp","nocrits","nodmgspread","uncletopia"],"game_id":440,"stv_port":27016,"stv_name":"Uncletopia | S√£o Paulo | 2 | All Maps | STV","players":[{"user_id":6,"name":"brazil","steam_id":76561197973760366,"connected_time":1763000000000,"state":"active","ping":77},{"user_id":7,"name":"El Loco","steam_id":76561198442700167,"connected_time":1761000000000,"state":"active","ping":70}]},{"server_id":7,"name":"Uncletopia | Seattle | 1 | All Maps","name_short":"sea-1","host":"sea-1.us.uncletopia.com","port":27015,"enabled":true,"region":"us-west","cc":"us","latitude":47.608013,"longitude":-122.33517,"reserved":0,"last_update":"0001-01-01T00:00:00Z","name_a2s":"Uncletopia | Seattle | 1 | All Maps","protocol":17,"map":"pl_barnblitz","folder":"tf","game":"Team Fortress","app_id":440,"player_count":24,"max_players":24,"Bots":0,"server_type":"Dedicated","server_os":"Linux","password":true,"vac":true,"version":"7757534","steam_id":85568392924469997,"keywords":["nocrits","nodmgspread","payload","uncletopia"],"game_id":440,"stv_port":27016,"stv_name":"Uncletopia | Seattle | 1 | All Maps | STV","players":[{"user_id":10,"name":"m1","steam_id":76561198004133638,"connected_time":12273000000000,"state":"active","ping":85},{"user_id":137,"name":"tender mike","steam_id":76561198058821622,"connected_time":2318000000000,"state":"active","ping":104},{"user_id":177,"name":"Willy Wonker","steam_id":76561198082944789,"connected_time":91000000000,"state":"active","ping":75},{"user_id":174,"name":"Thexx ‚ù§","steam_id":76561198113823050,"connected_time":539000000000,"state":"active","ping":47},{"user_id":130,"name":"J U K I E","steam_id":76561197962841151,"connected_time":3422000000000,"state":"active","ping":44},{"user_id":168,"name":"„Ä£dust„Ä£ -she/her-","steam_id":76561198045218909,"connected_time":1206000000000,"state":"active","ping":44},{"user_id":165,"name":"Seal","steam_id":76561197970204043,"connected_time":1259000000000,"state":"active","ping":30},{"user_id":166,"name":"ramalama ding dong","steam_id":76561198321264704,"connected_time":1223000000000,"state":"active","ping":80},{"user_id":173,"name":"Path To Victory","steam_id":76561198026958898,"connected_time":864000000000,"state":"active","ping":60},{"user_id":124,"name":"Mignyanne :3","steam_id":76561198048754056,"connected_time":4522000000000,"state":"active","ping":71},{"user_id":128,"name":"Smiles","steam_id":76561198107197973,"connected_time":3440000000000,"state":"active","ping":72},{"user_id":85,"name":"Outer","steam_id":76561199121781498,"connected_time":7112000000000,"state":"active","ping":95},{"user_id":125,"name":"NANO","steam_id":76561199009634635,"connected_time":4498000000000,"state":"active","ping":70},{"user_id":102,"name":"fart sniffer","steam_id":76561198206922028,"connected_time":6069000000000,"state":"active","ping":76},{"user_id":140,"name":"Goat","steam_id":76561198130683707,"connected_time":1952000000000,"state":"active","ping":81},{"user_id":169,"name":"WicKKan","steam_id":76561198868089057,"connected_time":1200000000000,"state":"active","ping":43},{"user_id":105,"name":"Tom Skirrett","steam_id":76561198014600788,"connected_time":5778000000000,"state":"active","ping":68},{"user_id":176,"name":"Dunkle","steam_id":76561198041903573,"connected_time":306000000000,"state":"active","ping":51},{"user_id":170,"name":"[chef] iron","steam_id":76561197970888616,"connected_time":1183000000000,"state":"active","ping":74},{"user_id":178,"name":"LogicalFurret","steam_id":76561198350604657,"connected_time":4000000000,"state":"spawning","ping":126},{"user_id":139,"name":"The Best Healer","steam_id":76561198079452621,"connected_time":2300000000000,"state":"active","ping":54},{"user_id":104,"name":"TROY","steam_id":76561197983852176,"connected_time":5862000000000,"state":"active","ping":78},{"user_id":157,"name":"shane","steam_id":76561198060491451,"connected_time":1527000000000,"state":"active","ping":86},{"user_id":136,"name":"Nobuunga","steam_id":76561198100614981,"connected_time":2573000000000,"state":"active","ping":51}]},{"server_id":119,"name":"Uncletopia | Seattle | 2 | All Maps","name_short":"sea-2","host":"sea-1.us.uncletopia.com","port":27025,"enabled":true,"region":"us-west","cc":"us","latitude":47.608013,"longitude":-122.33517,"reserved":0,"last_update":"0001-01-01T00:00:00Z","name_a2s":"Uncletopia | Seattle | 2 | All Maps","protocol":17,"map":"pl_frontier_final","folder":"tf","game":"Team Fortress","app_id":440,"player_count":24,"max_players":24,"Bots":0,"server_type":"Dedicated","server_os":"Linux","password":true,"vac":true,"version":"7757534","steam_id":85568392924469998,"keywords":["nocrits","nodmgspread","payload","uncletopia"],"game_id":440,"stv_port":27026,"stv_name":"Uncletopia | Seattle | 2 | All Maps | STV","players":[{"user_id":115,"name":"will","steam_id":76561198134923092,"connected_time":1477000000000,"state":"active","ping":76},{"user_id":95,"name":"403Blunkly","steam_id":76561199005023878,"connected_time":2525000000000,"state":"active","ping":88},{"user_id":139,"name":"OH JIMMY I'M HOME #SaveTf2","steam_id":76561198396658806,"connected_time":174000000000,"state":"active","ping":85},{"user_id":130,"name":"Skabbety","steam_id":76561198168044257,"connected_time":638000000000,"state":"active","ping":41},{"user_id":87,"name":"Smiling","steam_id":76561198293407075,"connected_time":3213000000000,"state":"active","ping":76},{"user_id":116,"name":"funny green ogre","steam_id":76561199123578119,"connected_time":1274000000000,"state":"active","ping":144},{"user_id":88,"name":"üÖúüÖîüÖîüÖöüÖ¢üÖ£üÖî\ufffd\ufffd\ufffd","steam_id":76561197999748343,"connected_time":3206000000000,"state":"active","ping":91},{"user_id":28,"name":"Nexo Fighter","steam_id":76561199187418090,"connected_time":6355000000000,"state":"active","ping":173},{"user_id":105,"name":"james may","steam_id":76561198043857339,"connected_time":2024000000000,"state":"active","ping":82},{"user_id":113,"name":"Court Wizard, Sir Dr. Clydesdal","steam_id":76561198149267697,"connected_time":1510000000000,"state":"active","ping":70},{"user_id":64,"name":"Aeris","steam_id":76561198287271028,"connected_time":4458000000000,"state":"active","ping":103},{"user_id":131,"name":"EEBIGAA","steam_id":76561198056535988,"connected_time":608000000000,"state":"active","ping":73},{"user_id":117,"name":"Ferrin","steam_id":76561198071757444,"connected_time":1217000000000,"state":"active","ping":101},{"user_id":134,"name":"Gimrex","steam_id":76561198137232326,"connected_time":536000000000,"state":"active","ping":92},{"user_id":133,"name":"Dali","steam_id":76561198077593486,"connected_time":574000000000,"state":"active","ping":97},{"user_id":118,"name":"Mac is Bac","steam_id":76561198307352761,"connected_time":1172000000000,"state":"active","ping":180},{"user_id":119,"name":"snowflake","steam_id":76561198082315370,"connected_time":1171000000000,"state":"active","ping":92},{"user_id":120,"name":"Cloud","steam_id":76561198272454184,"connected_time":1164000000000,"state":"active","ping":176},{"user_id":107,"name":"waste_your_life.exe","steam_id":76561198084658114,"connected_time":2012000000000,"state":"active","ping":98},{"user_id":135,"name":"PATATOPRIME94","steam_id":76561198173853137,"connected_time":516000000000,"state":"active","ping":69},{"user_id":128,"name":"\u003c3Elise\u003c3","steam_id":76561198146435005,"connected_time":904000000000,"state":"active","ping":69},{"user_id":141,"name":"chimplicity","steam_id":76561198012097062,"connected_time":97000000000,"state":"active","ping":100},{"user_id":136,"name":"Apex60","steam_id":76561198041898090,"connected_time":456000000000,"state":"active","ping":138},{"user_id":138,"name":"Pete The \"Plummer\"","steam_id":76561199097450685,"connected_time":429000000000,"state":"active","ping":67}]},{"server_id":406,"name":"Uncletopia | Seattle | 3 | Stopwatch Beta","name_short":"sea-3","host":"sea-1.us.uncletopia.com","port":27035,"enabled":true,"region":"us-west","cc":"us","latitude":47.608013,"longitude":-122.33517,"reserved":0,"last_update":"0001-01-01T00:00:00Z","name_a2s":"Uncletopia | Seattle | 3 | Stopwatch Beta","protocol":17,"map":"workshop/koth_ramjam_rc1.ugc459778887","folder":"tf","game":"Team Fortress","app_id":440,"player_count":0,"max_players":24,"Bots":0,"server_type":"Dedicated","server_os":"Linux","password":true,"vac":true,"version":"7757534","steam_id":85568392924515217,"keywords":["cp","nocrits","nodmgspread","uncletopia"],"game_id":440,"stv_port":27036,"stv_name":"Uncletopia | Seattle | 3 | Stopwatch Beta | STV","players":null},{"server_id":17,"name":"Uncletopia | San Francisco | 1 | All Maps","name_short":"sfo-1","host":"sfo-1.us.uncletopia.com","port":27015,"enabled":true,"region":"us-west","cc":"us","latitude":37.77397,"longitude":-122.4313,"reserved":0,"last_update":"0001-01-01T00:00:00Z","name_a2s":"Uncletopia | San Francisco | 1 | All Maps","protocol":17,"map":"pl_pier","folder":"tf","game":"Team Fortress","app_id":440,"player_count":24,"max_players":24,"Bots":0,"server_type":"Dedicated","server_os":"Linux","password":true,"vac":true,"version":"7757534","steam_id":85568392924469999,"keywords":["nocrits","nodmgspread","payload","uncletopia"],"game_id":440,"stv_port":27016,"stv_name":"Uncletopia | San Francisco | 1 | All Maps | STV","players":[{"user_id":418,"name":"Grapefruit","steam_id":76561198269253587,"connected_time":395000000000,"state":"active","ping":45},{"user_id":391,"name":"FAT CAT","steam_id":76561198097466517,"connected_time":1976000000000,"state":"active","ping":73},{"user_id":400,"name":"gasparmx","steam_id":76561197998611994,"connected_time":1448000000000,"state":"active","ping":74},{"user_id":425,"name":"Boat","steam_id":76561198319185335,"connected_time":327000000000,"state":"active","ping":81},{"user_id":373,"name":"roger roger","steam_id":76561198130032444,"connected_time":3104000000000,"state":"active","ping":62},{"user_id":420,"name":"OrangeShoes","steam_id":76561197971249940,"connected_time":350000000000,"state":"active","ping":118},{"user_id":407,"name":"Leroy Sinclair","steam_id":76561198116082889,"connected_time":966000000000,"state":"active","ping":68},{"user_id":405,"name":"HE‚ÄôS IN THE GODDAMN WALLS","steam_id":76561198363267009,"connected_time":1265000000000,"state":"active","ping":79},{"user_id":389,"name":"K-2","steam_id":76561198322606535,"connected_time":2544000000000,"state":"active","ping":92},{"user_id":421,"name":"Spoofle","steam_id":76561199003655066,"connected_time":341000000000,"state":"active","ping":54},{"user_id":422,"name":"Orca?","steam_id":76561198164341099,"connected_time":339000000000,"state":"active","ping":88},{"user_id":423,"name":"Tree Hucker","steam_id":76561199059131762,"connected_time":335000000000,"state":"active","ping":95},{"user_id":428,"name":"rustyorion","steam_id":76561198439186347,"connected_time":248000000000,"state":"active","ping":82},{"user_id":402,"name":"Berserk","steam_id":76561198000357361,"connected_time":1372000000000,"state":"active","ping":74},{"user_id":395,"name":"lukas","steam_id":76561198172454407,"connected_time":1588000000000,"state":"active","ping":72},{"user_id":332,"name":"Arcane","steam_id":76561198061160908,"connected_time":5844000000000,"state":"active","ping":128},{"user_id":417,"name":"Ashley H√©lo√Øse","steam_id":76561198103653429,"connected_time":501000000000,"state":"active","ping":52},{"user_id":431,"name":"BBL Sponsor","steam_id":76561199093733603,"connected_time":121000000000,"state":"active","ping":60},{"user_id":427,"name":"A woman üè≥‚öß‚ôÄ‚ô•‚ô•‚ô•","steam_id":76561199376578224,"connected_time":319000000000,"state":"active","ping":79},{"user_id":333,"name":"Canadian \u003c/3","steam_id":76561198156321471,"connected_time":5835000000000,"state":"active","ping":137},{"user_id":368,"name":"Altruisticailuridae","steam_id":76561198335295596,"connected_time":3311000000000,"state":"active","ping":61},{"user_id":398,"name":"1000 Ping","steam_id":76561198098330939,"connected_time":1539000000000,"state":"active","ping":75},{"user_id":372,"name":"'Oddo","steam_id":76561198090866900,"connected_time":3164000000000,"state":"active","ping":104},{"user_id":429,"name":"Superman123389","steam_id":76561198267472539,"connected_time":195000000000,"state":"active","ping":85}]},{"server_id":18,"name":"Uncletopia | San Francisco | 2 | All Maps","name_short":"sfo-2","host":"sfo-1.us.uncletopia.com","port":27025,"enabled":true,"region":"us-west","cc":"us","latitude":37.77397,"longitude":-122.4313,"reserved":0,"last_update":"0001-01-01T00:00:00Z","name_a2s":"Uncletopia | San Francisco | 2 | All Maps","protocol":17,"map":"koth_viaduct","folder":"tf","game":"Team Fortress","app_id":440,"player_count":0,"max_players":24,"Bots":0,"server_type":"Dedicated","server_os":"Linux","password":true,"vac":true,"version":"7757534","steam_id":85568392924470000,"keywords":["cp","nocrits","nodmgspread","uncletopia"],"game_id":440,"stv_port":27026,"stv_name":"Uncletopia | San Francisco | 2 | All Maps | STV","players":null},{"server_id":19,"name":"Uncletopia | San Francisco | 3 | Stopwatch Beta","name_short":"sfo-3","host":"sfo-1.us.uncletopia.com","port":27035,"enabled":true,"region":"us-west","cc":"us","latitude":37.77397,"longitude":-122.4313,"reserved":0,"last_update":"0001-01-01T00:00:00Z","name_a2s":"Uncletopia | San Francisco | 3 | Stopwatch Beta","protocol":17,"map":"pl_borneo","folder":"tf","game":"Team Fortress","app_id":440,"player_count":0,"max_players":24,"Bots":0,"server_type":"Dedicated","server_os":"Linux","password":true,"vac":true,"version":"7757534","steam_id":85568392924742824,"keywords":["nocrits","nodmgspread","payload","uncletopia"],"game_id":440,"stv_port":27036,"stv_name":"Uncletopia | San Francisco | 3 | Stopwatch Beta | STV","players":null},{"server_id":20,"name":"Uncletopia | San Francisco | 4 | Community","name_short":"sfo-4","host":"sfo-1.us.uncletopia.com","port":27045,"enabled":true,"region":"us-west","cc":"us","latitude":37.77397,"longitude":-122.4313,"reserved":0,"last_update":"0001-01-01T00:00:00Z","name_a2s":"Uncletopia | San Francisco | 4 | Community","protocol":17,"map":"koth_highpass","folder":"tf","game":"Team Fortress","app_id":440,"player_count":0,"max_players":24,"Bots":0,"server_type":"Dedicated","server_os":"Linux","password":true,"vac":true,"version":"7757534","steam_id":85568392924742826,"keywords":["cp","nocrits","nodmgspread","uncletopia"],"game_id":440,"stv_port":27046,"stv_name":"Uncletopia | San Francisco | 4 | Community | STV","players":null},{"server_id":141,"name":"Uncletopia | Sydney | 1 | All Maps","name_short":"syd-1","host":"syd-1.au.uncletopia.com","port":27015,"enabled":true,"region":"au","cc":"au","latitude":-33.865143,"longitude":151.2099,"reserved":0,"last_update":"0001-01-01T00:00:00Z","name_a2s":"Uncletopia | Sydney | 1 | All Maps","protocol":17,"map":"cp_sunshine","folder":"tf","game":"Team Fortress","app_id":440,"player_count":0,"max_players":24,"Bots":0,"server_type":"Dedicated","server_os":"Linux","password":true,"vac":true,"version":"7757534","steam_id":85568392924470001,"keywords":["cp","nocrits","nodmgspread","uncletopia"],"game_id":440,"stv_port":27016,"stv_name":"Uncletopia | Sydney | 1 | All Maps | STV","players":null},{"server_id":123,"name":"Uncletopia | Sydney | 2 | All Maps","name_short":"syd-2","host":"syd-1.au.uncletopia.com","port":27025,"enabled":true,"region":"au","cc":"au","latitude":-33.865143,"longitude":151.2099,"reserved":0,"last_update":"0001-01-01T00:00:00Z","name_a2s":"Uncletopia | Sydney | 2 | All Maps","protocol":17,"map":"koth_viaduct","folder":"tf","game":"Team Fortress","app_id":440,"player_count":0,"max_players":24,"Bots":0,"server_type":"Dedicated","server_os":"Linux","password":true,"vac":true,"version":"7757534","steam_id":85568392924470002,"keywords":["cp","nocrits","nodmgspread","uncletopia"],"game_id":440,"stv_port":27026,"stv_name":"Uncletopia | Sydney | 2 | All Maps | STV","players":null},{"server_id":395,"name":"Uncletopia | Sydney | 3 | All Maps","name_short":"syd-3","host":"syd-1.au.uncletopia.com","port":27035,"enabled":true,"region":"au","cc":"au","latitude":-33.865143,"longitude":151.2099,"reserved":0,"last_update":"0001-01-01T00:00:00Z","name_a2s":"Uncletopia | Sydney | 3 | All Maps","protocol":17,"map":"pl_upward","folder":"tf","game":"Team Fortress","app_id":440,"player_count":0,"max_players":24,"Bots":0,"server_type":"Dedicated","server_os":"Linux","password":true,"vac":true,"version":"7757534","steam_id":85568392925194467,"keywords":["nocrits","nodmgspread","payload","uncletopia"],"game_id":440,"stv_port":27036,"stv_name":"Uncletopia | Sydney | 3 | All Maps | STV","players":null},{"server_id":396,"name":"Uncletopia | Sydney | 4 | All Maps","name_short":"syd-4","host":"syd-1.au.uncletopia.com","port":27045,"enabled":true,"region":"au","cc":"au","latitude":-33.865143,"longitude":151.2099,"reserved":0,"last_update":"0001-01-01T00:00:00Z","name_a2s":"Uncletopia | Sydney | 4 | All Maps","protocol":17,"map":"koth_lakeside_final","folder":"tf","game":"Team Fortress","app_id":440,"player_count":0,"max_players":24,"Bots":0,"server_type":"Dedicated","server_os":"Linux","password":true,"vac":true,"version":"7757534","steam_id":85568392925397958,"keywords":["cp","nocrits","nodmgspread","uncletopia"],"game_id":440,"stv_port":27046,"stv_name":"Uncletopia | Sydney | 4 | All Maps | STV","players":null},{"server_id":58,"name":"Uncletopia | Sydney | 5 | Stopwatch Beta","name_short":"syd-5","host":"syd-1.au.uncletopia.com","port":27055,"enabled":true,"region":"au","cc":"au","latitude":-33.865143,"longitude":151.2099,"reserved":0,"last_update":"0001-01-01T00:00:00Z","name_a2s":"Uncletopia | Sydney | 5 | Stopwatch Beta","protocol":17,"map":"koth_highpass","folder":"tf","game":"Team Fortress","app_id":440,"player_count":0,"max_players":24,"Bots":0,"server_type":"Dedicated","server_os":"Linux","password":true,"vac":true,"version":"7757534","steam_id":85568392925397959,"keywords":["cp","nocrits","nodmgspread","uncletopia"],"game_id":440,"stv_port":27056,"stv_name":"Uncletopia | Sydney | 5 | Stopwatch Beta | STV","players":null},{"server_id":59,"name":"Uncletopia | Sydney | 6 | Community","name_short":"syd-6","host":"syd-1.au.uncletopia.com","port":27065,"enabled":true,"region":"au","cc":"au","latitude":-33.865143,"longitude":151.2099,"reserved":0,"last_update":"0001-01-01T00:00:00Z","name_a2s":"Uncletopia | Sydney | 6 | Community","protocol":17,"map":"cp_sunshine","folder":"tf","game":"Team Fortress","app_id":440,"player_count":0,"max_players":24,"Bots":0,"server_type":"Dedicated","server_os":"Linux","password":true,"vac":true,"version":"7757534","steam_id":85568392925397960,"keywords":["cp","nocrits","nodmgspread","uncletopia"],"game_id":440,"stv_port":27066,"stv_name":"Uncletopia | Sydney | 6 | Community | STV","players":null},{"server_id":49,"name":"Uncletopia | Warsaw | 1 | All Maps","name_short":"waw-1","host":"waw-1.pl.uncletopia.com","port":27015,"enabled":true,"region":"eu","cc":"pl","latitude":52.2297,"longitude":21.017532,"reserved":0,"last_update":"0001-01-01T00:00:00Z","name_a2s":"","protocol":0,"map":"","folder":"","game":"","app_id":0,"player_count":0,"max_players":0,"Bots":0,"server_type":"","server_os":"","password":false,"vac":false,"version":"","steam_id":0,"keywords":null,"game_id":0,"stv_port":0,"stv_name":"","players":null},{"server_id":50,"name":"Uncletopia | Warsaw | 2 | All Maps","name_short":"waw-2","host":"waw-1.pl.uncletopia.com","port":27025,"enabled":true,"region":"eu","cc":"pl","latitude":52.2297,"longitude":21.017532,"reserved":0,"last_update":"0001-01-01T00:00:00Z","name_a2s":"Uncletopia | Warsaw | 2 | All Maps","protocol":17,"map":"koth_viaduct","folder":"tf","game":"Team Fortress","app_id":440,"player_count":0,"max_players":24,"Bots":0,"server_type":"Dedicated","server_os":"Linux","password":true,"vac":true,"version":"7757534","steam_id":85568392925397851,"keywords":["cp","nocrits","nodmgspread","uncletopia"],"game_id":440,"stv_port":27026,"stv_name":"Uncletopia | Warsaw | 2 | All Maps | STV","players":null},{"server_id":51,"name":"Uncletopia | Warsaw | 3 | All Maps","name_short":"waw-3","host":"waw-1.pl.uncletopia.com","port":27035,"enabled":true,"region":"eu","cc":"pl","latitude":52.2297,"longitude":21.017532,"reserved":0,"last_update":"0001-01-01T00:00:00Z","name_a2s":"Uncletopia | Warsaw | 3 | All Maps","protocol":17,"map":"koth_cascade","folder":"tf","game":"Team Fortress","app_id":440,"player_count":0,"max_players":24,"Bots":0,"server_type":"Dedicated","server_os":"Linux","password":true,"vac":true,"version":"7757534","steam_id":85568392925397852,"keywords":["cp","nocrits","nodmgspread","uncletopia"],"game_id":440,"stv_port":27036,"stv_name":"Uncletopia | Warsaw | 3 | All Maps | STV","players":null},{"server_id":52,"name":"Uncletopia | Warsaw | 4 | All Maps","name_short":"waw-4","host":"waw-1.pl.uncletopia.com","port":27045,"enabled":true,"region":"eu","cc":"pl","latitude":52.2297,"longitude":21.017532,"reserved":0,"last_update":"0001-01-01T00:00:00Z","name_a2s":"Uncletopia | Warsaw | 4 | All Maps","protocol":17,"map":"koth_viaduct","folder":"tf","game":"Team Fortress","app_id":440,"player_count":0,"max_players":24,"Bots":0,"server_type":"Dedicated","server_os":"Linux","password":true,"vac":true,"version":"7757534","steam_id":85568392925397853,"keywords":["cp","nocrits","nodmgspread","uncletopia"],"game_id":440,"stv_port":27046,"stv_name":"Uncletopia | Warsaw | 4 | All Maps | STV","players":null},{"server_id":53,"name":"Uncletopia | Warsaw | 5 | Stopwatch Beta","name_short":"waw-5","host":"waw-1.pl.uncletopia.com","port":27055,"enabled":true,"region":"eu","cc":"pl","latitude":52.2297,"longitude":21.017532,"reserved":0,"last_update":"0001-01-01T00:00:00Z","name_a2s":"Uncletopia | Warsaw | 5 | Stopwatch Beta","protocol":17,"map":"pl_barnblitz","folder":"tf","game":"Team Fortress","app_id":440,"player_count":0,"max_players":24,"Bots":0,"server_type":"Dedicated","server_os":"Linux","password":true,"vac":true,"version":"7757534","steam_id":85568392925397854,"keywords":["nocrits","nodmgspread","payload","uncletopia"],"game_id":440,"stv_port":27056,"stv_name":"Uncletopia | Warsaw | 5 | Stopwatch Beta | STV","players":null},{"server_id":54,"name":"Uncletopia | Warsaw | 6 | Community","name_short":"waw-6","host":"waw-1.pl.uncletopia.com","port":27065,"enabled":true,"region":"eu","cc":"pl","latitude":52.2297,"longitude":21.017532,"reserved":0,"last_update":"0001-01-01T00:00:00Z","name_a2s":"Uncletopia | Warsaw | 6 | Community","protocol":17,"map":"workshop/koth_trenchfoot_b1a.ugc731436616","folder":"tf","game":"Team Fortress","app_id":440,"player_count":0,"max_players":24,"Bots":0,"server_type":"Dedicated","server_os":"Linux","password":true,"vac":true,"version":"7757534","steam_id":85568392925397856,"keywords":["cp","nocrits","nodmgspread","uncletopia"],"game_id":440,"stv_port":27066,"stv_name":"Uncletopia | Warsaw | 6 | Community | STV","players":null}]}