{"status":true,"message":"","result":[{"server_id":9,"name":"Uncletopia | Atlanta | 1 | All Maps","name_short":"atl-1","host":"atl-1.us.uncletopia.com","port":27015,"enabled":true,"region":"us-east","cc":"us","latitude":33.753746,"longitude":-84.38633,"reserved":0,"last_update":"0001-01-01T00:00:00Z","name_a2s":"Uncletopia | Atlanta | 1 | All Maps","protocol":17,"map":"pl_snowycoast","folder":"tf","game":"Team Fortress","app_id":440,"player_count":24,"max_players":24,"Bots":0,"server_type":"Dedicated","server_os":"Linux","password":true,"vac":true,"version":"7961495","steam_id":85568392924469982,"keywords":["nocrits","nodmgspread","payload","uncletopia"],"game_id":440,"stv_port":27016,"stv_name":"Uncletopia | Atlanta | 1 | All Maps | STV","players":[{"user_id":72,"name":"b0nes","steam_id":76561198120312532,"connected_time":4507000000000,"state":"active","ping":82},{"user_id":101,"name":"Hamlindigo Blue™","steam_id":76561198116337540,"connected_time":578000000000,"state":"active","ping":98},{"user_id":81,"name":"Thotimus Begonimus","steam_id":76561197970275938,"connected_time":3508000000000,"state":"active","ping":45},{"user_id":46,"name":"Obelisk","steam_id":76561198049416866,"connected_time":6538000000000,"state":"active","ping":50},{"user_id":32,"name":"MaybeMars","steam_id":76561198084736804,"connected_time":7303000000000,"state":"active","ping":60},{"user_id":73,"name":"Aku+","steam_id":76561198813782795,"connected_time":4482000000000,"state":"active","ping":165},{"user_id":54,"name":"Killbasa","steam_id":76561198064868400,"connected_time":6074000000000,"state":"active","ping":71},{"user_id":100,"name":"thomasdee725???","steam_id":76561199189526173,"connected_time":626000000000,"state":"active","ping":62},{"user_id":108,"name":"shaderoses","steam_id":76561198070800500,"connected_time":223000000000,"state":"active","ping":65},{"user_id":102,"name":"Dark Lord","steam_id":76561198044199150,"connected_time":524000000000,"state":"active","ping":79},{"user_id":80,"name":"marguerite","steam_id":76561198170873495,"connected_time":3621000000000,"state":"active","ping":52},{"user_id":90,"name":"crunchy obama","steam_id":76561198044485217,"connected_time":2021000000000,"state":"active","ping":101},{"user_id":103,"name":"Duck","steam_id":76561198303483056,"connected_time":472000000000,"state":"active","ping":85},{"user_id":95,"name":"Ok-Par","steam_id":76561199221067945,"connected_time":1424000000000,"state":"active","ping":63},{"user_id":99,"name":"SpectreBurn","steam_id":76561198163300780,"connected_time":789000000000,"state":"active","ping":45},{"user_id":92,"name":"You Don't Nomi.","steam_id":76561197969137836,"connected_time":1881000000000,"state":"active","ping":60},{"user_id":105,"name":"TamerMushroom64","steam_id":76561199128190180,"connected_time":424000000000,"state":"active","ping":121},{"user_id":106,"name":"ุ","steam_id":76561198135498022,"connected_time":387000000000,"state":"active","ping":53},{"user_id":107,"name":"Neptune˖⁺｡˚⋆˙♥","steam_id":76561199054203198,"connected_time":355000000000,"state":"active","ping":70},{"user_id":98,"name":"Night time Dan","steam_id":76561199022178492,"connected_time":1001000000000,"state":"active","ping":45},{"user_id":89,"name":"guac","steam_id":76561198025481672,"connected_time":2344000000000,"state":"active","ping":77},{"user_id":41,"name":"FrameTrash","steam_id":76561199167260122,"connected_time":7026000000000,"state":"active","ping":74},{"user_id":91,"name":"Motorolª","steam_id":76561198358119669,"connected_time":1980000000000,"state":"active","ping":116},{"user_id":63,"name":"lil hog","steam_id":76561199230929836,"connected_time":4966000000000,"state":"active","ping":217}]},{"server_id":104,"name":"Uncletopia | Atlanta | 2 | All Maps","name_short":"atl-2","host":"atl-1.us.uncletopia.com","port":27025,"enabled":true,"region":"us-east","cc":"us","latitude":33.753746,"longitude":-84.38633,"reserved":0,"last_update":"0001-01-01T00:00:00Z","name_a2s":"Uncletopia | Atlanta | 2 | All Maps","protocol":17,"map":"cp_badlands","folder":"tf","game":"Team Fortress","app_id":440,"player_count":0,"max_players":24,"Bots":0,"server_type":"Dedicated","server_os":"Linux","password":true,"vac":true,"version":"7961495","steam_id":85568392924469983,"keywords":["cp","nocrits","nodmgspread","uncletopia"],"game_id":440,"stv_port":27026,"stv_name":"Uncletopia | Atlanta | 2 | All Maps | STV","players":null},{"server_id":400,"name":"Uncletopia | Atlanta | 3 | Stopwatch","name_short":"atl-3","host":"atl-1.us.uncletopia.com","port":27035,"enabled":true,"region":"us-east","cc":"us","latitude":33.753746,"longitude":-84.38633,"reserved":0,"last_update":"0001-01-01T00:00:00Z","name_a2s":"Uncletopia | Atlanta | 3 | Stopwatch","protocol":17,"map":"workshop/koth_ashville_final.ugc2130459942","folder":"tf","game":"Team Fortress","app_id":440,"player_count":0,"max_players":24,"Bots":0,"server_type":"Dedicated","server_os":"Linux","password":true,"vac":true,"version":"7961495","steam_id":85568392924515187,"keywords":["cp","nocrits","nodmgspread","uncletopia"],"game_id":440,"stv_port":27036,"stv_name":"Uncletopia | Atlanta | 3 | Stopwatch | STV","players":null},{"server_id":401,"name":"Uncletopia | Atlanta | 4 | Community","name_short":"atl-4","host":"atl-1.us.uncletopia.com","port":27045,"enabled":true,"region":"us-east","cc":"us","latitude":33.753746,"longitude":-84.38633,"reserved":0,"last_update":"0001-01-01T00:00:00Z","name_a2s":"Uncletopia | Atlanta | 4 | Community","protocol":17,"map":"workshop/koth_bagel_rc6.ugc2514036946","folder":"tf","game":"Team Fortress","app_id":440,"player_count":0,"max_players":24,"Bots":0,"server_type":"Dedicated","server_os":"Linux","password":true,"vac":true,"version":"7961495","steam_id":85568392924515188,"keywords":["cp","nocrits","nodmgspread","uncletopia"],"game_id":440,"stv_port":27046,"stv_name":"Uncletopia | Atlanta | 4 | Community | STV","players":null},{"server_id":2,"name":"Uncletopia | Chicago | 1 | All Maps","name_short":"chi-1","host":"chi-1.us.uncletopia.com","port":27015,"enabled":true,"region":"us-central","cc":"us","latitude":41.881832,"longitude":-87.62318,"reserved":0,"last_update":"0001-01-01T00:00:00Z","name_a2s":"Uncletopia | Chicago | 1 | All Maps","protocol":17,"map":"pl_borneo","folder":"tf","game":"Team Fortress","app_id":440,"player_count":24,"max_players":24,"Bots":0,"server_type":"Dedicated","server_os":"Linux","password":true,"vac":true,"version":"7961495","steam_id":85568392924469984,"keywords":["nocrits","nodmgspread","payload","uncletopia"],"game_id":440,"stv_port":27016,"stv_name":"Uncletopia | Chicago | 1 | All Maps | STV","players":[{"user_id":104,"name":"Kyle Wisdom","steam_id":76561197983040950,"connected_time":4179000000000,"state":"active","ping":49},{"user_id":125,"name":"worker","steam_id":76561198039608940,"connected_time":2841000000000,"state":"active","ping":114},{"user_id":140,"name":"Storebrand Vegeta","steam_id":76561197999105221,"connected_time":1104000000000,"state":"active","ping":83},{"user_id":156,"name":"UwU","steam_id":76561198971629959,"connected_time":308000000000,"state":"active","ping":132},{"user_id":151,"name":"Friedriquesporte","steam_id":76561198271955092,"connected_time":620000000000,"state":"active","ping":57},{"user_id":157,"name":"♥ alixei! ♥","steam_id":76561198014557455,"connected_time":301000000000,"state":"active","ping":58},{"user_id":126,"name":"Overduecat","steam_id":76561198092452824,"connected_time":2685000000000,"state":"active","ping":60},{"user_id":159,"name":"sonikro","steam_id":76561197989428692,"connected_time":193000000000,"state":"active","ping":54},{"user_id":112,"name":"Tobo","steam_id":76561198085846393,"connected_time":3302000000000,"state":"active","ping":75},{"user_id":102,"name":"Yarn","steam_id":76561199227148369,"connected_time":4481000000000,"state":"active","ping":75},{"user_id":150,"name":"Pants Charming","steam_id":76561198217858291,"connected_time":707000000000,"state":"active","ping":61},{"user_id":148,"name":"Ta5K","steam_id":76561198939558155,"connected_time":736000000000,"state":"active","ping":46},{"user_id":160,"name":"doghouse","steam_id":76561198000319035,"connected_time":170000000000,"state":"active","ping":91},{"user_id":146,"name":"GuyGoom","steam_id":76561198254522178,"connected_time":796000000000,"state":"active","ping":59},{"user_id":80,"name":"Gene Takovic","steam_id":76561198881039861,"connected_time":6213000000000,"state":"active","ping":45},{"user_id":155,"name":"CHIPS","steam_id":76561199085414584,"connected_time":369000000000,"state":"active","ping":68},{"user_id":149,"name":"Gregory","steam_id":76561199070901945,"connected_time":729000000000,"state":"active","ping":79},{"user_id":135,"name":"Swiftmend","steam_id":76561197995595692,"connected_time":1721000000000,"state":"active","ping":76},{"user_id":163,"name":"Squash","steam_id":76561198054254518,"connected_time":78000000000,"state":"active","ping":60},{"user_id":139,"name":"OH BOY","steam_id":76561199052273428,"connected_time":1337000000000,"state":"active","ping":52},{"user_id":147,"name":"nikeshoe92","steam_id":76561197973093864,"connected_time":790000000000,"state":"active","ping":79},{"user_id":105,"name":"Wooden E","steam_id":76561198020308956,"connected_time":4006000000000,"state":"active","ping":60},{"user_id":162,"name":"Bignuts69","steam_id":76561199302763718,"connected_time":97000000000,"state":"active","ping":40},{"user_id":136,"name":"󠀡󠀡󠀡󠀡󠀡󠀡󠀡\ufffd\ufffd\ufffd","steam_id":76561199485571016,"connected_time":1564000000000,"state":"active","ping":70}]},{"server_id":106,"name":"Uncletopia | Chicago | 2 | All Maps","name_short":"chi-2","host":"chi-1.us.uncletopia.com","port":27025,"enabled":true,"region":"us-central","cc":"us","latitude":41.881832,"longitude":-87.62318,"reserved":0,"last_update":"0001-01-01T00:00:00Z","name_a2s":"Uncletopia | Chicago | 2 | All Maps","protocol":17,"map":"pl_upward","folder":"tf","game":"Team Fortress","app_id":440,"player_count":24,"max_players":24,"Bots":0,"server_type":"Dedicated","server_os":"Linux","password":true,"vac":true,"version":"7961495","steam_id":85568392924469985,"keywords":["nocrits","nodmgspread","payload","uncletopia"],"game_id":440,"stv_port":27026,"stv_name":"Uncletopia | Chicago | 2 | All Maps | STV","players":[{"user_id":292,"name":"Milkman Superman","steam_id":76561199106218986,"connected_time":145000000000,"state":"active","ping":65},{"user_id":282,"name":"marshion","steam_id":76561199120692714,"connected_time":330000000000,"state":"active","ping":60},{"user_id":257,"name":"Aeris","steam_id":76561198287271028,"connected_time":2018000000000,"state":"active","ping":47},{"user_id":262,"name":"YOU WHAT?!","steam_id":76561198418679471,"connected_time":1858000000000,"state":"active","ping":61},{"user_id":165,"name":"Mr. Tickle","steam_id":76561198126684647,"connected_time":7294000000000,"state":"active","ping":67},{"user_id":283,"name":"Cheesy Knob","steam_id":76561199092766239,"connected_time":300000000000,"state":"active","ping":118},{"user_id":284,"name":"Big Sauce","steam_id":76561198046654750,"connected_time":267000000000,"state":"active","ping":59},{"user_id":281,"name":"?pengin","steam_id":76561198254236408,"connected_time":377000000000,"state":"active","ping":54},{"user_id":285,"name":"Tralf Hardy","steam_id":76561197973818765,"connected_time":262000000000,"state":"active","ping":85},{"user_id":286,"name":"janitor","steam_id":76561198166433332,"connected_time":256000000000,"state":"active","ping":104},{"user_id":231,"name":"dantheman","steam_id":76561199486390813,"connected_time":3659000000000,"state":"active","ping":83},{"user_id":267,"name":"Tony Pizza","steam_id":76561198276513608,"connected_time":1688000000000,"state":"active","ping":167},{"user_id":287,"name":"pomshiber |HM|","steam_id":76561199232294789,"connected_time":239000000000,"state":"active","ping":59},{"user_id":249,"name":"mrappledumb","steam_id":76561199133590774,"connected_time":2879000000000,"state":"active","ping":63},{"user_id":288,"name":"Silly-Brained Sh3ba","steam_id":76561198047412394,"connected_time":230000000000,"state":"active","ping":59},{"user_id":268,"name":"your fwiend","steam_id":76561198154773643,"connected_time":1653000000000,"state":"active","ping":69},{"user_id":269,"name":"Private Sloppy","steam_id":76561198019861196,"connected_time":1649000000000,"state":"active","ping":58},{"user_id":277,"name":"Aztea","steam_id":76561198982089893,"connected_time":897000000000,"state":"active","ping":80},{"user_id":289,"name":"Alyn","steam_id":76561198072309739,"connected_time":222000000000,"state":"active","ping":100},{"user_id":254,"name":"no","steam_id":76561198248853140,"connected_time":2378000000000,"state":"active","ping":51},{"user_id":290,"name":"Violet","steam_id":76561198030395513,"connected_time":184000000000,"state":"active","ping":144},{"user_id":270,"name":"Salt","steam_id":76561198418001135,"connected_time":1647000000000,"state":"active","ping":63},{"user_id":291,"name":"conscripted monk","steam_id":76561199029246232,"connected_time":178000000000,"state":"active","ping":69},{"user_id":274,"name":"minecraft australium (she/they)","steam_id":76561199096964288,"connected_time":1437000000000,"state":"active","ping":39}]},{"server_id":402,"name":"Uncletopia | Chicago | 3 | All Maps","name_short":"chi-3","host":"chi-1.us.uncletopia.com","port":27035,"enabled":true,"region":"us-central","cc":"us","latitude":41.881832,"longitude":-87.62318,"reserved":0,"last_update":"0001-01-01T00:00:00Z","name_a2s":"Uncletopia | Chicago | 3 | All Maps","protocol":17,"map":"pl_rumford_event","folder":"tf","game":"Team Fortress","app_id":440,"player_count":18,"max_players":24,"Bots":0,"server_type":"Dedicated","server_os":"Linux","password":true,"vac":true,"version":"7961495","steam_id":85568392924515191,"keywords":["nocrits","nodmgspread","payload","uncletopia"],"game_id":440,"stv_port":27036,"stv_name":"Uncletopia | Chicago | 3 | All Maps | STV","players":[{"user_id":47,"name":"Nite","steam_id":76561199014777092,"connected_time":85000000000,"state":"active","ping":45},{"user_id":46,"name":"Grunk","steam_id":76561198071150987,"connected_time":140000000000,"state":"active","ping":59},{"user_id":34,"name":"KaosInfinite","steam_id":76561198009126350,"connected_time":825000000000,"state":"active","ping":92},{"user_id":48,"name":"TheSnipersHat","steam_id":76561198057684066,"connected_time":55000000000,"state":"spawning","ping":94},{"user_id":49,"name":"YertYot","steam_id":76561198059322080,"connected_time":50000000000,"state":"active","ping":56},{"user_id":50,"name":"HOG         RIDER","steam_id":76561198040787741,"connected_time":0,"state":"spawning","ping":0},{"user_id":17,"name":"Alex Oxygewn","steam_id":76561198070776874,"connected_time":1550000000000,"state":"active","ping":83},{"user_id":36,"name":"Tonio The Jester","steam_id":76561199489156825,"connected_time":751000000000,"state":"active","ping":59},{"user_id":29,"name":"judesro","steam_id":76561198352244888,"connected_time":994000000000,"state":"active","ping":55},{"user_id":22,"name":"JackAttacks143","steam_id":76561198971889483,"connected_time":1407000000000,"state":"active","ping":67},{"user_id":42,"name":"jenniferstephens66","steam_id":76561199454944595,"connected_time":361000000000,"state":"active","ping":64},{"user_id":25,"name":"GreatTimBones","steam_id":76561198409145748,"connected_time":1281000000000,"state":"active","ping":74},{"user_id":30,"name":"Malac","steam_id":76561198004482629,"connected_time":989000000000,"state":"active","ping":60},{"user_id":32,"name":"یار دبستانی من","steam_id":76561198148669224,"connected_time":981000000000,"state":"active","ping":49},{"user_id":33,"name":"Lovedaddy","steam_id":76561198006569710,"connected_time":971000000000,"state":"active","ping":71},{"user_id":44,"name":"cheesewall","steam_id":76561198355317374,"connected_time":280000000000,"state":"active","ping":60},{"user_id":41,"name":"Huntpk","steam_id":76561198340591674,"connected_time":511000000000,"state":"active","ping":36},{"user_id":43,"name":"green bean","steam_id":76561198113099204,"connected_time":336000000000,"state":"active","ping":89}]},{"server_id":403,"name":"Uncletopia | Chicago | 4 | All Maps","name_short":"chi-4","host":"chi-1.us.uncletopia.com","port":27045,"enabled":true,"region":"us-central","cc":"us","latitude":41.881832,"longitude":-87.62318,"reserved":0,"last_update":"0001-01-01T00:00:00Z","name_a2s":"Uncletopia | Chicago | 4 | All Maps","protocol":17,"map":"pl_swiftwater_final1","folder":"tf","game":"Team Fortress","app_id":440,"player_count":24,"max_players":24,"Bots":0,"server_type":"Dedicated","server_os":"Linux","password":true,"vac":true,"version":"7961495","steam_id":85568392924515193,"keywords":["nocrits","nodmgspread","payload","uncletopia"],"game_id":440,"stv_port":27046,"stv_name":"Uncletopia | Chicago | 4 | All Maps | STV","players":[{"user_id":133,"name":"[El Fail] MR.BadassMCLee","steam_id":76561198043787818,"connected_time":1285000000000,"state":"active","ping":104},{"user_id":144,"name":"krd","steam_id":76561198347660282,"connected_time":267000000000,"state":"active","ping":103},{"user_id":32,"name":"twitch.tv/kegaman_","steam_id":76561198043632775,"connected_time":8666000000000,"state":"active","ping":104},{"user_id":107,"name":"scot","steam_id":76561199097866312,"connected_time":2554000000000,"state":"active","ping":122},{"user_id":125,"name":"fruity","steam_id":76561198855810297,"connected_time":1793000000000,"state":"active","ping":73},{"user_id":120,"name":"Mer","steam_id":76561198192171041,"connected_time":2232000000000,"state":"active","ping":94},{"user_id":98,"name":"Weary","steam_id":76561198145767546,"connected_time":3072000000000,"state":"active","ping":64},{"user_id":105,"name":"THEY DONT KNOWWWWWW","steam_id":76561198062991744,"connected_time":2630000000000,"state":"active","ping":63},{"user_id":106,"name":"KrashBoomBang","steam_id":76561199002978777,"connected_time":2623000000000,"state":"active","ping":61},{"user_id":131,"name":"f2p player (no way)","steam_id":76561199491666080,"connected_time":1325000000000,"state":"active","ping":97},{"user_id":134,"name":"xylophone master","steam_id":76561198328109873,"connected_time":1265000000000,"state":"active","ping":73},{"user_id":146,"name":"stall","steam_id":76561199152861652,"connected_time":78000000000,"state":"active","ping":51},{"user_id":142,"name":"wack","steam_id":76561198095697330,"connected_time":402000000000,"state":"active","ping":85},{"user_id":132,"name":"MayKay","steam_id":76561199016092265,"connected_time":1321000000000,"state":"active","ping":91},{"user_id":121,"name":"SafetyInstructor","steam_id":76561199195205705,"connected_time":2164000000000,"state":"active","ping":72},{"user_id":138,"name":"lover","steam_id":76561198089852954,"connected_time":951000000000,"state":"active","ping":89},{"user_id":136,"name":"hyzer","steam_id":76561197988691093,"connected_time":1231000000000,"state":"active","ping":59},{"user_id":128,"name":"general.b","steam_id":76561198162480519,"connected_time":1636000000000,"state":"active","ping":58},{"user_id":143,"name":"Cooldog","steam_id":76561198080548713,"connected_time":322000000000,"state":"active","ping":60},{"user_id":80,"name":"gaming elliptical","steam_id":76561198013456569,"connected_time":5089000000000,"state":"active","ping":46},{"user_id":81,"name":"Fiendish Frog","steam_id":76561198029478821,"connected_time":5079000000000,"state":"active","ping":66},{"user_id":29,"name":"blast a hoe","steam_id":76561198294281809,"connected_time":8783000000000,"state":"active","ping":101},{"user_id":122,"name":"Deltaco","steam_id":76561198094572694,"connected_time":2076000000000,"state":"active","ping":116},{"user_id":139,"name":"Rhutebeer","steam_id":76561198018302761,"connected_time":828000000000,"state":"active","ping":90}]},{"server_id":36,"name":"Uncletopia | Chicago | 5 | All Maps","name_short":"chi-5","host":"chi-2.us.uncletopia.com","port":27015,"enabled":true,"region":"us-central","cc":"us","latitude":41.881832,"longitude":-87.62318,"reserved":0,"last_update":"0001-01-01T00:00:00Z","name_a2s":"Uncletopia | Chicago | 5 | All Maps","protocol":17,"map":"pl_borneo","folder":"tf","game":"Team Fortress","app_id":440,"player_count":0,"max_players":24,"Bots":0,"server_type":"Dedicated","server_os":"Linux","password":true,"vac":true,"version":"7961495","steam_id":85568392924866362,"keywords":["nocrits","nodmgspread","payload","uncletopia"],"game_id":440,"stv_port":27016,"stv_name":"Uncletopia | Chicago | 5 | All Maps | STV","players":null},{"server_id":37,"name":"Uncletopia | Chicago | 6 | All Maps","name_short":"chi-6","host":"chi-2.us.uncletopia.com","port":27025,"enabled":true,"region":"us-central","cc":"us","latitude":41.881832,"longitude":-87.62318,"reserved":0,"last_update":"0001-01-01T00:00:00Z","name_a2s":"Uncletopia | Chicago | 6 | All Maps","protocol":17,"map":"pl_borneo","folder":"tf","game":"Team Fortress","app_id":440,"player_count":0,"max_players":24,"Bots":0,"server_type":"Dedicated","server_os":"Linux","password":true,"vac":true,"version":"7961495","steam_id":85568392924866363,"keywords":["nocrits","nodmgspread","payload","uncletopia"],"game_id":440,"stv_port":27026,"stv_name":"Uncletopia | Chicago | 6 | All Maps | STV","players":null},{"server_id":38,"name":"Uncletopia | Chicago | 7 | Stopwatch","name_short":"chi-7","host":"chi-2.us.uncletopia.com","port":27035,"enabled":true,"region":"us-central","cc":"us","latitude":41.881832,"longitude":-87.62318,"reserved":0,"last_update":"0001-01-01T00:00:00Z","name_a2s":"Uncletopia | Chicago | 7 | Stopwatch","protocol":17,"map":"cp_snakewater_final1","folder":"tf","game":"Team Fortress","app_id":440,"player_count":0,"max_players":24,"Bots":0,"server_type":"Dedicated","server_os":"Linux","password":true,"vac":true,"version":"7961495","steam_id":85568392924866364,"keywords":["cp","nocrits","nodmgspread","uncletopia"],"game_id":440,"stv_port":27036,"stv_name":"Uncletopia | Chicago | 7 | Stopwatch | STV","players":null},{"server_id":39,"name":"Uncletopia | Chicago | 8 | Community","name_short":"chi-8","host":"chi-2.us.uncletopia.com","port":27045,"enabled":true,"region":"us-central","cc":"us","latitude":41.881832,"longitude":-87.62318,"reserved":0,"last_update":"0001-01-01T00:00:00Z","name_a2s":"Uncletopia | Chicago | 8 | Community","protocol":17,"map":"workshop/koth_slaughter_rc1.ugc1712845210","folder":"tf","game":"Team Fortress","app_id":440,"player_count":0,"max_players":24,"Bots":0,"server_type":"Dedicated","server_os":"Linux","password":true,"vac":true,"version":"7961495","steam_id":85568392924866365,"keywords":["cp","nocrits","nodmgspread","uncletopia"],"game_id":440,"stv_port":27046,"stv_name":"Uncletopia | Chicago | 8 | Community | STV","players":null},{"server_id":8,"name":"Uncletopia | Dallas | 1 | All Maps","name_short":"dal-1","host":"dal-1.us.uncletopia.com","port":27015,"enabled":true,"region":"us-central","cc":"us","latitude":32.779167,"longitude":-96.80889,"reserved":0,"last_update":"0001-01-01T00:00:00Z","name_a2s":"Uncletopia | Dallas | 1 | All Maps","protocol":17,"map":"pl_borneo","folder":"tf","game":"Team Fortress","app_id":440,"player_count":23,"max_players":24,"Bots":0,"server_type":"Dedicated","server_os":"Linux","password":true,"vac":true,"version":"7961495","steam_id":85568392924469986,"keywords":["nocrits","nodmgspread","payload","uncletopia"],"game_id":440,"stv_port":27016,"stv_name":"Uncletopia | Dallas | 1 | All Maps | STV","players":[{"user_id":31,"name":"Fresh Lychee","steam_id":76561198045399559,"connected_time":880000000000,"state":"active","ping":75},{"user_id":22,"name":"Your Loyal Familiar","steam_id":76561198106476075,"connected_time":1308000000000,"state":"active","ping":76},{"user_id":35,"name":"ZombieSlayer77","steam_id":76561199023974356,"connected_time":518000000000,"state":"active","ping":75},{"user_id":25,"name":"vastrobotmax","steam_id":76561198417110724,"connected_time":1124000000000,"state":"active","ping":90},{"user_id":36,"name":"Гена Цидхахлов","steam_id":76561198226779068,"connected_time":485000000000,"state":"active","ping":167},{"user_id":15,"name":"Yackaboi","steam_id":76561199444911765,"connected_time":1773000000000,"state":"active","ping":83},{"user_id":24,"name":"Stolas ♥","steam_id":76561198835430280,"connected_time":1235000000000,"state":"active","ping":56},{"user_id":37,"name":"A Straw","steam_id":76561199367935846,"connected_time":450000000000,"state":"active","ping":75},{"user_id":19,"name":"Captain Crunch","steam_id":76561199141538581,"connected_time":1517000000000,"state":"active","ping":75},{"user_id":26,"name":"Scumbudy","steam_id":76561198033824351,"connected_time":1030000000000,"state":"active","ping":62},{"user_id":27,"name":"The World's Softest Sandwich","steam_id":76561198015577707,"connected_time":988000000000,"state":"active","ping":77},{"user_id":33,"name":"pabbott123110","steam_id":76561199231739796,"connected_time":652000000000,"state":"active","ping":85},{"user_id":38,"name":"ono","steam_id":76561198024377986,"connected_time":380000000000,"state":"active","ping":72},{"user_id":39,"name":"DMM","steam_id":76561198065426171,"connected_time":373000000000,"state":"active","ping":55},{"user_id":45,"name":"Fish","steam_id":76561199016308078,"connected_time":142000000000,"state":"active","ping":89},{"user_id":41,"name":"K2f","steam_id":76561198049600563,"connected_time":277000000000,"state":"active","ping":67},{"user_id":42,"name":"gunch","steam_id":76561198029318657,"connected_time":183000000000,"state":"active","ping":36},{"user_id":43,"name":"effy","steam_id":76561198087137066,"connected_time":162000000000,"state":"active","ping":62},{"user_id":44,"name":"stevizzy","steam_id":76561198025653612,"connected_time":154000000000,"state":"active","ping":82},{"user_id":46,"name":"hey! lighten up buddy! :3","steam_id":76561198333985626,"connected_time":118000000000,"state":"active","ping":45},{"user_id":50,"name":"Butteryback","steam_id":76561198049642485,"connected_time":48000000000,"state":"active","ping":66},{"user_id":48,"name":"fatphobic (unless ass)","steam_id":76561197996908579,"connected_time":84000000000,"state":"active","ping":46},{"user_id":49,"name":"Transgender Guy Fieri","steam_id":76561198801467075,"connected_time":80000000000,"state":"active","ping":48}]},{"server_id":108,"name":"Uncletopia | Dallas | 2 | All Maps","name_short":"dal-2","host":"dal-1.us.uncletopia.com","port":27025,"enabled":true,"region":"us-central","cc":"us","latitude":32.779167,"longitude":-96.80889,"reserved":0,"last_update":"0001-01-01T00:00:00Z","name_a2s":"Uncletopia | Dallas | 2 | All Maps","protocol":17,"map":"cp_mountainlab","folder":"tf","game":"Team Fortress","app_id":440,"player_count":1,"max_players":24,"Bots":0,"server_type":"Dedicated","server_os":"Linux","password":true,"vac":true,"version":"7961495","steam_id":85568392924469988,"keywords":["cp","nocrits","nodmgspread","uncletopia"],"game_id":440,"stv_port":27026,"stv_name":"Uncletopia | Dallas | 2 | All Maps | STV","players":[{"user_id":6,"name":"Shisho","steam_id":76561198800199201,"connected_time":60000000000,"state":"spawning","ping":56}]},{"server_id":404,"name":"Uncletopia | Dallas | 3 | All Maps","name_short":"dal-3","host":"dal-1.us.uncletopia.com","port":27035,"enabled":true,"region":"us-central","cc":"us","latitude":32.779167,"longitude":-96.80889,"reserved":0,"last_update":"0001-01-01T00:00:00Z","name_a2s":"Uncletopia | Dallas | 3 | All Maps","protocol":17,"map":"koth_harvest_final","folder":"tf","game":"Team Fortress","app_id":440,"player_count":24,"max_players":24,"Bots":0,"server_type":"Dedicated","server_os":"Linux","password":true,"vac":true,"version":"7961495","steam_id":85568392924515219,"keywords":["cp","nocrits","nodmgspread","uncletopia"],"game_id":440,"stv_port":27036,"stv_name":"Uncletopia | Dallas | 3 | All Maps | STV","players":[{"user_id":75,"name":"fronk","steam_id":76561198065918918,"connected_time":906000000000,"state":"active","ping":32},{"user_id":72,"name":"An00bis","steam_id":76561198044084508,"connected_time":1005000000000,"state":"active","ping":62},{"user_id":9,"name":"Brokencommand","steam_id":76561198069868136,"connected_time":5231000000000,"state":"active","ping":60},{"user_id":17,"name":"Donkus","steam_id":76561198076654704,"connected_time":4414000000000,"state":"active","ping":77},{"user_id":84,"name":"The All-Seeing Tim","steam_id":76561198075510786,"connected_time":13000000000,"state":"active","ping":84},{"user_id":55,"name":"elephantofdoom","steam_id":76561198062436835,"connected_time":2767000000000,"state":"active","ping":77},{"user_id":18,"name":"Dr. Han","steam_id":76561198811130843,"connected_time":4337000000000,"state":"active","ping":87},{"user_id":76,"name":"Tuvok Shakur","steam_id":76561198018875334,"connected_time":822000000000,"state":"active","ping":59},{"user_id":20,"name":"Rin \"Hindwing\" Redtail","steam_id":76561199074865638,"connected_time":4182000000000,"state":"active","ping":49},{"user_id":52,"name":"AXELORDX","steam_id":76561198136639581,"connected_time":2966000000000,"state":"active","ping":66},{"user_id":62,"name":"hyazz","steam_id":76561199100342013,"connected_time":2155000000000,"state":"active","ping":78},{"user_id":70,"name":"my mom","steam_id":76561199225201569,"connected_time":1122000000000,"state":"active","ping":81},{"user_id":73,"name":"gretchling","steam_id":76561198046111695,"connected_time":992000000000,"state":"active","ping":45},{"user_id":74,"name":"VisciousPotato","steam_id":76561198992859414,"connected_time":968000000000,"state":"active","ping":125},{"user_id":71,"name":"Sahalanthro","steam_id":76561199073298722,"connected_time":1107000000000,"state":"active","ping":74},{"user_id":77,"name":"Gnaash","steam_id":76561198940657194,"connected_time":761000000000,"state":"active","ping":66},{"user_id":28,"name":"King","steam_id":76561198039763676,"connected_time":3984000000000,"state":"active","ping":85},{"user_id":42,"name":"Sweet Tooth","steam_id":76561198830158092,"connected_time":3619000000000,"state":"active","ping":74},{"user_id":78,"name":"The Notorious T.A.F.T.","steam_id":76561198073012352,"connected_time":729000000000,"state":"active","ping":47},{"user_id":49,"name":"Raz","steam_id":76561198002426150,"connected_time":3237000000000,"state":"active","ping":45},{"user_id":79,"name":"woof","steam_id":76561198016562343,"connected_time":720000000000,"state":"active","ping":82},{"user_id":34,"name":"slime ( ,'' w'' )","steam_id":76561198198984282,"connected_time":3893000000000,"state":"active","ping":100},{"user_id":85,"name":"Kick Down Door 6:00AM TUCK☃RO","steam_id":76561197976146738,"connected_time":1000000000,"state":"spawning","ping":49},{"user_id":81,"name":"All The King's Men","steam_id":76561198406265099,"connected_time":606000000000,"state":"active","ping":48}]},{"server_id":405,"name":"Uncletopia | Dallas | 4 | Community","name_short":"dal-4","host":"dal-1.us.uncletopia.com","port":27045,"enabled":true,"region":"us-central","cc":"us","latitude":32.779167,"longitude":-96.80889,"reserved":0,"last_update":"0001-01-01T00:00:00Z","name_a2s":"Uncletopia | Dallas | 4 | Community","protocol":17,"map":"workshop/koth_synthetic_rc6a.ugc1549817316","folder":"tf","game":"Team Fortress","app_id":440,"player_count":0,"max_players":24,"Bots":0,"server_type":"Dedicated","server_os":"Linux","password":true,"vac":true,"version":"7961495","steam_id":85568392924515220,"keywords":["cp","nocrits","nodmgspread","uncletopia"],"game_id":440,"stv_port":27046,"stv_name":"Uncletopia | Dallas | 4 | Community | STV","players":null},{"server_id":5,"name":"Uncletopia | Frankfurt | 1 | All Maps","name_short":"frk-1","host":"frk-1.de.uncletopia.com","port":27015,"enabled":true,"region":"eu","cc":"de","latitude":50.110924,"longitude":8.682127,"reserved":0,"last_update":"0001-01-01T00:00:00Z","name_a2s":"Uncletopia | Frankfurt | 1 | All Maps","protocol":17,"map":"pl_barnblitz","folder":"tf","game":"Team Fortress","app_id":440,"player_count":23,"max_players":24,"Bots":0,"server_type":"Dedicated","server_os":"Linux","password":true,"vac":true,"version":"7961495","steam_id":85568392924469989,"keywords":["nocrits","nodmgspread","payload","uncletopia"],"game_id":440,"stv_port":27016,"stv_name":"Uncletopia | Frankfurt | 1 | All Maps | STV","players":[{"user_id":462,"name":"Pvt. Prinny","steam_id":76561198030278562,"connected_time":3181000000000,"state":"active","ping":54},{"user_id":509,"name":"Nikoanker","steam_id":76561198090336068,"connected_time":521000000000,"state":"active","ping":44},{"user_id":517,"name":"PHANTOM","steam_id":76561199047116669,"connected_time":105000000000,"state":"active","ping":85},{"user_id":508,"name":"fl1p","steam_id":76561198148565659,"connected_time":551000000000,"state":"active","ping":72},{"user_id":468,"name":"compact disc","steam_id":76561198154677956,"connected_time":2328000000000,"state":"active","ping":62},{"user_id":516,"name":"Ryan","steam_id":76561199277806089,"connected_time":119000000000,"state":"active","ping":46},{"user_id":487,"name":"Great recession of 2008","steam_id":76561198881151562,"connected_time":1580000000000,"state":"active","ping":93},{"user_id":469,"name":"Haren som har","steam_id":76561198130191090,"connected_time":2324000000000,"state":"active","ping":64},{"user_id":440,"name":"Interview A","steam_id":76561199012566222,"connected_time":4069000000000,"state":"active","ping":45},{"user_id":511,"name":"MR BUBBLES","steam_id":76561198019005259,"connected_time":496000000000,"state":"active","ping":89},{"user_id":514,"name":"Carlo","steam_id":76561198276491098,"connected_time":207000000000,"state":"active","ping":64},{"user_id":477,"name":"Qwertuss","steam_id":76561198026305366,"connected_time":2155000000000,"state":"active","ping":45},{"user_id":498,"name":"Doriian","steam_id":76561198071438810,"connected_time":797000000000,"state":"active","ping":78},{"user_id":472,"name":"w","steam_id":76561198037136870,"connected_time":2273000000000,"state":"active","ping":67},{"user_id":512,"name":"Paciùg remover","steam_id":76561198035928111,"connected_time":379000000000,"state":"active","ping":64},{"user_id":442,"name":"swag","steam_id":76561198315371425,"connected_time":3979000000000,"state":"active","ping":55},{"user_id":481,"name":"emir","steam_id":76561198113089831,"connected_time":1925000000000,"state":"active","ping":90},{"user_id":478,"name":"Aso","steam_id":76561198209765705,"connected_time":2150000000000,"state":"active","ping":85},{"user_id":491,"name":"Zerfesh","steam_id":76561198117534358,"connected_time":1271000000000,"state":"active","ping":81},{"user_id":484,"name":"Marty™","steam_id":76561198060073673,"connected_time":1728000000000,"state":"active","ping":65},{"user_id":499,"name":"Brian","steam_id":76561198077756206,"connected_time":791000000000,"state":"active","ping":59},{"user_id":506,"name":"krishtanv","steam_id":76561198155492861,"connected_time":700000000000,"state":"active","ping":90},{"user_id":518,"name":"Kaisbald","steam_id":76561198151929487,"connected_time":88000000000,"state":"active","ping":90}]},{"server_id":110,"name":"Uncletopia | Frankfurt | 2 | All Maps","name_short":"frk-2","host":"frk-1.de.uncletopia.com","port":27025,"enabled":true,"region":"eu","cc":"de","latitude":50.110924,"longitude":8.682127,"reserved":0,"last_update":"0001-01-01T00:00:00Z","name_a2s":"Uncletopia | Frankfurt | 2 | All Maps","protocol":17,"map":"pl_barnblitz","folder":"tf","game":"Team Fortress","app_id":440,"player_count":23,"max_players":24,"Bots":0,"server_type":"Dedicated","server_os":"Linux","password":true,"vac":true,"version":"7961495","steam_id":85568392924469990,"keywords":["nocrits","nodmgspread","payload","uncletopia"],"game_id":440,"stv_port":27026,"stv_name":"Uncletopia | Frankfurt | 2 | All Maps | STV","players":[{"user_id":426,"name":"TJ1212","steam_id":76561199013575313,"connected_time":495000000000,"state":"active","ping":64},{"user_id":383,"name":"Gator","steam_id":76561198065624683,"connected_time":4074000000000,"state":"active","ping":69},{"user_id":297,"name":"LordTrap.exe","steam_id":76561198318089716,"connected_time":10538000000000,"state":"active","ping":67},{"user_id":406,"name":"TrueChaos","steam_id":76561198280651661,"connected_time":2459000000000,"state":"active","ping":135},{"user_id":385,"name":"Razef","steam_id":76561198030309484,"connected_time":3833000000000,"state":"active","ping":46},{"user_id":405,"name":"SGT Angel","steam_id":76561197971585796,"connected_time":2537000000000,"state":"active","ping":52},{"user_id":407,"name":"DJpocalypse","steam_id":76561199230125964,"connected_time":2291000000000,"state":"active","ping":170},{"user_id":386,"name":"ImABush","steam_id":76561198304471896,"connected_time":3806000000000,"state":"active","ping":52},{"user_id":436,"name":"Milca_11","steam_id":76561198848650365,"connected_time":74000000000,"state":"active","ping":98},{"user_id":419,"name":"dvn","steam_id":76561198119495788,"connected_time":1194000000000,"state":"active","ping":76},{"user_id":423,"name":"bart","steam_id":76561198025395216,"connected_time":828000000000,"state":"active","ping":55},{"user_id":409,"name":"Prox","steam_id":76561198351490981,"connected_time":2224000000000,"state":"active","ping":56},{"user_id":437,"name":"not a nihilist","steam_id":76561198004340466,"connected_time":63000000000,"state":"active","ping":55},{"user_id":410,"name":"Felwo3","steam_id":76561199217352978,"connected_time":2214000000000,"state":"active","ping":77},{"user_id":388,"name":"Caliban","steam_id":76561197999696839,"connected_time":3707000000000,"state":"active","ping":101},{"user_id":429,"name":"Dolcelatte","steam_id":76561198038501770,"connected_time":226000000000,"state":"active","ping":54},{"user_id":430,"name":"mq","steam_id":76561198091888948,"connected_time":159000000000,"state":"active","ping":51},{"user_id":424,"name":"Nuuskis","steam_id":76561198084042012,"connected_time":751000000000,"state":"active","ping":92},{"user_id":432,"name":"executive producer larry david","steam_id":76561198057868438,"connected_time":133000000000,"state":"active","ping":52},{"user_id":368,"name":"[UM-monster","steam_id":76561198085098243,"connected_time":5492000000000,"state":"active","ping":96},{"user_id":425,"name":"Joo ♦","steam_id":76561197987609203,"connected_time":567000000000,"state":"active","ping":77},{"user_id":421,"name":"VW Golf MK2 GTI","steam_id":76561199250808808,"connected_time":1165000000000,"state":"active","ping":74},{"user_id":416,"name":"donatofina","steam_id":76561198353497885,"connected_time":1518000000000,"state":"active","ping":89}]},{"server_id":308,"name":"Uncletopia | Frankfurt | 3 | All Maps","name_short":"frk-3","host":"frk-1.de.uncletopia.com","port":27035,"enabled":true,"region":"eu","cc":"de","latitude":50.110924,"longitude":8.682127,"reserved":0,"last_update":"0001-01-01T00:00:00Z","name_a2s":"Uncletopia | Frankfurt | 3 | All Maps","protocol":17,"map":"koth_highpass","folder":"tf","game":"Team Fortress","app_id":440,"player_count":0,"max_players":24,"Bots":0,"server_type":"Dedicated","server_os":"Linux","password":true,"vac":true,"version":"7961495","steam_id":85568392924504274,"keywords":["cp","nocrits","nodmgspread","uncletopia"],"game_id":440,"stv_port":27036,"stv_name":"Uncletopia | Frankfurt | 3 | All Maps | STV","players":null},{"server_id":309,"name":"Uncletopia | Frankfurt | 4 | All Maps","name_short":"frk-4","host":"frk-1.de.uncletopia.com","port":27045,"enabled":true,"region":"eu","cc":"de","latitude":50.110924,"longitude":8.682127,"reserved":0,"last_update":"0001-01-01T00:00:00Z","name_a2s":"Uncletopia | Frankfurt | 4 | All Maps","protocol":17,"map":"pl_borneo","folder":"tf","game":"Team Fortress","app_id":440,"player_count":22,"max_players":24,"Bots":0,"server_type":"Dedicated","server_os":"Linux","password":true,"vac":true,"version":"7961495","steam_id":85568392924504275,"keywords":["nocrits","nodmgspread","payload","uncletopia"],"game_id":440,"stv_port":27046,"stv_name":"Uncletopia | Frankfurt | 4 | All Maps | STV","players":[{"user_id":354,"name":"Waazard","steam_id":76561198383923159,"connected_time":2485000000000,"state":"active","ping":74},{"user_id":323,"name":"yeL7owore","steam_id":76561198160173286,"connected_time":5482000000000,"state":"active","ping":90},{"user_id":302,"name":"CAR DOOR","steam_id":76561198055283295,"connected_time":6356000000000,"state":"active","ping":48},{"user_id":349,"name":"gart","steam_id":76561198203394358,"connected_time":3448000000000,"state":"active","ping":100},{"user_id":367,"name":"Mega Man Legends 3","steam_id":76561198014110199,"connected_time":1726000000000,"state":"active","ping":45},{"user_id":380,"name":"darke","steam_id":76561198211553036,"connected_time":783000000000,"state":"active","ping":79},{"user_id":389,"name":"nordstream bomber","steam_id":76561199401283123,"connected_time":524000000000,"state":"active","ping":53},{"user_id":379,"name":"dawgamez","steam_id":76561198089293509,"connected_time":973000000000,"state":"active","ping":165},{"user_id":373,"name":"spillr-.-","steam_id":76561198031330889,"connected_time":1258000000000,"state":"active","ping":48},{"user_id":387,"name":"kenzou","steam_id":76561199180054996,"connected_time":591000000000,"state":"active","ping":54},{"user_id":356,"name":"Khaganfriend","steam_id":76561198998684199,"connected_time":2455000000000,"state":"active","ping":120},{"user_id":369,"name":"一龙马","steam_id":76561198364121077,"connected_time":1649000000000,"state":"active","ping":76},{"user_id":385,"name":"famous guy","steam_id":76561198299358137,"connected_time":622000000000,"state":"active","ping":126},{"user_id":392,"name":"rons3n","steam_id":76561197993631294,"connected_time":53000000000,"state":"active","ping":56},{"user_id":345,"name":"bestuan","steam_id":76561199083610617,"connected_time":3596000000000,"state":"active","ping":127},{"user_id":312,"name":"Mr_Pulse_","steam_id":76561198095001602,"connected_time":6094000000000,"state":"active","ping":95},{"user_id":325,"name":"Toasty5050","steam_id":76561198073540881,"connected_time":5093000000000,"state":"active","ping":44},{"user_id":326,"name":"Rimx","steam_id":76561198053034840,"connected_time":5088000000000,"state":"active","ping":77},{"user_id":378,"name":"Michael","steam_id":76561198003146906,"connected_time":1013000000000,"state":"active","ping":62},{"user_id":319,"name":"valley e-girl","steam_id":76561197994492154,"connected_time":5894000000000,"state":"active","ping":60},{"user_id":390,"name":"Ablativus","steam_id":76561198025698470,"connected_time":305000000000,"state":"active","ping":69},{"user_id":388,"name":"Donovun","steam_id":76561198369382759,"connected_time":582000000000,"state":"active","ping":106}]},{"server_id":310,"name":"Uncletopia | Frankfurt | 5 | All Maps","name_short":"frk-5","host":"frk-1.de.uncletopia.com","port":27055,"enabled":true,"region":"eu","cc":"de","latitude":50.110924,"longitude":8.682127,"reserved":0,"last_update":"0001-01-01T00:00:00Z","name_a2s":"Uncletopia | Frankfurt | 5 | All Maps","protocol":17,"map":"cp_process_final","folder":"tf","game":"Team Fortress","app_id":440,"player_count":0,"max_players":24,"Bots":0,"server_type":"Dedicated","server_os":"Linux","password":true,"vac":true,"version":"7961495","steam_id":85568392924504277,"keywords":["cp","nocrits","nodmgspread","uncletopia"],"game_id":440,"stv_port":27056,"stv_name":"Uncletopia | Frankfurt | 5 | All Maps | STV","players":null},{"server_id":311,"name":"Uncletopia | Frankfurt | 6 | All Maps","name_short":"frk-6","host":"frk-1.de.uncletopia.com","port":27065,"enabled":true,"region":"eu","cc":"de","latitude":50.110924,"longitude":8.682127,"reserved":0,"last_update":"0001-01-01T00:00:00Z","name_a2s":"Uncletopia | Frankfurt | 6 | All Maps","protocol":17,"map":"pl_borneo","folder":"tf","game":"Team Fortress","app_id":440,"player_count":12,"max_players":24,"Bots":0,"server_type":"Dedicated","server_os":"Linux","password":true,"vac":true,"version":"7961495","steam_id":85568392924504278,"keywords":["nocrits","nodmgspread","payload","uncletopia"],"game_id":440,"stv_port":27066,"stv_name":"Uncletopia | Frankfurt | 6 | All Maps | STV","players":[{"user_id":231,"name":"Ghaghina","steam_id":76561199278537900,"connected_time":250000000000,"state":"active","ping":52},{"user_id":232,"name":"stefanbejenari","steam_id":76561199466718294,"connected_time":11000000000,"state":"spawning","ping":94},{"user_id":218,"name":"vividatant","steam_id":76561198367913885,"connected_time":1463000000000,"state":"active","ping":55},{"user_id":143,"name":"Optimist 50","steam_id":76561198039631442,"connected_time":6864000000000,"state":"active","ping":78},{"user_id":150,"name":"YuraGreek","steam_id":76561198050182252,"connected_time":6340000000000,"state":"active","ping":74},{"user_id":213,"name":"galaxy","steam_id":76561198164819022,"connected_time":1647000000000,"state":"active","ping":56},{"user_id":180,"name":"jona3838","steam_id":76561199097658195,"connected_time":4190000000000,"state":"active","ping":99},{"user_id":217,"name":"cuddles","steam_id":76561198805181599,"connected_time":1479000000000,"state":"active","ping":55},{"user_id":216,"name":"giacomellow","steam_id":76561197994027661,"connected_time":1497000000000,"state":"active","ping":45},{"user_id":224,"name":"Ilsagar","steam_id":76561198182957762,"connected_time":1276000000000,"state":"active","ping":125},{"user_id":148,"name":"Siegmeyer","steam_id":76561198328543549,"connected_time":6569000000000,"state":"active","ping":78},{"user_id":225,"name":"LeTomZer","steam_id":76561199118933837,"connected_time":1269000000000,"state":"active","ping":52}]},{"server_id":23,"name":"Uncletopia | Frankfurt | 7 | Stopwatch","name_short":"frk-7","host":"frk-1.de.uncletopia.com","port":27075,"enabled":true,"region":"eu","cc":"de","latitude":50.110924,"longitude":8.682127,"reserved":0,"last_update":"0001-01-01T00:00:00Z","name_a2s":"Uncletopia | Frankfurt | 7 | Stopwatch","protocol":17,"map":"koth_highpass","folder":"tf","game":"Team Fortress","app_id":440,"player_count":0,"max_players":24,"Bots":0,"server_type":"Dedicated","server_os":"Linux","password":true,"vac":true,"version":"7961495","steam_id":85568392924742827,"keywords":["cp","nocrits","nodmgspread","uncletopia"],"game_id":440,"stv_port":27076,"stv_name":"Uncletopia | Frankfurt | 7 | Stopwatch | STV","players":null},{"server_id":24,"name":"Uncletopia | Frankfurt | 8 | Community","name_short":"frk-8","host":"frk-1.de.uncletopia.com","port":27085,"enabled":true,"region":"eu","cc":"de","latitude":50.110924,"longitude":8.682127,"reserved":0,"last_update":"0001-01-01T00:00:00Z","name_a2s":"Uncletopia | Frankfurt | 8 | Community","protocol":17,"map":"workshop/koth_ashville_final.ugc2130459942","folder":"tf","game":"Team Fortress","app_id":440,"player_count":0,"max_players":24,"Bots":0,"server_type":"Dedicated","server_os":"Linux","password":true,"vac":true,"version":"7961495","steam_id":85568392924742828,"keywords":["cp","nocrits","nodmgspread","uncletopia"],"game_id":440,"stv_port":27086,"stv_name":"Uncletopia | Frankfurt | 8 | Community | STV","players":null},{"server_id":202,"name":"Uncletopia | Hong Kong | 1 | All Maps","name_short":"hgk-1","host":"hgk-1.hk.uncletopia.com","port":27015,"enabled":true,"region":"asia","cc":"hk","latitude":22.302711,"longitude":114.177216,"reserved":0,"last_update":"0001-01-01T00:00:00Z","name_a2s":"Uncletopia | Hong Kong | 1 | All Maps","protocol":17,"map":"pl_pier","folder":"tf","game":"Team Fortress","app_id":440,"player_count":24,"max_players":24,"Bots":0,"server_type":"Dedicated","server_os":"Linux","password":true,"vac":true,"version":"7961495","steam_id":85568392924494504,"keywords":["nocrits","nodmgspread","payload","uncletopia"],"game_id":440,"stv_port":27016,"stv_name":"Uncletopia | Hong Kong | 1 | All Maps | STV","players":[{"user_id":994,"name":"蠢脸骑士脸不蠢","steam_id":76561198422372840,"connected_time":2798000000000,"state":"active","ping":50},{"user_id":997,"name":"SJ_Weeb","steam_id":76561198138045597,"connected_time":2264000000000,"state":"active","ping":88},{"user_id":1016,"name":"oramge kbity (eepy)","steam_id":76561199039424416,"connected_time":1125000000000,"state":"active","ping":133},{"user_id":1000,"name":"Wolf","steam_id":76561199073961838,"connected_time":1983000000000,"state":"active","ping":63},{"user_id":985,"name":"toad♡","steam_id":76561198082199290,"connected_time":3397000000000,"state":"active","ping":45},{"user_id":984,"name":"StewBツ","steam_id":76561198131423270,"connected_time":3436000000000,"state":"active","ping":62},{"user_id":1030,"name":"Gaz","steam_id":76561199081356069,"connected_time":828000000000,"state":"active","ping":137},{"user_id":955,"name":"tiden2000","steam_id":76561198092969425,"connected_time":6539000000000,"state":"active","ping":66},{"user_id":975,"name":"nanau","steam_id":76561199166938276,"connected_time":3944000000000,"state":"active","ping":68},{"user_id":940,"name":"Gab","steam_id":76561198863909723,"connected_time":8064000000000,"state":"active","ping":63},{"user_id":1037,"name":"ClownOnVoidz","steam_id":76561198954246047,"connected_time":88000000000,"state":"active","ping":76},{"user_id":941,"name":"ryder","steam_id":76561198797699056,"connected_time":7977000000000,"state":"active","ping":105},{"user_id":1007,"name":"killman47","steam_id":76561198348487408,"connected_time":1612000000000,"state":"active","ping":43},{"user_id":1027,"name":"no vc no c","steam_id":76561197989503095,"connected_time":945000000000,"state":"active","ping":92},{"user_id":1036,"name":"BMW M3 E36","steam_id":76561198871228706,"connected_time":736000000000,"state":"active","ping":84},{"user_id":986,"name":"monkeyman536","steam_id":76561197997717737,"connected_time":3357000000000,"state":"active","ping":115},{"user_id":990,"name":"14","steam_id":76561198113401862,"connected_time":3126000000000,"state":"active","ping":91},{"user_id":1033,"name":"fanom","steam_id":76561197964557720,"connected_time":804000000000,"state":"active","ping":178},{"user_id":1006,"name":"popin","steam_id":76561198065106212,"connected_time":1706000000000,"state":"active","ping":86},{"user_id":1038,"name":"снакс","steam_id":76561199214112321,"connected_time":79000000000,"state":"active","ping":94},{"user_id":1020,"name":"hhh","steam_id":76561198095278714,"connected_time":1066000000000,"state":"active","ping":45},{"user_id":1034,"name":"Bil","steam_id":76561198273543016,"connected_time":761000000000,"state":"active","ping":101},{"user_id":1011,"name":"Samoyed","steam_id":76561198299150410,"connected_time":1393000000000,"state":"active","ping":84},{"user_id":1035,"name":"巨大なコック","steam_id":76561199508008463,"connected_time":758000000000,"state":"active","ping":107}]},{"server_id":1,"name":"Uncletopia | Los Angeles | 1 | All Maps","name_short":"lax-1","host":"lax-1.us.uncletopia.com","port":27015,"enabled":true,"region":"us-west","cc":"us","latitude":33.94279,"longitude":-118.41004,"reserved":0,"last_update":"0001-01-01T00:00:00Z","name_a2s":"Uncletopia | Los Angeles | 1 | All Maps","protocol":17,"map":"koth_cascade","folder":"tf","game":"Team Fortress","app_id":440,"player_count":3,"max_players":24,"Bots":0,"server_type":"Dedicated","server_os":"Linux","password":true,"vac":true,"version":"7961495","steam_id":85568392924469991,"keywords":["cp","nocrits","nodmgspread","uncletopia"],"game_id":440,"stv_port":27016,"stv_name":"Uncletopia | Los Angeles | 1 | All Maps | STV","players":[{"user_id":6,"name":"Kkirkland6","steam_id":76561199259050037,"connected_time":537000000000,"state":"active","ping":97},{"user_id":5,"name":"Mike1225","steam_id":76561198861615835,"connected_time":545000000000,"state":"active","ping":123},{"user_id":7,"name":"kirklandjacob01","steam_id":76561199258746330,"connected_time":454000000000,"state":"active","ping":105}]},{"server_id":112,"name":"Uncletopia | Los Angeles | 2 | All Maps","name_short":"lax-2","host":"lax-1.us.uncletopia.com","port":27025,"enabled":true,"region":"us-west","cc":"us","latitude":33.94279,"longitude":-118.41004,"reserved":0,"last_update":"0001-01-01T00:00:00Z","name_a2s":"Uncletopia | Los Angeles | 2 | All Maps","protocol":17,"map":"koth_cascade","folder":"tf","game":"Team Fortress","app_id":440,"player_count":0,"max_players":24,"Bots":0,"server_type":"Dedicated","server_os":"Linux","password":true,"vac":true,"version":"7961495","steam_id":85568392924469992,"keywords":["cp","nocrits","nodmgspread","uncletopia"],"game_id":440,"stv_port":27026,"stv_name":"Uncletopia | Los Angeles | 2 | All Maps | STV","players":null},{"server_id":324,"name":"Uncletopia | Los Angeles | 3 | All Maps","name_short":"lax-3","host":"lax-1.us.uncletopia.com","port":27035,"enabled":true,"region":"us-west","cc":"us","latitude":33.94279,"longitude":-118.41004,"reserved":0,"last_update":"0001-01-01T00:00:00Z","name_a2s":"Uncletopia | Los Angeles | 3 | All Maps","protocol":17,"map":"koth_brazil","folder":"tf","game":"Team Fortress","app_id":440,"player_count":2,"max_players":24,"Bots":0,"server_type":"Dedicated","server_os":"Linux","password":true,"vac":true,"version":"7961495","steam_id":85568392924510198,"keywords":["cp","nocrits","nodmgspread","uncletopia"],"game_id":440,"stv_port":27036,"stv_name":"Uncletopia | Los Angeles | 3 | All Maps | STV","players":[{"user_id":4,"name":"asm_ghost","steam_id":76561199205363547,"connected_time":2111000000000,"state":"active","ping":62},{"user_id":5,"name":"The Gremlin","steam_id":76561198419066993,"connected_time":2109000000000,"state":"active","ping":67}]},{"server_id":25,"name":"Uncletopia | Los Angeles | 4 | Stopwatch","name_short":"lax-4","host":"lax-1.us.uncletopia.com","port":27045,"enabled":true,"region":"us-west","cc":"us","latitude":33.94279,"longitude":-118.41004,"reserved":0,"last_update":"0001-01-01T00:00:00Z","name_a2s":"Uncletopia | Los Angeles | 4 | Stopwatch","protocol":17,"map":"workshop/koth_ashville_final.ugc2130459942","folder":"tf","game":"Team Fortress","app_id":440,"player_count":1,"max_players":24,"Bots":0,"server_type":"Dedicated","server_os":"Linux","password":true,"vac":true,"version":"7961495","steam_id":85568392924510199,"keywords":["cp","nocrits","nodmgspread","uncletopia"],"game_id":440,"stv_port":27046,"stv_name":"Uncletopia | Los Angeles | 4 | Stopwatch | STV","players":[{"user_id":8,"name":"BECAUSE YOU'RE BLACK","steam_id":76561199093893813,"connected_time":2000000000,"state":"spawning","ping":174}]},{"server_id":11,"name":"Uncletopia | London | 1 | All Maps","name_short":"lon-1","host":"lon-1.uk.uncletopia.com","port":27015,"enabled":true,"region":"eu","cc":"gb","latitude":51.509865,"longitude":-0.118092,"reserved":0,"last_update":"0001-01-01T00:00:00Z","name_a2s":"Uncletopia | London | 1 | All Maps","protocol":17,"map":"pl_upward","folder":"tf","game":"Team Fortress","app_id":440,"player_count":24,"max_players":24,"Bots":0,"server_type":"Dedicated","server_os":"Linux","password":true,"vac":true,"version":"7961495","steam_id":85568392924367362,"keywords":["nocrits","nodmgspread","payload","uncletopia"],"game_id":440,"stv_port":27016,"stv_name":"Uncletopia | London | 1 | All Maps | STV","players":[{"user_id":696,"name":"⚧aura⚧","steam_id":76561198066258544,"connected_time":1235000000000,"state":"active","ping":62},{"user_id":686,"name":"WMP™","steam_id":76561198001376594,"connected_time":1645000000000,"state":"active","ping":76},{"user_id":572,"name":"ChikChak","steam_id":76561198010518376,"connected_time":6274000000000,"state":"active","ping":49},{"user_id":651,"name":"gnarly business","steam_id":76561198832688767,"connected_time":4071000000000,"state":"active","ping":47},{"user_id":687,"name":"kastanomata","steam_id":76561198271832763,"connected_time":1483000000000,"state":"active","ping":72},{"user_id":699,"name":"swatton","steam_id":76561198875537106,"connected_time":857000000000,"state":"active","ping":60},{"user_id":688,"name":":3","steam_id":76561198169471853,"connected_time":1431000000000,"state":"active","ping":40},{"user_id":689,"name":"Pablo","steam_id":76561198129035532,"connected_time":1426000000000,"state":"active","ping":49},{"user_id":692,"name":"smell_my_cheese","steam_id":76561198008517427,"connected_time":1389000000000,"state":"active","ping":47},{"user_id":691,"name":"TheColdChiliPepper","steam_id":76561199027155811,"connected_time":1396000000000,"state":"active","ping":151},{"user_id":665,"name":"mr.resetti","steam_id":76561198974520642,"connected_time":3148000000000,"state":"active","ping":66},{"user_id":702,"name":"dec","steam_id":76561198009660168,"connected_time":486000000000,"state":"active","ping":60},{"user_id":706,"name":"Anri Okita's Massive Milkers","steam_id":76561199186352720,"connected_time":455000000000,"state":"active","ping":72},{"user_id":570,"name":"Mich2L","steam_id":76561198015423985,"connected_time":6290000000000,"state":"active","ping":81},{"user_id":523,"name":"Ullr","steam_id":76561198140547483,"connected_time":9380000000000,"state":"active","ping":45},{"user_id":694,"name":"unconditional love","steam_id":76561199026097466,"connected_time":1384000000000,"state":"active","ping":73},{"user_id":695,"name":"tntisbased","steam_id":76561198371466555,"connected_time":1376000000000,"state":"active","ping":45},{"user_id":637,"name":"Cöffee","steam_id":76561198115131952,"connected_time":4344000000000,"state":"active","ping":97},{"user_id":673,"name":"Citrus","steam_id":76561198090650837,"connected_time":2648000000000,"state":"active","ping":41},{"user_id":707,"name":"Visphiric - All Muted","steam_id":76561198071938027,"connected_time":455000000000,"state":"active","ping":38},{"user_id":658,"name":"Turek","steam_id":76561198280066503,"connected_time":3889000000000,"state":"active","ping":79},{"user_id":701,"name":"Froenzi","steam_id":76561198168841723,"connected_time":789000000000,"state":"active","ping":50},{"user_id":703,"name":"Alexandre","steam_id":76561198121784446,"connected_time":486000000000,"state":"active","ping":38}]},{"server_id":114,"name":"Uncletopia | London | 2 | All Maps","name_short":"lon-2","host":"lon-1.uk.uncletopia.com","port":27025,"enabled":true,"region":"eu","cc":"gb","latitude":51.509865,"longitude":-0.118092,"reserved":0,"last_update":"0001-01-01T00:00:00Z","name_a2s":"Uncletopia | London | 2 | All Maps","protocol":17,"map":"cp_metalworks","folder":"tf","game":"Team Fortress","app_id":440,"player_count":23,"max_players":24,"Bots":0,"server_type":"Dedicated","server_os":"Linux","password":true,"vac":true,"version":"7961495","steam_id":85568392924470941,"keywords":["cp","nocrits","nodmgspread","uncletopia"],"game_id":440,"stv_port":27026,"stv_name":"Uncletopia | London | 2 | All Maps | STV","players":[{"user_id":372,"name":"Tort","steam_id":76561198329646769,"connected_time":3497000000000,"state":"active","ping":43},{"user_id":367,"name":"❖ RazzorBee","steam_id":76561198092493838,"connected_time":3569000000000,"state":"active","ping":105},{"user_id":368,"name":"Glitchas","steam_id":76561198883610618,"connected_time":3567000000000,"state":"active","ping":90},{"user_id":369,"name":"Haghehog","steam_id":76561198075729793,"connected_time":3564000000000,"state":"active","ping":120},{"user_id":388,"name":"Dzieciol","steam_id":76561198160237556,"connected_time":2087000000000,"state":"active","ping":78},{"user_id":370,"name":"ArPapar","steam_id":76561198327540328,"connected_time":3558000000000,"state":"active","ping":105},{"user_id":413,"name":"Ween :0","steam_id":76561198073607799,"connected_time":293000000000,"state":"active","ping":55},{"user_id":361,"name":"LuckyHappyGuy","steam_id":76561198353023996,"connected_time":4057000000000,"state":"active","ping":62},{"user_id":365,"name":"john fortress","steam_id":76561198013237629,"connected_time":3637000000000,"state":"active","ping":90},{"user_id":389,"name":"tiamat","steam_id":76561198116027948,"connected_time":2071000000000,"state":"active","ping":70},{"user_id":410,"name":"billybull2012","steam_id":76561198797266244,"connected_time":587000000000,"state":"active","ping":82},{"user_id":396,"name":"Mr. Hunts","steam_id":76561197981910397,"connected_time":1837000000000,"state":"active","ping":65},{"user_id":417,"name":"Shrimpeee","steam_id":76561199012689768,"connected_time":229000000000,"state":"active","ping":57},{"user_id":401,"name":"Mafew","steam_id":76561198119993886,"connected_time":1455000000000,"state":"active","ping":59},{"user_id":397,"name":"^1MARAMA PALEX","steam_id":76561198311372563,"connected_time":1817000000000,"state":"active","ping":75},{"user_id":387,"name":"General Grievous","steam_id":76561198087800030,"connected_time":2092000000000,"state":"active","ping":30},{"user_id":419,"name":"BonnieDrag","steam_id":76561199149216429,"connected_time":101000000000,"state":"active","ping":73},{"user_id":415,"name":"LaserDisc_","steam_id":76561198048461220,"connected_time":260000000000,"state":"active","ping":75},{"user_id":416,"name":"Javier dorsaless","steam_id":76561198179324075,"connected_time":250000000000,"state":"active","ping":60},{"user_id":418,"name":"pootis sentry","steam_id":76561199225363633,"connected_time":129000000000,"state":"active","ping":90},{"user_id":409,"name":"toad (ungodly gigantic)","steam_id":76561198870327755,"connected_time":676000000000,"state":"active","ping":80},{"user_id":394,"name":"sam_","steam_id":76561198814734120,"connected_time":1942000000000,"state":"active","ping":103},{"user_id":403,"name":"[dopijus]","steam_id":76561198943009513,"connected_time":1140000000000,"state":"active","ping":94}]},{"server_id":320,"name":"Uncletopia | London | 3 | All Maps","name_short":"lon-3","host":"lon-1.uk.uncletopia.com","port":27035,"enabled":true,"region":"eu","cc":"gb","latitude":51.509865,"longitude":-0.118092,"reserved":0,"last_update":"0001-01-01T00:00:00Z","name_a2s":"Uncletopia | London | 3 | All Maps","protocol":17,"map":"pl_upward","folder":"tf","game":"Team Fortress","app_id":440,"player_count":20,"max_players":24,"Bots":0,"server_type":"Dedicated","server_os":"Linux","password":true,"vac":true,"version":"7961495","steam_id":85568392924510192,"keywords":["nocrits","nodmgspread","payload","uncletopia"],"game_id":440,"stv_port":27036,"stv_name":"Uncletopia | London | 3 | All Maps | STV","players":[{"user_id":279,"name":"Wardruna96","steam_id":76561199057083828,"connected_time":918000000000,"state":"active","ping":75},{"user_id":283,"name":"ozera baikal","steam_id":76561198127123106,"connected_time":252000000000,"state":"active","ping":61},{"user_id":242,"name":"gamerkiddo","steam_id":76561198047380360,"connected_time":3808000000000,"state":"active","ping":45},{"user_id":229,"name":"Saul Badman","steam_id":76561199013233409,"connected_time":4482000000000,"state":"active","ping":39},{"user_id":286,"name":"DrExplosive","steam_id":76561198063678579,"connected_time":149000000000,"state":"active","ping":50},{"user_id":258,"name":"Avocado","steam_id":76561199007231261,"connected_time":2709000000000,"state":"active","ping":63},{"user_id":250,"name":"Rejdory","steam_id":76561198416604100,"connected_time":3184000000000,"state":"active","ping":67},{"user_id":288,"name":"scoutcasper","steam_id":76561199019266022,"connected_time":105000000000,"state":"active","ping":48},{"user_id":289,"name":"mary","steam_id":76561198014828037,"connected_time":100000000000,"state":"active","ping":58},{"user_id":184,"name":"I jazzed myself","steam_id":76561198203016603,"connected_time":7416000000000,"state":"active","ping":48},{"user_id":214,"name":"free back real estate","steam_id":76561197999437155,"connected_time":5440000000000,"state":"active","ping":44},{"user_id":280,"name":"Mandrew","steam_id":76561198158481382,"connected_time":908000000000,"state":"active","ping":165},{"user_id":290,"name":"kinimon","steam_id":76561198178453270,"connected_time":65000000000,"state":"active","ping":41},{"user_id":276,"name":"socaramel","steam_id":76561197984480336,"connected_time":1099000000000,"state":"active","ping":73},{"user_id":270,"name":"Dr. Funkenstein","steam_id":76561197977816210,"connected_time":2038000000000,"state":"active","ping":52},{"user_id":259,"name":"Kaza","steam_id":76561198033509686,"connected_time":2705000000000,"state":"active","ping":55},{"user_id":142,"name":"Plop_","steam_id":76561198112567921,"connected_time":9081000000000,"state":"active","ping":40},{"user_id":247,"name":"IoN","steam_id":76561199405317937,"connected_time":3305000000000,"state":"active","ping":46},{"user_id":257,"name":"snacks","steam_id":76561198184674173,"connected_time":2750000000000,"state":"active","ping":85},{"user_id":281,"name":"Abbe","steam_id":76561198066947112,"connected_time":867000000000,"state":"active","ping":65}]},{"server_id":321,"name":"Uncletopia | London | 4 | All Maps","name_short":"lon-4","host":"lon-1.uk.uncletopia.com","port":27045,"enabled":true,"region":"eu","cc":"gb","latitude":51.509865,"longitude":-0.118092,"reserved":0,"last_update":"0001-01-01T00:00:00Z","name_a2s":"Uncletopia | London | 4 | All Maps","protocol":17,"map":"pl_pier","folder":"tf","game":"Team Fortress","app_id":440,"player_count":21,"max_players":24,"Bots":0,"server_type":"Dedicated","server_os":"Linux","password":true,"vac":true,"version":"7961495","steam_id":85568392924510193,"keywords":["nocrits","nodmgspread","payload","uncletopia"],"game_id":440,"stv_port":27046,"stv_name":"Uncletopia | London | 4 | All Maps | STV","players":[{"user_id":329,"name":"Smartest Person In the Universe","steam_id":76561199444636848,"connected_time":116000000000,"state":"active","ping":76},{"user_id":328,"name":"RedMoose555","steam_id":76561198936369385,"connected_time":221000000000,"state":"active","ping":58},{"user_id":299,"name":"Im the captain now","steam_id":76561198119476663,"connected_time":1306000000000,"state":"active","ping":74},{"user_id":330,"name":"Waltism","steam_id":76561199447676489,"connected_time":106000000000,"state":"active","ping":92},{"user_id":296,"name":"RIBS GROW BACK","steam_id":76561198123659806,"connected_time":1483000000000,"state":"active","ping":85},{"user_id":325,"name":"singular braincell","steam_id":76561199127683594,"connected_time":325000000000,"state":"active","ping":132},{"user_id":331,"name":"Skinny","steam_id":76561199239986653,"connected_time":92000000000,"state":"active","ping":97},{"user_id":326,"name":"XxBenShapiro420xX","steam_id":76561199229373972,"connected_time":239000000000,"state":"active","ping":59},{"user_id":301,"name":"точно проверено","steam_id":76561198005742337,"connected_time":1245000000000,"state":"active","ping":73},{"user_id":332,"name":"tacoodoom","steam_id":76561199123075248,"connected_time":61000000000,"state":"active","ping":144},{"user_id":284,"name":"fernandobmwm355555","steam_id":76561198086609447,"connected_time":2322000000000,"state":"active","ping":60},{"user_id":307,"name":"cof","steam_id":76561199128417805,"connected_time":1115000000000,"state":"active","ping":47},{"user_id":312,"name":"Datsunbrah","steam_id":76561198088494680,"connected_time":777000000000,"state":"active","ping":95},{"user_id":236,"name":"sussy baka","steam_id":76561198368758532,"connected_time":5353000000000,"state":"active","ping":75},{"user_id":302,"name":"geo_eo112","steam_id":76561198157082747,"connected_time":1225000000000,"state":"active","ping":66},{"user_id":333,"name":"robyn","steam_id":76561199388526903,"connected_time":31000000000,"state":"active","ping":49},{"user_id":315,"name":"Prara_Bellum","steam_id":76561198849129682,"connected_time":672000000000,"state":"active","ping":96},{"user_id":316,"name":"THEALLSEEINGCAKE","steam_id":76561199251417876,"connected_time":641000000000,"state":"active","ping":71},{"user_id":317,"name":"sto cazzo","steam_id":76561198066071855,"connected_time":640000000000,"state":"active","ping":75},{"user_id":318,"name":"_LOA_","steam_id":76561198351090135,"connected_time":635000000000,"state":"active","ping":45},{"user_id":306,"name":"Furno","steam_id":76561197999723047,"connected_time":1196000000000,"state":"active","ping":47}]},{"server_id":21,"name":"Uncletopia | London | 5 | All Maps","name_short":"lon-5","host":"lon-1.uk.uncletopia.com","port":27055,"enabled":true,"region":"eu","cc":"gb","latitude":51.509865,"longitude":-0.118092,"reserved":0,"last_update":"0001-01-01T00:00:00Z","name_a2s":"Uncletopia | London | 5 | All Maps","protocol":17,"map":"pl_swiftwater_final1","folder":"tf","game":"Team Fortress","app_id":440,"player_count":24,"max_players":24,"Bots":0,"server_type":"Dedicated","server_os":"Linux","password":true,"vac":true,"version":"7961495","steam_id":85568392924742829,"keywords":["nocrits","nodmgspread","payload","uncletopia"],"game_id":440,"stv_port":27056,"stv_name":"Uncletopia | London | 5 | All Maps | STV","players":[{"user_id":161,"name":"G_raff","steam_id":76561199048512726,"connected_time":558000000000,"state":"active","ping":84},{"user_id":143,"name":"Ryan Gosling (Literally me)","steam_id":76561198438150893,"connected_time":1395000000000,"state":"active","ping":121},{"user_id":168,"name":"Reiyo the Interloper","steam_id":76561198155092485,"connected_time":294000000000,"state":"active","ping":61},{"user_id":164,"name":"gabagool","steam_id":76561198307111838,"connected_time":382000000000,"state":"active","ping":41},{"user_id":156,"name":"Hendriks","steam_id":76561198446347617,"connected_time":895000000000,"state":"active","ping":49},{"user_id":148,"name":"Reljadin","steam_id":76561198054997553,"connected_time":1244000000000,"state":"active","ping":76},{"user_id":167,"name":"KAZAM | Tervez","steam_id":76561198045459068,"connected_time":328000000000,"state":"active","ping":90},{"user_id":116,"name":"tristan \"flick\" flink","steam_id":76561198330025106,"connected_time":2055000000000,"state":"active","ping":37},{"user_id":170,"name":"Woman (Real)","steam_id":76561199151823932,"connected_time":156000000000,"state":"active","ping":65},{"user_id":159,"name":"Distant Dreamer","steam_id":76561199029212388,"connected_time":618000000000,"state":"active","ping":70},{"user_id":132,"name":"Doctor Marijuana","steam_id":76561198288289879,"connected_time":1741000000000,"state":"active","ping":45},{"user_id":166,"name":"landocalrissian","steam_id":76561198027033926,"connected_time":331000000000,"state":"active","ping":52},{"user_id":169,"name":"skai","steam_id":76561198184881255,"connected_time":262000000000,"state":"active","ping":74},{"user_id":130,"name":"obi","steam_id":76561198040154461,"connected_time":1801000000000,"state":"active","ping":72},{"user_id":142,"name":"E-Boy | Yetti","steam_id":76561198049582917,"connected_time":1427000000000,"state":"active","ping":74},{"user_id":149,"name":"smiley","steam_id":76561198042245117,"connected_time":1229000000000,"state":"active","ping":74},{"user_id":157,"name":"Phat","steam_id":76561198272293356,"connected_time":801000000000,"state":"active","ping":60},{"user_id":158,"name":"SketchyEtchaSketch","steam_id":76561198143747486,"connected_time":662000000000,"state":"active","ping":171},{"user_id":140,"name":"Xx_Dr. Benjamin Stoner_xX","steam_id":76561198796374683,"connected_time":1500000000000,"state":"active","ping":86},{"user_id":141,"name":"ein","steam_id":76561198152162834,"connected_time":1491000000000,"state":"active","ping":103},{"user_id":165,"name":"Big Al","steam_id":76561198079585198,"connected_time":382000000000,"state":"active","ping":38},{"user_id":145,"name":"misterwondo","steam_id":76561198187934110,"connected_time":1369000000000,"state":"active","ping":56},{"user_id":152,"name":"BLÅHAJ","steam_id":76561197996473698,"connected_time":1191000000000,"state":"active","ping":94},{"user_id":153,"name":"Marcel","steam_id":76561198348686648,"connected_time":1169000000000,"state":"active","ping":46}]},{"server_id":22,"name":"Uncletopia | London | 6 | All Maps","name_short":"lon-6","host":"lon-1.uk.uncletopia.com","port":27065,"enabled":true,"region":"eu","cc":"gb","latitude":51.509865,"longitude":-0.118092,"reserved":0,"last_update":"0001-01-01T00:00:00Z","name_a2s":"Uncletopia | London | 6 | All Maps","protocol":17,"map":"koth_highpass","folder":"tf","game":"Team Fortress","app_id":440,"player_count":20,"max_players":24,"Bots":0,"server_type":"Dedicated","server_os":"Linux","password":true,"vac":true,"version":"7961495","steam_id":85568392924742830,"keywords":["cp","nocrits","nodmgspread","uncletopia"],"game_id":440,"stv_port":27066,"stv_name":"Uncletopia | London | 6 | All Maps | STV","players":[{"user_id":62,"name":"141216","steam_id":76561198011015750,"connected_time":64000000000,"state":"active","ping":49},{"user_id":35,"name":"yuno appreciator","steam_id":76561198083286511,"connected_time":992000000000,"state":"active","ping":39},{"user_id":52,"name":"Born to frag, forced to cap(F2P","steam_id":76561199226591345,"connected_time":428000000000,"state":"active","ping":101},{"user_id":28,"name":"Hyperwizard of Space Conquest","steam_id":76561198953210459,"connected_time":2109000000000,"state":"active","ping":103},{"user_id":41,"name":"Gregor Samsa","steam_id":76561198973069177,"connected_time":739000000000,"state":"active","ping":59},{"user_id":36,"name":"I-I","steam_id":76561198267969436,"connected_time":959000000000,"state":"active","ping":57},{"user_id":31,"name":"Gym teacher","steam_id":76561198382706733,"connected_time":1170000000000,"state":"active","ping":68},{"user_id":32,"name":"LizaЯdlЧ","steam_id":76561198176750238,"connected_time":1148000000000,"state":"active","ping":75},{"user_id":37,"name":"Secretti","steam_id":76561198151480179,"connected_time":943000000000,"state":"active","ping":89},{"user_id":50,"name":"Name","steam_id":76561197990757157,"connected_time":471000000000,"state":"active","ping":73},{"user_id":51,"name":"pajer0","steam_id":76561198002913482,"connected_time":469000000000,"state":"active","ping":100},{"user_id":58,"name":"Wata","steam_id":76561198098418814,"connected_time":323000000000,"state":"active","ping":44},{"user_id":43,"name":"MR. Mallorca","steam_id":76561198016857290,"connected_time":697000000000,"state":"active","ping":108},{"user_id":56,"name":"Denialman (Muted)","steam_id":76561198309182092,"connected_time":371000000000,"state":"active","ping":63},{"user_id":47,"name":"bid","steam_id":76561198083863043,"connected_time":534000000000,"state":"active","ping":45},{"user_id":53,"name":"Boo","steam_id":76561198068748584,"connected_time":418000000000,"state":"active","ping":51},{"user_id":54,"name":"Assassin+","steam_id":76561197994310420,"connected_time":415000000000,"state":"active","ping":71},{"user_id":59,"name":"andrew tate's kitten","steam_id":76561198173218318,"connected_time":305000000000,"state":"active","ping":47},{"user_id":60,"name":"ruschca","steam_id":76561198041966522,"connected_time":291000000000,"state":"active","ping":43},{"user_id":61,"name":"A literal heavy","steam_id":76561199219233587,"connected_time":245000000000,"state":"active","ping":80}]},{"server_id":40,"name":"Uncletopia | London | 7 | Stopwatch","name_short":"lon-7","host":"lon-1.uk.uncletopia.com","port":27075,"enabled":true,"region":"eu","cc":"gb","latitude":51.509865,"longitude":-0.118092,"reserved":0,"last_update":"0001-01-01T00:00:00Z","name_a2s":"Uncletopia | London | 7 | Stopwatch","protocol":17,"map":"pl_swiftwater_final1","folder":"tf","game":"Team Fortress","app_id":440,"player_count":0,"max_players":24,"Bots":0,"server_type":"Dedicated","server_os":"Linux","password":true,"vac":true,"version":"7961495","steam_id":85568392924964314,"keywords":["nocrits","nodmgspread","payload","uncletopia"],"game_id":440,"stv_port":27076,"stv_name":"Uncletopia | London | 7 | Stopwatch | STV","players":null},{"server_id":41,"name":"Uncletopia | London | 8 | Community","name_short":"lon-8","host":"lon-1.uk.uncletopia.com","port":27085,"enabled":true,"region":"eu","cc":"gb","latitude":51.509865,"longitude":-0.118092,"reserved":0,"last_update":"0001-01-01T00:00:00Z","name_a2s":"Uncletopia | London | 8 | Community","protocol":17,"map":"workshop/cp_villa_b19.ugc2113052569","folder":"tf","game":"Team Fortress","app_id":440,"player_count":0,"max_players":24,"Bots":0,"server_type":"Dedicated","server_os":"Linux","password":true,"vac":true,"version":"7961495","steam_id":85568392924964315,"keywords":["cp","nocrits","nodmgspread","uncletopia"],"game_id":440,"stv_port":27086,"stv_name":"Uncletopia | London | 8 | Community | STV","players":null},{"server_id":300,"name":"Uncletopia | Montréal | 1 | One Thousand Uncles","name_short":"mtl-1","host":"mtl-1.ca.uncletopia.com","port":27015,"enabled":true,"region":"us-east","cc":"ca","latitude":45.50889,"longitude":-73.56167,"reserved":0,"last_update":"0001-01-01T00:00:00Z","name_a2s":"Uncletopia | Montréal | 1 | One Thousand Uncles","protocol":17,"map":"pl_chilly","folder":"tf","game":"Team Fortress","app_id":440,"player_count":0,"max_players":32,"Bots":0,"server_type":"Dedicated","server_os":"Linux","password":true,"vac":true,"version":"7961495","steam_id":85568392924500087,"keywords":["alltalk","danepve","increased_maxplayers","norespawntime","payload","uncletopia"],"game_id":440,"stv_port":0,"stv_name":"","players":null},{"server_id":301,"name":"Uncletopia | Montréal | 2 | One Thousand Uncles","name_short":"mtl-2","host":"mtl-1.ca.uncletopia.com","port":27025,"enabled":true,"region":"us-east","cc":"ca","latitude":45.50889,"longitude":-73.56167,"reserved":0,"last_update":"0001-01-01T00:00:00Z","name_a2s":"Uncletopia | Montréal | 2 | One Thousand Uncles","protocol":17,"map":"pl_chilly","folder":"tf","game":"Team Fortress","app_id":440,"player_count":0,"max_players":32,"Bots":0,"server_type":"Dedicated","server_os":"Linux","password":true,"vac":true,"version":"7961495","steam_id":85568392924500088,"keywords":["alltalk","danepve","increased_maxplayers","norespawntime","payload","uncletopia"],"game_id":440,"stv_port":0,"stv_name":"","players":null},{"server_id":302,"name":"Uncletopia | Montréal | 3 | One Thousand Uncles","name_short":"mtl-3","host":"mtl-1.ca.uncletopia.com","port":27035,"enabled":true,"region":"us-east","cc":"ca","latitude":45.50889,"longitude":-73.56167,"reserved":0,"last_update":"0001-01-01T00:00:00Z","name_a2s":"Uncletopia | Montréal | 3 | One Thousand Uncles","protocol":17,"map":"cp_mossrock","folder":"tf","game":"Team Fortress","app_id":440,"player_count":18,"max_players":32,"Bots":16,"server_type":"Dedicated","server_os":"Linux","password":true,"vac":true,"version":"7961495","steam_id":85568392924500089,"keywords":["alltalk","bots","cp","danepve","increased_maxplayers","norespawntime","uncletopia"],"game_id":440,"stv_port":0,"stv_name":"","players":[{"user_id":80,"name":"Lucorn","steam_id":76561199208676818,"connected_time":1544000000000,"state":"active","ping":45},{"user_id":98,"name":"The Last Thing","steam_id":76561198047192080,"connected_time":1115000000000,"state":"active","ping":85}]},{"server_id":13,"name":"Uncletopia | New York City | 1 | All Maps","name_short":"nyc-1","host":"nyc-1.us.uncletopia.com","port":27015,"enabled":true,"region":"us-east","cc":"us","latitude":40.73061,"longitude":-73.93524,"reserved":0,"last_update":"0001-01-01T00:00:00Z","name_a2s":"Uncletopia | New York City | 1 | All Maps","protocol":17,"map":"koth_cascade","folder":"tf","game":"Team Fortress","app_id":440,"player_count":21,"max_players":24,"Bots":0,"server_type":"Dedicated","server_os":"Linux","password":true,"vac":true,"version":"7961495","steam_id":85568392924469993,"keywords":["cp","nocrits","nodmgspread","uncletopia"],"game_id":440,"stv_port":27016,"stv_name":"Uncletopia | New York City | 1 | All Maps | STV","players":[{"user_id":261,"name":"creeeeeee","steam_id":76561198392539722,"connected_time":835000000000,"state":"active","ping":80},{"user_id":230,"name":"--_Cook_--","steam_id":76561198080855748,"connected_time":3799000000000,"state":"active","ping":73},{"user_id":269,"name":"get scrongled, idiot","steam_id":76561198115874625,"connected_time":477000000000,"state":"active","ping":93},{"user_id":263,"name":"Carpetspill","steam_id":76561198240023406,"connected_time":538000000000,"state":"active","ping":82},{"user_id":268,"name":"fwaeoij-4","steam_id":76561198057691823,"connected_time":496000000000,"state":"active","ping":56},{"user_id":179,"name":"Sunshine","steam_id":76561198885528098,"connected_time":8700000000000,"state":"active","ping":59},{"user_id":267,"name":"the keebler","steam_id":76561199486326945,"connected_time":523000000000,"state":"active","ping":77},{"user_id":270,"name":"Blade Racer","steam_id":76561198155896703,"connected_time":441000000000,"state":"active","ping":60},{"user_id":264,"name":"Rummy the Blargh-gineer","steam_id":76561197997192800,"connected_time":537000000000,"state":"active","ping":50},{"user_id":275,"name":"cee","steam_id":76561198420893458,"connected_time":200000000000,"state":"active","ping":91},{"user_id":277,"name":"Verilog","steam_id":76561197975820283,"connected_time":60000000000,"state":"active","ping":68},{"user_id":258,"name":"ArcticRescue","steam_id":76561198055362404,"connected_time":1691000000000,"state":"active","ping":50},{"user_id":273,"name":"help","steam_id":76561198439506503,"connected_time":374000000000,"state":"active","ping":39},{"user_id":241,"name":"V!CT!M","steam_id":76561198962721502,"connected_time":2812000000000,"state":"active","ping":78},{"user_id":240,"name":"CDBeans","steam_id":76561198046990367,"connected_time":2884000000000,"state":"active","ping":86},{"user_id":242,"name":"Xx_gam3rberg_xX","steam_id":76561199035781025,"connected_time":2761000000000,"state":"active","ping":67},{"user_id":278,"name":"Santa Gaming","steam_id":76561198078391538,"connected_time":8000000000,"state":"spawning","ping":44},{"user_id":255,"name":"chrisd149","steam_id":76561198018710480,"connected_time":1814000000000,"state":"active","ping":81},{"user_id":253,"name":".jpg","steam_id":76561198137237377,"connected_time":1867000000000,"state":"active","ping":55},{"user_id":181,"name":"lynt","steam_id":76561198988333976,"connected_time":8638000000000,"state":"active","ping":57},{"user_id":266,"name":"ToyBox","steam_id":76561199074735423,"connected_time":533000000000,"state":"active","ping":51}]},{"server_id":14,"name":"Uncletopia | New York City | 2 | All Maps","name_short":"nyc-2","host":"nyc-1.us.uncletopia.com","port":27025,"enabled":true,"region":"us-east","cc":"us","latitude":40.73061,"longitude":-73.93524,"reserved":0,"last_update":"0001-01-01T00:00:00Z","name_a2s":"Uncletopia | New York City | 2 | All Maps","protocol":17,"map":"pl_upward","folder":"tf","game":"Team Fortress","app_id":440,"player_count":24,"max_players":24,"Bots":0,"server_type":"Dedicated","server_os":"Linux","password":true,"vac":true,"version":"7961495","steam_id":85568392924469994,"keywords":["nocrits","nodmgspread","payload","uncletopia"],"game_id":440,"stv_port":27026,"stv_name":"Uncletopia | New York City | 2 | All Maps | STV","players":[{"user_id":91,"name":"FOOL","steam_id":76561198370866973,"connected_time":302000000000,"state":"active","ping":114},{"user_id":92,"name":"Tockbird","steam_id":76561199437964594,"connected_time":293000000000,"state":"active","ping":113},{"user_id":72,"name":"thisisthenam7","steam_id":76561199015414412,"connected_time":2141000000000,"state":"active","ping":99},{"user_id":93,"name":"SCATTER","steam_id":76561198405168492,"connected_time":277000000000,"state":"active","ping":68},{"user_id":94,"name":"'LaxAttack","steam_id":76561198044129346,"connected_time":270000000000,"state":"active","ping":64},{"user_id":85,"name":"HUMBY","steam_id":76561198065045867,"connected_time":1152000000000,"state":"active","ping":78},{"user_id":95,"name":"Cosmic Torgue","steam_id":76561198828724945,"connected_time":266000000000,"state":"active","ping":68},{"user_id":88,"name":"Cereal Killer","steam_id":76561199442712016,"connected_time":611000000000,"state":"active","ping":166},{"user_id":65,"name":"Nyra","steam_id":76561197994565490,"connected_time":2303000000000,"state":"active","ping":83},{"user_id":51,"name":"kairOs.fk","steam_id":76561197972421260,"connected_time":3169000000000,"state":"active","ping":45},{"user_id":96,"name":"rob1028","steam_id":76561198055429931,"connected_time":240000000000,"state":"active","ping":53},{"user_id":41,"name":"loscemo","steam_id":76561197994884609,"connected_time":3422000000000,"state":"active","ping":64},{"user_id":62,"name":"Kduck","steam_id":76561198092171095,"connected_time":2587000000000,"state":"active","ping":46},{"user_id":82,"name":"Shlomo Walkin'","steam_id":76561198069877213,"connected_time":1413000000000,"state":"active","ping":48},{"user_id":79,"name":"lam limmie","steam_id":76561198056880716,"connected_time":1488000000000,"state":"active","ping":51},{"user_id":86,"name":"3thernet jak","steam_id":76561198327395213,"connected_time":1016000000000,"state":"active","ping":45},{"user_id":40,"name":"Dreysidel","steam_id":76561198056496183,"connected_time":3457000000000,"state":"active","ping":46},{"user_id":78,"name":"Waesel","steam_id":76561198069188177,"connected_time":1520000000000,"state":"active","ping":88},{"user_id":80,"name":"sigma male","steam_id":76561198025011611,"connected_time":1485000000000,"state":"active","ping":45},{"user_id":60,"name":"sillylokisparkles","steam_id":76561198872251615,"connected_time":2687000000000,"state":"active","ping":75},{"user_id":70,"name":"slippyyλ","steam_id":76561198143018098,"connected_time":2214000000000,"state":"active","ping":57},{"user_id":97,"name":"TheBrocklobster","steam_id":76561198039682984,"connected_time":217000000000,"state":"active","ping":115},{"user_id":89,"name":"Kung fu MUNGUS","steam_id":76561198069281556,"connected_time":572000000000,"state":"active","ping":89},{"user_id":90,"name":"capetanunito","steam_id":76561199364524852,"connected_time":551000000000,"state":"active","ping":154}]},{"server_id":15,"name":"Uncletopia | New York City | 3 | Stopwatch","name_short":"nyc-3","host":"nyc-1.us.uncletopia.com","port":27035,"enabled":true,"region":"us-east","cc":"us","latitude":40.73061,"longitude":-73.93524,"reserved":0,"last_update":"0001-01-01T00:00:00Z","name_a2s":"Uncletopia | New York City | 3 | Stopwatch","protocol":17,"map":"cp_gullywash_final1","folder":"tf","game":"Team Fortress","app_id":440,"player_count":0,"max_players":24,"Bots":0,"server_type":"Dedicated","server_os":"Linux","password":true,"vac":true,"version":"7961495","steam_id":85568392924742820,"keywords":["cp","nocrits","nodmgspread","uncletopia"],"game_id":440,"stv_port":27036,"stv_name":"Uncletopia | New York City | 3 | Stopwatch | STV","players":null},{"server_id":16,"name":"Uncletopia | New York City | 4 | Community","name_short":"nyc-4","host":"nyc-1.us.uncletopia.com","port":27045,"enabled":true,"region":"us-east","cc":"us","latitude":40.73061,"longitude":-73.93524,"reserved":0,"last_update":"0001-01-01T00:00:00Z","name_a2s":"Uncletopia | New York City | 4 | Community","protocol":17,"map":"workshop/pl_divulgence_b4b.ugc2884808746","folder":"tf","game":"Team Fortress","app_id":440,"player_count":0,"max_players":24,"Bots":0,"server_type":"Dedicated","server_os":"Linux","password":true,"vac":true,"version":"7961495","steam_id":85568392924742821,"keywords":["nocrits","nodmgspread","payload","uncletopia"],"game_id":440,"stv_port":27046,"stv_name":"Uncletopia | New York City | 4 | Community | STV","players":null},{"server_id":142,"name":"Uncletopia | São Paulo | 1 | All Maps","name_short":"sao-1","host":"sao-1.br.uncletopia.com","port":27015,"enabled":true,"region":"sa","cc":"br","latitude":-23.533773,"longitude":-46.62529,"reserved":0,"last_update":"0001-01-01T00:00:00Z","name_a2s":"Uncletopia | São Paulo | 1 | All Maps","protocol":17,"map":"cp_granary","folder":"tf","game":"Team Fortress","app_id":440,"player_count":0,"max_players":24,"Bots":0,"server_type":"Dedicated","server_os":"Linux","password":true,"vac":true,"version":"7961495","steam_id":85568392924469996,"keywords":["cp","nocrits","nodmgspread","uncletopia"],"game_id":440,"stv_port":27016,"stv_name":"Uncletopia | São Paulo | 1 | All Maps | STV","players":null},{"server_id":143,"name":"Uncletopia | São Paulo | 2 | Community","name_short":"sao-2","host":"sao-2.br.uncletopia.com","port":27015,"enabled":true,"region":"sa","cc":"br","latitude":-23.533773,"longitude":-46.62529,"reserved":0,"last_update":"0001-01-01T00:00:00Z","name_a2s":"Uncletopia | São Paulo | 2 | Community","protocol":17,"map":"workshop/koth_synthetic_rc6a.ugc1549817316","folder":"tf","game":"Team Fortress","app_id":440,"player_count":0,"max_players":24,"Bots":0,"server_type":"Dedicated","server_os":"Linux","password":true,"vac":true,"version":"7961495","steam_id":85568392924485349,"keywords":["cp","nocrits","nodmgspread","uncletopia"],"game_id":440,"stv_port":27016,"stv_name":"Uncletopia | São Paulo | 2 | Community | STV","players":null},{"server_id":7,"name":"Uncletopia | Seattle | 1 | All Maps","name_short":"sea-1","host":"sea-1.us.uncletopia.com","port":27015,"enabled":true,"region":"us-west","cc":"us","latitude":47.608013,"longitude":-122.33517,"reserved":0,"last_update":"0001-01-01T00:00:00Z","name_a2s":"Uncletopia | Seattle | 1 | All Maps","protocol":17,"map":"pl_swiftwater_final1","folder":"tf","game":"Team Fortress","app_id":440,"player_count":23,"max_players":24,"Bots":0,"server_type":"Dedicated","server_os":"Linux","password":true,"vac":true,"version":"7961495","steam_id":85568392924469997,"keywords":["nocrits","nodmgspread","payload","uncletopia"],"game_id":440,"stv_port":27016,"stv_name":"Uncletopia | Seattle | 1 | All Maps | STV","players":[{"user_id":105,"name":"Furry Femboy Hooters (CEO)","steam_id":76561198097745857,"connected_time":2464000000000,"state":"active","ping":48},{"user_id":109,"name":"Tuxedo Terrorist","steam_id":76561199093106628,"connected_time":1987000000000,"state":"active","ping":80},{"user_id":90,"name":"goofy goober","steam_id":76561199024079388,"connected_time":3709000000000,"state":"active","ping":47},{"user_id":122,"name":"TüCold","steam_id":76561198111278197,"connected_time":677000000000,"state":"active","ping":44},{"user_id":82,"name":"Natsuki the Scunt","steam_id":76561199175922684,"connected_time":4492000000000,"state":"active","ping":89},{"user_id":101,"name":"Spectre⁹⁹⁹","steam_id":76561198037535169,"connected_time":2974000000000,"state":"active","ping":60},{"user_id":108,"name":"Rusty","steam_id":76561198178868626,"connected_time":2059000000000,"state":"active","ping":42},{"user_id":111,"name":"dirty30","steam_id":76561198021226566,"connected_time":1909000000000,"state":"active","ping":45},{"user_id":88,"name":":)","steam_id":76561198158118265,"connected_time":4023000000000,"state":"active","ping":89},{"user_id":119,"name":"Weegee","steam_id":76561198140095755,"connected_time":754000000000,"state":"active","ping":88},{"user_id":118,"name":"fried water","steam_id":76561198360311110,"connected_time":852000000000,"state":"active","ping":52},{"user_id":106,"name":"Skabbety","steam_id":76561198168044257,"connected_time":2302000000000,"state":"active","ping":44},{"user_id":114,"name":"BlazedBunny","steam_id":76561198243610560,"connected_time":1730000000000,"state":"active","ping":64},{"user_id":125,"name":"Dimple","steam_id":76561198980324190,"connected_time":626000000000,"state":"active","ping":57},{"user_id":123,"name":"Themasterman75","steam_id":76561199385573293,"connected_time":660000000000,"state":"active","ping":59},{"user_id":127,"name":"Darkgigglemonster","steam_id":76561198870649125,"connected_time":6000000000,"state":"spawning","ping":76},{"user_id":95,"name":"non_ai","steam_id":76561198270951938,"connected_time":3503000000000,"state":"active","ping":106},{"user_id":124,"name":"wrongthink","steam_id":76561198830293087,"connected_time":656000000000,"state":"active","ping":91},{"user_id":76,"name":"2cats_2curious","steam_id":76561198027143149,"connected_time":4780000000000,"state":"active","ping":64},{"user_id":113,"name":"pan","steam_id":76561198093968095,"connected_time":1863000000000,"state":"active","ping":61},{"user_id":126,"name":"choi","steam_id":76561198053669887,"connected_time":562000000000,"state":"active","ping":87},{"user_id":78,"name":"Krysar","steam_id":76561198202077555,"connected_time":4746000000000,"state":"active","ping":102},{"user_id":120,"name":"EightySix","steam_id":76561198186678831,"connected_time":749000000000,"state":"active","ping":87}]},{"server_id":119,"name":"Uncletopia | Seattle | 2 | All Maps","name_short":"sea-2","host":"sea-1.us.uncletopia.com","port":27025,"enabled":true,"region":"us-west","cc":"us","latitude":47.608013,"longitude":-122.33517,"reserved":0,"last_update":"0001-01-01T00:00:00Z","name_a2s":"Uncletopia | Seattle | 2 | All Maps","protocol":17,"map":"pl_swiftwater_final1","folder":"tf","game":"Team Fortress","app_id":440,"player_count":2,"max_players":24,"Bots":0,"server_type":"Dedicated","server_os":"Linux","password":true,"vac":true,"version":"7961495","steam_id":85568392924469998,"keywords":["nocrits","nodmgspread","payload","uncletopia"],"game_id":440,"stv_port":27026,"stv_name":"Uncletopia | Seattle | 2 | All Maps | STV","players":[{"user_id":5,"name":"WaifusAreLife","steam_id":76561199204298474,"connected_time":932000000000,"state":"active","ping":69},{"user_id":7,"name":"A mediocre service agent","steam_id":76561199254508873,"connected_time":52000000000,"state":"active","ping":68}]},{"server_id":406,"name":"Uncletopia | Seattle | 3 | Stopwatch","name_short":"sea-3","host":"sea-1.us.uncletopia.com","port":27035,"enabled":true,"region":"us-west","cc":"us","latitude":47.608013,"longitude":-122.33517,"reserved":0,"last_update":"0001-01-01T00:00:00Z","name_a2s":"Uncletopia | Seattle | 3 | Stopwatch","protocol":17,"map":"cp_gullywash_final1","folder":"tf","game":"Team Fortress","app_id":440,"player_count":0,"max_players":24,"Bots":0,"server_type":"Dedicated","server_os":"Linux","password":true,"vac":true,"version":"7961495","steam_id":85568392924515217,"keywords":["cp","nocrits","nodmgspread","uncletopia"],"game_id":440,"stv_port":27036,"stv_name":"Uncletopia | Seattle | 3 | Stopwatch | STV","players":null},{"server_id":17,"name":"Uncletopia | San Francisco | 1 | All Maps","name_short":"sfo-1","host":"sfo-1.us.uncletopia.com","port":27015,"enabled":true,"region":"us-west","cc":"us","latitude":37.77397,"longitude":-122.4313,"reserved":0,"last_update":"0001-01-01T00:00:00Z","name_a2s":"Uncletopia | San Francisco | 1 | All Maps","protocol":17,"map":"koth_highpass","folder":"tf","game":"Team Fortress","app_id":440,"player_count":0,"max_players":24,"Bots":0,"server_type":"Dedicated","server_os":"Linux","password":true,"vac":true,"version":"7961495","steam_id":85568392924469999,"keywords":["cp","nocrits","nodmgspread","uncletopia"],"game_id":440,"stv_port":27016,"stv_name":"Uncletopia | San Francisco | 1 | All Maps | STV","players":null},{"server_id":18,"name":"Uncletopia | San Francisco | 2 | All Maps","name_short":"sfo-2","host":"sfo-1.us.uncletopia.com","port":27025,"enabled":true,"region":"us-west","cc":"us","latitude":37.77397,"longitude":-122.4313,"reserved":0,"last_update":"0001-01-01T00:00:00Z","name_a2s":"Uncletopia | San Francisco | 2 | All Maps","protocol":17,"map":"pl_badwater","folder":"tf","game":"Team Fortress","app_id":440,"player_count":0,"max_players":24,"Bots":0,"server_type":"Dedicated","server_os":"Linux","password":true,"vac":true,"version":"7961495","steam_id":85568392924470000,"keywords":["nocrits","nodmgspread","payload","uncletopia"],"game_id":440,"stv_port":27026,"stv_name":"Uncletopia | San Francisco | 2 | All Maps | STV","players":null},{"server_id":19,"name":"Uncletopia | San Francisco | 3 | Stopwatch","name_short":"sfo-3","host":"sfo-1.us.uncletopia.com","port":27035,"enabled":true,"region":"us-west","cc":"us","latitude":37.77397,"longitude":-122.4313,"reserved":0,"last_update":"0001-01-01T00:00:00Z","name_a2s":"Uncletopia | San Francisco | 3 | Stopwatch","protocol":17,"map":"workshop/koth_product_final.ugc454272353","folder":"tf","game":"Team Fortress","app_id":440,"player_count":0,"max_players":24,"Bots":0,"server_type":"Dedicated","server_os":"Linux","password":true,"vac":true,"version":"7961495","steam_id":85568392924742824,"keywords":["cp","nocrits","nodmgspread","uncletopia"],"game_id":440,"stv_port":27036,"stv_name":"Uncletopia | San Francisco | 3 | Stopwatch | STV","players":null},{"server_id":20,"name":"Uncletopia | San Francisco | 4 | Community","name_short":"sfo-4","host":"sfo-1.us.uncletopia.com","port":27045,"enabled":true,"region":"us-west","cc":"us","latitude":37.77397,"longitude":-122.4313,"reserved":0,"last_update":"0001-01-01T00:00:00Z","name_a2s":"Uncletopia | San Francisco | 4 | Community","protocol":17,"map":"workshop/cp_mannbase_rc2a.ugc1900737467","folder":"tf","game":"Team Fortress","app_id":440,"player_count":0,"max_players":24,"Bots":0,"server_type":"Dedicated","server_os":"Linux","password":true,"vac":true,"version":"7961495","steam_id":85568392924742826,"keywords":["cp","nocrits","nodmgspread","uncletopia"],"game_id":440,"stv_port":27046,"stv_name":"Uncletopia | San Francisco | 4 | Community | STV","players":null},{"server_id":141,"name":"Uncletopia | Sydney | 1 | All Maps","name_short":"syd-1","host":"syd-1.au.uncletopia.com","port":27015,"enabled":true,"region":"au","cc":"au","latitude":-33.865143,"longitude":151.2099,"reserved":0,"last_update":"0001-01-01T00:00:00Z","name_a2s":"Uncletopia | Sydney | 1 | All Maps","protocol":17,"map":"koth_cascade","folder":"tf","game":"Team Fortress","app_id":440,"player_count":0,"max_players":24,"Bots":0,"server_type":"Dedicated","server_os":"Linux","password":true,"vac":true,"version":"7961495","steam_id":85568392924470001,"keywords":["cp","nocrits","nodmgspread","uncletopia"],"game_id":440,"stv_port":27016,"stv_name":"Uncletopia | Sydney | 1 | All Maps | STV","players":null},{"server_id":123,"name":"Uncletopia | Sydney | 2 | All Maps","name_short":"syd-2","host":"syd-1.au.uncletopia.com","port":27025,"enabled":true,"region":"au","cc":"au","latitude":-33.865143,"longitude":151.2099,"reserved":0,"last_update":"0001-01-01T00:00:00Z","name_a2s":"Uncletopia | Sydney | 2 | All Maps","protocol":17,"map":"pl_swiftwater_final1","folder":"tf","game":"Team Fortress","app_id":440,"player_count":0,"max_players":24,"Bots":0,"server_type":"Dedicated","server_os":"Linux","password":true,"vac":true,"version":"7961495","steam_id":85568392924470002,"keywords":["nocrits","nodmgspread","payload","uncletopia"],"game_id":440,"stv_port":27026,"stv_name":"Uncletopia | Sydney | 2 | All Maps | STV","players":null},{"server_id":395,"name":"Uncletopia | Sydney | 3 | All Maps","name_short":"syd-3","host":"syd-1.au.uncletopia.com","port":27035,"enabled":true,"region":"au","cc":"au","latitude":-33.865143,"longitude":151.2099,"reserved":0,"last_update":"0001-01-01T00:00:00Z","name_a2s":"Uncletopia | Sydney | 3 | All Maps","protocol":17,"map":"koth_highpass","folder":"tf","game":"Team Fortress","app_id":440,"player_count":0,"max_players":24,"Bots":0,"server_type":"Dedicated","server_os":"Linux","password":true,"vac":true,"version":"7961495","steam_id":85568392925194467,"keywords":["cp","nocrits","nodmgspread","uncletopia"],"game_id":440,"stv_port":27036,"stv_name":"Uncletopia | Sydney | 3 | All Maps | STV","players":null},{"server_id":396,"name":"Uncletopia | Sydney | 4 | All Maps","name_short":"syd-4","host":"syd-1.au.uncletopia.com","port":27045,"enabled":true,"region":"au","cc":"au","latitude":-33.865143,"longitude":151.2099,"reserved":0,"last_update":"0001-01-01T00:00:00Z","name_a2s":"Uncletopia | Sydney | 4 | All Maps","protocol":17,"map":"pl_badwater","folder":"tf","game":"Team Fortress","app_id":440,"player_count":0,"max_players":24,"Bots":0,"server_type":"Dedicated","server_os":"Linux","password":true,"vac":true,"version":"7961495","steam_id":85568392925397958,"keywords":["nocrits","nodmgspread","payload","uncletopia"],"game_id":440,"stv_port":27046,"stv_name":"Uncletopia | Sydney | 4 | All Maps | STV","players":null},{"server_id":58,"name":"Uncletopia | Sydney | 5 | Stopwatch","name_short":"syd-5","host":"syd-1.au.uncletopia.com","port":27055,"enabled":true,"region":"au","cc":"au","latitude":-33.865143,"longitude":151.2099,"reserved":0,"last_update":"0001-01-01T00:00:00Z","name_a2s":"Uncletopia | Sydney | 5 | Stopwatch","protocol":17,"map":"workshop/koth_ashville_final.ugc2130459942","folder":"tf","game":"Team Fortress","app_id":440,"player_count":0,"max_players":24,"Bots":0,"server_type":"Dedicated","server_os":"Linux","password":true,"vac":true,"version":"7961495","steam_id":85568392925397959,"keywords":["cp","nocrits","nodmgspread","uncletopia"],"game_id":440,"stv_port":27056,"stv_name":"Uncletopia | Sydney | 5 | Stopwatch | STV","players":null},{"server_id":59,"name":"Uncletopia | Sydney | 6 | Community","name_short":"syd-6","host":"syd-1.au.uncletopia.com","port":27065,"enabled":true,"region":"au","cc":"au","latitude":-33.865143,"longitude":151.2099,"reserved":0,"last_update":"0001-01-01T00:00:00Z","name_a2s":"Uncletopia | Sydney | 6 | Community","protocol":17,"map":"workshop/koth_product_final.ugc454272353","folder":"tf","game":"Team Fortress","app_id":440,"player_count":0,"max_players":24,"Bots":0,"server_type":"Dedicated","server_os":"Linux","password":true,"vac":true,"version":"7961495","steam_id":85568392925397960,"keywords":["cp","nocrits","nodmgspread","uncletopia"],"game_id":440,"stv_port":27066,"stv_name":"Uncletopia | Sydney | 6 | Community | STV","players":null},{"server_id":49,"name":"Uncletopia | Warsaw | 1 | One Thousand Uncles","name_short":"waw-1","host":"waw-1.pl.uncletopia.com","port":27015,"enabled":true,"region":"eu","cc":"pl","latitude":52.2297,"longitude":21.017532,"reserved":0,"last_update":"0001-01-01T00:00:00Z","name_a2s":"Uncletopia | Warsaw | 1 | One Thousand Uncles","protocol":17,"map":"pl_badwater","folder":"tf","game":"Team Fortress","app_id":440,"player_count":29,"max_players":32,"Bots":16,"server_type":"Dedicated","server_os":"Linux","password":true,"vac":true,"version":"7961495","steam_id":85568392925397850,"keywords":["alltalk","bots","danepve","increased_maxplayers","norespawntime","payload","uncletopia"],"game_id":440,"stv_port":0,"stv_name":"","players":[{"user_id":642,"name":"vurtun","steam_id":76561198857395274,"connected_time":1139000000000,"state":"active","ping":63},{"user_id":650,"name":"ROI ZYWOO","steam_id":76561197974486633,"connected_time":258000000000,"state":"active","ping":75},{"user_id":633,"name":"Dabfaceprothanos111","steam_id":76561199349224220,"connected_time":2218000000000,"state":"active","ping":252},{"user_id":641,"name":"brödlimpan","steam_id":76561198831462196,"connected_time":1227000000000,"state":"active","ping":88},{"user_id":519,"name":"CryptoSV","steam_id":76561197995784509,"connected_time":8649000000000,"state":"active","ping":78},{"user_id":634,"name":"Bulldozer","steam_id":76561198886468318,"connected_time":2095000000000,"state":"active","ping":135},{"user_id":643,"name":"!rule34 big black oiled men","steam_id":76561199084680369,"connected_time":1001000000000,"state":"active","ping":46},{"user_id":652,"name":"the baddest boy in btd5","steam_id":76561199487914508,"connected_time":42000000000,"state":"spawning","ping":60},{"user_id":645,"name":"MetalSight","steam_id":76561198257781711,"connected_time":738000000000,"state":"active","ping":52},{"user_id":646,"name":"con","steam_id":76561198850438326,"connected_time":730000000000,"state":"active","ping":187},{"user_id":649,"name":"АzMp3","steam_id":76561199096907268,"connected_time":331000000000,"state":"active","ping":114},{"user_id":605,"name":"Sabina96 (✿◠‿◠)","steam_id":76561198173617070,"connected_time":3361000000000,"state":"active","ping":70},{"user_id":653,"name":"xanderomeister","steam_id":76561198882550389,"connected_time":41000000000,"state":"active","ping":69}]},{"server_id":50,"name":"Uncletopia | Warsaw | 2 | One Thousand Uncles","name_short":"waw-2","host":"waw-1.pl.uncletopia.com","port":27025,"enabled":true,"region":"eu","cc":"pl","latitude":52.2297,"longitude":21.017532,"reserved":0,"last_update":"0001-01-01T00:00:00Z","name_a2s":"Uncletopia | Warsaw | 2 | One Thousand Uncles","protocol":17,"map":"pl_thundermountain","folder":"tf","game":"Team Fortress","app_id":440,"player_count":0,"max_players":32,"Bots":0,"server_type":"Dedicated","server_os":"Linux","password":true,"vac":true,"version":"7961495","steam_id":85568392925397851,"keywords":["alltalk","danepve","increased_maxplayers","norespawntime","payload","uncletopia"],"game_id":440,"stv_port":0,"stv_name":"","players":null},{"server_id":51,"name":"Uncletopia | Warsaw | 3 | All Maps","name_short":"waw-3","host":"waw-1.pl.uncletopia.com","port":27035,"enabled":true,"region":"eu","cc":"pl","latitude":52.2297,"longitude":21.017532,"reserved":0,"last_update":"0001-01-01T00:00:00Z","name_a2s":"Uncletopia | Warsaw | 3 | All Maps","protocol":17,"map":"pl_barnblitz","folder":"tf","game":"Team Fortress","app_id":440,"player_count":0,"max_players":24,"Bots":0,"server_type":"Dedicated","server_os":"Linux","password":true,"vac":true,"version":"7961495","steam_id":85568392925397852,"keywords":["nocrits","nodmgspread","payload","uncletopia"],"game_id":440,"stv_port":27036,"stv_name":"Uncletopia | Warsaw | 3 | All Maps | STV","players":null},{"server_id":52,"name":"Uncletopia | Warsaw | 4 | All Maps","name_short":"waw-4","host":"waw-1.pl.uncletopia.com","port":27045,"enabled":true,"region":"eu","cc":"pl","latitude":52.2297,"longitude":21.017532,"reserved":0,"last_update":"0001-01-01T00:00:00Z","name_a2s":"Uncletopia | Warsaw | 4 | All Maps","protocol":17,"map":"pl_borneo","folder":"tf","game":"Team Fortress","app_id":440,"player_count":0,"max_players":24,"Bots":0,"server_type":"Dedicated","server_os":"Linux","password":true,"vac":true,"version":"7961495","steam_id":85568392925397853,"keywords":["nocrits","nodmgspread","payload","uncletopia"],"game_id":440,"stv_port":27046,"stv_name":"Uncletopia | Warsaw | 4 | All Maps | STV","players":null},{"server_id":53,"name":"Uncletopia | Warsaw | 5 | Stopwatch","name_short":"waw-5","host":"waw-1.pl.uncletopia.com","port":27055,"enabled":true,"region":"eu","cc":"pl","latitude":52.2297,"longitude":21.017532,"reserved":0,"last_update":"0001-01-01T00:00:00Z","name_a2s":"Uncletopia | Warsaw | 5 | Stopwatch","protocol":17,"map":"workshop/koth_bagel_rc6.ugc2514036946","folder":"tf","game":"Team Fortress","app_id":440,"player_count":0,"max_players":24,"Bots":0,"server_type":"Dedicated","server_os":"Linux","password":true,"vac":true,"version":"7961495","steam_id":85568392925397854,"keywords":["cp","nocrits","nodmgspread","uncletopia"],"game_id":440,"stv_port":27056,"stv_name":"Uncletopia | Warsaw | 5 | Stopwatch | STV","players":null},{"server_id":54,"name":"Uncletopia | Warsaw | 6 | Community","name_short":"waw-6","host":"waw-1.pl.uncletopia.com","port":27065,"enabled":true,"region":"eu","cc":"pl","latitude":52.2297,"longitude":21.017532,"reserved":0,"last_update":"0001-01-01T00:00:00Z","name_a2s":"Uncletopia | Warsaw | 6 | Community","protocol":17,"map":"workshop/koth_slaughter_rc1.ugc1712845210","folder":"tf","game":"Team Fortress","app_id":440,"player_count":0,"max_players":24,"Bots":0,"server_type":"Dedicated","server_os":"Linux","password":true,"vac":true,"version":"7961495","steam_id":85568392925397856,"keywords":["cp","nocrits","nodmgspread","uncletopia"],"game_id":440,"stv_port":27066,"stv_name":"Uncletopia | Warsaw | 6 | Community | STV","players":null}]}