{"status":true,"message":"","result":[{"server_id":9,"name":"Uncletopia | Atlanta | 1 | All Maps","name_short":"atl-1","host":"atl-1.us.uncletopia.com","port":27015,"enabled":true,"region":"us-east","cc":"us","latitude":33.753746,"longitude":-84.38633,"reserved":0,"last_update":"0001-01-01T00:00:00Z","name_a2s":"Uncletopia | Atlanta | 1 | All Maps","protocol":17,"map":"koth_suijin","folder":"tf","game":"Team Fortress","app_id":440,"player_count":24,"max_players":24,"Bots":0,"server_type":"Dedicated","server_os":"Linux","password":true,"vac":true,"version":"7757534","steam_id":85568392924469982,"keywords":["cp","nocrits","nodmgspread","uncletopia"],"game_id":440,"stv_port":27016,"stv_name":"Uncletopia | Atlanta | 1 | All Maps | STV","players":[{"user_id":515,"name":"vid_","steam_id":76561198065159053,"connected_time":1014000000000,"state":"active","ping":45},{"user_id":527,"name":"Neymar Jr","steam_id":76561199474746475,"connected_time":242000000000,"state":"active","ping":48},{"user_id":476,"name":"You Want Me","steam_id":76561198135492119,"connected_time":4707000000000,"state":"active","ping":72},{"user_id":506,"name":"FemboyNate","steam_id":76561198146636410,"connected_time":1920000000000,"state":"active","ping":52},{"user_id":472,"name":"Bottom Trans Cowgirl","steam_id":76561198304239680,"connected_time":4906000000000,"state":"active","ping":66},{"user_id":439,"name":"melancholy","steam_id":76561198024301465,"connected_time":8199000000000,"state":"active","ping":45},{"user_id":457,"name":"BIG HOG","steam_id":76561198079923652,"connected_time":6686000000000,"state":"active","ping":73},{"user_id":530,"name":"barbara","steam_id":76561198072417792,"connected_time":7000000000,"state":"spawning","ping":82},{"user_id":523,"name":"jake1west","steam_id":76561199468452444,"connected_time":555000000000,"state":"active","ping":108},{"user_id":517,"name":"Uganda Knuckles lll","steam_id":76561199121276474,"connected_time":889000000000,"state":"active","ping":85},{"user_id":522,"name":"Ojen","steam_id":76561197998414482,"connected_time":667000000000,"state":"active","ping":95},{"user_id":524,"name":"Broken Cereal√","steam_id":76561198087489795,"connected_time":407000000000,"state":"active","ping":68},{"user_id":525,"name":"Bali","steam_id":76561198038693845,"connected_time":392000000000,"state":"active","ping":77},{"user_id":526,"name":"=D","steam_id":76561198398465171,"connected_time":294000000000,"state":"active","ping":121},{"user_id":512,"name":"lu","steam_id":76561198080731872,"connected_time":1157000000000,"state":"active","ping":74},{"user_id":480,"name":"O'Keearns","steam_id":76561198042213797,"connected_time":4506000000000,"state":"active","ping":45},{"user_id":496,"name":"Sojuounr (overwatch 2)","steam_id":76561198968337022,"connected_time":2382000000000,"state":"active","ping":54},{"user_id":497,"name":"ATL1 | on my hunting trip","steam_id":76561198315341646,"connected_time":2315000000000,"state":"active","ping":72},{"user_id":482,"name":"atl1icyy","steam_id":76561198968001329,"connected_time":4101000000000,"state":"active","ping":46},{"user_id":529,"name":"ArrowOmega","steam_id":76561198079364917,"connected_time":218000000000,"state":"active","ping":78},{"user_id":514,"name":"ATL2 | S4tisfactoree","steam_id":76561198088337557,"connected_time":1060000000000,"state":"active","ping":59},{"user_id":451,"name":"lil hog","steam_id":76561199230929836,"connected_time":6966000000000,"state":"active","ping":94},{"user_id":509,"name":"[txc] garf","steam_id":76561198083078030,"connected_time":1471000000000,"state":"active","ping":49},{"user_id":521,"name":"Mug","steam_id":76561199282207802,"connected_time":765000000000,"state":"active","ping":68}]},{"server_id":400,"name":"Uncletopia | Atlanta | 3 | Community","name_short":"atl-3","host":"atl-1.us.uncletopia.com","port":27035,"enabled":true,"region":"us-east","cc":"us","latitude":33.753746,"longitude":-84.38633,"reserved":0,"last_update":"0001-01-01T00:00:00Z","name_a2s":"Uncletopia | Atlanta | 3 | Community","protocol":17,"map":"workshop/pl_emerge_rc2.ugc888027758","folder":"tf","game":"Team Fortress","app_id":440,"player_count":0,"max_players":24,"Bots":0,"server_type":"Dedicated","server_os":"Linux","password":true,"vac":true,"version":"7757534","steam_id":85568392924515187,"keywords":["nocrits","nodmgspread","payload","uncletopia"],"game_id":440,"stv_port":27036,"stv_name":"Uncletopia | Atlanta | 3 | Community | STV","players":null},{"server_id":401,"name":"Uncletopia | Atlanta | 4 | No Payload","name_short":"atl-4","host":"atl-1.us.uncletopia.com","port":27045,"enabled":true,"region":"us-east","cc":"us","latitude":33.753746,"longitude":-84.38633,"reserved":0,"last_update":"0001-01-01T00:00:00Z","name_a2s":"","protocol":0,"map":"","folder":"","game":"","app_id":0,"player_count":0,"max_players":0,"Bots":0,"server_type":"","server_os":"","password":false,"vac":false,"version":"","steam_id":0,"keywords":null,"game_id":0,"stv_port":0,"stv_name":"","players":null},{"server_id":2,"name":"Uncletopia | Chicago | 1 | All Maps","name_short":"chi-1","host":"chi-1.us.uncletopia.com","port":27015,"enabled":true,"region":"us-central","cc":"us","latitude":41.881832,"longitude":-87.62318,"reserved":0,"last_update":"0001-01-01T00:00:00Z","name_a2s":"Uncletopia | Chicago | 1 | All Maps","protocol":17,"map":"pl_swiftwater_final1","folder":"tf","game":"Team Fortress","app_id":440,"player_count":24,"max_players":24,"Bots":0,"server_type":"Dedicated","server_os":"Linux","password":true,"vac":true,"version":"7757534","steam_id":85568392924469984,"keywords":["nocrits","nodmgspread","payload","uncletopia"],"game_id":440,"stv_port":27016,"stv_name":"Uncletopia | Chicago | 1 | All Maps | STV","players":[{"user_id":308,"name":"Mister Frank","steam_id":76561198161473385,"connected_time":3124000000000,"state":"active","ping":64},{"user_id":340,"name":"Zero","steam_id":76561199383267408,"connected_time":1214000000000,"state":"active","ping":72},{"user_id":296,"name":"LunarrD","steam_id":76561198811220107,"connected_time":3865000000000,"state":"active","ping":85},{"user_id":350,"name":"Petscop03","steam_id":76561198279217854,"connected_time":146000000000,"state":"active","ping":85},{"user_id":241,"name":"worker","steam_id":76561198039608940,"connected_time":7763000000000,"state":"active","ping":123},{"user_id":338,"name":"Dan","steam_id":76561198205054883,"connected_time":1334000000000,"state":"active","ping":106},{"user_id":341,"name":"tapewyrm","steam_id":76561198072632696,"connected_time":1134000000000,"state":"active","ping":76},{"user_id":336,"name":"Yuhh","steam_id":76561199112894955,"connected_time":1612000000000,"state":"active","ping":78},{"user_id":316,"name":"Dispenser (Twan)","steam_id":76561197991064908,"connected_time":2849000000000,"state":"active","ping":60},{"user_id":332,"name":"pepsibobby","steam_id":76561198853864511,"connected_time":2241000000000,"state":"active","ping":76},{"user_id":236,"name":"Dokkibai","steam_id":76561198355935693,"connected_time":7933000000000,"state":"active","ping":50},{"user_id":351,"name":"Shaquille Oatmeal","steam_id":76561198283213819,"connected_time":145000000000,"state":"active","ping":80},{"user_id":297,"name":"SinkPinkles","steam_id":76561197987805095,"connected_time":3837000000000,"state":"active","ping":90},{"user_id":312,"name":"Jeugh","steam_id":76561198073498865,"connected_time":3046000000000,"state":"active","ping":86},{"user_id":352,"name":"fancyfreak","steam_id":76561198326466375,"connected_time":86000000000,"state":"active","ping":116},{"user_id":330,"name":"Snoball","steam_id":76561198205838372,"connected_time":2326000000000,"state":"active","ping":85},{"user_id":344,"name":"IcemanF12","steam_id":76561198140010054,"connected_time":1091000000000,"state":"active","ping":72},{"user_id":346,"name":"pro-PAIN","steam_id":76561198104544593,"connected_time":755000000000,"state":"active","ping":93},{"user_id":353,"name":"Showtime","steam_id":76561199013126874,"connected_time":80000000000,"state":"active","ping":72},{"user_id":348,"name":"chloe","steam_id":76561198369849908,"connected_time":159000000000,"state":"active","ping":87},{"user_id":334,"name":"toho","steam_id":76561198117747254,"connected_time":1708000000000,"state":"active","ping":72},{"user_id":323,"name":"Bobby","steam_id":76561198164004939,"connected_time":2693000000000,"state":"active","ping":129},{"user_id":331,"name":"get shmelled","steam_id":76561198255825452,"connected_time":2298000000000,"state":"active","ping":64},{"user_id":349,"name":"Goose","steam_id":76561198328998533,"connected_time":158000000000,"state":"active","ping":59}]},{"server_id":106,"name":"Uncletopia | Chicago | 2 | All Maps","name_short":"chi-2","host":"chi-1.us.uncletopia.com","port":27025,"enabled":true,"region":"us-central","cc":"us","latitude":41.881832,"longitude":-87.62318,"reserved":0,"last_update":"0001-01-01T00:00:00Z","name_a2s":"Uncletopia | Chicago | 2 | All Maps","protocol":17,"map":"cp_dustbowl","folder":"tf","game":"Team Fortress","app_id":440,"player_count":23,"max_players":24,"Bots":0,"server_type":"Dedicated","server_os":"Linux","password":true,"vac":true,"version":"7757534","steam_id":85568392924469985,"keywords":["cp","nocrits","nodmgspread","uncletopia"],"game_id":440,"stv_port":27026,"stv_name":"Uncletopia | Chicago | 2 | All Maps | STV","players":[{"user_id":268,"name":"ChaingunnerFails","steam_id":76561198963075967,"connected_time":488000000000,"state":"active","ping":120},{"user_id":260,"name":"Stormz64","steam_id":76561198239036482,"connected_time":1176000000000,"state":"active","ping":37},{"user_id":245,"name":"chinese dark food technology","steam_id":76561198039909187,"connected_time":2410000000000,"state":"active","ping":48},{"user_id":246,"name":"floral green","steam_id":76561198332519926,"connected_time":2017000000000,"state":"active","ping":85},{"user_id":276,"name":"ITSmeTOXIC","steam_id":76561199067764423,"connected_time":256000000000,"state":"active","ping":79},{"user_id":266,"name":"Fart Gaming","steam_id":76561199389283507,"connected_time":850000000000,"state":"active","ping":92},{"user_id":225,"name":"Kapitan Bomba","steam_id":76561199102087660,"connected_time":3440000000000,"state":"active","ping":65},{"user_id":267,"name":"Ranger","steam_id":76561199048628904,"connected_time":668000000000,"state":"active","ping":91},{"user_id":270,"name":"W4terSp1ll","steam_id":76561198964988821,"connected_time":410000000000,"state":"active","ping":71},{"user_id":263,"name":"golem","steam_id":76561198355040593,"connected_time":968000000000,"state":"active","ping":73},{"user_id":278,"name":"Mr.Friendly Reminders","steam_id":76561199067294491,"connected_time":27000000000,"state":"active","ping":49},{"user_id":277,"name":"Rhutebeer","steam_id":76561198018302761,"connected_time":255000000000,"state":"active","ping":101},{"user_id":272,"name":"MAXIMUM OVERDRIVE","steam_id":76561198113992547,"connected_time":401000000000,"state":"active","ping":77},{"user_id":265,"name":"Enron Hubbard","steam_id":76561198012951411,"connected_time":866000000000,"state":"active","ping":57},{"user_id":244,"name":"Black Mage","steam_id":76561198031667381,"connected_time":2528000000000,"state":"active","ping":60},{"user_id":211,"name":"soup","steam_id":76561198077790130,"connected_time":4648000000000,"state":"active","ping":58},{"user_id":206,"name":"wuddles","steam_id":76561198025782349,"connected_time":4813000000000,"state":"active","ping":97},{"user_id":273,"name":"Uno!","steam_id":76561198799400617,"connected_time":395000000000,"state":"active","ping":98},{"user_id":253,"name":"Lambda Gamer-no audio","steam_id":76561198392280580,"connected_time":1841000000000,"state":"active","ping":72},{"user_id":254,"name":"Morgster","steam_id":76561198131697761,"connected_time":1820000000000,"state":"active","ping":73},{"user_id":232,"name":"StompOnYourFace!!!!","steam_id":76561198065581117,"connected_time":3270000000000,"state":"active","ping":72},{"user_id":274,"name":"Chris P. Bacon","steam_id":76561198000851038,"connected_time":388000000000,"state":"active","ping":75},{"user_id":239,"name":"Terismith","steam_id":76561198196600533,"connected_time":2656000000000,"state":"active","ping":99}]},{"server_id":402,"name":"Uncletopia | Chicago | 3 | All Maps","name_short":"chi-3","host":"chi-1.us.uncletopia.com","port":27035,"enabled":true,"region":"us-central","cc":"us","latitude":41.881832,"longitude":-87.62318,"reserved":0,"last_update":"0001-01-01T00:00:00Z","name_a2s":"Uncletopia | Chicago | 3 | All Maps","protocol":17,"map":"pl_frontier_final","folder":"tf","game":"Team Fortress","app_id":440,"player_count":24,"max_players":24,"Bots":0,"server_type":"Dedicated","server_os":"Linux","password":true,"vac":true,"version":"7757534","steam_id":85568392924515191,"keywords":["nocrits","nodmgspread","payload","uncletopia"],"game_id":440,"stv_port":27036,"stv_name":"Uncletopia | Chicago | 3 | All Maps | STV","players":[{"user_id":16,"name":"drillerman115","steam_id":76561198362523323,"connected_time":8295000000000,"state":"active","ping":104},{"user_id":111,"name":"Defragmented","steam_id":76561198854210081,"connected_time":3809000000000,"state":"active","ping":66},{"user_id":143,"name":"420 Shrek It","steam_id":76561198399854981,"connected_time":968000000000,"state":"active","ping":117},{"user_id":116,"name":"rofflehouse","steam_id":76561198090470768,"connected_time":3229000000000,"state":"active","ping":69},{"user_id":132,"name":"she sucked me in a peculiar way","steam_id":76561198081220016,"connected_time":1794000000000,"state":"active","ping":45},{"user_id":24,"name":"watchfull","steam_id":76561198433266742,"connected_time":6679000000000,"state":"active","ping":90},{"user_id":152,"name":"Shattered Soul","steam_id":76561198322226862,"connected_time":132000000000,"state":"active","ping":57},{"user_id":153,"name":"RockMan","steam_id":76561199228684720,"connected_time":60000000000,"state":"active","ping":76},{"user_id":141,"name":"RiverEgg","steam_id":76561198888913405,"connected_time":1153000000000,"state":"active","ping":52},{"user_id":140,"name":"the d do be big","steam_id":76561199101981082,"connected_time":1183000000000,"state":"active","ping":64},{"user_id":145,"name":"The Juicer","steam_id":76561198027247542,"connected_time":761000000000,"state":"active","ping":76},{"user_id":138,"name":"Donkski","steam_id":76561198406895347,"connected_time":1559000000000,"state":"active","ping":73},{"user_id":146,"name":"Gustavo Fring","steam_id":76561198132807405,"connected_time":742000000000,"state":"active","ping":89},{"user_id":154,"name":"Mr0_0Knight","steam_id":76561199471338064,"connected_time":45000000000,"state":"active","ping":60},{"user_id":156,"name":"the journey to hales own","steam_id":76561198842567021,"connected_time":30000000000,"state":"active","ping":91},{"user_id":38,"name":"Brain Rot Zee","steam_id":76561198094070642,"connected_time":6005000000000,"state":"active","ping":99},{"user_id":137,"name":"loudpisser","steam_id":76561198078802110,"connected_time":1573000000000,"state":"active","ping":72},{"user_id":131,"name":"Captain tikleBLLZ","steam_id":76561198824521027,"connected_time":1813000000000,"state":"active","ping":66},{"user_id":147,"name":"[BBW] Justario","steam_id":76561198016095410,"connected_time":736000000000,"state":"active","ping":71},{"user_id":136,"name":"TheSnipersHat","steam_id":76561198057684066,"connected_time":1654000000000,"state":"active","ping":62},{"user_id":151,"name":"TheTruthOfTheCessationOfDukkha","steam_id":76561198214370515,"connected_time":254000000000,"state":"active","ping":68},{"user_id":125,"name":"FredTheGreater4","steam_id":76561198046542305,"connected_time":2700000000000,"state":"active","ping":126},{"user_id":157,"name":"tinkercrab11","steam_id":76561198881792140,"connected_time":22000000000,"state":"spawning","ping":76},{"user_id":149,"name":"Purple Pajamas","steam_id":76561199174310124,"connected_time":586000000000,"state":"active","ping":68}]},{"server_id":403,"name":"Uncletopia | Chicago | 4 | All Maps","name_short":"chi-4","host":"chi-1.us.uncletopia.com","port":27045,"enabled":true,"region":"us-central","cc":"us","latitude":41.881832,"longitude":-87.62318,"reserved":0,"last_update":"0001-01-01T00:00:00Z","name_a2s":"Uncletopia | Chicago | 4 | All Maps","protocol":17,"map":"koth_cascade","folder":"tf","game":"Team Fortress","app_id":440,"player_count":0,"max_players":24,"Bots":0,"server_type":"Dedicated","server_os":"Linux","password":true,"vac":true,"version":"7757534","steam_id":85568392924515193,"keywords":["cp","nocrits","nodmgspread","uncletopia"],"game_id":440,"stv_port":27046,"stv_name":"Uncletopia | Chicago | 4 | All Maps | STV","players":null},{"server_id":36,"name":"Uncletopia | Chicago | 5 | All Maps","name_short":"chi-5","host":"chi-2.us.uncletopia.com","port":27015,"enabled":true,"region":"us-central","cc":"us","latitude":41.881832,"longitude":-87.62318,"reserved":0,"last_update":"0001-01-01T00:00:00Z","name_a2s":"Uncletopia | Chicago | 5 | All Maps","protocol":17,"map":"koth_suijin","folder":"tf","game":"Team Fortress","app_id":440,"player_count":0,"max_players":24,"Bots":0,"server_type":"Dedicated","server_os":"Linux","password":true,"vac":true,"version":"7757534","steam_id":85568392924866362,"keywords":["cp","nocrits","nodmgspread","uncletopia"],"game_id":440,"stv_port":27016,"stv_name":"Uncletopia | Chicago | 5 | All Maps | STV","players":null},{"server_id":37,"name":"Uncletopia | Chicago | 6 | All Maps","name_short":"chi-6","host":"chi-2.us.uncletopia.com","port":27025,"enabled":true,"region":"us-central","cc":"us","latitude":41.881832,"longitude":-87.62318,"reserved":0,"last_update":"0001-01-01T00:00:00Z","name_a2s":"Uncletopia | Chicago | 6 | All Maps","protocol":17,"map":"pl_frontier_final","folder":"tf","game":"Team Fortress","app_id":440,"player_count":24,"max_players":24,"Bots":0,"server_type":"Dedicated","server_os":"Linux","password":true,"vac":true,"version":"7757534","steam_id":85568392924866363,"keywords":["nocrits","nodmgspread","payload","uncletopia"],"game_id":440,"stv_port":27026,"stv_name":"Uncletopia | Chicago | 6 | All Maps | STV","players":[{"user_id":117,"name":"Recursive Gamer","steam_id":76561198042102952,"connected_time":2131000000000,"state":"active","ping":61},{"user_id":144,"name":"dr sex, md (sexologist)","steam_id":76561198115874625,"connected_time":742000000000,"state":"active","ping":74},{"user_id":145,"name":"poijm","steam_id":76561198012945016,"connected_time":726000000000,"state":"active","ping":57},{"user_id":146,"name":"Faye87","steam_id":76561198201412727,"connected_time":690000000000,"state":"active","ping":58},{"user_id":97,"name":"The_Pacific_gamer","steam_id":76561198089491446,"connected_time":4144000000000,"state":"active","ping":93},{"user_id":151,"name":"coda","steam_id":76561198405945246,"connected_time":466000000000,"state":"active","ping":106},{"user_id":71,"name":"bojack from the show bojack hor","steam_id":76561198053006712,"connected_time":5321000000000,"state":"active","ping":60},{"user_id":137,"name":"Jill the Owl","steam_id":76561197999210583,"connected_time":1188000000000,"state":"active","ping":74},{"user_id":121,"name":"RedSock","steam_id":76561198161243404,"connected_time":2025000000000,"state":"active","ping":39},{"user_id":122,"name":"fice","steam_id":76561198860361610,"connected_time":1996000000000,"state":"active","ping":74},{"user_id":123,"name":"Dookie","steam_id":76561198354025894,"connected_time":1937000000000,"state":"active","ping":66},{"user_id":148,"name":"vinny6","steam_id":76561198386735728,"connected_time":615000000000,"state":"active","ping":64},{"user_id":114,"name":"Billybob7712","steam_id":76561199000291076,"connected_time":2812000000000,"state":"active","ping":109},{"user_id":125,"name":"John Creasman","steam_id":76561199107330009,"connected_time":1846000000000,"state":"active","ping":159},{"user_id":126,"name":"Venclaire","steam_id":76561198053837612,"connected_time":1798000000000,"state":"active","ping":63},{"user_id":153,"name":"Kidzbopsicle","steam_id":76561198047660691,"connected_time":228000000000,"state":"active","ping":57},{"user_id":113,"name":"Steen","steam_id":76561198122992510,"connected_time":2825000000000,"state":"active","ping":140},{"user_id":142,"name":"Ripheart","steam_id":76561198089661561,"connected_time":807000000000,"state":"active","ping":43},{"user_id":143,"name":"Dr. Pleasant","steam_id":76561198111945101,"connected_time":790000000000,"state":"active","ping":70},{"user_id":140,"name":"nhbiker","steam_id":76561198081277675,"connected_time":884000000000,"state":"active","ping":59},{"user_id":152,"name":"Tactical Thug","steam_id":76561198393409072,"connected_time":294000000000,"state":"active","ping":74},{"user_id":139,"name":"CopperBox","steam_id":76561198068217248,"connected_time":931000000000,"state":"active","ping":101},{"user_id":150,"name":"yvko","steam_id":76561198165724991,"connected_time":565000000000,"state":"active","ping":76},{"user_id":154,"name":"Simply_Komeiji","steam_id":76561198354177703,"connected_time":122000000000,"state":"active","ping":97}]},{"server_id":38,"name":"Uncletopia | Chicago | 7 | Stopwatch Beta","name_short":"chi-7","host":"chi-2.us.uncletopia.com","port":27035,"enabled":true,"region":"us-central","cc":"us","latitude":41.881832,"longitude":-87.62318,"reserved":0,"last_update":"0001-01-01T00:00:00Z","name_a2s":"Uncletopia | Chicago | 7 | Stopwatch Beta","protocol":17,"map":"cp_metalworks","folder":"tf","game":"Team Fortress","app_id":440,"player_count":4,"max_players":24,"Bots":0,"server_type":"Dedicated","server_os":"Linux","password":true,"vac":true,"version":"7757534","steam_id":85568392924866364,"keywords":["cp","nocrits","nodmgspread","uncletopia"],"game_id":440,"stv_port":27036,"stv_name":"Uncletopia | Chicago | 7 | Stopwatch Beta | STV","players":[{"user_id":4,"name":"Lakhesis","steam_id":76561197969796919,"connected_time":3473000000000,"state":"active","ping":56},{"user_id":5,"name":"FartExploder01","steam_id":76561199124760806,"connected_time":3457000000000,"state":"active","ping":54},{"user_id":9,"name":"motH","steam_id":76561199187555175,"connected_time":462000000000,"state":"active","ping":63},{"user_id":10,"name":"GaMeRbOi","steam_id":76561199094353617,"connected_time":409000000000,"state":"active","ping":100}]},{"server_id":39,"name":"Uncletopia | Chicago | 8 | Community","name_short":"chi-8","host":"chi-2.us.uncletopia.com","port":27045,"enabled":true,"region":"us-central","cc":"us","latitude":41.881832,"longitude":-87.62318,"reserved":0,"last_update":"0001-01-01T00:00:00Z","name_a2s":"Uncletopia | Chicago | 8 | Community","protocol":17,"map":"koth_lakeside_final","folder":"tf","game":"Team Fortress","app_id":440,"player_count":0,"max_players":24,"Bots":0,"server_type":"Dedicated","server_os":"Linux","password":true,"vac":true,"version":"7757534","steam_id":85568392924866365,"keywords":["cp","nocrits","nodmgspread","uncletopia"],"game_id":440,"stv_port":27046,"stv_name":"Uncletopia | Chicago | 8 | Community | STV","players":null},{"server_id":8,"name":"Uncletopia | Dallas | 1 | All Maps","name_short":"dal-1","host":"dal-1.us.uncletopia.com","port":27015,"enabled":true,"region":"us-central","cc":"us","latitude":32.779167,"longitude":-96.80889,"reserved":0,"last_update":"0001-01-01T00:00:00Z","name_a2s":"Uncletopia | Dallas | 1 | All Maps","protocol":17,"map":"cp_granary","folder":"tf","game":"Team Fortress","app_id":440,"player_count":21,"max_players":24,"Bots":0,"server_type":"Dedicated","server_os":"Linux","password":true,"vac":true,"version":"7757534","steam_id":85568392924469986,"keywords":["cp","nocrits","nodmgspread","uncletopia"],"game_id":440,"stv_port":27016,"stv_name":"Uncletopia | Dallas | 1 | All Maps | STV","players":[{"user_id":361,"name":"The Ultimate Coomer","steam_id":76561199128833757,"connected_time":3981000000000,"state":"active","ping":45},{"user_id":395,"name":"Nolan (Femboy)","steam_id":76561198082534795,"connected_time":1133000000000,"state":"active","ping":75},{"user_id":408,"name":"Hyden da kobobl","steam_id":76561198837931725,"connected_time":444000000000,"state":"active","ping":104},{"user_id":383,"name":"Cofi","steam_id":76561199026721822,"connected_time":1685000000000,"state":"active","ping":90},{"user_id":411,"name":"Mr. Bixby","steam_id":76561198868839264,"connected_time":290000000000,"state":"active","ping":43},{"user_id":410,"name":"Gian","steam_id":76561198041434512,"connected_time":410000000000,"state":"active","ping":105},{"user_id":372,"name":"grunch","steam_id":76561198354292689,"connected_time":2777000000000,"state":"active","ping":52},{"user_id":360,"name":"Huell Howser","steam_id":76561198006387337,"connected_time":4042000000000,"state":"active","ping":76},{"user_id":396,"name":"nay ners","steam_id":76561199238480644,"connected_time":1120000000000,"state":"active","ping":86},{"user_id":389,"name":"Pope","steam_id":76561198053768137,"connected_time":1487000000000,"state":"active","ping":48},{"user_id":407,"name":"blue","steam_id":76561198342449098,"connected_time":592000000000,"state":"active","ping":42},{"user_id":406,"name":"TheFireRanger","steam_id":76561198970305585,"connected_time":617000000000,"state":"active","ping":69},{"user_id":378,"name":"CFG Ponder","steam_id":76561198127039453,"connected_time":1886000000000,"state":"active","ping":76},{"user_id":401,"name":"amazing","steam_id":76561198386233160,"connected_time":984000000000,"state":"active","ping":52},{"user_id":394,"name":"CGamer6155","steam_id":76561199440141596,"connected_time":1256000000000,"state":"active","ping":77},{"user_id":409,"name":"Mc_FlipFlops","steam_id":76561198982959220,"connected_time":421000000000,"state":"active","ping":94},{"user_id":400,"name":"Vensita","steam_id":76561198372434928,"connected_time":1057000000000,"state":"active","ping":56},{"user_id":352,"name":"A Gamer [F2P]","steam_id":76561198138712892,"connected_time":4447000000000,"state":"active","ping":33},{"user_id":176,"name":"BamboozleMcdoozle","steam_id":76561198166510167,"connected_time":18307000000000,"state":"active","ping":75},{"user_id":413,"name":"large baja blast","steam_id":76561198101971132,"connected_time":96000000000,"state":"active","ping":57},{"user_id":414,"name":"adam0o0","steam_id":76561198052250279,"connected_time":84000000000,"state":"active","ping":70}]},{"server_id":108,"name":"Uncletopia | Dallas | 2 | All Maps","name_short":"dal-2","host":"dal-1.us.uncletopia.com","port":27025,"enabled":true,"region":"us-central","cc":"us","latitude":32.779167,"longitude":-96.80889,"reserved":0,"last_update":"0001-01-01T00:00:00Z","name_a2s":"Uncletopia | Dallas | 2 | All Maps","protocol":17,"map":"cp_dustbowl","folder":"tf","game":"Team Fortress","app_id":440,"player_count":0,"max_players":24,"Bots":0,"server_type":"Dedicated","server_os":"Linux","password":true,"vac":true,"version":"7757534","steam_id":85568392924469988,"keywords":["cp","nocrits","nodmgspread","uncletopia"],"game_id":440,"stv_port":27026,"stv_name":"Uncletopia | Dallas | 2 | All Maps | STV","players":null},{"server_id":5,"name":"Uncletopia | Frankfurt | 1 | All Maps","name_short":"frk-1","host":"frk-1.de.uncletopia.com","port":27015,"enabled":true,"region":"eu","cc":"de","latitude":50.110924,"longitude":8.682127,"reserved":0,"last_update":"0001-01-01T00:00:00Z","name_a2s":"Uncletopia | Frankfurt | 1 | All Maps","protocol":17,"map":"cp_sunshine","folder":"tf","game":"Team Fortress","app_id":440,"player_count":0,"max_players":24,"Bots":0,"server_type":"Dedicated","server_os":"Linux","password":true,"vac":true,"version":"7757534","steam_id":85568392924469989,"keywords":["cp","nocrits","nodmgspread","uncletopia"],"game_id":440,"stv_port":27016,"stv_name":"Uncletopia | Frankfurt | 1 | All Maps | STV","players":null},{"server_id":110,"name":"Uncletopia | Frankfurt | 2 | All Maps","name_short":"frk-2","host":"frk-1.de.uncletopia.com","port":27025,"enabled":true,"region":"eu","cc":"de","latitude":50.110924,"longitude":8.682127,"reserved":0,"last_update":"0001-01-01T00:00:00Z","name_a2s":"Uncletopia | Frankfurt | 2 | All Maps","protocol":17,"map":"cp_mountainlab","folder":"tf","game":"Team Fortress","app_id":440,"player_count":0,"max_players":24,"Bots":0,"server_type":"Dedicated","server_os":"Linux","password":true,"vac":true,"version":"7757534","steam_id":85568392924469990,"keywords":["cp","nocrits","nodmgspread","uncletopia"],"game_id":440,"stv_port":27026,"stv_name":"Uncletopia | Frankfurt | 2 | All Maps | STV","players":null},{"server_id":308,"name":"Uncletopia | Frankfurt | 3 | All Maps","name_short":"frk-3","host":"frk-1.de.uncletopia.com","port":27035,"enabled":true,"region":"eu","cc":"de","latitude":50.110924,"longitude":8.682127,"reserved":0,"last_update":"0001-01-01T00:00:00Z","name_a2s":"Uncletopia | Frankfurt | 3 | All Maps","protocol":17,"map":"pl_frontier_final","folder":"tf","game":"Team Fortress","app_id":440,"player_count":24,"max_players":24,"Bots":0,"server_type":"Dedicated","server_os":"Linux","password":true,"vac":true,"version":"7757534","steam_id":85568392924504274,"keywords":["nocrits","nodmgspread","payload","uncletopia"],"game_id":440,"stv_port":27036,"stv_name":"Uncletopia | Frankfurt | 3 | All Maps | STV","players":[{"user_id":478,"name":"Psychicpie","steam_id":76561198126065206,"connected_time":3795000000000,"state":"active","ping":46},{"user_id":509,"name":"randompixel","steam_id":76561198003941207,"connected_time":2649000000000,"state":"active","ping":69},{"user_id":513,"name":"godmodule","steam_id":76561198165995444,"connected_time":2326000000000,"state":"active","ping":67},{"user_id":546,"name":"TacoGeek","steam_id":76561198057793191,"connected_time":371000000000,"state":"active","ping":166},{"user_id":532,"name":"Haku*","steam_id":76561198013292193,"connected_time":1577000000000,"state":"active","ping":61},{"user_id":487,"name":"PootisCoin Investor","steam_id":76561197970114051,"connected_time":3478000000000,"state":"active","ping":59},{"user_id":488,"name":"Charon","steam_id":76561198061714753,"connected_time":3476000000000,"state":"active","ping":89},{"user_id":533,"name":"Russenluster","steam_id":76561198118016220,"connected_time":1552000000000,"state":"active","ping":51},{"user_id":536,"name":"Private_tm","steam_id":76561198056281480,"connected_time":1337000000000,"state":"active","ping":66},{"user_id":519,"name":"nedilya","steam_id":76561198039692077,"connected_time":2154000000000,"state":"active","ping":53},{"user_id":517,"name":"Frank","steam_id":76561198086672774,"connected_time":2183000000000,"state":"active","ping":66},{"user_id":493,"name":"Femboy with the wrong pronouns","steam_id":76561198072320671,"connected_time":3449000000000,"state":"active","ping":48},{"user_id":542,"name":"UndercoverFurbyHunter","steam_id":76561198265722644,"connected_time":510000000000,"state":"active","ping":95},{"user_id":537,"name":"triangle","steam_id":76561198046838168,"connected_time":869000000000,"state":"active","ping":47},{"user_id":499,"name":"Phalcon","steam_id":76561197987051394,"connected_time":3257000000000,"state":"active","ping":75},{"user_id":500,"name":"DarthMurloc_OW","steam_id":76561198075577711,"connected_time":3257000000000,"state":"active","ping":75},{"user_id":525,"name":"Joint the Ripper","steam_id":76561198126762760,"connected_time":1933000000000,"state":"active","ping":56},{"user_id":549,"name":"calamitous rizz","steam_id":76561198175433731,"connected_time":134000000000,"state":"active","ping":81},{"user_id":547,"name":"Nyx","steam_id":76561199234201775,"connected_time":307000000000,"state":"active","ping":63},{"user_id":521,"name":"Беляш-eбляш","steam_id":76561198122946306,"connected_time":2070000000000,"state":"active","ping":83},{"user_id":545,"name":"grant'd","steam_id":76561198056152479,"connected_time":389000000000,"state":"active","ping":60},{"user_id":527,"name":"Pico","steam_id":76561198063552545,"connected_time":1895000000000,"state":"active","ping":98},{"user_id":526,"name":"oldy","steam_id":76561198031899043,"connected_time":1924000000000,"state":"active","ping":93},{"user_id":539,"name":"ali.","steam_id":76561198148359093,"connected_time":739000000000,"state":"active","ping":52}]},{"server_id":309,"name":"Uncletopia | Frankfurt | 4 | All Maps","name_short":"frk-4","host":"frk-1.de.uncletopia.com","port":27045,"enabled":true,"region":"eu","cc":"de","latitude":50.110924,"longitude":8.682127,"reserved":0,"last_update":"0001-01-01T00:00:00Z","name_a2s":"Uncletopia | Frankfurt | 4 | All Maps","protocol":17,"map":"koth_highpass","folder":"tf","game":"Team Fortress","app_id":440,"player_count":0,"max_players":24,"Bots":0,"server_type":"Dedicated","server_os":"Linux","password":true,"vac":true,"version":"7757534","steam_id":85568392924504275,"keywords":["cp","nocrits","nodmgspread","uncletopia"],"game_id":440,"stv_port":27046,"stv_name":"Uncletopia | Frankfurt | 4 | All Maps | STV","players":null},{"server_id":310,"name":"Uncletopia | Frankfurt | 5 | All Maps","name_short":"frk-5","host":"frk-1.de.uncletopia.com","port":27055,"enabled":true,"region":"eu","cc":"de","latitude":50.110924,"longitude":8.682127,"reserved":0,"last_update":"0001-01-01T00:00:00Z","name_a2s":"Uncletopia | Frankfurt | 5 | All Maps","protocol":17,"map":"cp_snakewater_final1","folder":"tf","game":"Team Fortress","app_id":440,"player_count":4,"max_players":24,"Bots":0,"server_type":"Dedicated","server_os":"Linux","password":true,"vac":true,"version":"7757534","steam_id":85568392924504277,"keywords":["cp","nocrits","nodmgspread","uncletopia"],"game_id":440,"stv_port":27056,"stv_name":"Uncletopia | Frankfurt | 5 | All Maps | STV","players":[{"user_id":456,"name":"Bobo","steam_id":76561198052308399,"connected_time":3413000000000,"state":"active","ping":55},{"user_id":491,"name":"Bootleg Hawkeye","steam_id":76561198410598772,"connected_time":235000000000,"state":"active","ping":55},{"user_id":492,"name":"Bungallo Bill","steam_id":76561199233342167,"connected_time":64000000000,"state":"active","ping":166},{"user_id":461,"name":"Bonca","steam_id":76561198137503531,"connected_time":2991000000000,"state":"active","ping":74}]},{"server_id":311,"name":"Uncletopia | Frankfurt | 6 | All Maps","name_short":"frk-6","host":"frk-1.de.uncletopia.com","port":27065,"enabled":true,"region":"eu","cc":"de","latitude":50.110924,"longitude":8.682127,"reserved":0,"last_update":"0001-01-01T00:00:00Z","name_a2s":"Uncletopia | Frankfurt | 6 | All Maps","protocol":17,"map":"cp_sunshine","folder":"tf","game":"Team Fortress","app_id":440,"player_count":23,"max_players":24,"Bots":0,"server_type":"Dedicated","server_os":"Linux","password":true,"vac":true,"version":"7757534","steam_id":85568392924504278,"keywords":["cp","nocrits","nodmgspread","uncletopia"],"game_id":440,"stv_port":27066,"stv_name":"Uncletopia | Frankfurt | 6 | All Maps | STV","players":[{"user_id":488,"name":"orneps489","steam_id":76561199124755916,"connected_time":1911000000000,"state":"active","ping":148},{"user_id":466,"name":"Mr Manager","steam_id":76561198021775885,"connected_time":3555000000000,"state":"active","ping":50},{"user_id":511,"name":"Сэмпай Галила","steam_id":76561198155412801,"connected_time":138000000000,"state":"active","ping":85},{"user_id":439,"name":"Yangus","steam_id":76561198147796010,"connected_time":6677000000000,"state":"active","ping":55},{"user_id":492,"name":"Videogamer","steam_id":76561198106012909,"connected_time":1570000000000,"state":"active","ping":70},{"user_id":487,"name":"fénix","steam_id":76561198083199151,"connected_time":2005000000000,"state":"active","ping":62},{"user_id":491,"name":"Athomix","steam_id":76561198170108402,"connected_time":1621000000000,"state":"active","ping":47},{"user_id":510,"name":"=^_^=","steam_id":76561198076494034,"connected_time":174000000000,"state":"active","ping":54},{"user_id":514,"name":"The last Braincell","steam_id":76561199145278275,"connected_time":110000000000,"state":"active","ping":43},{"user_id":513,"name":"Syringe Trooper","steam_id":76561199114290266,"connected_time":124000000000,"state":"active","ping":167},{"user_id":515,"name":"TheLateAvenger","steam_id":76561198082369125,"connected_time":93000000000,"state":"active","ping":56},{"user_id":516,"name":"neko pei","steam_id":76561198315388141,"connected_time":76000000000,"state":"active","ping":59},{"user_id":517,"name":"oppacls","steam_id":76561198206470949,"connected_time":57000000000,"state":"active","ping":70},{"user_id":476,"name":"Vershal Smershal","steam_id":76561198116223995,"connected_time":3192000000000,"state":"active","ping":60},{"user_id":507,"name":"Zogg","steam_id":76561198352683491,"connected_time":889000000000,"state":"active","ping":54},{"user_id":518,"name":"☞LaZe☜","steam_id":76561198202191400,"connected_time":35000000000,"state":"active","ping":65},{"user_id":420,"name":"Pilaarius","steam_id":76561198120273212,"connected_time":7634000000000,"state":"active","ping":109},{"user_id":473,"name":"JeanCorben","steam_id":76561197965133561,"connected_time":3471000000000,"state":"active","ping":46},{"user_id":505,"name":"Ready Rice™","steam_id":76561198091969871,"connected_time":1173000000000,"state":"active","ping":93},{"user_id":499,"name":"Tonne","steam_id":76561197970856766,"connected_time":1309000000000,"state":"active","ping":61},{"user_id":506,"name":"BeefHammer","steam_id":76561198078426223,"connected_time":1167000000000,"state":"active","ping":99},{"user_id":503,"name":"oscail","steam_id":76561198180640198,"connected_time":1238000000000,"state":"active","ping":81},{"user_id":509,"name":"Vekkuli","steam_id":76561198107618679,"connected_time":495000000000,"state":"active","ping":85}]},{"server_id":23,"name":"Uncletopia | Frankfurt | 7 | Stopwatch Beta","name_short":"frk-7","host":"frk-1.de.uncletopia.com","port":27075,"enabled":true,"region":"eu","cc":"de","latitude":50.110924,"longitude":8.682127,"reserved":0,"last_update":"0001-01-01T00:00:00Z","name_a2s":"Uncletopia | Frankfurt | 7 | Stopwatch Beta","protocol":17,"map":"pl_borneo","folder":"tf","game":"Team Fortress","app_id":440,"player_count":0,"max_players":24,"Bots":0,"server_type":"Dedicated","server_os":"Linux","password":true,"vac":true,"version":"7757534","steam_id":85568392924742827,"keywords":["nocrits","nodmgspread","payload","uncletopia"],"game_id":440,"stv_port":27076,"stv_name":"Uncletopia | Frankfurt | 7 | Stopwatch Beta | STV","players":null},{"server_id":24,"name":"Uncletopia | Frankfurt | 8 | Community","name_short":"frk-8","host":"frk-1.de.uncletopia.com","port":27085,"enabled":true,"region":"eu","cc":"de","latitude":50.110924,"longitude":8.682127,"reserved":0,"last_update":"0001-01-01T00:00:00Z","name_a2s":"Uncletopia | Frankfurt | 8 | Community","protocol":17,"map":"workshop/koth_synthetic_rc6a.ugc1549817316","folder":"tf","game":"Team Fortress","app_id":440,"player_count":0,"max_players":24,"Bots":0,"server_type":"Dedicated","server_os":"Linux","password":true,"vac":true,"version":"7757534","steam_id":85568392924742828,"keywords":["cp","nocrits","nodmgspread","uncletopia"],"game_id":440,"stv_port":27086,"stv_name":"Uncletopia | Frankfurt | 8 | Community | STV","players":null},{"server_id":202,"name":"Uncletopia | Hong Kong | 1 | All Maps","name_short":"hgk-1","host":"hgk-1.hk.uncletopia.com","port":27015,"enabled":true,"region":"asia","cc":"hk","latitude":22.302711,"longitude":114.177216,"reserved":0,"last_update":"0001-01-01T00:00:00Z","name_a2s":"Uncletopia | Hong Kong | 1 | All Maps","protocol":17,"map":"cp_altitude","folder":"tf","game":"Team Fortress","app_id":440,"player_count":0,"max_players":24,"Bots":0,"server_type":"Dedicated","server_os":"Linux","password":true,"vac":true,"version":"7757534","steam_id":85568392924494504,"keywords":["cp","nocrits","nodmgspread","uncletopia"],"game_id":440,"stv_port":27016,"stv_name":"Uncletopia | Hong Kong | 1 | All Maps | STV","players":null},{"server_id":1,"name":"Uncletopia | Los Angeles | 1 | All Maps","name_short":"lax-1","host":"lax-1.us.uncletopia.com","port":27015,"enabled":true,"region":"us-west","cc":"us","latitude":33.94279,"longitude":-118.41004,"reserved":0,"last_update":"0001-01-01T00:00:00Z","name_a2s":"Uncletopia | Los Angeles | 1 | All Maps","protocol":17,"map":"cp_snakewater_final1","folder":"tf","game":"Team Fortress","app_id":440,"player_count":0,"max_players":24,"Bots":0,"server_type":"Dedicated","server_os":"Linux","password":true,"vac":true,"version":"7757534","steam_id":85568392924469991,"keywords":["cp","nocrits","nodmgspread","uncletopia"],"game_id":440,"stv_port":27016,"stv_name":"Uncletopia | Los Angeles | 1 | All Maps | STV","players":null},{"server_id":112,"name":"Uncletopia | Los Angeles | 2 | All Maps","name_short":"lax-2","host":"lax-1.us.uncletopia.com","port":27025,"enabled":true,"region":"us-west","cc":"us","latitude":33.94279,"longitude":-118.41004,"reserved":0,"last_update":"0001-01-01T00:00:00Z","name_a2s":"Uncletopia | Los Angeles | 2 | All Maps","protocol":17,"map":"koth_viaduct","folder":"tf","game":"Team Fortress","app_id":440,"player_count":0,"max_players":24,"Bots":0,"server_type":"Dedicated","server_os":"Linux","password":true,"vac":true,"version":"7757534","steam_id":85568392924469992,"keywords":["cp","nocrits","nodmgspread","uncletopia"],"game_id":440,"stv_port":27026,"stv_name":"Uncletopia | Los Angeles | 2 | All Maps | STV","players":null},{"server_id":324,"name":"Uncletopia | Los Angeles | 3 | All Maps","name_short":"lax-3","host":"lax-1.us.uncletopia.com","port":27035,"enabled":true,"region":"us-west","cc":"us","latitude":33.94279,"longitude":-118.41004,"reserved":0,"last_update":"0001-01-01T00:00:00Z","name_a2s":"Uncletopia | Los Angeles | 3 | All Maps","protocol":17,"map":"cp_altitude","folder":"tf","game":"Team Fortress","app_id":440,"player_count":0,"max_players":24,"Bots":0,"server_type":"Dedicated","server_os":"Linux","password":true,"vac":true,"version":"7757534","steam_id":85568392924510198,"keywords":["cp","nocrits","nodmgspread","uncletopia"],"game_id":440,"stv_port":27036,"stv_name":"Uncletopia | Los Angeles | 3 | All Maps | STV","players":null},{"server_id":25,"name":"Uncletopia | Los Angeles | 4 | Stopwatch Beta","name_short":"lax-4","host":"lax-1.us.uncletopia.com","port":27045,"enabled":true,"region":"us-west","cc":"us","latitude":33.94279,"longitude":-118.41004,"reserved":0,"last_update":"0001-01-01T00:00:00Z","name_a2s":"Uncletopia | Los Angeles | 4 | Stopwatch Beta","protocol":17,"map":"cp_dustbowl","folder":"tf","game":"Team Fortress","app_id":440,"player_count":0,"max_players":24,"Bots":0,"server_type":"Dedicated","server_os":"Linux","password":true,"vac":true,"version":"7757534","steam_id":85568392924510199,"keywords":["cp","nocrits","nodmgspread","uncletopia"],"game_id":440,"stv_port":27046,"stv_name":"Uncletopia | Los Angeles | 4 | Stopwatch Beta | STV","players":null},{"server_id":11,"name":"Uncletopia | London | 1 | All Maps","name_short":"lon-1","host":"lon-1.uk.uncletopia.com","port":27015,"enabled":true,"region":"eu","cc":"gb","latitude":51.509865,"longitude":-0.118092,"reserved":0,"last_update":"0001-01-01T00:00:00Z","name_a2s":"Uncletopia | London | 1 | All Maps","protocol":17,"map":"pl_borneo","folder":"tf","game":"Team Fortress","app_id":440,"player_count":24,"max_players":24,"Bots":0,"server_type":"Dedicated","server_os":"Linux","password":true,"vac":true,"version":"7757534","steam_id":85568392924367362,"keywords":["nocrits","nodmgspread","payload","uncletopia"],"game_id":440,"stv_port":27016,"stv_name":"Uncletopia | London | 1 | All Maps | STV","players":[{"user_id":747,"name":"Zombi3","steam_id":76561198326290621,"connected_time":385000000000,"state":"active","ping":62},{"user_id":740,"name":"Burkoló","steam_id":76561198054702657,"connected_time":723000000000,"state":"active","ping":78},{"user_id":748,"name":"JohnnyRakieta","steam_id":76561198855789287,"connected_time":290000000000,"state":"active","ping":71},{"user_id":728,"name":"kry4e_Цrуа i БОГА","steam_id":76561199277727142,"connected_time":1553000000000,"state":"active","ping":118},{"user_id":694,"name":"aslloc((sizeof(U64) \u003c\u003c 0xff));","steam_id":76561198365870439,"connected_time":4069000000000,"state":"active","ping":99},{"user_id":704,"name":"Aaron","steam_id":76561197990046953,"connected_time":3408000000000,"state":"active","ping":60},{"user_id":696,"name":"✪ Danny","steam_id":76561198104483241,"connected_time":3828000000000,"state":"active","ping":50},{"user_id":683,"name":"Hotgamerdad","steam_id":76561198085940613,"connected_time":4937000000000,"state":"active","ping":58},{"user_id":742,"name":"Skinny101","steam_id":76561197985599360,"connected_time":632000000000,"state":"active","ping":54},{"user_id":736,"name":"dagadt_tyúk.69","steam_id":76561198147173457,"connected_time":980000000000,"state":"active","ping":79},{"user_id":743,"name":"gibb (official)","steam_id":76561198074097655,"connected_time":630000000000,"state":"active","ping":37},{"user_id":711,"name":"bullbdoog","steam_id":76561198332951792,"connected_time":2268000000000,"state":"active","ping":76},{"user_id":705,"name":"Uncle Owen","steam_id":76561198157999291,"connected_time":3164000000000,"state":"active","ping":86},{"user_id":749,"name":"POLISH_cow/yourmom","steam_id":76561199453766677,"connected_time":153000000000,"state":"active","ping":144},{"user_id":715,"name":"Marquis de Hoto","steam_id":76561198080687708,"connected_time":2201000000000,"state":"active","ping":73},{"user_id":717,"name":"Sin-T Gaming","steam_id":76561199105173837,"connected_time":2169000000000,"state":"active","ping":76},{"user_id":730,"name":"Bo","steam_id":76561198023975550,"connected_time":1474000000000,"state":"active","ping":55},{"user_id":721,"name":"Roger Slippers","steam_id":76561198188642265,"connected_time":2098000000000,"state":"active","ping":66},{"user_id":744,"name":"tm`","steam_id":76561197993580412,"connected_time":602000000000,"state":"active","ping":72},{"user_id":724,"name":"U1F","steam_id":76561198053700703,"connected_time":2045000000000,"state":"active","ping":59},{"user_id":734,"name":".erik (real)","steam_id":76561197962112424,"connected_time":1180000000000,"state":"active","ping":74},{"user_id":726,"name":"Anjero","steam_id":76561199013508066,"connected_time":2012000000000,"state":"active","ping":117},{"user_id":688,"name":"The Bean Man","steam_id":76561198046932811,"connected_time":4831000000000,"state":"active","ping":63},{"user_id":746,"name":"Purps","steam_id":76561198053886680,"connected_time":469000000000,"state":"active","ping":42}]},{"server_id":114,"name":"Uncletopia | London | 2 | All Maps","name_short":"lon-2","host":"lon-1.uk.uncletopia.com","port":27025,"enabled":true,"region":"eu","cc":"gb","latitude":51.509865,"longitude":-0.118092,"reserved":0,"last_update":"0001-01-01T00:00:00Z","name_a2s":"Uncletopia | London | 2 | All Maps","protocol":17,"map":"koth_lakeside_final","folder":"tf","game":"Team Fortress","app_id":440,"player_count":0,"max_players":24,"Bots":0,"server_type":"Dedicated","server_os":"Linux","password":true,"vac":true,"version":"7757534","steam_id":85568392924470941,"keywords":["cp","nocrits","nodmgspread","uncletopia"],"game_id":440,"stv_port":27026,"stv_name":"Uncletopia | London | 2 | All Maps | STV","players":null},{"server_id":320,"name":"Uncletopia | London | 3 | All Maps","name_short":"lon-3","host":"lon-1.uk.uncletopia.com","port":27035,"enabled":true,"region":"eu","cc":"gb","latitude":51.509865,"longitude":-0.118092,"reserved":0,"last_update":"0001-01-01T00:00:00Z","name_a2s":"Uncletopia | London | 3 | All Maps","protocol":17,"map":"pl_upward","folder":"tf","game":"Team Fortress","app_id":440,"player_count":24,"max_players":24,"Bots":0,"server_type":"Dedicated","server_os":"Linux","password":true,"vac":true,"version":"7757534","steam_id":85568392924510192,"keywords":["nocrits","nodmgspread","payload","uncletopia"],"game_id":440,"stv_port":27036,"stv_name":"Uncletopia | London | 3 | All Maps | STV","players":[{"user_id":454,"name":"regimiro","steam_id":76561198120457008,"connected_time":1929000000000,"state":"active","ping":44},{"user_id":461,"name":"Misctek","steam_id":76561199037541925,"connected_time":827000000000,"state":"active","ping":75},{"user_id":422,"name":"John Noob","steam_id":76561197999170026,"connected_time":5122000000000,"state":"active","ping":101},{"user_id":391,"name":"SuperBob103","steam_id":76561199175360012,"connected_time":7068000000000,"state":"active","ping":51},{"user_id":439,"name":"meriones","steam_id":76561198034234373,"connected_time":3528000000000,"state":"active","ping":44},{"user_id":441,"name":"Julez #pizdaaim","steam_id":76561198045505082,"connected_time":3219000000000,"state":"active","ping":74},{"user_id":452,"name":"Cheshireycat","steam_id":76561198067204908,"connected_time":2240000000000,"state":"active","ping":59},{"user_id":464,"name":"fish","steam_id":76561198205475839,"connected_time":707000000000,"state":"active","ping":104},{"user_id":463,"name":"murf","steam_id":76561199184831395,"connected_time":751000000000,"state":"active","ping":45},{"user_id":433,"name":"Vitun vittu","steam_id":76561198110679463,"connected_time":3985000000000,"state":"active","ping":67},{"user_id":434,"name":"Mark 'The Beast' Labbett","steam_id":76561198118892116,"connected_time":3908000000000,"state":"active","ping":45},{"user_id":472,"name":"Leszy","steam_id":76561198372172135,"connected_time":82000000000,"state":"active","ping":70},{"user_id":458,"name":"frosty","steam_id":76561198094560834,"connected_time":1358000000000,"state":"active","ping":45},{"user_id":470,"name":"TheEventGuy","steam_id":76561197972797744,"connected_time":471000000000,"state":"active","ping":71},{"user_id":469,"name":"rukitichi","steam_id":76561198079744719,"connected_time":578000000000,"state":"active","ping":55},{"user_id":466,"name":"rummy","steam_id":76561197997573379,"connected_time":660000000000,"state":"active","ping":42},{"user_id":459,"name":"cinny","steam_id":76561198832112629,"connected_time":1144000000000,"state":"active","ping":89},{"user_id":471,"name":"General Petrov","steam_id":76561198027204104,"connected_time":300000000000,"state":"active","ping":87},{"user_id":473,"name":"ICEBORN GAUNTLET","steam_id":76561198051283300,"connected_time":8000000000,"state":"active","ping":179},{"user_id":449,"name":"KittyKate ❤","steam_id":76561198116340817,"connected_time":2545000000000,"state":"active","ping":71},{"user_id":450,"name":"BuzzBees ❤","steam_id":76561198101502273,"connected_time":2507000000000,"state":"active","ping":45},{"user_id":429,"name":"Lilliputt","steam_id":76561198090146457,"connected_time":4597000000000,"state":"active","ping":38},{"user_id":468,"name":"The Shartiest Man","steam_id":76561199055566944,"connected_time":628000000000,"state":"active","ping":85},{"user_id":456,"name":"Professor Page","steam_id":76561198011949134,"connected_time":1545000000000,"state":"active","ping":45}]},{"server_id":321,"name":"Uncletopia | London | 4 | All Maps","name_short":"lon-4","host":"lon-1.uk.uncletopia.com","port":27045,"enabled":true,"region":"eu","cc":"gb","latitude":51.509865,"longitude":-0.118092,"reserved":0,"last_update":"0001-01-01T00:00:00Z","name_a2s":"Uncletopia | London | 4 | All Maps","protocol":17,"map":"cp_dustbowl","folder":"tf","game":"Team Fortress","app_id":440,"player_count":0,"max_players":24,"Bots":0,"server_type":"Dedicated","server_os":"Linux","password":true,"vac":true,"version":"7757534","steam_id":85568392924510193,"keywords":["cp","nocrits","nodmgspread","uncletopia"],"game_id":440,"stv_port":27046,"stv_name":"Uncletopia | London | 4 | All Maps | STV","players":null},{"server_id":21,"name":"Uncletopia | London | 5 | All Maps","name_short":"lon-5","host":"lon-1.uk.uncletopia.com","port":27055,"enabled":true,"region":"eu","cc":"gb","latitude":51.509865,"longitude":-0.118092,"reserved":0,"last_update":"0001-01-01T00:00:00Z","name_a2s":"Uncletopia | London | 5 | All Maps","protocol":17,"map":"pl_thundermountain","folder":"tf","game":"Team Fortress","app_id":440,"player_count":23,"max_players":24,"Bots":0,"server_type":"Dedicated","server_os":"Linux","password":true,"vac":true,"version":"7757534","steam_id":85568392924742829,"keywords":["nocrits","nodmgspread","payload","uncletopia"],"game_id":440,"stv_port":27056,"stv_name":"Uncletopia | London | 5 | All Maps | STV","players":[{"user_id":798,"name":"SnufKris","steam_id":76561198080599774,"connected_time":2873000000000,"state":"active","ping":40},{"user_id":799,"name":"Duchamp's Big XL Shitter","steam_id":76561198043988179,"connected_time":2862000000000,"state":"active","ping":71},{"user_id":814,"name":"mercedes ben","steam_id":76561198000147423,"connected_time":2100000000000,"state":"active","ping":43},{"user_id":804,"name":"❤ Sparx ❤","steam_id":76561198095009261,"connected_time":2806000000000,"state":"active","ping":73},{"user_id":816,"name":"Tom","steam_id":76561198008519979,"connected_time":1839000000000,"state":"active","ping":54},{"user_id":800,"name":"JJS","steam_id":76561198098511185,"connected_time":2852000000000,"state":"active","ping":43},{"user_id":844,"name":"Penis Contortionist","steam_id":76561198073663784,"connected_time":178000000000,"state":"active","ping":37},{"user_id":819,"name":"Zarden","steam_id":76561198080638451,"connected_time":1805000000000,"state":"active","ping":45},{"user_id":845,"name":"John Thicc","steam_id":76561198140704504,"connected_time":141000000000,"state":"active","ping":74},{"user_id":818,"name":"NitPig","steam_id":76561198212991935,"connected_time":1805000000000,"state":"active","ping":105},{"user_id":836,"name":"Agro | KritzKast","steam_id":76561197970498549,"connected_time":416000000000,"state":"active","ping":42},{"user_id":807,"name":"Bodhi","steam_id":76561198000606642,"connected_time":2712000000000,"state":"active","ping":52},{"user_id":828,"name":"If I TopScoreMyTeamSucks","steam_id":76561198147668373,"connected_time":1032000000000,"state":"active","ping":62},{"user_id":843,"name":"[SniFF]","steam_id":76561198186122621,"connected_time":202000000000,"state":"active","ping":86},{"user_id":846,"name":"Laurie","steam_id":76561198082951750,"connected_time":56000000000,"state":"spawning","ping":67},{"user_id":832,"name":"playing:EveryWhereAtTheEndOfTim","steam_id":76561198061920656,"connected_time":766000000000,"state":"active","ping":73},{"user_id":776,"name":"Puck :))","steam_id":76561198378295653,"connected_time":5826000000000,"state":"active","ping":69},{"user_id":810,"name":"darktheif54","steam_id":76561198043650119,"connected_time":2616000000000,"state":"active","ping":53},{"user_id":835,"name":"Maranhadas","steam_id":76561198152856761,"connected_time":483000000000,"state":"active","ping":144},{"user_id":838,"name":"LordReX","steam_id":76561198139782454,"connected_time":363000000000,"state":"active","ping":56},{"user_id":839,"name":"Fus in Boots","steam_id":76561198053897722,"connected_time":345000000000,"state":"active","ping":53},{"user_id":840,"name":"hud_saytext_time 0","steam_id":76561198010327228,"connected_time":344000000000,"state":"active","ping":63},{"user_id":841,"name":"synoptic #KillTF2","steam_id":76561198995397050,"connected_time":341000000000,"state":"active","ping":87}]},{"server_id":22,"name":"Uncletopia | London | 6 | All Maps","name_short":"lon-6","host":"lon-1.uk.uncletopia.com","port":27065,"enabled":true,"region":"eu","cc":"gb","latitude":51.509865,"longitude":-0.118092,"reserved":0,"last_update":"0001-01-01T00:00:00Z","name_a2s":"Uncletopia | London | 6 | All Maps","protocol":17,"map":"cp_sunshine","folder":"tf","game":"Team Fortress","app_id":440,"player_count":0,"max_players":24,"Bots":0,"server_type":"Dedicated","server_os":"Linux","password":true,"vac":true,"version":"7757534","steam_id":85568392924742830,"keywords":["cp","nocrits","nodmgspread","uncletopia"],"game_id":440,"stv_port":27066,"stv_name":"Uncletopia | London | 6 | All Maps | STV","players":null},{"server_id":40,"name":"Uncletopia | London | 7 | No Payload","name_short":"lon-7","host":"lon-1.uk.uncletopia.com","port":27075,"enabled":true,"region":"eu","cc":"gb","latitude":51.509865,"longitude":-0.118092,"reserved":0,"last_update":"0001-01-01T00:00:00Z","name_a2s":"Uncletopia | London | 7 | No Payload","protocol":17,"map":"koth_highpass","folder":"tf","game":"Team Fortress","app_id":440,"player_count":0,"max_players":24,"Bots":0,"server_type":"Dedicated","server_os":"Linux","password":true,"vac":true,"version":"7757534","steam_id":85568392924964314,"keywords":["cp","nocrits","nodmgspread","uncletopia"],"game_id":440,"stv_port":27076,"stv_name":"Uncletopia | London | 7 | No Payload | STV","players":null},{"server_id":41,"name":"Uncletopia | London | 8 | Community","name_short":"lon-8","host":"lon-1.uk.uncletopia.com","port":27085,"enabled":true,"region":"eu","cc":"gb","latitude":51.509865,"longitude":-0.118092,"reserved":0,"last_update":"0001-01-01T00:00:00Z","name_a2s":"Uncletopia | London | 8 | Community","protocol":17,"map":"workshop/koth_product_final.ugc454272353","folder":"tf","game":"Team Fortress","app_id":440,"player_count":0,"max_players":24,"Bots":0,"server_type":"Dedicated","server_os":"Linux","password":true,"vac":true,"version":"7757534","steam_id":85568392924964315,"keywords":["cp","nocrits","nodmgspread","uncletopia"],"game_id":440,"stv_port":27086,"stv_name":"Uncletopia | London | 8 | Community | STV","players":null},{"server_id":300,"name":"Uncletopia | Montréal | 1 | All Maps","name_short":"mtl-1","host":"mtl-1.ca.uncletopia.com","port":27015,"enabled":true,"region":"us-east","cc":"ca","latitude":45.50889,"longitude":-73.56167,"reserved":0,"last_update":"0001-01-01T00:00:00Z","name_a2s":"Uncletopia | Montréal | 1 | All Maps","protocol":17,"map":"cp_mountainlab","folder":"tf","game":"Team Fortress","app_id":440,"player_count":0,"max_players":24,"Bots":0,"server_type":"Dedicated","server_os":"Linux","password":true,"vac":true,"version":"7757534","steam_id":85568392924500087,"keywords":["cp","nocrits","nodmgspread","uncletopia"],"game_id":440,"stv_port":27016,"stv_name":"Uncletopia | Montréal | 1 | All Maps | STV","players":null},{"server_id":301,"name":"Uncletopia | Montréal | 2 | All Maps","name_short":"mtl-2","host":"mtl-1.ca.uncletopia.com","port":27025,"enabled":true,"region":"us-east","cc":"ca","latitude":45.50889,"longitude":-73.56167,"reserved":0,"last_update":"0001-01-01T00:00:00Z","name_a2s":"Uncletopia | Montréal | 2 | All Maps","protocol":17,"map":"pl_barnblitz","folder":"tf","game":"Team Fortress","app_id":440,"player_count":24,"max_players":24,"Bots":0,"server_type":"Dedicated","server_os":"Linux","password":true,"vac":true,"version":"7757534","steam_id":85568392924500088,"keywords":["nocrits","nodmgspread","payload","uncletopia"],"game_id":440,"stv_port":27026,"stv_name":"Uncletopia | Montréal | 2 | All Maps | STV","players":[{"user_id":16,"name":"Grenade Chucker","steam_id":76561198040532757,"connected_time":3043000000000,"state":"active","ping":89},{"user_id":17,"name":"ShaggyRed","steam_id":76561198046996355,"connected_time":3017000000000,"state":"active","ping":56},{"user_id":23,"name":"Matt","steam_id":76561198008108521,"connected_time":1457000000000,"state":"active","ping":63},{"user_id":24,"name":"Basement Grandpa","steam_id":76561198014574925,"connected_time":1445000000000,"state":"active","ping":73},{"user_id":7,"name":"OtherJake","steam_id":76561199097944589,"connected_time":4848000000000,"state":"active","ping":123},{"user_id":29,"name":"The destroyer of foreskin","steam_id":76561198135275966,"connected_time":1144000000000,"state":"active","ping":92},{"user_id":13,"name":"BIGGEST MAC","steam_id":76561198847517098,"connected_time":3977000000000,"state":"active","ping":83},{"user_id":26,"name":"WoodsRunner","steam_id":76561198121812870,"connected_time":1319000000000,"state":"active","ping":46},{"user_id":27,"name":"dicksnip","steam_id":76561198356515396,"connected_time":1236000000000,"state":"active","ping":88},{"user_id":22,"name":"tjgameplay2","steam_id":76561199093794558,"connected_time":1615000000000,"state":"active","ping":118},{"user_id":28,"name":"a mass hallucination","steam_id":76561198259092181,"connected_time":1191000000000,"state":"active","ping":89},{"user_id":30,"name":"a king who's on a budget","steam_id":76561199134895220,"connected_time":1125000000000,"state":"active","ping":69},{"user_id":38,"name":"Wahoo","steam_id":76561198046183406,"connected_time":896000000000,"state":"active","ping":184},{"user_id":47,"name":"SirJellyRolls","steam_id":76561198119277244,"connected_time":2000000000,"state":"spawning","ping":74},{"user_id":33,"name":"squaggles!","steam_id":76561197994995011,"connected_time":1058000000000,"state":"active","ping":60},{"user_id":34,"name":"Xmas","steam_id":76561198106187383,"connected_time":1033000000000,"state":"active","ping":147},{"user_id":44,"name":"A_albaTross_M","steam_id":76561198119297568,"connected_time":663000000000,"state":"active","ping":106},{"user_id":48,"name":"deech","steam_id":76561198066429444,"connected_time":1000000000,"state":"spawning","ping":41},{"user_id":37,"name":"Lots0","steam_id":76561198043143145,"connected_time":950000000000,"state":"active","ping":111},{"user_id":39,"name":"MetalTao","steam_id":76561198189408110,"connected_time":832000000000,"state":"active","ping":97},{"user_id":40,"name":"mr.edderkopper","steam_id":76561198152614478,"connected_time":729000000000,"state":"active","ping":71},{"user_id":41,"name":"DJ Absolute Garbage","steam_id":76561198068000747,"connected_time":717000000000,"state":"active","ping":48},{"user_id":45,"name":"bingle fantano 2","steam_id":76561197997139225,"connected_time":555000000000,"state":"active","ping":32},{"user_id":46,"name":"Nobody","steam_id":76561198160544586,"connected_time":150000000000,"state":"active","ping":65}]},{"server_id":302,"name":"Uncletopia | Montréal | 3 | All Maps","name_short":"mtl-3","host":"mtl-1.ca.uncletopia.com","port":27035,"enabled":true,"region":"us-east","cc":"ca","latitude":45.50889,"longitude":-73.56167,"reserved":0,"last_update":"0001-01-01T00:00:00Z","name_a2s":"Uncletopia | Montréal | 3 | All Maps","protocol":17,"map":"pl_frontier_final","folder":"tf","game":"Team Fortress","app_id":440,"player_count":0,"max_players":24,"Bots":0,"server_type":"Dedicated","server_os":"Linux","password":true,"vac":true,"version":"7757534","steam_id":85568392924500089,"keywords":["nocrits","nodmgspread","payload","uncletopia"],"game_id":440,"stv_port":27036,"stv_name":"Uncletopia | Montréal | 3 | All Maps | STV","players":null},{"server_id":303,"name":"Uncletopia | Montréal | 4 | No Payload","name_short":"mtl-4","host":"mtl-1.ca.uncletopia.com","port":27045,"enabled":true,"region":"us-east","cc":"ca","latitude":45.50889,"longitude":-73.56167,"reserved":0,"last_update":"0001-01-01T00:00:00Z","name_a2s":"Uncletopia | Montréal | 4 | No Payload","protocol":17,"map":"cp_coldfront","folder":"tf","game":"Team Fortress","app_id":440,"player_count":0,"max_players":24,"Bots":0,"server_type":"Dedicated","server_os":"Linux","password":true,"vac":true,"version":"7757534","steam_id":85568392924500090,"keywords":["cp","nocrits","nodmgspread","uncletopia"],"game_id":440,"stv_port":27046,"stv_name":"Uncletopia | Montréal | 4 | No Payload | STV","players":null},{"server_id":13,"name":"Uncletopia | New York City | 1 | All Maps","name_short":"nyc-1","host":"nyc-1.us.uncletopia.com","port":27015,"enabled":true,"region":"us-east","cc":"us","latitude":40.73061,"longitude":-73.93524,"reserved":0,"last_update":"0001-01-01T00:00:00Z","name_a2s":"Uncletopia | New York City | 1 | All Maps","protocol":17,"map":"cp_dustbowl","folder":"tf","game":"Team Fortress","app_id":440,"player_count":23,"max_players":24,"Bots":0,"server_type":"Dedicated","server_os":"Linux","password":true,"vac":true,"version":"7757534","steam_id":85568392924469993,"keywords":["cp","nocrits","nodmgspread","uncletopia"],"game_id":440,"stv_port":27016,"stv_name":"Uncletopia | New York City | 1 | All Maps | STV","players":[{"user_id":415,"name":"クレオラ","steam_id":76561198000830794,"connected_time":1880000000000,"state":"active","ping":101},{"user_id":404,"name":"who is gavin?","steam_id":76561198069415057,"connected_time":2517000000000,"state":"active","ping":44},{"user_id":413,"name":"TheDismantler | HM","steam_id":76561198259311540,"connected_time":1939000000000,"state":"active","ping":75},{"user_id":416,"name":"CamelyKonas","steam_id":76561198097672992,"connected_time":1834000000000,"state":"active","ping":66},{"user_id":417,"name":"ExtremeDucks","steam_id":76561198351756464,"connected_time":1717000000000,"state":"active","ping":82},{"user_id":328,"name":"Gandalf Gaming","steam_id":76561198368151490,"connected_time":8619000000000,"state":"active","ping":44},{"user_id":394,"name":"urban legend","steam_id":76561198069188276,"connected_time":3314000000000,"state":"active","ping":97},{"user_id":377,"name":"Lily Thorn","steam_id":76561198305488625,"connected_time":4334000000000,"state":"active","ping":130},{"user_id":425,"name":"Heropon","steam_id":76561198105224481,"connected_time":1019000000000,"state":"active","ping":60},{"user_id":395,"name":"Slondermin","steam_id":76561198320301349,"connected_time":3221000000000,"state":"active","ping":70},{"user_id":408,"name":"TuckMan321","steam_id":76561198171690594,"connected_time":2339000000000,"state":"active","ping":58},{"user_id":365,"name":"PapaCheungus","steam_id":76561198052262520,"connected_time":5913000000000,"state":"active","ping":66},{"user_id":378,"name":"DDD14","steam_id":76561198061485026,"connected_time":4324000000000,"state":"active","ping":45},{"user_id":379,"name":"jeff","steam_id":76561198059450566,"connected_time":4273000000000,"state":"active","ping":54},{"user_id":423,"name":"potty trained","steam_id":76561198141557766,"connected_time":1470000000000,"state":"active","ping":89},{"user_id":420,"name":"Spookskeppnook","steam_id":76561199216336545,"connected_time":1691000000000,"state":"active","ping":77},{"user_id":401,"name":"Ampereii","steam_id":76561199047421020,"connected_time":2936000000000,"state":"active","ping":83},{"user_id":381,"name":"Pan Wizard","steam_id":76561198031939694,"connected_time":4259000000000,"state":"active","ping":63},{"user_id":424,"name":"The Drunk Clown","steam_id":76561197986850426,"connected_time":1239000000000,"state":"active","ping":77},{"user_id":322,"name":"Fudgely","steam_id":76561198039425862,"connected_time":9159000000000,"state":"active","ping":60},{"user_id":422,"name":"Kaluka","steam_id":76561198036861445,"connected_time":1661000000000,"state":"active","ping":55},{"user_id":406,"name":"UEK","steam_id":76561198132903869,"connected_time":2470000000000,"state":"active","ping":114},{"user_id":409,"name":"The King","steam_id":76561198117344758,"connected_time":2316000000000,"state":"active","ping":70}]},{"server_id":14,"name":"Uncletopia | New York City | 2 | All Maps","name_short":"nyc-2","host":"nyc-1.us.uncletopia.com","port":27025,"enabled":true,"region":"us-east","cc":"us","latitude":40.73061,"longitude":-73.93524,"reserved":0,"last_update":"0001-01-01T00:00:00Z","name_a2s":"Uncletopia | New York City | 2 | All Maps","protocol":17,"map":"cp_altitude","folder":"tf","game":"Team Fortress","app_id":440,"player_count":24,"max_players":24,"Bots":0,"server_type":"Dedicated","server_os":"Linux","password":true,"vac":true,"version":"7757534","steam_id":85568392924469994,"keywords":["cp","nocrits","nodmgspread","uncletopia"],"game_id":440,"stv_port":27026,"stv_name":"Uncletopia | New York City | 2 | All Maps | STV","players":[{"user_id":107,"name":"Yoshaaa!","steam_id":76561199172288111,"connected_time":1899000000000,"state":"active","ping":64},{"user_id":124,"name":"The Land Admiral","steam_id":76561198159356609,"connected_time":204000000000,"state":"active","ping":54},{"user_id":122,"name":"Firebug","steam_id":76561198081832157,"connected_time":728000000000,"state":"active","ping":98},{"user_id":120,"name":"Dot.","steam_id":76561198149463984,"connected_time":1059000000000,"state":"active","ping":44},{"user_id":97,"name":"MEDIC!","steam_id":76561198149344029,"connected_time":2077000000000,"state":"active","ping":58},{"user_id":123,"name":"Snowy Squill","steam_id":76561198073504207,"connected_time":702000000000,"state":"active","ping":157},{"user_id":30,"name":"Spoilt Pudding","steam_id":76561198001195423,"connected_time":5637000000000,"state":"active","ping":83},{"user_id":127,"name":"M4 SOPMOD II Enjoyer","steam_id":76561198155176802,"connected_time":29000000000,"state":"active","ping":66},{"user_id":32,"name":"AuzzieJZ","steam_id":76561198134430439,"connected_time":5615000000000,"state":"active","ping":84},{"user_id":100,"name":"dog","steam_id":76561198263873491,"connected_time":2045000000000,"state":"active","ping":63},{"user_id":34,"name":"puppy dog","steam_id":76561198253574099,"connected_time":5528000000000,"state":"active","ping":68},{"user_id":116,"name":"Tax","steam_id":76561198335683534,"connected_time":1517000000000,"state":"active","ping":79},{"user_id":36,"name":"Mxple.","steam_id":76561199165140868,"connected_time":5439000000000,"state":"active","ping":156},{"user_id":109,"name":"Voon","steam_id":76561198166843533,"connected_time":1803000000000,"state":"active","ping":62},{"user_id":128,"name":"Sexual Butt","steam_id":76561198102241399,"connected_time":7000000000,"state":"spawning","ping":61},{"user_id":39,"name":"Portal2Player","steam_id":76561198062870114,"connected_time":5259000000000,"state":"active","ping":66},{"user_id":88,"name":"basilberry","steam_id":76561198145275937,"connected_time":2482000000000,"state":"active","ping":101},{"user_id":126,"name":"Korrin","steam_id":76561198095452955,"connected_time":141000000000,"state":"active","ping":63},{"user_id":117,"name":"Cats in 3D","steam_id":76561198048051416,"connected_time":1513000000000,"state":"active","ping":62},{"user_id":108,"name":"coolfalcon168","steam_id":76561198948665710,"connected_time":1871000000000,"state":"active","ping":57},{"user_id":94,"name":"Uhonlapjontetzika","steam_id":76561199431280503,"connected_time":2284000000000,"state":"active","ping":64},{"user_id":104,"name":"what","steam_id":76561198082336619,"connected_time":1999000000000,"state":"active","ping":61},{"user_id":105,"name":"A Nyquil Chicken","steam_id":76561198344471115,"connected_time":1985000000000,"state":"active","ping":124},{"user_id":121,"name":"Frimpimy","steam_id":76561198142605675,"connected_time":998000000000,"state":"active","ping":74}]},{"server_id":15,"name":"Uncletopia | New York City | 3 | Stopwatch Beta","name_short":"nyc-3","host":"nyc-1.us.uncletopia.com","port":27035,"enabled":true,"region":"us-east","cc":"us","latitude":40.73061,"longitude":-73.93524,"reserved":0,"last_update":"0001-01-01T00:00:00Z","name_a2s":"Uncletopia | New York City | 3 | Stopwatch Beta","protocol":17,"map":"koth_lakeside_final","folder":"tf","game":"Team Fortress","app_id":440,"player_count":0,"max_players":24,"Bots":0,"server_type":"Dedicated","server_os":"Linux","password":true,"vac":true,"version":"7757534","steam_id":85568392924742820,"keywords":["cp","nocrits","nodmgspread","uncletopia"],"game_id":440,"stv_port":27036,"stv_name":"Uncletopia | New York City | 3 | Stopwatch Beta | STV","players":null},{"server_id":16,"name":"Uncletopia | New York City | 4 | Community","name_short":"nyc-4","host":"nyc-1.us.uncletopia.com","port":27045,"enabled":true,"region":"us-east","cc":"us","latitude":40.73061,"longitude":-73.93524,"reserved":0,"last_update":"0001-01-01T00:00:00Z","name_a2s":"Uncletopia | New York City | 4 | Community","protocol":17,"map":"workshop/cp_mannbase_rc2a.ugc1900737467","folder":"tf","game":"Team Fortress","app_id":440,"player_count":0,"max_players":24,"Bots":0,"server_type":"Dedicated","server_os":"Linux","password":true,"vac":true,"version":"7757534","steam_id":85568392924742821,"keywords":["cp","nocrits","nodmgspread","uncletopia"],"game_id":440,"stv_port":27046,"stv_name":"Uncletopia | New York City | 4 | Community | STV","players":null},{"server_id":142,"name":"Uncletopia | São Paulo | 1 | All Maps","name_short":"sao-1","host":"sao-1.br.uncletopia.com","port":27015,"enabled":true,"region":"sa","cc":"br","latitude":-23.533773,"longitude":-46.62529,"reserved":0,"last_update":"0001-01-01T00:00:00Z","name_a2s":"Uncletopia | São Paulo | 1 | All Maps","protocol":17,"map":"cp_sunshine","folder":"tf","game":"Team Fortress","app_id":440,"player_count":9,"max_players":24,"Bots":0,"server_type":"Dedicated","server_os":"Linux","password":true,"vac":true,"version":"7757534","steam_id":85568392924469996,"keywords":["cp","nocrits","nodmgspread","uncletopia"],"game_id":440,"stv_port":27016,"stv_name":"Uncletopia | São Paulo | 1 | All Maps | STV","players":[{"user_id":26,"name":"Vi-create","steam_id":76561198277032656,"connected_time":1079000000000,"state":"active","ping":57},{"user_id":27,"name":"mimimito","steam_id":76561198002565927,"connected_time":1043000000000,"state":"active","ping":31},{"user_id":33,"name":"marquioti","steam_id":76561198176657645,"connected_time":979000000000,"state":"active","ping":45},{"user_id":22,"name":"Matriz","steam_id":76561198965538287,"connected_time":2360000000000,"state":"active","ping":45},{"user_id":29,"name":"o importante...","steam_id":76561198171349369,"connected_time":1011000000000,"state":"active","ping":34},{"user_id":25,"name":"xableu","steam_id":76561199229314481,"connected_time":1656000000000,"state":"active","ping":53},{"user_id":35,"name":"lezv","steam_id":76561199083829484,"connected_time":600000000000,"state":"active","ping":45},{"user_id":32,"name":"ＥｎｄｅｒＮｅｃｒｏ","steam_id":76561198044304293,"connected_time":996000000000,"state":"active","ping":32},{"user_id":34,"name":"videogames","steam_id":76561198012204309,"connected_time":736000000000,"state":"active","ping":32}]},{"server_id":143,"name":"Uncletopia | São Paulo | 2 | All Maps","name_short":"sao-2","host":"sao-2.br.uncletopia.com","port":27015,"enabled":true,"region":"sa","cc":"br","latitude":-23.533773,"longitude":-46.62529,"reserved":0,"last_update":"0001-01-01T00:00:00Z","name_a2s":"Uncletopia | São Paulo | 2 | All Maps","protocol":17,"map":"koth_cascade","folder":"tf","game":"Team Fortress","app_id":440,"player_count":0,"max_players":24,"Bots":0,"server_type":"Dedicated","server_os":"Linux","password":true,"vac":true,"version":"7757534","steam_id":85568392924485349,"keywords":["cp","nocrits","nodmgspread","uncletopia"],"game_id":440,"stv_port":27016,"stv_name":"Uncletopia | São Paulo | 2 | All Maps | STV","players":null},{"server_id":7,"name":"Uncletopia | Seattle | 1 | All Maps","name_short":"sea-1","host":"sea-1.us.uncletopia.com","port":27015,"enabled":true,"region":"us-west","cc":"us","latitude":47.608013,"longitude":-122.33517,"reserved":0,"last_update":"0001-01-01T00:00:00Z","name_a2s":"Uncletopia | Seattle | 1 | All Maps","protocol":17,"map":"cp_steel","folder":"tf","game":"Team Fortress","app_id":440,"player_count":23,"max_players":24,"Bots":0,"server_type":"Dedicated","server_os":"Linux","password":true,"vac":true,"version":"7757534","steam_id":85568392924469997,"keywords":["cp","nocrits","nodmgspread","uncletopia"],"game_id":440,"stv_port":27016,"stv_name":"Uncletopia | Seattle | 1 | All Maps | STV","players":[{"user_id":524,"name":"Unbind E","steam_id":76561199163159040,"connected_time":586000000000,"state":"active","ping":115},{"user_id":476,"name":"soda","steam_id":76561198105924953,"connected_time":4466000000000,"state":"active","ping":73},{"user_id":418,"name":"BreadQuest","steam_id":76561198082425960,"connected_time":8891000000000,"state":"active","ping":45},{"user_id":535,"name":"Erntest","steam_id":76561198049499899,"connected_time":124000000000,"state":"active","ping":62},{"user_id":519,"name":"vividbot","steam_id":76561198158980015,"connected_time":718000000000,"state":"active","ping":85},{"user_id":536,"name":"AmiableNebula","steam_id":76561198094306627,"connected_time":116000000000,"state":"active","ping":75},{"user_id":493,"name":"Br0gon","steam_id":76561199434773987,"connected_time":2414000000000,"state":"active","ping":82},{"user_id":506,"name":"yup","steam_id":76561199190800520,"connected_time":1525000000000,"state":"active","ping":41},{"user_id":537,"name":"MinillaMan","steam_id":76561199304028178,"connected_time":70000000000,"state":"active","ping":91},{"user_id":513,"name":"dirty30","steam_id":76561198021226566,"connected_time":872000000000,"state":"active","ping":47},{"user_id":498,"name":"pipis","steam_id":76561198140971525,"connected_time":2207000000000,"state":"active","ping":108},{"user_id":497,"name":"I-No","steam_id":76561198556615605,"connected_time":2291000000000,"state":"active","ping":100},{"user_id":534,"name":"Nidus | IFN.GG","steam_id":76561198886277516,"connected_time":160000000000,"state":"active","ping":119},{"user_id":514,"name":"Themasterman75","steam_id":76561199385573293,"connected_time":820000000000,"state":"active","ping":73},{"user_id":538,"name":"George Washington","steam_id":76561198033828615,"connected_time":54000000000,"state":"active","ping":63},{"user_id":510,"name":"Oktayey","steam_id":76561198143213426,"connected_time":1275000000000,"state":"active","ping":64},{"user_id":495,"name":"Firedust19","steam_id":76561198153238631,"connected_time":2395000000000,"state":"active","ping":102},{"user_id":527,"name":"nathan","steam_id":76561198170402666,"connected_time":484000000000,"state":"active","ping":66},{"user_id":516,"name":"Keamy","steam_id":76561199471434875,"connected_time":749000000000,"state":"active","ping":45},{"user_id":529,"name":"York Oxmall","steam_id":76561198381203143,"connected_time":476000000000,"state":"active","ping":49},{"user_id":521,"name":"Rue","steam_id":76561198013135993,"connected_time":694000000000,"state":"active","ping":127},{"user_id":539,"name":"All Class Gaming","steam_id":76561198806729611,"connected_time":1000000000,"state":"spawning","ping":29},{"user_id":531,"name":"vareh","steam_id":76561197993190926,"connected_time":474000000000,"state":"active","ping":59}]},{"server_id":119,"name":"Uncletopia | Seattle | 2 | All Maps","name_short":"sea-2","host":"sea-1.us.uncletopia.com","port":27025,"enabled":true,"region":"us-west","cc":"us","latitude":47.608013,"longitude":-122.33517,"reserved":0,"last_update":"0001-01-01T00:00:00Z","name_a2s":"Uncletopia | Seattle | 2 | All Maps","protocol":17,"map":"koth_lakeside_final","folder":"tf","game":"Team Fortress","app_id":440,"player_count":21,"max_players":24,"Bots":0,"server_type":"Dedicated","server_os":"Linux","password":true,"vac":true,"version":"7757534","steam_id":85568392924469998,"keywords":["cp","nocrits","nodmgspread","uncletopia"],"game_id":440,"stv_port":27026,"stv_name":"Uncletopia | Seattle | 2 | All Maps | STV","players":[{"user_id":205,"name":"Sanic","steam_id":76561198083124962,"connected_time":195000000000,"state":"active","ping":100},{"user_id":112,"name":"Angela :3","steam_id":76561198991101353,"connected_time":8557000000000,"state":"active","ping":45},{"user_id":150,"name":"Wacks","steam_id":76561198079476100,"connected_time":5335000000000,"state":"active","ping":71},{"user_id":207,"name":"oil","steam_id":76561198099980149,"connected_time":28000000000,"state":"active","ping":78},{"user_id":161,"name":"twitch.tv/ladyloki_ch","steam_id":76561198280150602,"connected_time":3755000000000,"state":"active","ping":57},{"user_id":180,"name":"Stev the Prurient Oxymoron","steam_id":76561197999442625,"connected_time":2955000000000,"state":"active","ping":61},{"user_id":206,"name":"lag","steam_id":76561197963872739,"connected_time":172000000000,"state":"active","ping":51},{"user_id":113,"name":"dust | she/it","steam_id":76561198045218909,"connected_time":8556000000000,"state":"active","ping":43},{"user_id":149,"name":"lol","steam_id":76561198026491738,"connected_time":5397000000000,"state":"active","ping":83},{"user_id":186,"name":"jacix3 [gay wolfgirl]{she/it}","steam_id":76561198205004165,"connected_time":2633000000000,"state":"active","ping":68},{"user_id":109,"name":"Uso","steam_id":76561198012093238,"connected_time":8687000000000,"state":"active","ping":103},{"user_id":155,"name":"Admiral Crumbs","steam_id":76561198108791583,"connected_time":4535000000000,"state":"active","ping":45},{"user_id":188,"name":"dave strider","steam_id":76561198065112186,"connected_time":2474000000000,"state":"active","ping":62},{"user_id":204,"name":"SuperEvilPasta","steam_id":76561198078258907,"connected_time":356000000000,"state":"active","ping":94},{"user_id":201,"name":"Johnny Lawrence #JohnnyMaxxing","steam_id":76561199367141671,"connected_time":510000000000,"state":"active","ping":110},{"user_id":175,"name":"Fabio Enchilada","steam_id":76561198071013149,"connected_time":3082000000000,"state":"active","ping":124},{"user_id":182,"name":"Pilot","steam_id":76561198253929922,"connected_time":2789000000000,"state":"active","ping":74},{"user_id":183,"name":"Mr.Pan","steam_id":76561198069030613,"connected_time":2770000000000,"state":"active","ping":81},{"user_id":177,"name":"Nibotshooter","steam_id":76561199284825579,"connected_time":3080000000000,"state":"active","ping":97},{"user_id":199,"name":"Noxus","steam_id":76561199009820852,"connected_time":528000000000,"state":"active","ping":94},{"user_id":202,"name":"Zebitron","steam_id":76561198162360436,"connected_time":419000000000,"state":"active","ping":94}]},{"server_id":406,"name":"Uncletopia | Seattle | 3 | Stopwatch Beta","name_short":"sea-3","host":"sea-1.us.uncletopia.com","port":27035,"enabled":true,"region":"us-west","cc":"us","latitude":47.608013,"longitude":-122.33517,"reserved":0,"last_update":"0001-01-01T00:00:00Z","name_a2s":"Uncletopia | Seattle | 3 | Stopwatch Beta","protocol":17,"map":"workshop/pl_summercoast_rc8e.ugc1761528829","folder":"tf","game":"Team Fortress","app_id":440,"player_count":0,"max_players":24,"Bots":0,"server_type":"Dedicated","server_os":"Linux","password":true,"vac":true,"version":"7757534","steam_id":85568392924515217,"keywords":["nocrits","nodmgspread","payload","uncletopia"],"game_id":440,"stv_port":27036,"stv_name":"Uncletopia | Seattle | 3 | Stopwatch Beta | STV","players":null},{"server_id":17,"name":"Uncletopia | San Francisco | 1 | All Maps","name_short":"sfo-1","host":"sfo-1.us.uncletopia.com","port":27015,"enabled":true,"region":"us-west","cc":"us","latitude":37.77397,"longitude":-122.4313,"reserved":0,"last_update":"0001-01-01T00:00:00Z","name_a2s":"Uncletopia | San Francisco | 1 | All Maps","protocol":17,"map":"cp_dustbowl","folder":"tf","game":"Team Fortress","app_id":440,"player_count":0,"max_players":24,"Bots":0,"server_type":"Dedicated","server_os":"Linux","password":true,"vac":true,"version":"7757534","steam_id":85568392924469999,"keywords":["cp","nocrits","nodmgspread","uncletopia"],"game_id":440,"stv_port":27016,"stv_name":"Uncletopia | San Francisco | 1 | All Maps | STV","players":null},{"server_id":18,"name":"Uncletopia | San Francisco | 2 | All Maps","name_short":"sfo-2","host":"sfo-1.us.uncletopia.com","port":27025,"enabled":true,"region":"us-west","cc":"us","latitude":37.77397,"longitude":-122.4313,"reserved":0,"last_update":"0001-01-01T00:00:00Z","name_a2s":"Uncletopia | San Francisco | 2 | All Maps","protocol":17,"map":"pl_swiftwater_final1","folder":"tf","game":"Team Fortress","app_id":440,"player_count":24,"max_players":24,"Bots":0,"server_type":"Dedicated","server_os":"Linux","password":true,"vac":true,"version":"7757534","steam_id":85568392924470000,"keywords":["nocrits","nodmgspread","payload","uncletopia"],"game_id":440,"stv_port":27026,"stv_name":"Uncletopia | San Francisco | 2 | All Maps | STV","players":[{"user_id":160,"name":"DannyM","steam_id":76561198351165570,"connected_time":433000000000,"state":"active","ping":73},{"user_id":151,"name":"Zeubies","steam_id":76561198074392917,"connected_time":728000000000,"state":"active","ping":72},{"user_id":83,"name":"obese farts","steam_id":76561198206922028,"connected_time":4674000000000,"state":"active","ping":60},{"user_id":162,"name":"berserker_tf2 yt","steam_id":76561198303464488,"connected_time":351000000000,"state":"active","ping":65},{"user_id":124,"name":"tr","steam_id":76561198046944222,"connected_time":1701000000000,"state":"active","ping":63},{"user_id":166,"name":"Kontray","steam_id":76561198294948653,"connected_time":187000000000,"state":"active","ping":64},{"user_id":136,"name":"walterhwhite","steam_id":76561199433675789,"connected_time":1380000000000,"state":"active","ping":68},{"user_id":164,"name":"⤣RASCAL","steam_id":76561198269038647,"connected_time":316000000000,"state":"active","ping":57},{"user_id":133,"name":"DJ Pierce","steam_id":76561198394241466,"connected_time":1418000000000,"state":"active","ping":113},{"user_id":150,"name":"SilverMango","steam_id":76561198091243252,"connected_time":763000000000,"state":"active","ping":64},{"user_id":158,"name":"self sufficient kitten","steam_id":76561197960592612,"connected_time":519000000000,"state":"active","ping":62},{"user_id":78,"name":"navy_jaguar","steam_id":76561198366199909,"connected_time":5042000000000,"state":"active","ping":62},{"user_id":154,"name":"Defeat","steam_id":76561198065203818,"connected_time":680000000000,"state":"active","ping":58},{"user_id":94,"name":"Dreiiora","steam_id":76561199250644832,"connected_time":4196000000000,"state":"active","ping":123},{"user_id":155,"name":"A Aron","steam_id":76561198044701629,"connected_time":652000000000,"state":"active","ping":64},{"user_id":159,"name":"Gambler Suits","steam_id":76561199227594351,"connected_time":489000000000,"state":"active","ping":77},{"user_id":138,"name":"Little Linguine","steam_id":76561198816986370,"connected_time":1363000000000,"state":"active","ping":81},{"user_id":128,"name":"Pyrotek⁴","steam_id":76561198072747672,"connected_time":1536000000000,"state":"active","ping":47},{"user_id":105,"name":"Walmus","steam_id":76561198111416393,"connected_time":3231000000000,"state":"active","ping":67},{"user_id":131,"name":"ScoutBox","steam_id":76561198111539895,"connected_time":1503000000000,"state":"active","ping":53},{"user_id":167,"name":"hakken","steam_id":76561199102391736,"connected_time":116000000000,"state":"active","ping":58},{"user_id":139,"name":"BatJet","steam_id":76561198147738441,"connected_time":1350000000000,"state":"active","ping":86},{"user_id":165,"name":"Phlogging Solly","steam_id":76561198020580071,"connected_time":254000000000,"state":"active","ping":63},{"user_id":144,"name":"Drive-By-Fish-Guy","steam_id":76561198105513652,"connected_time":1270000000000,"state":"active","ping":64}]},{"server_id":19,"name":"Uncletopia | San Francisco | 3 | Stopwatch Beta","name_short":"sfo-3","host":"sfo-1.us.uncletopia.com","port":27035,"enabled":true,"region":"us-west","cc":"us","latitude":37.77397,"longitude":-122.4313,"reserved":0,"last_update":"0001-01-01T00:00:00Z","name_a2s":"Uncletopia | San Francisco | 3 | Stopwatch Beta","protocol":17,"map":"cp_snakewater_final1","folder":"tf","game":"Team Fortress","app_id":440,"player_count":0,"max_players":24,"Bots":0,"server_type":"Dedicated","server_os":"Linux","password":true,"vac":true,"version":"7757534","steam_id":85568392924742824,"keywords":["cp","nocrits","nodmgspread","uncletopia"],"game_id":440,"stv_port":27036,"stv_name":"Uncletopia | San Francisco | 3 | Stopwatch Beta | STV","players":null},{"server_id":20,"name":"Uncletopia | San Francisco | 4 | Community","name_short":"sfo-4","host":"sfo-1.us.uncletopia.com","port":27045,"enabled":true,"region":"us-west","cc":"us","latitude":37.77397,"longitude":-122.4313,"reserved":0,"last_update":"0001-01-01T00:00:00Z","name_a2s":"Uncletopia | San Francisco | 4 | Community","protocol":17,"map":"pl_frontier_final","folder":"tf","game":"Team Fortress","app_id":440,"player_count":0,"max_players":24,"Bots":0,"server_type":"Dedicated","server_os":"Linux","password":true,"vac":true,"version":"7757534","steam_id":85568392924742826,"keywords":["nocrits","nodmgspread","payload","uncletopia"],"game_id":440,"stv_port":27046,"stv_name":"Uncletopia | San Francisco | 4 | Community | STV","players":null},{"server_id":141,"name":"Uncletopia | Sydney | 1 | All Maps","name_short":"syd-1","host":"syd-1.au.uncletopia.com","port":27015,"enabled":true,"region":"au","cc":"au","latitude":-33.865143,"longitude":151.2099,"reserved":0,"last_update":"0001-01-01T00:00:00Z","name_a2s":"Uncletopia | Sydney | 1 | All Maps","protocol":17,"map":"pl_swiftwater_final1","folder":"tf","game":"Team Fortress","app_id":440,"player_count":1,"max_players":24,"Bots":0,"server_type":"Dedicated","server_os":"Linux","password":true,"vac":true,"version":"7757534","steam_id":85568392924470001,"keywords":["nocrits","nodmgspread","payload","uncletopia"],"game_id":440,"stv_port":27016,"stv_name":"Uncletopia | Sydney | 1 | All Maps | STV","players":[{"user_id":12,"name":"Cyborgcupine","steam_id":76561198257389366,"connected_time":89000000000,"state":"active","ping":92}]},{"server_id":123,"name":"Uncletopia | Sydney | 2 | All Maps","name_short":"syd-2","host":"syd-1.au.uncletopia.com","port":27025,"enabled":true,"region":"au","cc":"au","latitude":-33.865143,"longitude":151.2099,"reserved":0,"last_update":"0001-01-01T00:00:00Z","name_a2s":"Uncletopia | Sydney | 2 | All Maps","protocol":17,"map":"koth_cascade","folder":"tf","game":"Team Fortress","app_id":440,"player_count":0,"max_players":24,"Bots":0,"server_type":"Dedicated","server_os":"Linux","password":true,"vac":true,"version":"7757534","steam_id":85568392924470002,"keywords":["cp","nocrits","nodmgspread","uncletopia"],"game_id":440,"stv_port":27026,"stv_name":"Uncletopia | Sydney | 2 | All Maps | STV","players":null},{"server_id":395,"name":"Uncletopia | Sydney | 3 | All Maps","name_short":"syd-3","host":"syd-1.au.uncletopia.com","port":27035,"enabled":true,"region":"au","cc":"au","latitude":-33.865143,"longitude":151.2099,"reserved":0,"last_update":"0001-01-01T00:00:00Z","name_a2s":"Uncletopia | Sydney | 3 | All Maps","protocol":17,"map":"pl_borneo","folder":"tf","game":"Team Fortress","app_id":440,"player_count":1,"max_players":24,"Bots":0,"server_type":"Dedicated","server_os":"Linux","password":true,"vac":true,"version":"7757534","steam_id":85568392925194467,"keywords":["nocrits","nodmgspread","payload","uncletopia"],"game_id":440,"stv_port":27036,"stv_name":"Uncletopia | Sydney | 3 | All Maps | STV","players":[{"user_id":4,"name":"cakey","steam_id":76561198173746761,"connected_time":592000000000,"state":"active","ping":45}]},{"server_id":396,"name":"Uncletopia | Sydney | 4 | All Maps","name_short":"syd-4","host":"syd-1.au.uncletopia.com","port":27045,"enabled":true,"region":"au","cc":"au","latitude":-33.865143,"longitude":151.2099,"reserved":0,"last_update":"0001-01-01T00:00:00Z","name_a2s":"Uncletopia | Sydney | 4 | All Maps","protocol":17,"map":"cp_dustbowl","folder":"tf","game":"Team Fortress","app_id":440,"player_count":0,"max_players":24,"Bots":0,"server_type":"Dedicated","server_os":"Linux","password":true,"vac":true,"version":"7757534","steam_id":85568392925397958,"keywords":["cp","nocrits","nodmgspread","uncletopia"],"game_id":440,"stv_port":27046,"stv_name":"Uncletopia | Sydney | 4 | All Maps | STV","players":null},{"server_id":58,"name":"Uncletopia | Sydney | 5 | Stopwatch Beta","name_short":"syd-5","host":"syd-1.au.uncletopia.com","port":27055,"enabled":true,"region":"au","cc":"au","latitude":-33.865143,"longitude":151.2099,"reserved":0,"last_update":"0001-01-01T00:00:00Z","name_a2s":"Uncletopia | Sydney | 5 | Stopwatch Beta","protocol":17,"map":"workshop/koth_clearcut_b15.ugc2107050255","folder":"tf","game":"Team Fortress","app_id":440,"player_count":0,"max_players":24,"Bots":0,"server_type":"Dedicated","server_os":"Linux","password":true,"vac":true,"version":"7757534","steam_id":85568392925397959,"keywords":["cp","nocrits","nodmgspread","uncletopia"],"game_id":440,"stv_port":27056,"stv_name":"Uncletopia | Sydney | 5 | Stopwatch Beta | STV","players":null},{"server_id":59,"name":"Uncletopia | Sydney | 6 | Community","name_short":"syd-6","host":"syd-1.au.uncletopia.com","port":27065,"enabled":true,"region":"au","cc":"au","latitude":-33.865143,"longitude":151.2099,"reserved":0,"last_update":"0001-01-01T00:00:00Z","name_a2s":"Uncletopia | Sydney | 6 | Community","protocol":17,"map":"pl_badwater","folder":"tf","game":"Team Fortress","app_id":440,"player_count":0,"max_players":24,"Bots":0,"server_type":"Dedicated","server_os":"Linux","password":true,"vac":true,"version":"7757534","steam_id":85568392925397960,"keywords":["nocrits","nodmgspread","payload","uncletopia"],"game_id":440,"stv_port":27066,"stv_name":"Uncletopia | Sydney | 6 | Community | STV","players":null},{"server_id":49,"name":"Uncletopia | Warsaw | 1 | All Maps","name_short":"waw-1","host":"waw-1.pl.uncletopia.com","port":27015,"enabled":true,"region":"eu","cc":"pl","latitude":52.2297,"longitude":21.017532,"reserved":0,"last_update":"0001-01-01T00:00:00Z","name_a2s":"","protocol":0,"map":"","folder":"","game":"","app_id":0,"player_count":0,"max_players":0,"Bots":0,"server_type":"","server_os":"","password":false,"vac":false,"version":"","steam_id":0,"keywords":null,"game_id":0,"stv_port":0,"stv_name":"","players":null},{"server_id":50,"name":"Uncletopia | Warsaw | 2 | All Maps","name_short":"waw-2","host":"waw-1.pl.uncletopia.com","port":27025,"enabled":true,"region":"eu","cc":"pl","latitude":52.2297,"longitude":21.017532,"reserved":0,"last_update":"0001-01-01T00:00:00Z","name_a2s":"Uncletopia | Warsaw | 2 | All Maps","protocol":17,"map":"koth_lakeside_final","folder":"tf","game":"Team Fortress","app_id":440,"player_count":0,"max_players":24,"Bots":0,"server_type":"Dedicated","server_os":"Linux","password":true,"vac":true,"version":"7757534","steam_id":85568392925397851,"keywords":["cp","nocrits","nodmgspread","uncletopia"],"game_id":440,"stv_port":27026,"stv_name":"Uncletopia | Warsaw | 2 | All Maps | STV","players":null},{"server_id":51,"name":"Uncletopia | Warsaw | 3 | All Maps","name_short":"waw-3","host":"waw-1.pl.uncletopia.com","port":27035,"enabled":true,"region":"eu","cc":"pl","latitude":52.2297,"longitude":21.017532,"reserved":0,"last_update":"0001-01-01T00:00:00Z","name_a2s":"Uncletopia | Warsaw | 3 | All Maps","protocol":17,"map":"cp_altitude","folder":"tf","game":"Team Fortress","app_id":440,"player_count":0,"max_players":24,"Bots":0,"server_type":"Dedicated","server_os":"Linux","password":true,"vac":true,"version":"7757534","steam_id":85568392925397852,"keywords":["cp","nocrits","nodmgspread","uncletopia"],"game_id":440,"stv_port":27036,"stv_name":"Uncletopia | Warsaw | 3 | All Maps | STV","players":null},{"server_id":52,"name":"Uncletopia | Warsaw | 4 | All Maps","name_short":"waw-4","host":"waw-1.pl.uncletopia.com","port":27045,"enabled":true,"region":"eu","cc":"pl","latitude":52.2297,"longitude":21.017532,"reserved":0,"last_update":"0001-01-01T00:00:00Z","name_a2s":"Uncletopia | Warsaw | 4 | All Maps","protocol":17,"map":"pl_badwater","folder":"tf","game":"Team Fortress","app_id":440,"player_count":2,"max_players":24,"Bots":0,"server_type":"Dedicated","server_os":"Linux","password":true,"vac":true,"version":"7757534","steam_id":85568392925397853,"keywords":["nocrits","nodmgspread","payload","uncletopia"],"game_id":440,"stv_port":27046,"stv_name":"Uncletopia | Warsaw | 4 | All Maps | STV","players":[{"user_id":7,"name":"Frog","steam_id":76561198034348966,"connected_time":3146000000000,"state":"active","ping":91},{"user_id":8,"name":"MonsieurLeFrog","steam_id":76561198272210661,"connected_time":3135000000000,"state":"active","ping":61}]},{"server_id":53,"name":"Uncletopia | Warsaw | 5 | Stopwatch Beta","name_short":"waw-5","host":"waw-1.pl.uncletopia.com","port":27055,"enabled":true,"region":"eu","cc":"pl","latitude":52.2297,"longitude":21.017532,"reserved":0,"last_update":"0001-01-01T00:00:00Z","name_a2s":"Uncletopia | Warsaw | 5 | Stopwatch Beta","protocol":17,"map":"pl_pier","folder":"tf","game":"Team Fortress","app_id":440,"player_count":0,"max_players":24,"Bots":0,"server_type":"Dedicated","server_os":"Linux","password":true,"vac":true,"version":"7757534","steam_id":85568392925397854,"keywords":["nocrits","nodmgspread","payload","uncletopia"],"game_id":440,"stv_port":27056,"stv_name":"Uncletopia | Warsaw | 5 | Stopwatch Beta | STV","players":null},{"server_id":54,"name":"Uncletopia | Warsaw | 6 | Community","name_short":"waw-6","host":"waw-1.pl.uncletopia.com","port":27065,"enabled":true,"region":"eu","cc":"pl","latitude":52.2297,"longitude":21.017532,"reserved":0,"last_update":"0001-01-01T00:00:00Z","name_a2s":"Uncletopia | Warsaw | 6 | Community","protocol":17,"map":"koth_highpass","folder":"tf","game":"Team Fortress","app_id":440,"player_count":0,"max_players":24,"Bots":0,"server_type":"Dedicated","server_os":"Linux","password":true,"vac":true,"version":"7757534","steam_id":85568392925397856,"keywords":["cp","nocrits","nodmgspread","uncletopia"],"game_id":440,"stv_port":27066,"stv_name":"Uncletopia | Warsaw | 6 | Community | STV","players":null}]}