{"status":true,"message":"","result":[{"server_id":9,"name":"Uncletopia | Atlanta | 1 | All Maps","name_short":"atl-1","host":"atl-1.us.uncletopia.com","port":27015,"enabled":true,"region":"us-east","cc":"us","latitude":33.753746,"longitude":-84.38633,"reserved":0,"last_update":"0001-01-01T00:00:00Z","name_a2s":"Uncletopia | Atlanta | 1 | All Maps","protocol":17,"map":"pl_swiftwater_final1","folder":"tf","game":"Team Fortress","app_id":440,"player_count":24,"max_players":24,"Bots":0,"server_type":"Dedicated","server_os":"Linux","password":true,"vac":true,"version":"7723704","steam_id":85568392924469982,"keywords":["nocrits","nodmgspread","payload","uncletopia"],"game_id":440,"stv_port":27016,"stv_name":"Uncletopia | Atlanta | 1 | All Maps | STV","players":[{"user_id":15,"name":"ATL1 | on my hunting trip","steam_id":76561198315341646,"connected_time":12334000000000,"state":"active","ping":57},{"user_id":88,"name":"tell me about it","steam_id":76561198277799227,"connected_time":6385000000000,"state":"active","ping":61},{"user_id":139,"name":"A_Malebolgia","steam_id":76561198097722818,"connected_time":2614000000000,"state":"active","ping":87},{"user_id":156,"name":"AssCancerNecromancer","steam_id":76561198942215141,"connected_time":1809000000000,"state":"active","ping":63},{"user_id":167,"name":"Mr. Ruckus","steam_id":76561198339566190,"connected_time":260000000000,"state":"active","ping":79},{"user_id":163,"name":"Towns","steam_id":76561198984662863,"connected_time":819000000000,"state":"active","ping":56},{"user_id":145,"name":"Rappitor","steam_id":76561198105613110,"connected_time":2133000000000,"state":"active","ping":72},{"user_id":97,"name":"็You got Killed by --\u003e","steam_id":76561198039763676,"connected_time":5480000000000,"state":"active","ping":52},{"user_id":164,"name":"Toturail","steam_id":76561198345616882,"connected_time":391000000000,"state":"active","ping":165},{"user_id":120,"name":"TTV AhoyK","steam_id":76561198274742715,"connected_time":4801000000000,"state":"active","ping":59},{"user_id":146,"name":"SeaBass","steam_id":76561198278914206,"connected_time":2125000000000,"state":"active","ping":97},{"user_id":166,"name":"Decibel","steam_id":76561198301239435,"connected_time":316000000000,"state":"active","ping":78},{"user_id":107,"name":"Twa","steam_id":76561198295529541,"connected_time":5405000000000,"state":"active","ping":71},{"user_id":160,"name":"citrus","steam_id":76561198294606679,"connected_time":1412000000000,"state":"active","ping":90},{"user_id":118,"name":"Frederica Bernkastel","steam_id":76561198063315650,"connected_time":5136000000000,"state":"active","ping":82},{"user_id":153,"name":"Jordicr100","steam_id":76561198030999491,"connected_time":1937000000000,"state":"active","ping":98},{"user_id":157,"name":"Smiles","steam_id":76561198107197973,"connected_time":1767000000000,"state":"active","ping":76},{"user_id":128,"name":"abomination","steam_id":76561198167974713,"connected_time":3990000000000,"state":"active","ping":60},{"user_id":165,"name":"♡Alyx♡","steam_id":76561198024303978,"connected_time":363000000000,"state":"active","ping":59},{"user_id":168,"name":"ATL1 | J O V A","steam_id":76561198090333536,"connected_time":96000000000,"state":"active","ping":73},{"user_id":162,"name":"SadVeggie","steam_id":76561198163430099,"connected_time":901000000000,"state":"active","ping":129},{"user_id":96,"name":"Looneymunkey","steam_id":76561198414675183,"connected_time":5571000000000,"state":"active","ping":66},{"user_id":149,"name":"yomokha","steam_id":76561198063175935,"connected_time":2113000000000,"state":"active","ping":60},{"user_id":138,"name":"ATL1 | Crystron","steam_id":76561198880437428,"connected_time":2798000000000,"state":"active","ping":83}]},{"server_id":400,"name":"Uncletopia | Atlanta | 3 | Stopwatch Beta","name_short":"atl-3","host":"atl-1.us.uncletopia.com","port":27035,"enabled":true,"region":"us-east","cc":"us","latitude":33.753746,"longitude":-84.38633,"reserved":0,"last_update":"0001-01-01T00:00:00Z","name_a2s":"Uncletopia | Atlanta | 3 | Stopwatch Beta","protocol":17,"map":"koth_cascade","folder":"tf","game":"Team Fortress","app_id":440,"player_count":0,"max_players":24,"Bots":0,"server_type":"Dedicated","server_os":"Linux","password":true,"vac":true,"version":"7723704","steam_id":85568392924515187,"keywords":["cp","nocrits","nodmgspread","uncletopia"],"game_id":440,"stv_port":27036,"stv_name":"Uncletopia | Atlanta | 3 | Stopwatch Beta | STV","players":null},{"server_id":401,"name":"Uncletopia | Atlanta | 4 | No Payload","name_short":"atl-4","host":"atl-1.us.uncletopia.com","port":27045,"enabled":true,"region":"us-east","cc":"us","latitude":33.753746,"longitude":-84.38633,"reserved":0,"last_update":"0001-01-01T00:00:00Z","name_a2s":"Uncletopia | Atlanta | 4 | No Payload","protocol":17,"map":"pl_pier","folder":"tf","game":"Team Fortress","app_id":440,"player_count":0,"max_players":24,"Bots":0,"server_type":"Dedicated","server_os":"Linux","password":true,"vac":true,"version":"7723704","steam_id":85568392924515188,"keywords":["nocrits","nodmgspread","payload","uncletopia"],"game_id":440,"stv_port":27046,"stv_name":"Uncletopia | Atlanta | 4 | No Payload | STV","players":null},{"server_id":2,"name":"Uncletopia | Chicago | 1 | All Maps","name_short":"chi-1","host":"chi-1.us.uncletopia.com","port":27015,"enabled":true,"region":"us-central","cc":"us","latitude":41.881832,"longitude":-87.62318,"reserved":0,"last_update":"0001-01-01T00:00:00Z","name_a2s":"Uncletopia | Chicago | 1 | All Maps","protocol":17,"map":"cp_dustbowl","folder":"tf","game":"Team Fortress","app_id":440,"player_count":24,"max_players":24,"Bots":0,"server_type":"Dedicated","server_os":"Linux","password":true,"vac":true,"version":"7723704","steam_id":85568392924469984,"keywords":["cp","nocrits","nodmgspread","uncletopia"],"game_id":440,"stv_port":27016,"stv_name":"Uncletopia | Chicago | 1 | All Maps | STV","players":[{"user_id":239,"name":"ENORMOUS HOG","steam_id":76561198079923652,"connected_time":2724000000000,"state":"active","ping":78},{"user_id":235,"name":"Gheeotine","steam_id":76561198010181698,"connected_time":3139000000000,"state":"active","ping":79},{"user_id":257,"name":"☣ cat fock ☣","steam_id":76561198264641620,"connected_time":977000000000,"state":"active","ping":57},{"user_id":260,"name":"Vem","steam_id":76561198117273112,"connected_time":485000000000,"state":"active","ping":62},{"user_id":248,"name":"BAT BOY","steam_id":76561198034611414,"connected_time":2144000000000,"state":"active","ping":90},{"user_id":249,"name":"LIN♡","steam_id":76561199411560141,"connected_time":1949000000000,"state":"active","ping":82},{"user_id":262,"name":"kebo","steam_id":76561198237159430,"connected_time":15000000000,"state":"spawning","ping":119},{"user_id":240,"name":"SuperJagops","steam_id":76561198034689716,"connected_time":2498000000000,"state":"active","ping":66},{"user_id":261,"name":"\u003cNULL\u003e","steam_id":76561198079489150,"connected_time":288000000000,"state":"active","ping":58},{"user_id":258,"name":"Quentin","steam_id":76561198032941413,"connected_time":884000000000,"state":"active","ping":71},{"user_id":250,"name":"A Sun","steam_id":76561198142545364,"connected_time":1753000000000,"state":"active","ping":62},{"user_id":243,"name":"Le","steam_id":76561198817754233,"connected_time":2304000000000,"state":"active","ping":53},{"user_id":164,"name":"kablong","steam_id":76561199094392047,"connected_time":7704000000000,"state":"active","ping":76},{"user_id":211,"name":"nalezinik","steam_id":76561198030026119,"connected_time":4288000000000,"state":"active","ping":60},{"user_id":244,"name":"mommy hog","steam_id":76561199230929836,"connected_time":2303000000000,"state":"active","ping":86},{"user_id":224,"name":"Liquid Oxycodone","steam_id":76561198154162664,"connected_time":3535000000000,"state":"active","ping":74},{"user_id":259,"name":"NoBoreGaming","steam_id":76561198044244547,"connected_time":780000000000,"state":"active","ping":67},{"user_id":245,"name":"Cooldog","steam_id":76561198155754968,"connected_time":2302000000000,"state":"active","ping":57},{"user_id":247,"name":"Mister36","steam_id":76561198019132100,"connected_time":2289000000000,"state":"active","ping":68},{"user_id":228,"name":"AreYouJoshinMe","steam_id":76561199444580542,"connected_time":3443000000000,"state":"active","ping":59},{"user_id":251,"name":"PKBEAST_7","steam_id":76561198177136537,"connected_time":1753000000000,"state":"active","ping":82},{"user_id":167,"name":"ItsRoy","steam_id":76561198119525485,"connected_time":7483000000000,"state":"active","ping":56},{"user_id":213,"name":"Daksuki","steam_id":76561198084127751,"connected_time":4052000000000,"state":"active","ping":75},{"user_id":193,"name":"Jellyboi","steam_id":76561197995758438,"connected_time":6069000000000,"state":"active","ping":89}]},{"server_id":106,"name":"Uncletopia | Chicago | 2 | All Maps","name_short":"chi-2","host":"chi-1.us.uncletopia.com","port":27025,"enabled":true,"region":"us-central","cc":"us","latitude":41.881832,"longitude":-87.62318,"reserved":0,"last_update":"0001-01-01T00:00:00Z","name_a2s":"Uncletopia | Chicago | 2 | All Maps","protocol":17,"map":"pl_pier","folder":"tf","game":"Team Fortress","app_id":440,"player_count":19,"max_players":24,"Bots":0,"server_type":"Dedicated","server_os":"Linux","password":true,"vac":true,"version":"7723704","steam_id":85568392924469985,"keywords":["nocrits","nodmgspread","payload","uncletopia"],"game_id":440,"stv_port":27026,"stv_name":"Uncletopia | Chicago | 2 | All Maps | STV","players":[{"user_id":64,"name":"Max_Attack","steam_id":76561198944028607,"connected_time":117000000000,"state":"active","ping":68},{"user_id":58,"name":"Patrick2010","steam_id":76561198857179305,"connected_time":1013000000000,"state":"active","ping":139},{"user_id":49,"name":"Rornir","steam_id":76561198081829615,"connected_time":1434000000000,"state":"active","ping":30},{"user_id":45,"name":"rkp!","steam_id":76561199053070819,"connected_time":1781000000000,"state":"active","ping":55},{"user_id":12,"name":"Challenger Charles","steam_id":76561198005576553,"connected_time":3361000000000,"state":"active","ping":69},{"user_id":62,"name":"Rifleman","steam_id":76561199187820690,"connected_time":185000000000,"state":"active","ping":74},{"user_id":63,"name":"Evolution","steam_id":76561198144767370,"connected_time":140000000000,"state":"active","ping":45},{"user_id":60,"name":"Tommy Pickles (Very Cool)","steam_id":76561198391261463,"connected_time":810000000000,"state":"active","ping":65},{"user_id":65,"name":"womthedom","steam_id":76561198088768287,"connected_time":94000000000,"state":"active","ping":66},{"user_id":22,"name":"Calvin_Canada","steam_id":76561199036110310,"connected_time":2449000000000,"state":"active","ping":78},{"user_id":61,"name":"lorem ipsum","steam_id":76561198354622099,"connected_time":656000000000,"state":"active","ping":62},{"user_id":66,"name":"iddoros","steam_id":76561199202283283,"connected_time":11000000000,"state":"spawning","ping":353},{"user_id":24,"name":"Bee_Pirate","steam_id":76561199000599111,"connected_time":2432000000000,"state":"active","ping":69},{"user_id":28,"name":"The Medic","steam_id":76561198288892120,"connected_time":2326000000000,"state":"active","ping":78},{"user_id":46,"name":"Micro","steam_id":76561198319239296,"connected_time":1549000000000,"state":"active","ping":78},{"user_id":31,"name":"trick","steam_id":76561199057591137,"connected_time":2277000000000,"state":"active","ping":81},{"user_id":55,"name":"Cuttle's Fish","steam_id":76561198280483257,"connected_time":1212000000000,"state":"active","ping":56},{"user_id":35,"name":"SrJuliusIV","steam_id":76561198341803148,"connected_time":2163000000000,"state":"active","ping":134},{"user_id":53,"name":"recycle","steam_id":76561198819562111,"connected_time":1325000000000,"state":"active","ping":56}]},{"server_id":402,"name":"Uncletopia | Chicago | 3 | All Maps","name_short":"chi-3","host":"chi-1.us.uncletopia.com","port":27035,"enabled":true,"region":"us-central","cc":"us","latitude":41.881832,"longitude":-87.62318,"reserved":0,"last_update":"0001-01-01T00:00:00Z","name_a2s":"Uncletopia | Chicago | 3 | All Maps","protocol":17,"map":"cp_mountainlab","folder":"tf","game":"Team Fortress","app_id":440,"player_count":0,"max_players":24,"Bots":0,"server_type":"Dedicated","server_os":"Linux","password":true,"vac":true,"version":"7723704","steam_id":85568392924515191,"keywords":["cp","nocrits","nodmgspread","uncletopia"],"game_id":440,"stv_port":27036,"stv_name":"Uncletopia | Chicago | 3 | All Maps | STV","players":null},{"server_id":403,"name":"Uncletopia | Chicago | 4 | All Maps","name_short":"chi-4","host":"chi-1.us.uncletopia.com","port":27045,"enabled":true,"region":"us-central","cc":"us","latitude":41.881832,"longitude":-87.62318,"reserved":0,"last_update":"0001-01-01T00:00:00Z","name_a2s":"Uncletopia | Chicago | 4 | All Maps","protocol":17,"map":"cp_mountainlab","folder":"tf","game":"Team Fortress","app_id":440,"player_count":0,"max_players":24,"Bots":0,"server_type":"Dedicated","server_os":"Linux","password":true,"vac":true,"version":"7723704","steam_id":85568392924515193,"keywords":["cp","nocrits","nodmgspread","uncletopia"],"game_id":440,"stv_port":27046,"stv_name":"Uncletopia | Chicago | 4 | All Maps | STV","players":null},{"server_id":36,"name":"Uncletopia | Chicago | 5 | All Maps","name_short":"chi-5","host":"chi-2.us.uncletopia.com","port":27015,"enabled":true,"region":"us-central","cc":"us","latitude":41.881832,"longitude":-87.62318,"reserved":0,"last_update":"0001-01-01T00:00:00Z","name_a2s":"Uncletopia | Chicago | 5 | All Maps","protocol":17,"map":"pl_pier","folder":"tf","game":"Team Fortress","app_id":440,"player_count":16,"max_players":24,"Bots":0,"server_type":"Dedicated","server_os":"Linux","password":true,"vac":true,"version":"7723704","steam_id":85568392924866362,"keywords":["nocrits","nodmgspread","payload","uncletopia"],"game_id":440,"stv_port":27016,"stv_name":"Uncletopia | Chicago | 5 | All Maps | STV","players":[{"user_id":21,"name":"roln","steam_id":76561198041066271,"connected_time":806000000000,"state":"active","ping":66},{"user_id":9,"name":"Urist","steam_id":76561198840019109,"connected_time":1264000000000,"state":"active","ping":60},{"user_id":11,"name":"Taste the Pain","steam_id":76561198081617990,"connected_time":1256000000000,"state":"active","ping":78},{"user_id":12,"name":"Squatchamo","steam_id":76561198012968239,"connected_time":1223000000000,"state":"active","ping":72},{"user_id":13,"name":"Jamie Hyneman","steam_id":76561199196036481,"connected_time":1216000000000,"state":"active","ping":79},{"user_id":14,"name":"CassandraRC7 (She/her)","steam_id":76561198094123940,"connected_time":1168000000000,"state":"active","ping":67},{"user_id":15,"name":"hauntaholic","steam_id":76561198095051652,"connected_time":1128000000000,"state":"active","ping":53},{"user_id":17,"name":"For Jack","steam_id":76561198322674283,"connected_time":1002000000000,"state":"active","ping":66},{"user_id":19,"name":"lolosaur","steam_id":76561199186671167,"connected_time":927000000000,"state":"active","ping":100},{"user_id":22,"name":"finkle","steam_id":76561198388089772,"connected_time":786000000000,"state":"active","ping":76},{"user_id":23,"name":"vince","steam_id":76561198054144974,"connected_time":777000000000,"state":"active","ping":47},{"user_id":25,"name":"YES YES YES","steam_id":76561198969592244,"connected_time":751000000000,"state":"active","ping":82},{"user_id":38,"name":"submackeen","steam_id":76561198799855913,"connected_time":187000000000,"state":"active","ping":61},{"user_id":34,"name":"donti","steam_id":76561197977223197,"connected_time":505000000000,"state":"active","ping":48},{"user_id":31,"name":"Yengozi","steam_id":76561198448764748,"connected_time":635000000000,"state":"active","ping":75},{"user_id":33,"name":"Garbage","steam_id":76561198286796934,"connected_time":586000000000,"state":"active","ping":60}]},{"server_id":37,"name":"Uncletopia | Chicago | 6 | All Maps","name_short":"chi-6","host":"chi-2.us.uncletopia.com","port":27025,"enabled":true,"region":"us-central","cc":"us","latitude":41.881832,"longitude":-87.62318,"reserved":0,"last_update":"0001-01-01T00:00:00Z","name_a2s":"Uncletopia | Chicago | 6 | All Maps","protocol":17,"map":"koth_viaduct","folder":"tf","game":"Team Fortress","app_id":440,"player_count":0,"max_players":24,"Bots":0,"server_type":"Dedicated","server_os":"Linux","password":true,"vac":true,"version":"7723704","steam_id":85568392924866363,"keywords":["cp","nocrits","nodmgspread","uncletopia"],"game_id":440,"stv_port":27026,"stv_name":"Uncletopia | Chicago | 6 | All Maps | STV","players":null},{"server_id":38,"name":"Uncletopia | Chicago | 7 | Stopwatch Beta","name_short":"chi-7","host":"chi-2.us.uncletopia.com","port":27035,"enabled":true,"region":"us-central","cc":"us","latitude":41.881832,"longitude":-87.62318,"reserved":0,"last_update":"0001-01-01T00:00:00Z","name_a2s":"Uncletopia | Chicago | 7 | Stopwatch Beta","protocol":17,"map":"pl_upward","folder":"tf","game":"Team Fortress","app_id":440,"player_count":0,"max_players":24,"Bots":0,"server_type":"Dedicated","server_os":"Linux","password":true,"vac":true,"version":"7723704","steam_id":85568392924866364,"keywords":["nocrits","nodmgspread","payload","uncletopia"],"game_id":440,"stv_port":27036,"stv_name":"Uncletopia | Chicago | 7 | Stopwatch Beta | STV","players":null},{"server_id":39,"name":"Uncletopia | Chicago | 8 | Community","name_short":"chi-8","host":"chi-2.us.uncletopia.com","port":27045,"enabled":true,"region":"us-central","cc":"us","latitude":41.881832,"longitude":-87.62318,"reserved":0,"last_update":"0001-01-01T00:00:00Z","name_a2s":"Uncletopia | Chicago | 8 | Community","protocol":17,"map":"pl_frontier_final","folder":"tf","game":"Team Fortress","app_id":440,"player_count":0,"max_players":24,"Bots":0,"server_type":"Dedicated","server_os":"Linux","password":true,"vac":true,"version":"7723704","steam_id":85568392924866365,"keywords":["nocrits","nodmgspread","payload","uncletopia"],"game_id":440,"stv_port":27046,"stv_name":"Uncletopia | Chicago | 8 | Community | STV","players":null},{"server_id":8,"name":"Uncletopia | Dallas | 1 | All Maps","name_short":"dal-1","host":"dal-1.us.uncletopia.com","port":27015,"enabled":true,"region":"us-central","cc":"us","latitude":32.779167,"longitude":-96.80889,"reserved":0,"last_update":"0001-01-01T00:00:00Z","name_a2s":"Uncletopia | Dallas | 1 | All Maps","protocol":17,"map":"koth_cascade","folder":"tf","game":"Team Fortress","app_id":440,"player_count":24,"max_players":24,"Bots":0,"server_type":"Dedicated","server_os":"Linux","password":true,"vac":true,"version":"7723704","steam_id":85568392924469986,"keywords":["cp","nocrits","nodmgspread","uncletopia"],"game_id":440,"stv_port":27016,"stv_name":"Uncletopia | Dallas | 1 | All Maps | STV","players":[{"user_id":83,"name":"ShredMaan","steam_id":76561198429982138,"connected_time":236000000000,"state":"active","ping":77},{"user_id":86,"name":"the grunch","steam_id":76561199013160273,"connected_time":177000000000,"state":"active","ping":71},{"user_id":60,"name":"cinna.gamer.2007","steam_id":76561198309760791,"connected_time":1992000000000,"state":"active","ping":113},{"user_id":87,"name":"Mortimer Khan","steam_id":76561197968829990,"connected_time":156000000000,"state":"active","ping":82},{"user_id":74,"name":"CyMeryy","steam_id":76561197984986540,"connected_time":903000000000,"state":"active","ping":57},{"user_id":88,"name":"an inebriated newt fancier","steam_id":76561197985428155,"connected_time":114000000000,"state":"active","ping":80},{"user_id":57,"name":"Eightyy  Fourr","steam_id":76561197960374225,"connected_time":2002000000000,"state":"active","ping":46},{"user_id":73,"name":"✷sρяιnкlєѕ✷","steam_id":76561198055388785,"connected_time":931000000000,"state":"active","ping":89},{"user_id":19,"name":"Null | Crack Clan","steam_id":76561198895762836,"connected_time":3832000000000,"state":"active","ping":80},{"user_id":20,"name":"Mr. Poliedro","steam_id":76561198873854696,"connected_time":3808000000000,"state":"active","ping":129},{"user_id":78,"name":"pocket medic BOT","steam_id":76561198433185982,"connected_time":626000000000,"state":"active","ping":72},{"user_id":81,"name":"potty trained","steam_id":76561198141557766,"connected_time":398000000000,"state":"active","ping":77},{"user_id":85,"name":"SpecterQuilava","steam_id":76561198262959060,"connected_time":202000000000,"state":"active","ping":125},{"user_id":24,"name":"the gamer hermit crab","steam_id":76561198969402276,"connected_time":3724000000000,"state":"active","ping":50},{"user_id":62,"name":"robert","steam_id":76561198001196512,"connected_time":1858000000000,"state":"active","ping":60},{"user_id":89,"name":"the carnivores velociraptor","steam_id":76561198795639476,"connected_time":112000000000,"state":"active","ping":92},{"user_id":90,"name":"Vippopper","steam_id":76561198097935829,"connected_time":69000000000,"state":"active","ping":181},{"user_id":28,"name":"ozymandias","steam_id":76561198983415087,"connected_time":3686000000000,"state":"active","ping":63},{"user_id":59,"name":"OCDkitty","steam_id":76561198266296221,"connected_time":1996000000000,"state":"active","ping":46},{"user_id":84,"name":"pim","steam_id":76561198095163441,"connected_time":225000000000,"state":"active","ping":47},{"user_id":76,"name":"cy","steam_id":76561198885893295,"connected_time":822000000000,"state":"active","ping":76},{"user_id":41,"name":"Olitude","steam_id":76561199238964574,"connected_time":3396000000000,"state":"active","ping":75},{"user_id":82,"name":"Zee❤","steam_id":76561198274550638,"connected_time":386000000000,"state":"active","ping":51},{"user_id":71,"name":"Salmon","steam_id":76561198098295862,"connected_time":1067000000000,"state":"active","ping":76}]},{"server_id":108,"name":"Uncletopia | Dallas | 2 | All Maps","name_short":"dal-2","host":"dal-1.us.uncletopia.com","port":27025,"enabled":true,"region":"us-central","cc":"us","latitude":32.779167,"longitude":-96.80889,"reserved":0,"last_update":"0001-01-01T00:00:00Z","name_a2s":"Uncletopia | Dallas | 2 | All Maps","protocol":17,"map":"pl_borneo","folder":"tf","game":"Team Fortress","app_id":440,"player_count":0,"max_players":24,"Bots":0,"server_type":"Dedicated","server_os":"Linux","password":true,"vac":true,"version":"7723704","steam_id":85568392924469988,"keywords":["nocrits","nodmgspread","payload","uncletopia"],"game_id":440,"stv_port":27026,"stv_name":"Uncletopia | Dallas | 2 | All Maps | STV","players":null},{"server_id":5,"name":"Uncletopia | Frankfurt | 1 | All Maps","name_short":"frk-1","host":"frk-1.de.uncletopia.com","port":27015,"enabled":true,"region":"eu","cc":"de","latitude":50.110924,"longitude":8.682127,"reserved":0,"last_update":"0001-01-01T00:00:00Z","name_a2s":"Uncletopia | Frankfurt | 1 | All Maps","protocol":17,"map":"pl_frontier_final","folder":"tf","game":"Team Fortress","app_id":440,"player_count":23,"max_players":24,"Bots":0,"server_type":"Dedicated","server_os":"Linux","password":true,"vac":true,"version":"7723704","steam_id":85568392924469989,"keywords":["nocrits","nodmgspread","payload","uncletopia"],"game_id":440,"stv_port":27016,"stv_name":"Uncletopia | Frankfurt | 1 | All Maps | STV","players":[{"user_id":332,"name":"Virus858","steam_id":76561199156084410,"connected_time":337000000000,"state":"active","ping":179},{"user_id":331,"name":"Realist 40","steam_id":76561198052476979,"connected_time":366000000000,"state":"active","ping":75},{"user_id":266,"name":"Optimist 50","steam_id":76561198039631442,"connected_time":4342000000000,"state":"active","ping":75},{"user_id":307,"name":"Milosz52","steam_id":76561199060940204,"connected_time":2173000000000,"state":"active","ping":76},{"user_id":340,"name":"Carrot","steam_id":76561198119340863,"connected_time":146000000000,"state":"active","ping":56},{"user_id":305,"name":"Tutel","steam_id":76561198944058412,"connected_time":2367000000000,"state":"active","ping":49},{"user_id":313,"name":"Zateske","steam_id":76561198047446276,"connected_time":1581000000000,"state":"active","ping":60},{"user_id":315,"name":"Vollys","steam_id":76561198018077773,"connected_time":1319000000000,"state":"active","ping":57},{"user_id":327,"name":"Eyencia","steam_id":76561198834995822,"connected_time":761000000000,"state":"active","ping":88},{"user_id":306,"name":"player","steam_id":76561198054474684,"connected_time":2242000000000,"state":"active","ping":75},{"user_id":342,"name":"Flarp von Karma","steam_id":76561198043855292,"connected_time":1000000000,"state":"spawning","ping":34},{"user_id":319,"name":"WUNNA","steam_id":76561198999848273,"connected_time":1066000000000,"state":"active","ping":90},{"user_id":274,"name":"LesaPán","steam_id":76561198158691758,"connected_time":4131000000000,"state":"active","ping":72},{"user_id":341,"name":"Red","steam_id":76561198078984786,"connected_time":106000000000,"state":"active","ping":64},{"user_id":336,"name":"Slimeby","steam_id":76561198353438688,"connected_time":269000000000,"state":"active","ping":78},{"user_id":281,"name":"1 month Big Earner challenge","steam_id":76561198799097492,"connected_time":3846000000000,"state":"active","ping":46},{"user_id":339,"name":"Mr. Mundy","steam_id":76561198132008918,"connected_time":178000000000,"state":"active","ping":96},{"user_id":338,"name":"SaltyCupcakes","steam_id":76561198256386417,"connected_time":263000000000,"state":"active","ping":58},{"user_id":325,"name":"Deacon Dracul","steam_id":76561198046880663,"connected_time":811000000000,"state":"active","ping":105},{"user_id":318,"name":"Videogamer","steam_id":76561198106012909,"connected_time":1178000000000,"state":"active","ping":62},{"user_id":323,"name":"Droyin","steam_id":76561199219654706,"connected_time":937000000000,"state":"active","ping":77},{"user_id":326,"name":"HM","steam_id":76561198327679065,"connected_time":780000000000,"state":"active","ping":71},{"user_id":308,"name":"Dramagizio","steam_id":76561198047935918,"connected_time":2061000000000,"state":"active","ping":47}]},{"server_id":110,"name":"Uncletopia | Frankfurt | 2 | All Maps","name_short":"frk-2","host":"frk-1.de.uncletopia.com","port":27025,"enabled":true,"region":"eu","cc":"de","latitude":50.110924,"longitude":8.682127,"reserved":0,"last_update":"0001-01-01T00:00:00Z","name_a2s":"Uncletopia | Frankfurt | 2 | All Maps","protocol":17,"map":"pl_upward","folder":"tf","game":"Team Fortress","app_id":440,"player_count":6,"max_players":24,"Bots":0,"server_type":"Dedicated","server_os":"Linux","password":true,"vac":true,"version":"7723704","steam_id":85568392924469990,"keywords":["nocrits","nodmgspread","payload","uncletopia"],"game_id":440,"stv_port":27026,"stv_name":"Uncletopia | Frankfurt | 2 | All Maps | STV","players":[{"user_id":17,"name":"AforeKingDwarf","steam_id":76561198043562926,"connected_time":1450000000000,"state":"active","ping":54},{"user_id":18,"name":"DOCTOR SEX","steam_id":76561199210767484,"connected_time":1235000000000,"state":"active","ping":57},{"user_id":21,"name":"professional yellow man","steam_id":76561198060200599,"connected_time":514000000000,"state":"active","ping":105},{"user_id":22,"name":"SaSSolino","steam_id":76561198011308018,"connected_time":514000000000,"state":"active","ping":51},{"user_id":20,"name":"miclejacskon","steam_id":76561199238833234,"connected_time":576000000000,"state":"active","ping":89},{"user_id":23,"name":"xXdoge gaming 42069Xx","steam_id":76561198372971096,"connected_time":481000000000,"state":"active","ping":74}]},{"server_id":308,"name":"Uncletopia | Frankfurt | 3 | All Maps","name_short":"frk-3","host":"frk-1.de.uncletopia.com","port":27035,"enabled":true,"region":"eu","cc":"de","latitude":50.110924,"longitude":8.682127,"reserved":0,"last_update":"0001-01-01T00:00:00Z","name_a2s":"Uncletopia | Frankfurt | 3 | All Maps","protocol":17,"map":"pl_snowycoast","folder":"tf","game":"Team Fortress","app_id":440,"player_count":21,"max_players":24,"Bots":0,"server_type":"Dedicated","server_os":"Linux","password":true,"vac":true,"version":"7723704","steam_id":85568392924504274,"keywords":["nocrits","nodmgspread","payload","uncletopia"],"game_id":440,"stv_port":27036,"stv_name":"Uncletopia | Frankfurt | 3 | All Maps | STV","players":[{"user_id":238,"name":"Pabs :D","steam_id":76561198000016962,"connected_time":1139000000000,"state":"active","ping":59},{"user_id":253,"name":"Pay_44","steam_id":76561199205806795,"connected_time":6000000000,"state":"spawning","ping":98},{"user_id":234,"name":"dolo","steam_id":76561198206672297,"connected_time":1436000000000,"state":"active","ping":48},{"user_id":220,"name":"Dicartal","steam_id":76561198295793592,"connected_time":1759000000000,"state":"active","ping":125},{"user_id":235,"name":"Pachakamakk","steam_id":76561197989010401,"connected_time":1431000000000,"state":"active","ping":47},{"user_id":209,"name":"pablo.gonzalez.2005","steam_id":76561198971389390,"connected_time":2399000000000,"state":"active","ping":69},{"user_id":249,"name":"Kaen Bedehem","steam_id":76561198084056545,"connected_time":94000000000,"state":"active","ping":65},{"user_id":246,"name":"Gabys","steam_id":76561198282892553,"connected_time":318000000000,"state":"active","ping":70},{"user_id":251,"name":"zek","steam_id":76561198862763731,"connected_time":64000000000,"state":"active","ping":59},{"user_id":250,"name":"Memaren","steam_id":76561198317685093,"connected_time":70000000000,"state":"active","ping":74},{"user_id":252,"name":"kapsel","steam_id":76561198126564423,"connected_time":46000000000,"state":"active","ping":63},{"user_id":201,"name":"iMac G3","steam_id":76561199039424416,"connected_time":2926000000000,"state":"active","ping":175},{"user_id":228,"name":"Festive Charly","steam_id":76561197961895147,"connected_time":1610000000000,"state":"active","ping":50},{"user_id":224,"name":"that was your fault","steam_id":76561198000369215,"connected_time":1686000000000,"state":"active","ping":60},{"user_id":240,"name":"Juno4","steam_id":76561198034518616,"connected_time":1101000000000,"state":"active","ping":76},{"user_id":244,"name":"тукку ирма","steam_id":76561197998715016,"connected_time":989000000000,"state":"active","ping":56},{"user_id":242,"name":"Amon Gus","steam_id":76561199094540960,"connected_time":1057000000000,"state":"active","ping":52},{"user_id":243,"name":"WolfmanCZ","steam_id":76561199157141414,"connected_time":1039000000000,"state":"spawning","ping":68},{"user_id":226,"name":"limiter","steam_id":76561198260569123,"connected_time":1652000000000,"state":"active","ping":120},{"user_id":227,"name":"Warped","steam_id":76561197989916494,"connected_time":1644000000000,"state":"active","ping":48},{"user_id":233,"name":"Formaly_Dressed","steam_id":76561198364309719,"connected_time":1511000000000,"state":"active","ping":75}]},{"server_id":309,"name":"Uncletopia | Frankfurt | 4 | All Maps","name_short":"frk-4","host":"frk-1.de.uncletopia.com","port":27045,"enabled":true,"region":"eu","cc":"de","latitude":50.110924,"longitude":8.682127,"reserved":0,"last_update":"0001-01-01T00:00:00Z","name_a2s":"Uncletopia | Frankfurt | 4 | All Maps","protocol":17,"map":"cp_steel","folder":"tf","game":"Team Fortress","app_id":440,"player_count":13,"max_players":24,"Bots":0,"server_type":"Dedicated","server_os":"Linux","password":true,"vac":true,"version":"7723704","steam_id":85568392924504275,"keywords":["cp","nocrits","nodmgspread","uncletopia"],"game_id":440,"stv_port":27046,"stv_name":"Uncletopia | Frankfurt | 4 | All Maps | STV","players":[{"user_id":183,"name":"Mclovin567","steam_id":76561198799105302,"connected_time":2816000000000,"state":"active","ping":45},{"user_id":236,"name":"CSharp","steam_id":76561199185191710,"connected_time":105000000000,"state":"active","ping":269},{"user_id":202,"name":"Rob Rotten","steam_id":76561198170543542,"connected_time":1461000000000,"state":"active","ping":144},{"user_id":228,"name":"kalaa †","steam_id":76561198134652336,"connected_time":624000000000,"state":"active","ping":59},{"user_id":237,"name":"cherry","steam_id":76561199006915718,"connected_time":81000000000,"state":"active","ping":60},{"user_id":204,"name":"Pico","steam_id":76561198399294147,"connected_time":1344000000000,"state":"active","ping":109},{"user_id":232,"name":"lyra","steam_id":76561198043601838,"connected_time":458000000000,"state":"active","ping":60},{"user_id":190,"name":"ReDsinat0r","steam_id":76561198365973345,"connected_time":2178000000000,"state":"active","ping":59},{"user_id":214,"name":"Raulca25","steam_id":76561199068256964,"connected_time":1077000000000,"state":"active","ping":89},{"user_id":216,"name":"Engineer Gaming","steam_id":76561198866730509,"connected_time":1044000000000,"state":"active","ping":91},{"user_id":208,"name":"Raldow","steam_id":76561198021389301,"connected_time":1300000000000,"state":"active","ping":66},{"user_id":210,"name":"Grand ChouFleur","steam_id":76561198010329501,"connected_time":1206000000000,"state":"active","ping":53},{"user_id":163,"name":"Gver3113","steam_id":76561198118659012,"connected_time":4278000000000,"state":"active","ping":68}]},{"server_id":310,"name":"Uncletopia | Frankfurt | 5 | All Maps","name_short":"frk-5","host":"frk-1.de.uncletopia.com","port":27055,"enabled":true,"region":"eu","cc":"de","latitude":50.110924,"longitude":8.682127,"reserved":0,"last_update":"0001-01-01T00:00:00Z","name_a2s":"Uncletopia | Frankfurt | 5 | All Maps","protocol":17,"map":"cp_process_final","folder":"tf","game":"Team Fortress","app_id":440,"player_count":24,"max_players":24,"Bots":0,"server_type":"Dedicated","server_os":"Linux","password":true,"vac":true,"version":"7723704","steam_id":85568392924504277,"keywords":["cp","nocrits","nodmgspread","uncletopia"],"game_id":440,"stv_port":27056,"stv_name":"Uncletopia | Frankfurt | 5 | All Maps | STV","players":[{"user_id":269,"name":"mel","steam_id":76561198404172173,"connected_time":82000000000,"state":"active","ping":178},{"user_id":228,"name":"0xDEADBEEF","steam_id":76561199075416111,"connected_time":2134000000000,"state":"active","ping":92},{"user_id":258,"name":"Raphael","steam_id":76561198399203059,"connected_time":630000000000,"state":"active","ping":62},{"user_id":242,"name":"schmick","steam_id":76561198039537958,"connected_time":1506000000000,"state":"active","ping":73},{"user_id":210,"name":"dustee","steam_id":76561198023486582,"connected_time":3387000000000,"state":"active","ping":75},{"user_id":249,"name":"DeepBlue","steam_id":76561198140075795,"connected_time":1289000000000,"state":"active","ping":49},{"user_id":250,"name":"pijuka #k2","steam_id":76561198083063005,"connected_time":1162000000000,"state":"active","ping":57},{"user_id":270,"name":"steven","steam_id":76561198028240570,"connected_time":81000000000,"state":"active","ping":52},{"user_id":238,"name":"NALA","steam_id":76561198039806469,"connected_time":1592000000000,"state":"active","ping":73},{"user_id":251,"name":"Fran","steam_id":76561199070516960,"connected_time":1150000000000,"state":"active","ping":65},{"user_id":245,"name":"guarda-chuva","steam_id":76561198078694330,"connected_time":1434000000000,"state":"active","ping":53},{"user_id":255,"name":"V l e d u t z","steam_id":76561198836251435,"connected_time":808000000000,"state":"active","ping":69},{"user_id":229,"name":":)","steam_id":76561198039964082,"connected_time":1943000000000,"state":"active","ping":60},{"user_id":256,"name":"Peak","steam_id":76561199089961605,"connected_time":768000000000,"state":"active","ping":81},{"user_id":171,"name":"W+M1","steam_id":76561198418538887,"connected_time":5698000000000,"state":"active","ping":90},{"user_id":257,"name":"Omega_thing","steam_id":76561198859249057,"connected_time":649000000000,"state":"active","ping":56},{"user_id":259,"name":"Burgoo_King","steam_id":76561198133572225,"connected_time":627000000000,"state":"active","ping":72},{"user_id":268,"name":"Ab0nis","steam_id":76561197977179613,"connected_time":102000000000,"state":"active","ping":65},{"user_id":267,"name":"where is my egg?","steam_id":76561198172542535,"connected_time":346000000000,"state":"active","ping":71},{"user_id":224,"name":"!raven","steam_id":76561198320336543,"connected_time":2701000000000,"state":"active","ping":95},{"user_id":263,"name":"Spanougy_Man","steam_id":76561198319813938,"connected_time":510000000000,"state":"active","ping":102},{"user_id":264,"name":"bANji","steam_id":76561198108898161,"connected_time":504000000000,"state":"active","ping":47},{"user_id":265,"name":"no_name.dll","steam_id":76561199011969062,"connected_time":487000000000,"state":"active","ping":61},{"user_id":266,"name":"JeanCorben","steam_id":76561197965133561,"connected_time":485000000000,"state":"active","ping":45}]},{"server_id":311,"name":"Uncletopia | Frankfurt | 6 | All Maps","name_short":"frk-6","host":"frk-1.de.uncletopia.com","port":27065,"enabled":true,"region":"eu","cc":"de","latitude":50.110924,"longitude":8.682127,"reserved":0,"last_update":"0001-01-01T00:00:00Z","name_a2s":"Uncletopia | Frankfurt | 6 | All Maps","protocol":17,"map":"pl_snowycoast","folder":"tf","game":"Team Fortress","app_id":440,"player_count":24,"max_players":24,"Bots":0,"server_type":"Dedicated","server_os":"Linux","password":true,"vac":true,"version":"7723704","steam_id":85568392924504278,"keywords":["nocrits","nodmgspread","payload","uncletopia"],"game_id":440,"stv_port":27066,"stv_name":"Uncletopia | Frankfurt | 6 | All Maps | STV","players":[{"user_id":135,"name":"a fruitful and unwind","steam_id":76561198978029443,"connected_time":1389000000000,"state":"active","ping":105},{"user_id":112,"name":"Kolmannen","steam_id":76561198288826376,"connected_time":3053000000000,"state":"active","ping":93},{"user_id":126,"name":"benifis163","steam_id":76561198420973492,"connected_time":2167000000000,"state":"active","ping":105},{"user_id":133,"name":"I wuv you \u003c3","steam_id":76561199436238409,"connected_time":1430000000000,"state":"active","ping":75},{"user_id":136,"name":"After8","steam_id":76561198090750865,"connected_time":1385000000000,"state":"active","ping":66},{"user_id":148,"name":"chitinousCretin","steam_id":76561198146473120,"connected_time":276000000000,"state":"active","ping":63},{"user_id":71,"name":"Keelan","steam_id":76561198013665543,"connected_time":5633000000000,"state":"active","ping":79},{"user_id":147,"name":"muZ","steam_id":76561198060145190,"connected_time":536000000000,"state":"active","ping":59},{"user_id":150,"name":"hushhx","steam_id":76561198216200092,"connected_time":209000000000,"state":"active","ping":64},{"user_id":145,"name":"Sipsu","steam_id":76561198059424107,"connected_time":776000000000,"state":"active","ping":75},{"user_id":88,"name":"Spoody #JustPassing","steam_id":76561198031523769,"connected_time":4759000000000,"state":"active","ping":46},{"user_id":139,"name":"frying pan (real)","steam_id":76561198875409640,"connected_time":1348000000000,"state":"active","ping":81},{"user_id":151,"name":"G6 sherlock","steam_id":76561198802967796,"connected_time":198000000000,"state":"active","ping":130},{"user_id":146,"name":"FiskCH","steam_id":76561198305686321,"connected_time":610000000000,"state":"active","ping":78},{"user_id":103,"name":"guiseppe","steam_id":76561198046129681,"connected_time":4397000000000,"state":"active","ping":92},{"user_id":93,"name":"r06u3","steam_id":76561198254099253,"connected_time":4706000000000,"state":"active","ping":186},{"user_id":140,"name":"ulululu","steam_id":76561198134681775,"connected_time":1320000000000,"state":"active","ping":67},{"user_id":132,"name":"[Sheep] Tomco","steam_id":76561198388549261,"connected_time":1620000000000,"state":"active","ping":62},{"user_id":141,"name":"Нечуй-Левицький","steam_id":76561198870926865,"connected_time":1304000000000,"state":"active","ping":55},{"user_id":110,"name":"Volterion #SaveTf2","steam_id":76561198293088484,"connected_time":3720000000000,"state":"active","ping":75},{"user_id":128,"name":"MagicTITIKAKA","steam_id":76561198129509548,"connected_time":1998000000000,"state":"active","ping":116},{"user_id":131,"name":"DeleteTrickster","steam_id":76561198397120242,"connected_time":1735000000000,"state":"active","ping":84},{"user_id":109,"name":"GodOfGobboz","steam_id":76561198154677956,"connected_time":4184000000000,"state":"active","ping":76},{"user_id":121,"name":"NaN","steam_id":76561198071098413,"connected_time":2846000000000,"state":"active","ping":47}]},{"server_id":23,"name":"Uncletopia | Frankfurt | 7 | Stopwatch Beta","name_short":"frk-7","host":"frk-1.de.uncletopia.com","port":27075,"enabled":true,"region":"eu","cc":"de","latitude":50.110924,"longitude":8.682127,"reserved":0,"last_update":"0001-01-01T00:00:00Z","name_a2s":"Uncletopia | Frankfurt | 7 | Stopwatch Beta","protocol":17,"map":"workshop/pl_barnblitz_pro7.ugc582280235","folder":"tf","game":"Team Fortress","app_id":440,"player_count":0,"max_players":24,"Bots":0,"server_type":"Dedicated","server_os":"Linux","password":true,"vac":true,"version":"7723704","steam_id":85568392924742827,"keywords":["nocrits","nodmgspread","payload","uncletopia"],"game_id":440,"stv_port":27076,"stv_name":"Uncletopia | Frankfurt | 7 | Stopwatch Beta | STV","players":null},{"server_id":24,"name":"Uncletopia | Frankfurt | 8 | Community","name_short":"frk-8","host":"frk-1.de.uncletopia.com","port":27085,"enabled":true,"region":"eu","cc":"de","latitude":50.110924,"longitude":8.682127,"reserved":0,"last_update":"0001-01-01T00:00:00Z","name_a2s":"Uncletopia | Frankfurt | 8 | Community","protocol":17,"map":"workshop/pl_fifthcurve_rc1.ugc648227046","folder":"tf","game":"Team Fortress","app_id":440,"player_count":1,"max_players":24,"Bots":0,"server_type":"Dedicated","server_os":"Linux","password":true,"vac":true,"version":"7723704","steam_id":85568392924742828,"keywords":["nocrits","nodmgspread","payload","uncletopia"],"game_id":440,"stv_port":27086,"stv_name":"Uncletopia | Frankfurt | 8 | Community | STV","players":[{"user_id":30,"name":"K0MPAD","steam_id":76561198076461022,"connected_time":277000000000,"state":"spawning","ping":227}]},{"server_id":202,"name":"Uncletopia | Hong Kong | 1 | All Maps","name_short":"hgk-1","host":"hgk-1.hk.uncletopia.com","port":27015,"enabled":true,"region":"asia","cc":"hk","latitude":22.302711,"longitude":114.177216,"reserved":0,"last_update":"0001-01-01T00:00:00Z","name_a2s":"Uncletopia | Hong Kong | 1 | All Maps","protocol":17,"map":"pl_frontier_final","folder":"tf","game":"Team Fortress","app_id":440,"player_count":1,"max_players":24,"Bots":0,"server_type":"Dedicated","server_os":"Linux","password":true,"vac":true,"version":"7723704","steam_id":85568392924494504,"keywords":["nocrits","nodmgspread","payload","uncletopia"],"game_id":440,"stv_port":27016,"stv_name":"Uncletopia | Hong Kong | 1 | All Maps | STV","players":[{"user_id":644,"name":"Wakiiiz","steam_id":76561198850134590,"connected_time":69000000000,"state":"active","ping":49}]},{"server_id":1,"name":"Uncletopia | Los Angeles | 1 | All Maps","name_short":"lax-1","host":"lax-1.us.uncletopia.com","port":27015,"enabled":true,"region":"us-west","cc":"us","latitude":33.94279,"longitude":-118.41004,"reserved":0,"last_update":"0001-01-01T00:00:00Z","name_a2s":"Uncletopia | Los Angeles | 1 | All Maps","protocol":17,"map":"pl_frontier_final","folder":"tf","game":"Team Fortress","app_id":440,"player_count":0,"max_players":24,"Bots":0,"server_type":"Dedicated","server_os":"Linux","password":true,"vac":true,"version":"7723704","steam_id":85568392924469991,"keywords":["nocrits","nodmgspread","payload","uncletopia"],"game_id":440,"stv_port":27016,"stv_name":"Uncletopia | Los Angeles | 1 | All Maps | STV","players":null},{"server_id":112,"name":"Uncletopia | Los Angeles | 2 | All Maps","name_short":"lax-2","host":"lax-1.us.uncletopia.com","port":27025,"enabled":true,"region":"us-west","cc":"us","latitude":33.94279,"longitude":-118.41004,"reserved":0,"last_update":"0001-01-01T00:00:00Z","name_a2s":"Uncletopia | Los Angeles | 2 | All Maps","protocol":17,"map":"koth_viaduct","folder":"tf","game":"Team Fortress","app_id":440,"player_count":0,"max_players":24,"Bots":0,"server_type":"Dedicated","server_os":"Linux","password":true,"vac":true,"version":"7723704","steam_id":85568392924469992,"keywords":["cp","nocrits","nodmgspread","uncletopia"],"game_id":440,"stv_port":27026,"stv_name":"Uncletopia | Los Angeles | 2 | All Maps | STV","players":null},{"server_id":324,"name":"Uncletopia | Los Angeles | 3 | All Maps","name_short":"lax-3","host":"lax-1.us.uncletopia.com","port":27035,"enabled":true,"region":"us-west","cc":"us","latitude":33.94279,"longitude":-118.41004,"reserved":0,"last_update":"0001-01-01T00:00:00Z","name_a2s":"Uncletopia | Los Angeles | 3 | All Maps","protocol":17,"map":"koth_viaduct","folder":"tf","game":"Team Fortress","app_id":440,"player_count":0,"max_players":24,"Bots":0,"server_type":"Dedicated","server_os":"Linux","password":true,"vac":true,"version":"7723704","steam_id":85568392924510198,"keywords":["cp","nocrits","nodmgspread","uncletopia"],"game_id":440,"stv_port":27036,"stv_name":"Uncletopia | Los Angeles | 3 | All Maps | STV","players":null},{"server_id":25,"name":"Uncletopia | Los Angeles | 4 | Stopwatch Beta","name_short":"lax-4","host":"lax-1.us.uncletopia.com","port":27045,"enabled":true,"region":"us-west","cc":"us","latitude":33.94279,"longitude":-118.41004,"reserved":0,"last_update":"0001-01-01T00:00:00Z","name_a2s":"Uncletopia | Los Angeles | 4 | Stopwatch Beta","protocol":17,"map":"cp_sunshine","folder":"tf","game":"Team Fortress","app_id":440,"player_count":0,"max_players":24,"Bots":0,"server_type":"Dedicated","server_os":"Linux","password":true,"vac":true,"version":"7723704","steam_id":85568392924510199,"keywords":["cp","nocrits","nodmgspread","uncletopia"],"game_id":440,"stv_port":27046,"stv_name":"Uncletopia | Los Angeles | 4 | Stopwatch Beta | STV","players":null},{"server_id":11,"name":"Uncletopia | London | 1 | All Maps","name_short":"lon-1","host":"lon-1.uk.uncletopia.com","port":27015,"enabled":true,"region":"eu","cc":"gb","latitude":51.509865,"longitude":-0.118092,"reserved":0,"last_update":"0001-01-01T00:00:00Z","name_a2s":"Uncletopia | London | 1 | All Maps","protocol":17,"map":"pl_pier","folder":"tf","game":"Team Fortress","app_id":440,"player_count":24,"max_players":24,"Bots":0,"server_type":"Dedicated","server_os":"Linux","password":true,"vac":true,"version":"7723704","steam_id":85568392924367362,"keywords":["nocrits","nodmgspread","payload","uncletopia"],"game_id":440,"stv_port":27016,"stv_name":"Uncletopia | London | 1 | All Maps | STV","players":[{"user_id":567,"name":"Santa","steam_id":76561198411134621,"connected_time":1795000000000,"state":"active","ping":65},{"user_id":569,"name":"✪ Spygno ♿","steam_id":76561198160052537,"connected_time":1690000000000,"state":"active","ping":96},{"user_id":570,"name":"Eoset","steam_id":76561198032206976,"connected_time":1682000000000,"state":"active","ping":75},{"user_id":594,"name":"brtaba","steam_id":76561198796334790,"connected_time":210000000000,"state":"active","ping":61},{"user_id":595,"name":"Wardruna96","steam_id":76561199057083828,"connected_time":191000000000,"state":"active","ping":83},{"user_id":561,"name":"Bones","steam_id":76561198065081225,"connected_time":2367000000000,"state":"active","ping":38},{"user_id":565,"name":"LarsInABox","steam_id":76561198028329262,"connected_time":1991000000000,"state":"active","ping":66},{"user_id":572,"name":"Festive Yuletart","steam_id":76561198023918830,"connected_time":1549000000000,"state":"active","ping":44},{"user_id":573,"name":"LittleGearHead","steam_id":76561198060945307,"connected_time":1549000000000,"state":"active","ping":78},{"user_id":588,"name":"eggslut","steam_id":76561198010752241,"connected_time":697000000000,"state":"active","ping":65},{"user_id":596,"name":"mouthless goober","steam_id":76561198079566684,"connected_time":188000000000,"state":"active","ping":150},{"user_id":559,"name":"Posho","steam_id":76561198062396436,"connected_time":2388000000000,"state":"active","ping":41},{"user_id":575,"name":"soap lore","steam_id":76561198058879767,"connected_time":1522000000000,"state":"active","ping":46},{"user_id":521,"name":"Gearslut","steam_id":76561198114601678,"connected_time":5385000000000,"state":"active","ping":51},{"user_id":592,"name":"Dyuba","steam_id":76561198016672624,"connected_time":379000000000,"state":"active","ping":83},{"user_id":504,"name":"Nedge","steam_id":76561197963549701,"connected_time":6265000000000,"state":"active","ping":47},{"user_id":586,"name":"Crimson_Jellyfish","steam_id":76561198147407556,"connected_time":962000000000,"state":"active","ping":94},{"user_id":401,"name":"gamerweed5","steam_id":76561198087651151,"connected_time":12724000000000,"state":"active","ping":44},{"user_id":583,"name":"JOHN GAMING (based)","steam_id":76561199085822219,"connected_time":1149000000000,"state":"active","ping":83},{"user_id":582,"name":"Nextracer1","steam_id":76561198195061549,"connected_time":1238000000000,"state":"active","ping":46},{"user_id":597,"name":"DrExplosive","steam_id":76561198063678579,"connected_time":138000000000,"state":"active","ping":41},{"user_id":593,"name":"Slooshie","steam_id":76561198008749909,"connected_time":333000000000,"state":"active","ping":74},{"user_id":566,"name":"Serton♝","steam_id":76561198011061126,"connected_time":1845000000000,"state":"active","ping":83},{"user_id":564,"name":"adam","steam_id":76561198329591261,"connected_time":2036000000000,"state":"active","ping":66}]},{"server_id":114,"name":"Uncletopia | London | 2 | All Maps","name_short":"lon-2","host":"lon-1.uk.uncletopia.com","port":27025,"enabled":true,"region":"eu","cc":"gb","latitude":51.509865,"longitude":-0.118092,"reserved":0,"last_update":"0001-01-01T00:00:00Z","name_a2s":"Uncletopia | London | 2 | All Maps","protocol":17,"map":"cp_sunshine","folder":"tf","game":"Team Fortress","app_id":440,"player_count":24,"max_players":24,"Bots":0,"server_type":"Dedicated","server_os":"Linux","password":true,"vac":true,"version":"7723704","steam_id":85568392924470941,"keywords":["cp","nocrits","nodmgspread","uncletopia"],"game_id":440,"stv_port":27026,"stv_name":"Uncletopia | London | 2 | All Maps | STV","players":[{"user_id":398,"name":"ゆず tacsist","steam_id":76561198154199104,"connected_time":338000000000,"state":"active","ping":81},{"user_id":363,"name":"Jayco","steam_id":76561198122497262,"connected_time":1871000000000,"state":"active","ping":60},{"user_id":334,"name":"LasagnaLarry22","steam_id":76561198089478290,"connected_time":3927000000000,"state":"active","ping":38},{"user_id":332,"name":"Frazzles","steam_id":76561199228009586,"connected_time":4150000000000,"state":"active","ping":39},{"user_id":392,"name":"Multi","steam_id":76561197998338481,"connected_time":1147000000000,"state":"active","ping":57},{"user_id":361,"name":"ducks","steam_id":76561198166148685,"connected_time":2144000000000,"state":"active","ping":36},{"user_id":303,"name":"ciliorkun18","steam_id":76561198228942500,"connected_time":5821000000000,"state":"active","ping":98},{"user_id":345,"name":"under stress gamer","steam_id":76561198922534490,"connected_time":3288000000000,"state":"active","ping":59},{"user_id":358,"name":"Fat Pigeon","steam_id":76561198817940142,"connected_time":2656000000000,"state":"active","ping":45},{"user_id":386,"name":"Mbappé mevepe","steam_id":76561198037938833,"connected_time":1334000000000,"state":"active","ping":55},{"user_id":390,"name":"fmdi","steam_id":76561199433879329,"connected_time":1270000000000,"state":"active","ping":73},{"user_id":383,"name":"Dr. Funkenstein","steam_id":76561197977816210,"connected_time":1355000000000,"state":"active","ping":47},{"user_id":384,"name":"Rocopherus","steam_id":76561198045010551,"connected_time":1353000000000,"state":"active","ping":44},{"user_id":356,"name":"Bug","steam_id":76561198168268048,"connected_time":2724000000000,"state":"active","ping":48},{"user_id":395,"name":"tristan","steam_id":76561198096097448,"connected_time":869000000000,"state":"active","ping":50},{"user_id":388,"name":"Remyie","steam_id":76561198131031404,"connected_time":1299000000000,"state":"active","ping":90},{"user_id":348,"name":"knees","steam_id":76561198413545609,"connected_time":3118000000000,"state":"active","ping":51},{"user_id":391,"name":"Lightbulb Monkey","steam_id":76561198045033173,"connected_time":1239000000000,"state":"active","ping":108},{"user_id":396,"name":"makaronrycy","steam_id":76561198018208790,"connected_time":694000000000,"state":"active","ping":80},{"user_id":323,"name":"beurgeur","steam_id":76561198872426314,"connected_time":4560000000000,"state":"active","ping":44},{"user_id":394,"name":"guy who snores hooonk mimimi","steam_id":76561198156394435,"connected_time":1078000000000,"state":"active","ping":43},{"user_id":335,"name":"AFerociousTeddyBearSlayer","steam_id":76561198247447256,"connected_time":3767000000000,"state":"active","ping":54},{"user_id":331,"name":"Smuggs","steam_id":76561197999456003,"connected_time":4388000000000,"state":"active","ping":43},{"user_id":341,"name":"Kahvi","steam_id":76561198723244199,"connected_time":3608000000000,"state":"active","ping":77}]},{"server_id":320,"name":"Uncletopia | London | 3 | All Maps","name_short":"lon-3","host":"lon-1.uk.uncletopia.com","port":27035,"enabled":true,"region":"eu","cc":"gb","latitude":51.509865,"longitude":-0.118092,"reserved":0,"last_update":"0001-01-01T00:00:00Z","name_a2s":"Uncletopia | London | 3 | All Maps","protocol":17,"map":"koth_harvest_final","folder":"tf","game":"Team Fortress","app_id":440,"player_count":23,"max_players":24,"Bots":0,"server_type":"Dedicated","server_os":"Linux","password":true,"vac":true,"version":"7723704","steam_id":85568392924510192,"keywords":["cp","nocrits","nodmgspread","uncletopia"],"game_id":440,"stv_port":27036,"stv_name":"Uncletopia | London | 3 | All Maps | STV","players":[{"user_id":356,"name":"Carpe diem.","steam_id":76561199065917088,"connected_time":341000000000,"state":"active","ping":62},{"user_id":336,"name":"dochris.2","steam_id":76561198026478625,"connected_time":1909000000000,"state":"active","ping":46},{"user_id":342,"name":"hedonic treadmill","steam_id":76561199114742711,"connected_time":1678000000000,"state":"active","ping":94},{"user_id":299,"name":"ScreamCram","steam_id":76561199114068524,"connected_time":4603000000000,"state":"active","ping":146},{"user_id":309,"name":"Djarlem","steam_id":76561198080968386,"connected_time":4209000000000,"state":"active","ping":50},{"user_id":312,"name":"the baby maker","steam_id":76561198194327061,"connected_time":3975000000000,"state":"active","ping":51},{"user_id":326,"name":"Nexosert","steam_id":76561198941142018,"connected_time":2723000000000,"state":"active","ping":66},{"user_id":348,"name":"Teffg","steam_id":76561198274386094,"connected_time":1302000000000,"state":"active","ping":88},{"user_id":358,"name":"Ross from F.R.I.E.N.D.S.","steam_id":76561198008511665,"connected_time":65000000000,"state":"active","ping":50},{"user_id":338,"name":"YILK","steam_id":76561198077913307,"connected_time":1862000000000,"state":"active","ping":46},{"user_id":296,"name":"lark","steam_id":76561198091724522,"connected_time":4641000000000,"state":"active","ping":58},{"user_id":349,"name":"Chocopenguin","steam_id":76561198247470284,"connected_time":1271000000000,"state":"active","ping":70},{"user_id":352,"name":"arcticcu the croc","steam_id":76561198002435882,"connected_time":497000000000,"state":"active","ping":91},{"user_id":334,"name":"Ciaguta_rolex","steam_id":76561198046709588,"connected_time":1973000000000,"state":"active","ping":74},{"user_id":335,"name":"dominik7597","steam_id":76561198022710436,"connected_time":1970000000000,"state":"active","ping":71},{"user_id":339,"name":"degroot ramsay","steam_id":76561198072481213,"connected_time":1787000000000,"state":"active","ping":60},{"user_id":290,"name":"Smag","steam_id":76561198153675141,"connected_time":4804000000000,"state":"active","ping":48},{"user_id":329,"name":"Weather Report","steam_id":76561199109494283,"connected_time":2468000000000,"state":"active","ping":119},{"user_id":353,"name":"|SoW| IgI","steam_id":76561198001541383,"connected_time":469000000000,"state":"active","ping":75},{"user_id":354,"name":"fallingpencil","steam_id":76561199230233148,"connected_time":462000000000,"state":"active","ping":57},{"user_id":355,"name":"*Monkey Noises*","steam_id":76561198136529691,"connected_time":438000000000,"state":"active","ping":37},{"user_id":341,"name":"Nassu","steam_id":76561198147367577,"connected_time":1745000000000,"state":"active","ping":155},{"user_id":357,"name":"sareena","steam_id":76561198810194062,"connected_time":288000000000,"state":"active","ping":89}]},{"server_id":321,"name":"Uncletopia | London | 4 | All Maps","name_short":"lon-4","host":"lon-1.uk.uncletopia.com","port":27045,"enabled":true,"region":"eu","cc":"gb","latitude":51.509865,"longitude":-0.118092,"reserved":0,"last_update":"0001-01-01T00:00:00Z","name_a2s":"Uncletopia | London | 4 | All Maps","protocol":17,"map":"pl_upward","folder":"tf","game":"Team Fortress","app_id":440,"player_count":24,"max_players":24,"Bots":0,"server_type":"Dedicated","server_os":"Linux","password":true,"vac":true,"version":"7723704","steam_id":85568392924510193,"keywords":["nocrits","nodmgspread","payload","uncletopia"],"game_id":440,"stv_port":27046,"stv_name":"Uncletopia | London | 4 | All Maps | STV","players":[{"user_id":9,"name":"peacekeeper","steam_id":76561199260462952,"connected_time":5898000000000,"state":"active","ping":101},{"user_id":53,"name":"john fluidmasterballwasher doe","steam_id":76561199006462039,"connected_time":1105000000000,"state":"active","ping":61},{"user_id":25,"name":"-rikeOo-","steam_id":76561198303995379,"connected_time":2289000000000,"state":"active","ping":77},{"user_id":20,"name":"Zigguski","steam_id":76561198022990016,"connected_time":2796000000000,"state":"active","ping":51},{"user_id":67,"name":"fiyahstorm","steam_id":76561197992574261,"connected_time":479000000000,"state":"active","ping":43},{"user_id":22,"name":"romaingallo","steam_id":76561198268112907,"connected_time":2542000000000,"state":"active","ping":47},{"user_id":70,"name":"timothytreestand-041165","steam_id":76561197995676953,"connected_time":310000000000,"state":"active","ping":57},{"user_id":54,"name":"jaime8D","steam_id":76561197980590671,"connected_time":1004000000000,"state":"active","ping":88},{"user_id":66,"name":"Skuth","steam_id":76561198041470939,"connected_time":484000000000,"state":"active","ping":118},{"user_id":72,"name":"Thors","steam_id":76561197968739075,"connected_time":302000000000,"state":"active","ping":45},{"user_id":76,"name":"Cheese","steam_id":76561198146419076,"connected_time":162000000000,"state":"active","ping":72},{"user_id":56,"name":"Posture Check","steam_id":76561198053897197,"connected_time":894000000000,"state":"active","ping":40},{"user_id":77,"name":"Pahlberg","steam_id":76561198208547929,"connected_time":117000000000,"state":"active","ping":80},{"user_id":61,"name":"fénix","steam_id":76561198083199151,"connected_time":773000000000,"state":"active","ping":57},{"user_id":78,"name":"freezy099","steam_id":76561198118364690,"connected_time":66000000000,"state":"active","ping":51},{"user_id":34,"name":"DomiLovesBois","steam_id":76561199220982394,"connected_time":2099000000000,"state":"active","ping":67},{"user_id":46,"name":"gorg","steam_id":76561198160285627,"connected_time":1813000000000,"state":"active","ping":44},{"user_id":58,"name":"Yuval","steam_id":76561198241802390,"connected_time":821000000000,"state":"active","ping":108},{"user_id":64,"name":"Ari_Exists","steam_id":76561198376714944,"connected_time":645000000000,"state":"active","ping":43},{"user_id":71,"name":"Currupt","steam_id":76561198054530954,"connected_time":307000000000,"state":"active","ping":69},{"user_id":79,"name":"Gosman","steam_id":76561198062956955,"connected_time":55000000000,"state":"spawning","ping":65},{"user_id":62,"name":"Pinkchup","steam_id":76561198106802803,"connected_time":762000000000,"state":"active","ping":75},{"user_id":74,"name":"Sputnik","steam_id":76561198138660241,"connected_time":282000000000,"state":"active","ping":56},{"user_id":43,"name":"goose","steam_id":76561199119134960,"connected_time":2000000000000,"state":"active","ping":46}]},{"server_id":21,"name":"Uncletopia | London | 5 | All Maps","name_short":"lon-5","host":"lon-1.uk.uncletopia.com","port":27055,"enabled":true,"region":"eu","cc":"gb","latitude":51.509865,"longitude":-0.118092,"reserved":0,"last_update":"0001-01-01T00:00:00Z","name_a2s":"Uncletopia | London | 5 | All Maps","protocol":17,"map":"cp_process_final","folder":"tf","game":"Team Fortress","app_id":440,"player_count":19,"max_players":24,"Bots":0,"server_type":"Dedicated","server_os":"Linux","password":true,"vac":true,"version":"7723704","steam_id":85568392924742829,"keywords":["cp","nocrits","nodmgspread","uncletopia"],"game_id":440,"stv_port":27056,"stv_name":"Uncletopia | London | 5 | All Maps | STV","players":[{"user_id":104,"name":"Glitch","steam_id":76561198081895538,"connected_time":1730000000000,"state":"active","ping":49},{"user_id":126,"name":"ReekoG03","steam_id":76561198155730932,"connected_time":242000000000,"state":"active","ping":61},{"user_id":132,"name":"dairy","steam_id":76561198117033273,"connected_time":90000000000,"state":"active","ping":52},{"user_id":106,"name":"When Life gives you Lemons","steam_id":76561198318290663,"connected_time":1673000000000,"state":"active","ping":59},{"user_id":119,"name":"kotamine","steam_id":76561198068907991,"connected_time":528000000000,"state":"active","ping":76},{"user_id":131,"name":"wolziltar","steam_id":76561198980650471,"connected_time":118000000000,"state":"active","ping":80},{"user_id":85,"name":"wombatty","steam_id":76561198046873337,"connected_time":4439000000000,"state":"active","ping":55},{"user_id":133,"name":"Papel","steam_id":76561198193466351,"connected_time":37000000000,"state":"active","ping":85},{"user_id":123,"name":"Rodia","steam_id":76561197968293161,"connected_time":360000000000,"state":"active","ping":72},{"user_id":124,"name":"fantasticphoenix","steam_id":76561199018265854,"connected_time":357000000000,"state":"active","ping":124},{"user_id":24,"name":"Linux","steam_id":76561199224409825,"connected_time":7135000000000,"state":"active","ping":52},{"user_id":127,"name":"Deadly_Potato","steam_id":76561199126553503,"connected_time":222000000000,"state":"active","ping":61},{"user_id":128,"name":"TechAchech","steam_id":76561198304077408,"connected_time":213000000000,"state":"active","ping":80},{"user_id":38,"name":"walluu","steam_id":76561198121830870,"connected_time":6582000000000,"state":"active","ping":83},{"user_id":129,"name":"the scunge","steam_id":76561198089201193,"connected_time":209000000000,"state":"active","ping":61},{"user_id":108,"name":"nori","steam_id":76561198099077097,"connected_time":1563000000000,"state":"active","ping":90},{"user_id":130,"name":"EWIL","steam_id":76561198063203891,"connected_time":197000000000,"state":"active","ping":65},{"user_id":113,"name":"Jughead","steam_id":76561198000355410,"connected_time":1386000000000,"state":"active","ping":48},{"user_id":116,"name":"fishfin","steam_id":76561198255819115,"connected_time":1077000000000,"state":"active","ping":152}]},{"server_id":22,"name":"Uncletopia | London | 6 | All Maps","name_short":"lon-6","host":"lon-1.uk.uncletopia.com","port":27065,"enabled":true,"region":"eu","cc":"gb","latitude":51.509865,"longitude":-0.118092,"reserved":0,"last_update":"0001-01-01T00:00:00Z","name_a2s":"Uncletopia | London | 6 | All Maps","protocol":17,"map":"pl_barnblitz","folder":"tf","game":"Team Fortress","app_id":440,"player_count":0,"max_players":24,"Bots":0,"server_type":"Dedicated","server_os":"Linux","password":true,"vac":true,"version":"7723704","steam_id":85568392924742830,"keywords":["nocrits","nodmgspread","payload","uncletopia"],"game_id":440,"stv_port":27066,"stv_name":"Uncletopia | London | 6 | All Maps | STV","players":null},{"server_id":40,"name":"Uncletopia | London | 7 | No Payload","name_short":"lon-7","host":"lon-1.uk.uncletopia.com","port":27075,"enabled":true,"region":"eu","cc":"gb","latitude":51.509865,"longitude":-0.118092,"reserved":0,"last_update":"0001-01-01T00:00:00Z","name_a2s":"Uncletopia | London | 7 | No Payload","protocol":17,"map":"plr_nightfall_final","folder":"tf","game":"Team Fortress","app_id":440,"player_count":0,"max_players":24,"Bots":0,"server_type":"Dedicated","server_os":"Linux","password":true,"vac":true,"version":"7723704","steam_id":85568392924964314,"keywords":["nocrits","nodmgspread","payload","uncletopia"],"game_id":440,"stv_port":27076,"stv_name":"Uncletopia | London | 7 | No Payload | STV","players":null},{"server_id":41,"name":"Uncletopia | London | 8 | Community","name_short":"lon-8","host":"lon-1.uk.uncletopia.com","port":27085,"enabled":true,"region":"eu","cc":"gb","latitude":51.509865,"longitude":-0.118092,"reserved":0,"last_update":"0001-01-01T00:00:00Z","name_a2s":"Uncletopia | London | 8 | Community","protocol":17,"map":"koth_highpass","folder":"tf","game":"Team Fortress","app_id":440,"player_count":0,"max_players":24,"Bots":0,"server_type":"Dedicated","server_os":"Linux","password":true,"vac":true,"version":"7723704","steam_id":85568392924964315,"keywords":["cp","nocrits","nodmgspread","uncletopia"],"game_id":440,"stv_port":27086,"stv_name":"Uncletopia | London | 8 | Community | STV","players":null},{"server_id":300,"name":"Uncletopia | Montréal | 1 | All Maps","name_short":"mtl-1","host":"mtl-1.ca.uncletopia.com","port":27015,"enabled":true,"region":"us-east","cc":"ca","latitude":45.50889,"longitude":-73.56167,"reserved":0,"last_update":"0001-01-01T00:00:00Z","name_a2s":"Uncletopia | Montréal | 1 | All Maps","protocol":17,"map":"cp_mountainlab","folder":"tf","game":"Team Fortress","app_id":440,"player_count":0,"max_players":24,"Bots":0,"server_type":"Dedicated","server_os":"Linux","password":true,"vac":true,"version":"7723704","steam_id":85568392924500087,"keywords":["cp","nocrits","nodmgspread","uncletopia"],"game_id":440,"stv_port":27016,"stv_name":"Uncletopia | Montréal | 1 | All Maps | STV","players":null},{"server_id":301,"name":"Uncletopia | Montréal | 2 | All Maps","name_short":"mtl-2","host":"mtl-1.ca.uncletopia.com","port":27025,"enabled":true,"region":"us-east","cc":"ca","latitude":45.50889,"longitude":-73.56167,"reserved":0,"last_update":"0001-01-01T00:00:00Z","name_a2s":"Uncletopia | Montréal | 2 | All Maps","protocol":17,"map":"cp_process_final","folder":"tf","game":"Team Fortress","app_id":440,"player_count":0,"max_players":24,"Bots":0,"server_type":"Dedicated","server_os":"Linux","password":true,"vac":true,"version":"7723704","steam_id":85568392924500088,"keywords":["cp","nocrits","nodmgspread","uncletopia"],"game_id":440,"stv_port":27026,"stv_name":"Uncletopia | Montréal | 2 | All Maps | STV","players":null},{"server_id":302,"name":"Uncletopia | Montréal | 3 | All Maps","name_short":"mtl-3","host":"mtl-1.ca.uncletopia.com","port":27035,"enabled":true,"region":"us-east","cc":"ca","latitude":45.50889,"longitude":-73.56167,"reserved":0,"last_update":"0001-01-01T00:00:00Z","name_a2s":"Uncletopia | Montréal | 3 | All Maps","protocol":17,"map":"pl_barnblitz","folder":"tf","game":"Team Fortress","app_id":440,"player_count":0,"max_players":24,"Bots":0,"server_type":"Dedicated","server_os":"Linux","password":true,"vac":true,"version":"7723704","steam_id":85568392924500089,"keywords":["nocrits","nodmgspread","payload","uncletopia"],"game_id":440,"stv_port":27036,"stv_name":"Uncletopia | Montréal | 3 | All Maps | STV","players":null},{"server_id":303,"name":"Uncletopia | Montréal | 4 | No Payload","name_short":"mtl-4","host":"mtl-1.ca.uncletopia.com","port":27045,"enabled":true,"region":"us-east","cc":"ca","latitude":45.50889,"longitude":-73.56167,"reserved":0,"last_update":"0001-01-01T00:00:00Z","name_a2s":"Uncletopia | Montréal | 4 | No Payload","protocol":17,"map":"koth_cascade","folder":"tf","game":"Team Fortress","app_id":440,"player_count":0,"max_players":24,"Bots":0,"server_type":"Dedicated","server_os":"Linux","password":true,"vac":true,"version":"7723704","steam_id":85568392924500090,"keywords":["cp","nocrits","nodmgspread","uncletopia"],"game_id":440,"stv_port":27046,"stv_name":"Uncletopia | Montréal | 4 | No Payload | STV","players":null},{"server_id":13,"name":"Uncletopia | New York City | 1 | All Maps","name_short":"nyc-1","host":"nyc-1.us.uncletopia.com","port":27015,"enabled":true,"region":"us-east","cc":"us","latitude":40.73061,"longitude":-73.93524,"reserved":0,"last_update":"0001-01-01T00:00:00Z","name_a2s":"Uncletopia | New York City | 1 | All Maps","protocol":17,"map":"pl_upward","folder":"tf","game":"Team Fortress","app_id":440,"player_count":0,"max_players":24,"Bots":0,"server_type":"Dedicated","server_os":"Linux","password":true,"vac":true,"version":"7723704","steam_id":85568392924469993,"keywords":["nocrits","nodmgspread","payload","uncletopia"],"game_id":440,"stv_port":27016,"stv_name":"Uncletopia | New York City | 1 | All Maps | STV","players":null},{"server_id":14,"name":"Uncletopia | New York City | 2 | All Maps","name_short":"nyc-2","host":"nyc-1.us.uncletopia.com","port":27025,"enabled":true,"region":"us-east","cc":"us","latitude":40.73061,"longitude":-73.93524,"reserved":0,"last_update":"0001-01-01T00:00:00Z","name_a2s":"Uncletopia | New York City | 2 | All Maps","protocol":17,"map":"pl_barnblitz","folder":"tf","game":"Team Fortress","app_id":440,"player_count":0,"max_players":24,"Bots":0,"server_type":"Dedicated","server_os":"Linux","password":true,"vac":true,"version":"7723704","steam_id":85568392924469994,"keywords":["nocrits","nodmgspread","payload","uncletopia"],"game_id":440,"stv_port":27026,"stv_name":"Uncletopia | New York City | 2 | All Maps | STV","players":null},{"server_id":15,"name":"Uncletopia | New York City | 3 | Stopwatch Beta","name_short":"nyc-3","host":"nyc-1.us.uncletopia.com","port":27035,"enabled":true,"region":"us-east","cc":"us","latitude":40.73061,"longitude":-73.93524,"reserved":0,"last_update":"0001-01-01T00:00:00Z","name_a2s":"Uncletopia | New York City | 3 | Stopwatch Beta","protocol":17,"map":"cp_process_final","folder":"tf","game":"Team Fortress","app_id":440,"player_count":0,"max_players":24,"Bots":0,"server_type":"Dedicated","server_os":"Linux","password":true,"vac":true,"version":"7723704","steam_id":85568392924742820,"keywords":["cp","nocrits","nodmgspread","uncletopia"],"game_id":440,"stv_port":27036,"stv_name":"Uncletopia | New York City | 3 | Stopwatch Beta | STV","players":null},{"server_id":16,"name":"Uncletopia | New York City | 4 | Community","name_short":"nyc-4","host":"nyc-1.us.uncletopia.com","port":27045,"enabled":true,"region":"us-east","cc":"us","latitude":40.73061,"longitude":-73.93524,"reserved":0,"last_update":"0001-01-01T00:00:00Z","name_a2s":"Uncletopia | New York City | 4 | Community","protocol":17,"map":"pl_frontier_final","folder":"tf","game":"Team Fortress","app_id":440,"player_count":0,"max_players":24,"Bots":0,"server_type":"Dedicated","server_os":"Linux","password":true,"vac":true,"version":"7723704","steam_id":85568392924742821,"keywords":["nocrits","nodmgspread","payload","uncletopia"],"game_id":440,"stv_port":27046,"stv_name":"Uncletopia | New York City | 4 | Community | STV","players":null},{"server_id":142,"name":"Uncletopia | São Paulo | 1 | All Maps","name_short":"sao-1","host":"sao-1.br.uncletopia.com","port":27015,"enabled":true,"region":"sa","cc":"br","latitude":-23.533773,"longitude":-46.62529,"reserved":0,"last_update":"0001-01-01T00:00:00Z","name_a2s":"Uncletopia | São Paulo | 1 | All Maps","protocol":17,"map":"pl_borneo","folder":"tf","game":"Team Fortress","app_id":440,"player_count":1,"max_players":24,"Bots":0,"server_type":"Dedicated","server_os":"Linux","password":true,"vac":true,"version":"7723704","steam_id":85568392924469996,"keywords":["nocrits","nodmgspread","payload","uncletopia"],"game_id":440,"stv_port":27016,"stv_name":"Uncletopia | São Paulo | 1 | All Maps | STV","players":[{"user_id":11,"name":"josc","steam_id":76561198303959612,"connected_time":109000000000,"state":"active","ping":48}]},{"server_id":143,"name":"Uncletopia | São Paulo | 2 | All Maps","name_short":"sao-2","host":"sao-2.br.uncletopia.com","port":27015,"enabled":true,"region":"sa","cc":"br","latitude":-23.533773,"longitude":-46.62529,"reserved":0,"last_update":"0001-01-01T00:00:00Z","name_a2s":"Uncletopia | São Paulo | 2 | All Maps","protocol":17,"map":"koth_lakeside_final","folder":"tf","game":"Team Fortress","app_id":440,"player_count":0,"max_players":24,"Bots":0,"server_type":"Dedicated","server_os":"Linux","password":true,"vac":true,"version":"7723704","steam_id":85568392924485349,"keywords":["cp","nocrits","nodmgspread","uncletopia"],"game_id":440,"stv_port":27016,"stv_name":"Uncletopia | São Paulo | 2 | All Maps | STV","players":null},{"server_id":7,"name":"Uncletopia | Seattle | 1 | All Maps","name_short":"sea-1","host":"sea-1.us.uncletopia.com","port":27015,"enabled":true,"region":"us-west","cc":"us","latitude":47.608013,"longitude":-122.33517,"reserved":0,"last_update":"0001-01-01T00:00:00Z","name_a2s":"Uncletopia | Seattle | 1 | All Maps","protocol":17,"map":"koth_cascade","folder":"tf","game":"Team Fortress","app_id":440,"player_count":0,"max_players":24,"Bots":0,"server_type":"Dedicated","server_os":"Linux","password":true,"vac":true,"version":"7723704","steam_id":85568392924469997,"keywords":["cp","nocrits","nodmgspread","uncletopia"],"game_id":440,"stv_port":27016,"stv_name":"Uncletopia | Seattle | 1 | All Maps | STV","players":null},{"server_id":119,"name":"Uncletopia | Seattle | 2 | All Maps","name_short":"sea-2","host":"sea-1.us.uncletopia.com","port":27025,"enabled":true,"region":"us-west","cc":"us","latitude":47.608013,"longitude":-122.33517,"reserved":0,"last_update":"0001-01-01T00:00:00Z","name_a2s":"Uncletopia | Seattle | 2 | All Maps","protocol":17,"map":"cp_altitude","folder":"tf","game":"Team Fortress","app_id":440,"player_count":0,"max_players":24,"Bots":0,"server_type":"Dedicated","server_os":"Linux","password":true,"vac":true,"version":"7723704","steam_id":85568392924469998,"keywords":["cp","nocrits","nodmgspread","uncletopia"],"game_id":440,"stv_port":27026,"stv_name":"Uncletopia | Seattle | 2 | All Maps | STV","players":null},{"server_id":406,"name":"Uncletopia | Seattle | 3 | Stopwatch Beta","name_short":"sea-3","host":"sea-1.us.uncletopia.com","port":27035,"enabled":true,"region":"us-west","cc":"us","latitude":47.608013,"longitude":-122.33517,"reserved":0,"last_update":"0001-01-01T00:00:00Z","name_a2s":"Uncletopia | Seattle | 3 | Stopwatch Beta","protocol":17,"map":"cp_altitude","folder":"tf","game":"Team Fortress","app_id":440,"player_count":0,"max_players":24,"Bots":0,"server_type":"Dedicated","server_os":"Linux","password":true,"vac":false,"version":"7723704","steam_id":0,"keywords":["cp","nocrits","nodmgspread","uncletopia"],"game_id":440,"stv_port":27036,"stv_name":"Uncletopia | Seattle | 3 | Stopwatch Beta | STV","players":null},{"server_id":17,"name":"Uncletopia | San Francisco | 1 | All Maps","name_short":"sfo-1","host":"sfo-1.us.uncletopia.com","port":27015,"enabled":true,"region":"us-west","cc":"us","latitude":37.77397,"longitude":-122.4313,"reserved":0,"last_update":"0001-01-01T00:00:00Z","name_a2s":"Uncletopia | San Francisco | 1 | All Maps","protocol":17,"map":"cp_sunshine","folder":"tf","game":"Team Fortress","app_id":440,"player_count":0,"max_players":24,"Bots":0,"server_type":"Dedicated","server_os":"Linux","password":true,"vac":true,"version":"7723704","steam_id":85568392924469999,"keywords":["cp","nocrits","nodmgspread","uncletopia"],"game_id":440,"stv_port":27016,"stv_name":"Uncletopia | San Francisco | 1 | All Maps | STV","players":null},{"server_id":18,"name":"Uncletopia | San Francisco | 2 | All Maps","name_short":"sfo-2","host":"sfo-1.us.uncletopia.com","port":27025,"enabled":true,"region":"us-west","cc":"us","latitude":37.77397,"longitude":-122.4313,"reserved":0,"last_update":"0001-01-01T00:00:00Z","name_a2s":"Uncletopia | San Francisco | 2 | All Maps","protocol":17,"map":"pl_borneo","folder":"tf","game":"Team Fortress","app_id":440,"player_count":0,"max_players":24,"Bots":0,"server_type":"Dedicated","server_os":"Linux","password":true,"vac":true,"version":"7723704","steam_id":85568392924470000,"keywords":["nocrits","nodmgspread","payload","uncletopia"],"game_id":440,"stv_port":27026,"stv_name":"Uncletopia | San Francisco | 2 | All Maps | STV","players":null},{"server_id":19,"name":"Uncletopia | San Francisco | 3 | Stopwatch Beta","name_short":"sfo-3","host":"sfo-1.us.uncletopia.com","port":27035,"enabled":true,"region":"us-west","cc":"us","latitude":37.77397,"longitude":-122.4313,"reserved":0,"last_update":"0001-01-01T00:00:00Z","name_a2s":"Uncletopia | San Francisco | 3 | Stopwatch Beta","protocol":17,"map":"pl_pier","folder":"tf","game":"Team Fortress","app_id":440,"player_count":0,"max_players":24,"Bots":0,"server_type":"Dedicated","server_os":"Linux","password":true,"vac":true,"version":"7723704","steam_id":85568392924742824,"keywords":["nocrits","nodmgspread","payload","uncletopia"],"game_id":440,"stv_port":27036,"stv_name":"Uncletopia | San Francisco | 3 | Stopwatch Beta | STV","players":null},{"server_id":20,"name":"Uncletopia | San Francisco | 4 | Community","name_short":"sfo-4","host":"sfo-1.us.uncletopia.com","port":27045,"enabled":true,"region":"us-west","cc":"us","latitude":37.77397,"longitude":-122.4313,"reserved":0,"last_update":"0001-01-01T00:00:00Z","name_a2s":"Uncletopia | San Francisco | 4 | Community","protocol":17,"map":"koth_cascade","folder":"tf","game":"Team Fortress","app_id":440,"player_count":0,"max_players":24,"Bots":0,"server_type":"Dedicated","server_os":"Linux","password":true,"vac":true,"version":"7723704","steam_id":85568392924742826,"keywords":["cp","nocrits","nodmgspread","uncletopia"],"game_id":440,"stv_port":27046,"stv_name":"Uncletopia | San Francisco | 4 | Community | STV","players":null},{"server_id":141,"name":"Uncletopia | Sydney | 1 | All Maps","name_short":"syd-1","host":"syd-1.au.uncletopia.com","port":27015,"enabled":true,"region":"au","cc":"au","latitude":-33.865143,"longitude":151.2099,"reserved":0,"last_update":"0001-01-01T00:00:00Z","name_a2s":"Uncletopia | Sydney | 1 | All Maps","protocol":17,"map":"koth_lakeside_final","folder":"tf","game":"Team Fortress","app_id":440,"player_count":0,"max_players":24,"Bots":0,"server_type":"Dedicated","server_os":"Linux","password":true,"vac":true,"version":"7723704","steam_id":85568392924470001,"keywords":["cp","nocrits","nodmgspread","uncletopia"],"game_id":440,"stv_port":27016,"stv_name":"Uncletopia | Sydney | 1 | All Maps | STV","players":null},{"server_id":123,"name":"Uncletopia | Sydney | 2 | All Maps","name_short":"syd-2","host":"syd-1.au.uncletopia.com","port":27025,"enabled":true,"region":"au","cc":"au","latitude":-33.865143,"longitude":151.2099,"reserved":0,"last_update":"0001-01-01T00:00:00Z","name_a2s":"Uncletopia | Sydney | 2 | All Maps","protocol":17,"map":"pl_upward","folder":"tf","game":"Team Fortress","app_id":440,"player_count":0,"max_players":24,"Bots":0,"server_type":"Dedicated","server_os":"Linux","password":true,"vac":true,"version":"7723704","steam_id":85568392924470002,"keywords":["nocrits","nodmgspread","payload","uncletopia"],"game_id":440,"stv_port":27026,"stv_name":"Uncletopia | Sydney | 2 | All Maps | STV","players":null},{"server_id":395,"name":"Uncletopia | Sydney | 3 | All Maps","name_short":"syd-3","host":"syd-1.au.uncletopia.com","port":27035,"enabled":true,"region":"au","cc":"au","latitude":-33.865143,"longitude":151.2099,"reserved":0,"last_update":"0001-01-01T00:00:00Z","name_a2s":"Uncletopia | Sydney | 3 | All Maps","protocol":17,"map":"cp_dustbowl","folder":"tf","game":"Team Fortress","app_id":440,"player_count":0,"max_players":24,"Bots":0,"server_type":"Dedicated","server_os":"Linux","password":true,"vac":true,"version":"7723704","steam_id":85568392925194467,"keywords":["cp","nocrits","nodmgspread","uncletopia"],"game_id":440,"stv_port":27036,"stv_name":"Uncletopia | Sydney | 3 | All Maps | STV","players":null},{"server_id":396,"name":"Uncletopia | Sydney | 4 | All Maps","name_short":"syd-4","host":"syd-1.au.uncletopia.com","port":27045,"enabled":true,"region":"au","cc":"au","latitude":-33.865143,"longitude":151.2099,"reserved":0,"last_update":"0001-01-01T00:00:00Z","name_a2s":"Uncletopia | Sydney | 4 | All Maps","protocol":17,"map":"koth_suijin","folder":"tf","game":"Team Fortress","app_id":440,"player_count":0,"max_players":24,"Bots":0,"server_type":"Dedicated","server_os":"Linux","password":true,"vac":true,"version":"7723704","steam_id":85568392925397958,"keywords":["cp","nocrits","nodmgspread","uncletopia"],"game_id":440,"stv_port":27046,"stv_name":"Uncletopia | Sydney | 4 | All Maps | STV","players":null},{"server_id":58,"name":"Uncletopia | Sydney | 5 | Stopwatch Beta","name_short":"syd-5","host":"syd-1.au.uncletopia.com","port":27055,"enabled":true,"region":"au","cc":"au","latitude":-33.865143,"longitude":151.2099,"reserved":0,"last_update":"0001-01-01T00:00:00Z","name_a2s":"Uncletopia | Sydney | 5 | Stopwatch Beta","protocol":17,"map":"cp_altitude","folder":"tf","game":"Team Fortress","app_id":440,"player_count":0,"max_players":24,"Bots":0,"server_type":"Dedicated","server_os":"Linux","password":true,"vac":true,"version":"7723704","steam_id":85568392925397959,"keywords":["cp","nocrits","nodmgspread","uncletopia"],"game_id":440,"stv_port":27056,"stv_name":"Uncletopia | Sydney | 5 | Stopwatch Beta | STV","players":null},{"server_id":59,"name":"Uncletopia | Sydney | 6 | Community","name_short":"syd-6","host":"syd-1.au.uncletopia.com","port":27065,"enabled":true,"region":"au","cc":"au","latitude":-33.865143,"longitude":151.2099,"reserved":0,"last_update":"0001-01-01T00:00:00Z","name_a2s":"Uncletopia | Sydney | 6 | Community","protocol":17,"map":"workshop/pl_fifthcurve_rc1.ugc648227046","folder":"tf","game":"Team Fortress","app_id":440,"player_count":0,"max_players":24,"Bots":0,"server_type":"Dedicated","server_os":"Linux","password":true,"vac":true,"version":"7723704","steam_id":85568392925397960,"keywords":["nocrits","nodmgspread","payload","uncletopia"],"game_id":440,"stv_port":27066,"stv_name":"Uncletopia | Sydney | 6 | Community | STV","players":null},{"server_id":49,"name":"Uncletopia | Warsaw | 1 | All Maps","name_short":"waw-1","host":"waw-1.pl.uncletopia.com","port":27015,"enabled":true,"region":"eu","cc":"pl","latitude":52.2297,"longitude":21.017532,"reserved":0,"last_update":"0001-01-01T00:00:00Z","name_a2s":"Uncletopia | Warsaw | 1 | All Maps","protocol":17,"map":"cp_coldfront","folder":"tf","game":"Team Fortress","app_id":440,"player_count":0,"max_players":24,"Bots":0,"server_type":"Dedicated","server_os":"Linux","password":true,"vac":true,"version":"7723704","steam_id":85568392925397850,"keywords":["cp","nocrits","nodmgspread","uncletopia"],"game_id":440,"stv_port":27016,"stv_name":"Uncletopia | Warsaw | 1 | All Maps | STV","players":null},{"server_id":50,"name":"Uncletopia | Warsaw | 2 | All Maps","name_short":"waw-2","host":"waw-1.pl.uncletopia.com","port":27025,"enabled":true,"region":"eu","cc":"pl","latitude":52.2297,"longitude":21.017532,"reserved":0,"last_update":"0001-01-01T00:00:00Z","name_a2s":"Uncletopia | Warsaw | 2 | All Maps","protocol":17,"map":"pl_barnblitz","folder":"tf","game":"Team Fortress","app_id":440,"player_count":0,"max_players":24,"Bots":0,"server_type":"Dedicated","server_os":"Linux","password":true,"vac":true,"version":"7723704","steam_id":85568392925397851,"keywords":["nocrits","nodmgspread","payload","uncletopia"],"game_id":440,"stv_port":27026,"stv_name":"Uncletopia | Warsaw | 2 | All Maps | STV","players":null},{"server_id":51,"name":"Uncletopia | Warsaw | 3 | All Maps","name_short":"waw-3","host":"waw-1.pl.uncletopia.com","port":27035,"enabled":true,"region":"eu","cc":"pl","latitude":52.2297,"longitude":21.017532,"reserved":0,"last_update":"0001-01-01T00:00:00Z","name_a2s":"Uncletopia | Warsaw | 3 | All Maps","protocol":17,"map":"koth_viaduct","folder":"tf","game":"Team Fortress","app_id":440,"player_count":2,"max_players":24,"Bots":0,"server_type":"Dedicated","server_os":"Linux","password":true,"vac":true,"version":"7723704","steam_id":85568392925397852,"keywords":["cp","nocrits","nodmgspread","uncletopia"],"game_id":440,"stv_port":27036,"stv_name":"Uncletopia | Warsaw | 3 | All Maps | STV","players":[{"user_id":6,"name":"Admiral Cuntmuffin","steam_id":76561198080417602,"connected_time":269000000000,"state":"active","ping":91},{"user_id":7,"name":"Jenny","steam_id":76561198125571158,"connected_time":248000000000,"state":"active","ping":83}]},{"server_id":52,"name":"Uncletopia | Warsaw | 4 | All Maps","name_short":"waw-4","host":"waw-1.pl.uncletopia.com","port":27045,"enabled":true,"region":"eu","cc":"pl","latitude":52.2297,"longitude":21.017532,"reserved":0,"last_update":"0001-01-01T00:00:00Z","name_a2s":"Uncletopia | Warsaw | 4 | All Maps","protocol":17,"map":"pl_snowycoast","folder":"tf","game":"Team Fortress","app_id":440,"player_count":0,"max_players":24,"Bots":0,"server_type":"Dedicated","server_os":"Linux","password":true,"vac":true,"version":"7723704","steam_id":85568392925397853,"keywords":["nocrits","nodmgspread","payload","uncletopia"],"game_id":440,"stv_port":27046,"stv_name":"Uncletopia | Warsaw | 4 | All Maps | STV","players":null},{"server_id":53,"name":"Uncletopia | Warsaw | 5 | Stopwatch Beta","name_short":"waw-5","host":"waw-1.pl.uncletopia.com","port":27055,"enabled":true,"region":"eu","cc":"pl","latitude":52.2297,"longitude":21.017532,"reserved":0,"last_update":"0001-01-01T00:00:00Z","name_a2s":"Uncletopia | Warsaw | 5 | Stopwatch Beta","protocol":17,"map":"cp_sunshine","folder":"tf","game":"Team Fortress","app_id":440,"player_count":0,"max_players":24,"Bots":0,"server_type":"Dedicated","server_os":"Linux","password":true,"vac":true,"version":"7723704","steam_id":85568392925397854,"keywords":["cp","nocrits","nodmgspread","uncletopia"],"game_id":440,"stv_port":27056,"stv_name":"Uncletopia | Warsaw | 5 | Stopwatch Beta | STV","players":null},{"server_id":54,"name":"Uncletopia | Warsaw | 6 | Community","name_short":"waw-6","host":"waw-1.pl.uncletopia.com","port":27065,"enabled":true,"region":"eu","cc":"pl","latitude":52.2297,"longitude":21.017532,"reserved":0,"last_update":"0001-01-01T00:00:00Z","name_a2s":"Uncletopia | Warsaw | 6 | Community","protocol":17,"map":"workshop/koth_synthetic_rc6a.ugc1549817316","folder":"tf","game":"Team Fortress","app_id":440,"player_count":0,"max_players":24,"Bots":0,"server_type":"Dedicated","server_os":"Linux","password":true,"vac":true,"version":"7723704","steam_id":85568392925397856,"keywords":["cp","nocrits","nodmgspread","uncletopia"],"game_id":440,"stv_port":27066,"stv_name":"Uncletopia | Warsaw | 6 | Community | STV","players":null}]}