{"status":true,"message":"","result":[{"server_id":9,"name":"Uncletopia | Atlanta | 1 | All Maps","name_short":"atl-1","host":"atl-1.us.uncletopia.com","port":27015,"enabled":true,"region":"us-east","cc":"us","latitude":33.753746,"longitude":-84.38633,"reserved":0,"last_update":"0001-01-01T00:00:00Z","name_a2s":"Uncletopia | Atlanta | 1 | All Maps","protocol":17,"map":"koth_highpass","folder":"tf","game":"Team Fortress","app_id":440,"player_count":0,"max_players":24,"Bots":0,"server_type":"Dedicated","server_os":"Linux","password":true,"vac":true,"version":"7757534","steam_id":85568392924469982,"keywords":["cp","nocrits","nodmgspread","uncletopia"],"game_id":440,"stv_port":27016,"stv_name":"Uncletopia | Atlanta | 1 | All Maps | STV","players":null},{"server_id":400,"name":"Uncletopia | Atlanta | 3 | Community","name_short":"atl-3","host":"atl-1.us.uncletopia.com","port":27035,"enabled":true,"region":"us-east","cc":"us","latitude":33.753746,"longitude":-84.38633,"reserved":0,"last_update":"0001-01-01T00:00:00Z","name_a2s":"Uncletopia | Atlanta | 3 | Community","protocol":17,"map":"cp_mountainlab","folder":"tf","game":"Team Fortress","app_id":440,"player_count":0,"max_players":24,"Bots":0,"server_type":"Dedicated","server_os":"Linux","password":true,"vac":true,"version":"7757534","steam_id":85568392924515187,"keywords":["cp","nocrits","nodmgspread","uncletopia"],"game_id":440,"stv_port":27036,"stv_name":"Uncletopia | Atlanta | 3 | Community | STV","players":null},{"server_id":401,"name":"Uncletopia | Atlanta | 4 | No Payload","name_short":"atl-4","host":"atl-1.us.uncletopia.com","port":27045,"enabled":true,"region":"us-east","cc":"us","latitude":33.753746,"longitude":-84.38633,"reserved":0,"last_update":"0001-01-01T00:00:00Z","name_a2s":"","protocol":0,"map":"","folder":"","game":"","app_id":0,"player_count":0,"max_players":0,"Bots":0,"server_type":"","server_os":"","password":false,"vac":false,"version":"","steam_id":0,"keywords":null,"game_id":0,"stv_port":0,"stv_name":"","players":null},{"server_id":2,"name":"Uncletopia | Chicago | 1 | All Maps","name_short":"chi-1","host":"chi-1.us.uncletopia.com","port":27015,"enabled":true,"region":"us-central","cc":"us","latitude":41.881832,"longitude":-87.62318,"reserved":0,"last_update":"0001-01-01T00:00:00Z","name_a2s":"Uncletopia | Chicago | 1 | All Maps","protocol":17,"map":"koth_cascade","folder":"tf","game":"Team Fortress","app_id":440,"player_count":13,"max_players":24,"Bots":0,"server_type":"Dedicated","server_os":"Linux","password":true,"vac":true,"version":"7757534","steam_id":85568392924469984,"keywords":["cp","nocrits","nodmgspread","uncletopia"],"game_id":440,"stv_port":27016,"stv_name":"Uncletopia | Chicago | 1 | All Maps | STV","players":[{"user_id":5,"name":"chloe","steam_id":76561198369849908,"connected_time":2734000000000,"state":"active","ping":64},{"user_id":28,"name":"TATARA","steam_id":76561199098759517,"connected_time":168000000000,"state":"active","ping":135},{"user_id":26,"name":"TheGaming13","steam_id":76561199239498966,"connected_time":239000000000,"state":"active","ping":77},{"user_id":14,"name":"Big Phony","steam_id":76561199092395311,"connected_time":680000000000,"state":"active","ping":65},{"user_id":10,"name":"drippy man","steam_id":76561199074936388,"connected_time":1698000000000,"state":"active","ping":75},{"user_id":29,"name":"RedSock","steam_id":76561198161243404,"connected_time":93000000000,"state":"active","ping":30},{"user_id":16,"name":"Turtlin'","steam_id":76561198885096042,"connected_time":603000000000,"state":"active","ping":65},{"user_id":17,"name":"puffy","steam_id":76561198411347037,"connected_time":576000000000,"state":"active","ping":73},{"user_id":30,"name":"turd ferguson","steam_id":76561198071620782,"connected_time":89000000000,"state":"active","ping":95},{"user_id":31,"name":"tyg","steam_id":76561198056246867,"connected_time":72000000000,"state":"active","ping":71},{"user_id":20,"name":"Vapor","steam_id":76561198850475407,"connected_time":464000000000,"state":"active","ping":56},{"user_id":32,"name":"Stag Beetle","steam_id":76561199086655413,"connected_time":45000000000,"state":"active","ping":106},{"user_id":22,"name":"Padre","steam_id":76561198078726927,"connected_time":421000000000,"state":"active","ping":76}]},{"server_id":106,"name":"Uncletopia | Chicago | 2 | All Maps","name_short":"chi-2","host":"chi-1.us.uncletopia.com","port":27025,"enabled":true,"region":"us-central","cc":"us","latitude":41.881832,"longitude":-87.62318,"reserved":0,"last_update":"0001-01-01T00:00:00Z","name_a2s":"Uncletopia | Chicago | 2 | All Maps","protocol":17,"map":"pl_upward","folder":"tf","game":"Team Fortress","app_id":440,"player_count":2,"max_players":24,"Bots":0,"server_type":"Dedicated","server_os":"Linux","password":true,"vac":true,"version":"7757534","steam_id":85568392924469985,"keywords":["nocrits","nodmgspread","payload","uncletopia"],"game_id":440,"stv_port":27026,"stv_name":"Uncletopia | Chicago | 2 | All Maps | STV","players":[{"user_id":7,"name":"bredinstead","steam_id":76561199156464551,"connected_time":459000000000,"state":"active","ping":55},{"user_id":8,"name":"SolidMetagross","steam_id":76561199087165586,"connected_time":249000000000,"state":"active","ping":68}]},{"server_id":402,"name":"Uncletopia | Chicago | 3 | All Maps","name_short":"chi-3","host":"chi-1.us.uncletopia.com","port":27035,"enabled":true,"region":"us-central","cc":"us","latitude":41.881832,"longitude":-87.62318,"reserved":0,"last_update":"0001-01-01T00:00:00Z","name_a2s":"Uncletopia | Chicago | 3 | All Maps","protocol":17,"map":"koth_cascade","folder":"tf","game":"Team Fortress","app_id":440,"player_count":0,"max_players":24,"Bots":0,"server_type":"Dedicated","server_os":"Linux","password":true,"vac":true,"version":"7757534","steam_id":85568392924515191,"keywords":["cp","nocrits","nodmgspread","uncletopia"],"game_id":440,"stv_port":27036,"stv_name":"Uncletopia | Chicago | 3 | All Maps | STV","players":null},{"server_id":403,"name":"Uncletopia | Chicago | 4 | All Maps","name_short":"chi-4","host":"chi-1.us.uncletopia.com","port":27045,"enabled":true,"region":"us-central","cc":"us","latitude":41.881832,"longitude":-87.62318,"reserved":0,"last_update":"0001-01-01T00:00:00Z","name_a2s":"Uncletopia | Chicago | 4 | All Maps","protocol":17,"map":"cp_process_final","folder":"tf","game":"Team Fortress","app_id":440,"player_count":24,"max_players":24,"Bots":0,"server_type":"Dedicated","server_os":"Linux","password":true,"vac":true,"version":"7757534","steam_id":85568392924515193,"keywords":["cp","nocrits","nodmgspread","uncletopia"],"game_id":440,"stv_port":27046,"stv_name":"Uncletopia | Chicago | 4 | All Maps | STV","players":[{"user_id":14,"name":"Slashes","steam_id":76561197968573499,"connected_time":2319000000000,"state":"active","ping":57},{"user_id":25,"name":"Valeee","steam_id":76561198169897086,"connected_time":1293000000000,"state":"active","ping":121},{"user_id":43,"name":"Zymiren","steam_id":76561198054985471,"connected_time":622000000000,"state":"active","ping":92},{"user_id":29,"name":"Mintavious The Third","steam_id":76561198235953338,"connected_time":1007000000000,"state":"active","ping":64},{"user_id":7,"name":"huh6750","steam_id":76561199094058555,"connected_time":2915000000000,"state":"active","ping":51},{"user_id":8,"name":"Namuhamai","steam_id":76561198070966817,"connected_time":2822000000000,"state":"active","ping":67},{"user_id":11,"name":"Samus","steam_id":76561198121933439,"connected_time":2601000000000,"state":"active","ping":77},{"user_id":15,"name":"SCATTER","steam_id":76561198405168492,"connected_time":2314000000000,"state":"active","ping":80},{"user_id":13,"name":"Reaper","steam_id":76561198435826103,"connected_time":2558000000000,"state":"active","ping":74},{"user_id":17,"name":"Kuyumiester","steam_id":76561198126835302,"connected_time":1828000000000,"state":"active","ping":63},{"user_id":18,"name":"professional jort creamer","steam_id":76561198013308693,"connected_time":1762000000000,"state":"active","ping":61},{"user_id":19,"name":"Jester","steam_id":76561198153102922,"connected_time":1746000000000,"state":"active","ping":75},{"user_id":36,"name":"Fred","steam_id":76561197983870604,"connected_time":798000000000,"state":"active","ping":90},{"user_id":22,"name":"An Unhappy Clown","steam_id":76561198175516514,"connected_time":1468000000000,"state":"active","ping":74},{"user_id":31,"name":"killswitch","steam_id":76561199243229769,"connected_time":909000000000,"state":"active","ping":46},{"user_id":26,"name":"dmdr1969","steam_id":76561198080469611,"connected_time":1287000000000,"state":"active","ping":70},{"user_id":30,"name":"bomster","steam_id":76561198243084082,"connected_time":988000000000,"state":"active","ping":85},{"user_id":47,"name":"Kiss Master","steam_id":76561198289572271,"connected_time":161000000000,"state":"active","ping":73},{"user_id":33,"name":"Chris","steam_id":76561198180625579,"connected_time":869000000000,"state":"active","ping":103},{"user_id":45,"name":"Pawn Cushman","steam_id":76561198221635676,"connected_time":338000000000,"state":"active","ping":70},{"user_id":37,"name":"Korra \u003c3","steam_id":76561198044991497,"connected_time":789000000000,"state":"active","ping":67},{"user_id":38,"name":"Morattab","steam_id":76561199467853508,"connected_time":766000000000,"state":"active","ping":91},{"user_id":39,"name":"Acro Banwagon","steam_id":76561198092451804,"connected_time":757000000000,"state":"active","ping":70},{"user_id":40,"name":"b4rry","steam_id":76561198365887154,"connected_time":745000000000,"state":"active","ping":68}]},{"server_id":36,"name":"Uncletopia | Chicago | 5 | All Maps","name_short":"chi-5","host":"chi-2.us.uncletopia.com","port":27015,"enabled":true,"region":"us-central","cc":"us","latitude":41.881832,"longitude":-87.62318,"reserved":0,"last_update":"0001-01-01T00:00:00Z","name_a2s":"Uncletopia | Chicago | 5 | All Maps","protocol":17,"map":"koth_lakeside_final","folder":"tf","game":"Team Fortress","app_id":440,"player_count":0,"max_players":24,"Bots":0,"server_type":"Dedicated","server_os":"Linux","password":true,"vac":true,"version":"7757534","steam_id":85568392924866362,"keywords":["cp","nocrits","nodmgspread","uncletopia"],"game_id":440,"stv_port":27016,"stv_name":"Uncletopia | Chicago | 5 | All Maps | STV","players":null},{"server_id":37,"name":"Uncletopia | Chicago | 6 | All Maps","name_short":"chi-6","host":"chi-2.us.uncletopia.com","port":27025,"enabled":true,"region":"us-central","cc":"us","latitude":41.881832,"longitude":-87.62318,"reserved":0,"last_update":"0001-01-01T00:00:00Z","name_a2s":"Uncletopia | Chicago | 6 | All Maps","protocol":17,"map":"cp_dustbowl","folder":"tf","game":"Team Fortress","app_id":440,"player_count":0,"max_players":24,"Bots":0,"server_type":"Dedicated","server_os":"Linux","password":true,"vac":true,"version":"7757534","steam_id":85568392924866363,"keywords":["cp","nocrits","nodmgspread","uncletopia"],"game_id":440,"stv_port":27026,"stv_name":"Uncletopia | Chicago | 6 | All Maps | STV","players":null},{"server_id":38,"name":"Uncletopia | Chicago | 7 | Stopwatch Beta","name_short":"chi-7","host":"chi-2.us.uncletopia.com","port":27035,"enabled":true,"region":"us-central","cc":"us","latitude":41.881832,"longitude":-87.62318,"reserved":0,"last_update":"0001-01-01T00:00:00Z","name_a2s":"Uncletopia | Chicago | 7 | Stopwatch Beta","protocol":17,"map":"koth_viaduct","folder":"tf","game":"Team Fortress","app_id":440,"player_count":0,"max_players":24,"Bots":0,"server_type":"Dedicated","server_os":"Linux","password":true,"vac":true,"version":"7757534","steam_id":85568392924866364,"keywords":["cp","nocrits","nodmgspread","uncletopia"],"game_id":440,"stv_port":27036,"stv_name":"Uncletopia | Chicago | 7 | Stopwatch Beta | STV","players":null},{"server_id":39,"name":"Uncletopia | Chicago | 8 | Community","name_short":"chi-8","host":"chi-2.us.uncletopia.com","port":27045,"enabled":true,"region":"us-central","cc":"us","latitude":41.881832,"longitude":-87.62318,"reserved":0,"last_update":"0001-01-01T00:00:00Z","name_a2s":"Uncletopia | Chicago | 8 | Community","protocol":17,"map":"koth_lakeside_final","folder":"tf","game":"Team Fortress","app_id":440,"player_count":0,"max_players":24,"Bots":0,"server_type":"Dedicated","server_os":"Linux","password":true,"vac":true,"version":"7757534","steam_id":85568392924866365,"keywords":["cp","nocrits","nodmgspread","uncletopia"],"game_id":440,"stv_port":27046,"stv_name":"Uncletopia | Chicago | 8 | Community | STV","players":null},{"server_id":8,"name":"Uncletopia | Dallas | 1 | All Maps","name_short":"dal-1","host":"dal-1.us.uncletopia.com","port":27015,"enabled":true,"region":"us-central","cc":"us","latitude":32.779167,"longitude":-96.80889,"reserved":0,"last_update":"0001-01-01T00:00:00Z","name_a2s":"Uncletopia | Dallas | 1 | All Maps","protocol":17,"map":"pl_snowycoast","folder":"tf","game":"Team Fortress","app_id":440,"player_count":0,"max_players":24,"Bots":0,"server_type":"Dedicated","server_os":"Linux","password":true,"vac":true,"version":"7757534","steam_id":85568392924469986,"keywords":["nocrits","nodmgspread","payload","uncletopia"],"game_id":440,"stv_port":27016,"stv_name":"Uncletopia | Dallas | 1 | All Maps | STV","players":null},{"server_id":108,"name":"Uncletopia | Dallas | 2 | All Maps","name_short":"dal-2","host":"dal-1.us.uncletopia.com","port":27025,"enabled":true,"region":"us-central","cc":"us","latitude":32.779167,"longitude":-96.80889,"reserved":0,"last_update":"0001-01-01T00:00:00Z","name_a2s":"Uncletopia | Dallas | 2 | All Maps","protocol":17,"map":"cp_altitude","folder":"tf","game":"Team Fortress","app_id":440,"player_count":0,"max_players":24,"Bots":0,"server_type":"Dedicated","server_os":"Linux","password":true,"vac":true,"version":"7757534","steam_id":85568392924469988,"keywords":["cp","nocrits","nodmgspread","uncletopia"],"game_id":440,"stv_port":27026,"stv_name":"Uncletopia | Dallas | 2 | All Maps | STV","players":null},{"server_id":5,"name":"Uncletopia | Frankfurt | 1 | All Maps","name_short":"frk-1","host":"frk-1.de.uncletopia.com","port":27015,"enabled":true,"region":"eu","cc":"de","latitude":50.110924,"longitude":8.682127,"reserved":0,"last_update":"0001-01-01T00:00:00Z","name_a2s":"Uncletopia | Frankfurt | 1 | All Maps","protocol":17,"map":"pl_badwater","folder":"tf","game":"Team Fortress","app_id":440,"player_count":24,"max_players":24,"Bots":0,"server_type":"Dedicated","server_os":"Linux","password":true,"vac":true,"version":"7757534","steam_id":85568392924469989,"keywords":["nocrits","nodmgspread","payload","uncletopia"],"game_id":440,"stv_port":27016,"stv_name":"Uncletopia | Frankfurt | 1 | All Maps | STV","players":[{"user_id":187,"name":"Snortman","steam_id":76561199012566222,"connected_time":6204000000000,"state":"active","ping":47},{"user_id":260,"name":"KGiorgios_Bully","steam_id":76561198825392728,"connected_time":1593000000000,"state":"active","ping":115},{"user_id":270,"name":"тукку ирма","steam_id":76561197998715016,"connected_time":1014000000000,"state":"active","ping":53},{"user_id":228,"name":"VolcanicArts","steam_id":76561198063453246,"connected_time":3617000000000,"state":"active","ping":65},{"user_id":271,"name":"Pabs :D","steam_id":76561198000016962,"connected_time":745000000000,"state":"active","ping":53},{"user_id":280,"name":"barni","steam_id":76561198170420173,"connected_time":146000000000,"state":"active","ping":75},{"user_id":250,"name":"nachtraaf","steam_id":76561197960473205,"connected_time":2593000000000,"state":"active","ping":57},{"user_id":273,"name":"Mischail","steam_id":76561198016127010,"connected_time":427000000000,"state":"active","ping":74},{"user_id":265,"name":"Dolcelatte","steam_id":76561198038501770,"connected_time":1417000000000,"state":"active","ping":48},{"user_id":272,"name":"skai","steam_id":76561198184881255,"connected_time":548000000000,"state":"active","ping":71},{"user_id":274,"name":"Langers","steam_id":76561198046966693,"connected_time":368000000000,"state":"active","ping":58},{"user_id":151,"name":"player","steam_id":76561198054474684,"connected_time":9691000000000,"state":"active","ping":75},{"user_id":262,"name":"iki","steam_id":76561198119607160,"connected_time":1468000000000,"state":"active","ping":67},{"user_id":203,"name":"Kyon","steam_id":76561198024098353,"connected_time":5359000000000,"state":"active","ping":139},{"user_id":261,"name":"p!ke","steam_id":76561198416081952,"connected_time":1505000000000,"state":"active","ping":60},{"user_id":263,"name":"zaleek69","steam_id":76561198058877595,"connected_time":1465000000000,"state":"active","ping":61},{"user_id":226,"name":"？？？？","steam_id":76561198043601838,"connected_time":3765000000000,"state":"active","ping":60},{"user_id":266,"name":"leonardini.w #SaveTF2","steam_id":76561199097963071,"connected_time":1415000000000,"state":"active","ping":92},{"user_id":253,"name":"After8","steam_id":76561198090750865,"connected_time":2502000000000,"state":"active","ping":61},{"user_id":278,"name":"christmas with weezer","steam_id":76561198863788240,"connected_time":229000000000,"state":"active","ping":83},{"user_id":254,"name":"059/21","steam_id":76561198390666516,"connected_time":2494000000000,"state":"active","ping":90},{"user_id":276,"name":"Rocadinis","steam_id":76561198095910616,"connected_time":322000000000,"state":"active","ping":99},{"user_id":279,"name":"Krimmblz","steam_id":76561198326488448,"connected_time":228000000000,"state":"active","ping":71},{"user_id":249,"name":"Mayor Wank from Wanker Town","steam_id":76561197998253588,"connected_time":2689000000000,"state":"active","ping":46}]},{"server_id":110,"name":"Uncletopia | Frankfurt | 2 | All Maps","name_short":"frk-2","host":"frk-1.de.uncletopia.com","port":27025,"enabled":true,"region":"eu","cc":"de","latitude":50.110924,"longitude":8.682127,"reserved":0,"last_update":"0001-01-01T00:00:00Z","name_a2s":"Uncletopia | Frankfurt | 2 | All Maps","protocol":17,"map":"pl_snowycoast","folder":"tf","game":"Team Fortress","app_id":440,"player_count":24,"max_players":24,"Bots":0,"server_type":"Dedicated","server_os":"Linux","password":true,"vac":true,"version":"7757534","steam_id":85568392924469990,"keywords":["nocrits","nodmgspread","payload","uncletopia"],"game_id":440,"stv_port":27026,"stv_name":"Uncletopia | Frankfurt | 2 | All Maps | STV","players":[{"user_id":423,"name":"Deacon Dracul","steam_id":76561198046880663,"connected_time":179000000000,"state":"active","ping":107},{"user_id":425,"name":"nyanezt","steam_id":76561198253734265,"connected_time":155000000000,"state":"active","ping":101},{"user_id":385,"name":"Aspartus","steam_id":76561198101385763,"connected_time":1766000000000,"state":"active","ping":48},{"user_id":426,"name":"tanyathsus","steam_id":76561198089522447,"connected_time":154000000000,"state":"active","ping":65},{"user_id":338,"name":"Grillem Dafoe","steam_id":76561198306874574,"connected_time":5222000000000,"state":"active","ping":92},{"user_id":365,"name":"Dunya","steam_id":76561198041371314,"connected_time":3626000000000,"state":"active","ping":135},{"user_id":417,"name":"pizza time","steam_id":76561199015899793,"connected_time":683000000000,"state":"active","ping":59},{"user_id":368,"name":"Xx_えななんxX69","steam_id":76561199427679148,"connected_time":3174000000000,"state":"active","ping":148},{"user_id":400,"name":"Jonkheervanflep","steam_id":76561198006853101,"connected_time":1371000000000,"state":"active","ping":85},{"user_id":411,"name":"n-ski","steam_id":76561198020550849,"connected_time":804000000000,"state":"active","ping":75},{"user_id":403,"name":"Lord Ocean II","steam_id":76561198085219653,"connected_time":1199000000000,"state":"active","ping":66},{"user_id":424,"name":"Cheddar","steam_id":76561198094192281,"connected_time":168000000000,"state":"active","ping":59},{"user_id":389,"name":"☭ybercat","steam_id":76561198014070417,"connected_time":1664000000000,"state":"active","ping":68},{"user_id":429,"name":"Zombi3","steam_id":76561198326290621,"connected_time":33000000000,"state":"active","ping":64},{"user_id":373,"name":"M@T!X マティ","steam_id":76561198273121669,"connected_time":2862000000000,"state":"active","ping":84},{"user_id":405,"name":"weed fairy","steam_id":76561197998843096,"connected_time":1057000000000,"state":"active","ping":74},{"user_id":430,"name":"Newt","steam_id":76561198044250254,"connected_time":3000000000,"state":"spawning","ping":66},{"user_id":416,"name":"PizzaPete123","steam_id":76561198089478290,"connected_time":692000000000,"state":"active","ping":64},{"user_id":418,"name":"4","steam_id":76561197964945192,"connected_time":649000000000,"state":"active","ping":55},{"user_id":419,"name":"fl1p","steam_id":76561198148565659,"connected_time":637000000000,"state":"active","ping":83},{"user_id":421,"name":"Neytan","steam_id":76561198027024747,"connected_time":549000000000,"state":"active","ping":124},{"user_id":422,"name":"Who is John Galt?","steam_id":76561197998112643,"connected_time":202000000000,"state":"active","ping":73},{"user_id":428,"name":"Toaster The Whaler","steam_id":76561198018826007,"connected_time":104000000000,"state":"active","ping":50},{"user_id":350,"name":"Soerlssoelssöen","steam_id":76561197993060585,"connected_time":4258000000000,"state":"active","ping":73}]},{"server_id":308,"name":"Uncletopia | Frankfurt | 3 | All Maps","name_short":"frk-3","host":"frk-1.de.uncletopia.com","port":27035,"enabled":true,"region":"eu","cc":"de","latitude":50.110924,"longitude":8.682127,"reserved":0,"last_update":"0001-01-01T00:00:00Z","name_a2s":"Uncletopia | Frankfurt | 3 | All Maps","protocol":17,"map":"pl_frontier_final","folder":"tf","game":"Team Fortress","app_id":440,"player_count":24,"max_players":24,"Bots":0,"server_type":"Dedicated","server_os":"Linux","password":true,"vac":true,"version":"7757534","steam_id":85568392924504274,"keywords":["nocrits","nodmgspread","payload","uncletopia"],"game_id":440,"stv_port":27036,"stv_name":"Uncletopia | Frankfurt | 3 | All Maps | STV","players":[{"user_id":56,"name":"Ziltoid","steam_id":76561198020753675,"connected_time":3041000000000,"state":"active","ping":72},{"user_id":96,"name":"Wir suchen dich!","steam_id":76561198307613521,"connected_time":535000000000,"state":"active","ping":47},{"user_id":59,"name":"Make","steam_id":76561198120166752,"connected_time":3018000000000,"state":"active","ping":74},{"user_id":80,"name":"gardontar","steam_id":76561198169929053,"connected_time":1549000000000,"state":"active","ping":45},{"user_id":90,"name":"Solymr ibn Wali Barad","steam_id":76561198044008976,"connected_time":624000000000,"state":"active","ping":71},{"user_id":61,"name":"Mugelzz","steam_id":76561198048528709,"connected_time":2993000000000,"state":"active","ping":99},{"user_id":16,"name":"sputnik-666","steam_id":76561199125992135,"connected_time":5110000000000,"state":"active","ping":104},{"user_id":44,"name":"REN","steam_id":76561198000596385,"connected_time":3922000000000,"state":"active","ping":66},{"user_id":91,"name":"Forklift Certified Autist","steam_id":76561198133341026,"connected_time":617000000000,"state":"active","ping":99},{"user_id":76,"name":"öööö✪","steam_id":76561198181645822,"connected_time":2278000000000,"state":"active","ping":83},{"user_id":88,"name":"Pink Cheese","steam_id":76561198972186436,"connected_time":666000000000,"state":"active","ping":81},{"user_id":79,"name":"Silent Person","steam_id":76561198107763537,"connected_time":2119000000000,"state":"active","ping":73},{"user_id":87,"name":"Hamtastic","steam_id":76561198879769410,"connected_time":687000000000,"state":"active","ping":85},{"user_id":89,"name":"Nikita","steam_id":76561198139916298,"connected_time":649000000000,"state":"active","ping":68},{"user_id":101,"name":"Jums","steam_id":76561198892167960,"connected_time":273000000000,"state":"active","ping":59},{"user_id":85,"name":"Trash Cortex","steam_id":76561198991110334,"connected_time":896000000000,"state":"active","ping":72},{"user_id":73,"name":"tim","steam_id":76561198143626955,"connected_time":2417000000000,"state":"active","ping":43},{"user_id":86,"name":"Noob_with_source","steam_id":76561198870362103,"connected_time":865000000000,"state":"active","ping":60},{"user_id":39,"name":"Dor_atar","steam_id":76561198973980542,"connected_time":4498000000000,"state":"active","ping":70},{"user_id":33,"name":"Aregularhuman","steam_id":76561198343319848,"connected_time":4700000000000,"state":"active","ping":41},{"user_id":99,"name":"Farmercy","steam_id":76561198000038039,"connected_time":385000000000,"state":"active","ping":60},{"user_id":93,"name":"zya","steam_id":76561198043935491,"connected_time":599000000000,"state":"active","ping":97},{"user_id":105,"name":"relic_","steam_id":76561199053114167,"connected_time":35000000000,"state":"active","ping":81},{"user_id":100,"name":"blindcinema_","steam_id":76561198026908105,"connected_time":358000000000,"state":"active","ping":70}]},{"server_id":309,"name":"Uncletopia | Frankfurt | 4 | All Maps","name_short":"frk-4","host":"frk-1.de.uncletopia.com","port":27045,"enabled":true,"region":"eu","cc":"de","latitude":50.110924,"longitude":8.682127,"reserved":0,"last_update":"0001-01-01T00:00:00Z","name_a2s":"Uncletopia | Frankfurt | 4 | All Maps","protocol":17,"map":"plr_hightower","folder":"tf","game":"Team Fortress","app_id":440,"player_count":0,"max_players":24,"Bots":0,"server_type":"Dedicated","server_os":"Linux","password":true,"vac":true,"version":"7757534","steam_id":85568392924504275,"keywords":["nocrits","nodmgspread","payload","uncletopia"],"game_id":440,"stv_port":27046,"stv_name":"Uncletopia | Frankfurt | 4 | All Maps | STV","players":null},{"server_id":310,"name":"Uncletopia | Frankfurt | 5 | All Maps","name_short":"frk-5","host":"frk-1.de.uncletopia.com","port":27055,"enabled":true,"region":"eu","cc":"de","latitude":50.110924,"longitude":8.682127,"reserved":0,"last_update":"0001-01-01T00:00:00Z","name_a2s":"Uncletopia | Frankfurt | 5 | All Maps","protocol":17,"map":"koth_lakeside_final","folder":"tf","game":"Team Fortress","app_id":440,"player_count":0,"max_players":24,"Bots":0,"server_type":"Dedicated","server_os":"Linux","password":true,"vac":true,"version":"7757534","steam_id":85568392924504277,"keywords":["cp","nocrits","nodmgspread","uncletopia"],"game_id":440,"stv_port":27056,"stv_name":"Uncletopia | Frankfurt | 5 | All Maps | STV","players":null},{"server_id":311,"name":"Uncletopia | Frankfurt | 6 | All Maps","name_short":"frk-6","host":"frk-1.de.uncletopia.com","port":27065,"enabled":true,"region":"eu","cc":"de","latitude":50.110924,"longitude":8.682127,"reserved":0,"last_update":"0001-01-01T00:00:00Z","name_a2s":"Uncletopia | Frankfurt | 6 | All Maps","protocol":17,"map":"pl_pier","folder":"tf","game":"Team Fortress","app_id":440,"player_count":24,"max_players":24,"Bots":0,"server_type":"Dedicated","server_os":"Linux","password":true,"vac":true,"version":"7757534","steam_id":85568392924504278,"keywords":["nocrits","nodmgspread","payload","uncletopia"],"game_id":440,"stv_port":27066,"stv_name":"Uncletopia | Frankfurt | 6 | All Maps | STV","players":[{"user_id":187,"name":"quickfast","steam_id":76561199438900919,"connected_time":1165000000000,"state":"active","ping":60},{"user_id":193,"name":"spearfishNL","steam_id":76561199077022985,"connected_time":926000000000,"state":"active","ping":60},{"user_id":177,"name":"Er Pomata","steam_id":76561198133085347,"connected_time":1698000000000,"state":"active","ping":57},{"user_id":199,"name":"Maximus","steam_id":76561198032472655,"connected_time":397000000000,"state":"active","ping":49},{"user_id":203,"name":"The Big Boy L","steam_id":76561199045353703,"connected_time":198000000000,"state":"active","ping":76},{"user_id":195,"name":"0xDEADBEEF","steam_id":76561199075416111,"connected_time":809000000000,"state":"active","ping":90},{"user_id":156,"name":"Daniele Antox","steam_id":76561198323879930,"connected_time":2963000000000,"state":"active","ping":58},{"user_id":119,"name":"I was good before.","steam_id":76561198187045217,"connected_time":5788000000000,"state":"active","ping":91},{"user_id":200,"name":"KAZAM | Tervez","steam_id":76561198045459068,"connected_time":324000000000,"state":"active","ping":115},{"user_id":201,"name":"Littleyoshifan","steam_id":76561198445491045,"connected_time":309000000000,"state":"active","ping":59},{"user_id":183,"name":"Smoker","steam_id":76561198129454909,"connected_time":1260000000000,"state":"active","ping":76},{"user_id":188,"name":"s .-word","steam_id":76561198060849026,"connected_time":1144000000000,"state":"active","ping":89},{"user_id":197,"name":"dopamine enjoyer","steam_id":76561198140591983,"connected_time":605000000000,"state":"active","ping":87},{"user_id":162,"name":"bobek","steam_id":76561198092312720,"connected_time":2467000000000,"state":"active","ping":56},{"user_id":194,"name":"Bromoneto","steam_id":76561198876695014,"connected_time":845000000000,"state":"active","ping":71},{"user_id":185,"name":"5kirmi5her","steam_id":76561198178059225,"connected_time":1184000000000,"state":"active","ping":98},{"user_id":171,"name":"The cum policeman","steam_id":76561198338129578,"connected_time":1867000000000,"state":"active","ping":51},{"user_id":172,"name":"Crab","steam_id":76561198366797226,"connected_time":1864000000000,"state":"active","ping":80},{"user_id":134,"name":"Seeker","steam_id":76561198873052772,"connected_time":5041000000000,"state":"active","ping":63},{"user_id":204,"name":"hud_saytext_time 0","steam_id":76561198010327228,"connected_time":189000000000,"state":"active","ping":71},{"user_id":137,"name":"Pissmaster","steam_id":76561198360983155,"connected_time":4892000000000,"state":"active","ping":80},{"user_id":121,"name":"geno2205","steam_id":76561199029513226,"connected_time":5690000000000,"state":"active","ping":69},{"user_id":173,"name":"Adrenaline","steam_id":76561197970852048,"connected_time":1861000000000,"state":"active","ping":63},{"user_id":202,"name":"Tywhip","steam_id":76561199207545191,"connected_time":282000000000,"state":"active","ping":62}]},{"server_id":23,"name":"Uncletopia | Frankfurt | 7 | Stopwatch Beta","name_short":"frk-7","host":"frk-1.de.uncletopia.com","port":27075,"enabled":true,"region":"eu","cc":"de","latitude":50.110924,"longitude":8.682127,"reserved":0,"last_update":"0001-01-01T00:00:00Z","name_a2s":"Uncletopia | Frankfurt | 7 | Stopwatch Beta","protocol":17,"map":"pl_borneo","folder":"tf","game":"Team Fortress","app_id":440,"player_count":0,"max_players":24,"Bots":0,"server_type":"Dedicated","server_os":"Linux","password":true,"vac":true,"version":"7757534","steam_id":85568392924742827,"keywords":["nocrits","nodmgspread","payload","uncletopia"],"game_id":440,"stv_port":27076,"stv_name":"Uncletopia | Frankfurt | 7 | Stopwatch Beta | STV","players":null},{"server_id":24,"name":"Uncletopia | Frankfurt | 8 | Community","name_short":"frk-8","host":"frk-1.de.uncletopia.com","port":27085,"enabled":true,"region":"eu","cc":"de","latitude":50.110924,"longitude":8.682127,"reserved":0,"last_update":"0001-01-01T00:00:00Z","name_a2s":"Uncletopia | Frankfurt | 8 | Community","protocol":17,"map":"workshop/cp_logjam_rc12.ugc454812035","folder":"tf","game":"Team Fortress","app_id":440,"player_count":1,"max_players":24,"Bots":0,"server_type":"Dedicated","server_os":"Linux","password":true,"vac":true,"version":"7757534","steam_id":85568392924742828,"keywords":["cp","nocrits","nodmgspread","uncletopia"],"game_id":440,"stv_port":27086,"stv_name":"Uncletopia | Frankfurt | 8 | Community | STV","players":[{"user_id":8,"name":"quack","steam_id":76561198121003465,"connected_time":8000000000,"state":"spawning","ping":85}]},{"server_id":202,"name":"Uncletopia | Hong Kong | 1 | All Maps","name_short":"hgk-1","host":"hgk-1.hk.uncletopia.com","port":27015,"enabled":true,"region":"asia","cc":"hk","latitude":22.302711,"longitude":114.177216,"reserved":0,"last_update":"0001-01-01T00:00:00Z","name_a2s":"Uncletopia | Hong Kong | 1 | All Maps","protocol":17,"map":"pl_frontier_final","folder":"tf","game":"Team Fortress","app_id":440,"player_count":21,"max_players":24,"Bots":0,"server_type":"Dedicated","server_os":"Linux","password":true,"vac":true,"version":"7757534","steam_id":85568392924494504,"keywords":["nocrits","nodmgspread","payload","uncletopia"],"game_id":440,"stv_port":27016,"stv_name":"Uncletopia | Hong Kong | 1 | All Maps | STV","players":[{"user_id":434,"name":"Ivy","steam_id":76561198400698408,"connected_time":667000000000,"state":"active","ping":83},{"user_id":411,"name":"m1ko-  ❀","steam_id":76561198337154745,"connected_time":2793000000000,"state":"active","ping":138},{"user_id":407,"name":"cumford","steam_id":76561199146847474,"connected_time":2987000000000,"state":"active","ping":60},{"user_id":418,"name":"Bertengkar","steam_id":76561198213031155,"connected_time":1801000000000,"state":"active","ping":92},{"user_id":432,"name":"쿠키","steam_id":76561197997220367,"connected_time":930000000000,"state":"active","ping":49},{"user_id":439,"name":"NOPE","steam_id":76561199244543572,"connected_time":431000000000,"state":"active","ping":69},{"user_id":385,"name":"煙海 | Enkai","steam_id":76561198050460825,"connected_time":5857000000000,"state":"active","ping":75},{"user_id":408,"name":"moron","steam_id":76561198324008555,"connected_time":2983000000000,"state":"active","ping":60},{"user_id":437,"name":"FlareonSimpUwU","steam_id":76561198823521095,"connected_time":602000000000,"state":"active","ping":50},{"user_id":404,"name":"hasi","steam_id":76561199186771164,"connected_time":3007000000000,"state":"active","ping":83},{"user_id":415,"name":"aeross","steam_id":76561198834445483,"connected_time":2221000000000,"state":"active","ping":59},{"user_id":317,"name":"母の肉団子@hao123.com","steam_id":76561198069561896,"connected_time":9685000000000,"state":"active","ping":44},{"user_id":438,"name":"Not Really a Gamer","steam_id":76561199158560796,"connected_time":559000000000,"state":"active","ping":64},{"user_id":391,"name":"\"SKS\"","steam_id":76561198187995386,"connected_time":5469000000000,"state":"active","ping":86},{"user_id":427,"name":"bocchi's bocchis (oppai)","steam_id":76561198008307645,"connected_time":1406000000000,"state":"active","ping":134},{"user_id":430,"name":"FireBoy9999VN","steam_id":76561199162916378,"connected_time":1034000000000,"state":"active","ping":86},{"user_id":318,"name":"SNEAKY AS FUCK","steam_id":76561198083923462,"connected_time":9672000000000,"state":"active","ping":75},{"user_id":401,"name":"lax","steam_id":76561198798674165,"connected_time":3425000000000,"state":"active","ping":58},{"user_id":425,"name":"drd","steam_id":76561198149548170,"connected_time":1619000000000,"state":"active","ping":87},{"user_id":332,"name":"Pillboi","steam_id":76561198011172886,"connected_time":9037000000000,"state":"active","ping":44},{"user_id":410,"name":"Stupid B l #saveTF2","steam_id":76561198131423270,"connected_time":2827000000000,"state":"active","ping":98}]},{"server_id":1,"name":"Uncletopia | Los Angeles | 1 | All Maps","name_short":"lax-1","host":"lax-1.us.uncletopia.com","port":27015,"enabled":true,"region":"us-west","cc":"us","latitude":33.94279,"longitude":-118.41004,"reserved":0,"last_update":"0001-01-01T00:00:00Z","name_a2s":"Uncletopia | Los Angeles | 1 | All Maps","protocol":17,"map":"cp_process_final","folder":"tf","game":"Team Fortress","app_id":440,"player_count":0,"max_players":24,"Bots":0,"server_type":"Dedicated","server_os":"Linux","password":true,"vac":true,"version":"7757534","steam_id":85568392924469991,"keywords":["cp","nocrits","nodmgspread","uncletopia"],"game_id":440,"stv_port":27016,"stv_name":"Uncletopia | Los Angeles | 1 | All Maps | STV","players":null},{"server_id":112,"name":"Uncletopia | Los Angeles | 2 | All Maps","name_short":"lax-2","host":"lax-1.us.uncletopia.com","port":27025,"enabled":true,"region":"us-west","cc":"us","latitude":33.94279,"longitude":-118.41004,"reserved":0,"last_update":"0001-01-01T00:00:00Z","name_a2s":"Uncletopia | Los Angeles | 2 | All Maps","protocol":17,"map":"koth_viaduct","folder":"tf","game":"Team Fortress","app_id":440,"player_count":0,"max_players":24,"Bots":0,"server_type":"Dedicated","server_os":"Linux","password":true,"vac":true,"version":"7757534","steam_id":85568392924469992,"keywords":["cp","nocrits","nodmgspread","uncletopia"],"game_id":440,"stv_port":27026,"stv_name":"Uncletopia | Los Angeles | 2 | All Maps | STV","players":null},{"server_id":324,"name":"Uncletopia | Los Angeles | 3 | All Maps","name_short":"lax-3","host":"lax-1.us.uncletopia.com","port":27035,"enabled":true,"region":"us-west","cc":"us","latitude":33.94279,"longitude":-118.41004,"reserved":0,"last_update":"0001-01-01T00:00:00Z","name_a2s":"Uncletopia | Los Angeles | 3 | All Maps","protocol":17,"map":"cp_altitude","folder":"tf","game":"Team Fortress","app_id":440,"player_count":0,"max_players":24,"Bots":0,"server_type":"Dedicated","server_os":"Linux","password":true,"vac":true,"version":"7757534","steam_id":85568392924510198,"keywords":["cp","nocrits","nodmgspread","uncletopia"],"game_id":440,"stv_port":27036,"stv_name":"Uncletopia | Los Angeles | 3 | All Maps | STV","players":null},{"server_id":25,"name":"Uncletopia | Los Angeles | 4 | Stopwatch Beta","name_short":"lax-4","host":"lax-1.us.uncletopia.com","port":27045,"enabled":true,"region":"us-west","cc":"us","latitude":33.94279,"longitude":-118.41004,"reserved":0,"last_update":"0001-01-01T00:00:00Z","name_a2s":"Uncletopia | Los Angeles | 4 | Stopwatch Beta","protocol":17,"map":"cp_dustbowl","folder":"tf","game":"Team Fortress","app_id":440,"player_count":0,"max_players":24,"Bots":0,"server_type":"Dedicated","server_os":"Linux","password":true,"vac":true,"version":"7757534","steam_id":85568392924510199,"keywords":["cp","nocrits","nodmgspread","uncletopia"],"game_id":440,"stv_port":27046,"stv_name":"Uncletopia | Los Angeles | 4 | Stopwatch Beta | STV","players":null},{"server_id":11,"name":"Uncletopia | London | 1 | All Maps","name_short":"lon-1","host":"lon-1.uk.uncletopia.com","port":27015,"enabled":true,"region":"eu","cc":"gb","latitude":51.509865,"longitude":-0.118092,"reserved":0,"last_update":"0001-01-01T00:00:00Z","name_a2s":"Uncletopia | London | 1 | All Maps","protocol":17,"map":"koth_highpass","folder":"tf","game":"Team Fortress","app_id":440,"player_count":2,"max_players":24,"Bots":0,"server_type":"Dedicated","server_os":"Linux","password":true,"vac":true,"version":"7757534","steam_id":85568392924367362,"keywords":["cp","nocrits","nodmgspread","uncletopia"],"game_id":440,"stv_port":27016,"stv_name":"Uncletopia | London | 1 | All Maps | STV","players":[{"user_id":17,"name":"silenk","steam_id":76561198367689055,"connected_time":401000000000,"state":"active","ping":60},{"user_id":19,"name":"Katie","steam_id":76561198056193753,"connected_time":25000000000,"state":"active","ping":119}]},{"server_id":114,"name":"Uncletopia | London | 2 | All Maps","name_short":"lon-2","host":"lon-1.uk.uncletopia.com","port":27025,"enabled":true,"region":"eu","cc":"gb","latitude":51.509865,"longitude":-0.118092,"reserved":0,"last_update":"0001-01-01T00:00:00Z","name_a2s":"Uncletopia | London | 2 | All Maps","protocol":17,"map":"pl_borneo","folder":"tf","game":"Team Fortress","app_id":440,"player_count":24,"max_players":24,"Bots":0,"server_type":"Dedicated","server_os":"Linux","password":true,"vac":true,"version":"7757534","steam_id":85568392924470941,"keywords":["nocrits","nodmgspread","payload","uncletopia"],"game_id":440,"stv_port":27026,"stv_name":"Uncletopia | London | 2 | All Maps | STV","players":[{"user_id":103,"name":"DrExplosive","steam_id":76561198063678579,"connected_time":2852000000000,"state":"active","ping":53},{"user_id":135,"name":"Caliban","steam_id":76561197999696839,"connected_time":959000000000,"state":"active","ping":103},{"user_id":85,"name":"Wardruna96","steam_id":76561199057083828,"connected_time":4258000000000,"state":"active","ping":86},{"user_id":126,"name":"Ardbeg","steam_id":76561197973483985,"connected_time":1348000000000,"state":"active","ping":50},{"user_id":140,"name":"Toon","steam_id":76561198065421595,"connected_time":294000000000,"state":"active","ping":55},{"user_id":117,"name":"Frederica","steam_id":76561199003380306,"connected_time":2013000000000,"state":"active","ping":73},{"user_id":107,"name":"Cosmetic brain","steam_id":76561198055936410,"connected_time":2722000000000,"state":"active","ping":74},{"user_id":75,"name":"holykyckling","steam_id":76561198040661615,"connected_time":5102000000000,"state":"active","ping":75},{"user_id":47,"name":"Zerfesh","steam_id":76561198117534358,"connected_time":6723000000000,"state":"active","ping":104},{"user_id":95,"name":"Flare","steam_id":76561198039098320,"connected_time":3640000000000,"state":"active","ping":46},{"user_id":141,"name":"Breizbuc","steam_id":76561198118220633,"connected_time":91000000000,"state":"active","ping":55},{"user_id":123,"name":"Aaron","steam_id":76561197990046953,"connected_time":1373000000000,"state":"active","ping":49},{"user_id":124,"name":"ricky pee pee","steam_id":76561198152620745,"connected_time":1362000000000,"state":"active","ping":57},{"user_id":109,"name":"Dr. Uberschwein","steam_id":76561198111367431,"connected_time":2650000000000,"state":"active","ping":73},{"user_id":120,"name":"nicholasjf","steam_id":76561198110717638,"connected_time":1595000000000,"state":"active","ping":54},{"user_id":139,"name":"suN","steam_id":76561198334556356,"connected_time":566000000000,"state":"active","ping":75},{"user_id":127,"name":"Brinnck","steam_id":76561198340776600,"connected_time":1305000000000,"state":"active","ping":59},{"user_id":121,"name":"Daza","steam_id":76561198020265343,"connected_time":1478000000000,"state":"active","ping":56},{"user_id":131,"name":"Axter","steam_id":76561198118747192,"connected_time":1173000000000,"state":"active","ping":91},{"user_id":102,"name":"Pancakes","steam_id":76561198196259989,"connected_time":2869000000000,"state":"active","ping":54},{"user_id":98,"name":"Mad_Scientist","steam_id":76561198121431854,"connected_time":3180000000000,"state":"active","ping":60},{"user_id":129,"name":"Dragul","steam_id":76561198032885938,"connected_time":1234000000000,"state":"active","ping":74},{"user_id":132,"name":"Family guy try not to laugh","steam_id":76561198031455800,"connected_time":990000000000,"state":"active","ping":85},{"user_id":100,"name":"Desj","steam_id":76561198114212636,"connected_time":3018000000000,"state":"active","ping":49}]},{"server_id":320,"name":"Uncletopia | London | 3 | All Maps","name_short":"lon-3","host":"lon-1.uk.uncletopia.com","port":27035,"enabled":true,"region":"eu","cc":"gb","latitude":51.509865,"longitude":-0.118092,"reserved":0,"last_update":"0001-01-01T00:00:00Z","name_a2s":"Uncletopia | London | 3 | All Maps","protocol":17,"map":"cp_mercenarypark","folder":"tf","game":"Team Fortress","app_id":440,"player_count":23,"max_players":24,"Bots":0,"server_type":"Dedicated","server_os":"Linux","password":true,"vac":true,"version":"7757534","steam_id":85568392924510192,"keywords":["cp","nocrits","nodmgspread","uncletopia"],"game_id":440,"stv_port":27036,"stv_name":"Uncletopia | London | 3 | All Maps | STV","players":[{"user_id":209,"name":"Kai","steam_id":76561198800004578,"connected_time":4633000000000,"state":"active","ping":49},{"user_id":256,"name":"Tort","steam_id":76561198329646769,"connected_time":227000000000,"state":"active","ping":53},{"user_id":268,"name":"Amoru","steam_id":76561198798161817,"connected_time":3000000000,"state":"spawning","ping":88},{"user_id":257,"name":"sareena","steam_id":76561198810194062,"connected_time":220000000000,"state":"active","ping":63},{"user_id":236,"name":"ArikMor","steam_id":76561199124472513,"connected_time":2080000000000,"state":"active","ping":117},{"user_id":269,"name":"Autumnsky","steam_id":76561198055161203,"connected_time":3000000000,"state":"spawning","ping":56},{"user_id":246,"name":"Hari Pootis","steam_id":76561198156135937,"connected_time":817000000000,"state":"active","ping":31},{"user_id":172,"name":"Loki Beaker","steam_id":76561198048086250,"connected_time":7795000000000,"state":"active","ping":58},{"user_id":258,"name":"Jeans Plus","steam_id":76561198052125103,"connected_time":218000000000,"state":"active","ping":57},{"user_id":270,"name":"CurseTail","steam_id":76561198318225811,"connected_time":3000000000,"state":"spawning","ping":59},{"user_id":254,"name":"jakob-hejn","steam_id":76561198134513477,"connected_time":515000000000,"state":"active","ping":57},{"user_id":249,"name":"MelvinIsANiceBoy","steam_id":76561198178415634,"connected_time":744000000000,"state":"active","ping":53},{"user_id":195,"name":"jo bidn' | ETLARTORM","steam_id":76561198869576262,"connected_time":6095000000000,"state":"active","ping":106},{"user_id":239,"name":"SexyHotChocolate","steam_id":76561198164087698,"connected_time":1772000000000,"state":"active","ping":86},{"user_id":264,"name":"GearShift","steam_id":76561198094902155,"connected_time":113000000000,"state":"active","ping":117},{"user_id":260,"name":"Charon-the-Boatman","steam_id":76561199031392798,"connected_time":199000000000,"state":"active","ping":63},{"user_id":200,"name":"Dodoshka","steam_id":76561198093464840,"connected_time":5894000000000,"state":"active","ping":101},{"user_id":261,"name":"spring bonnie","steam_id":76561198988350454,"connected_time":192000000000,"state":"active","ping":60},{"user_id":266,"name":"Ledze Shuns Dope","steam_id":76561198049945010,"connected_time":103000000000,"state":"active","ping":51},{"user_id":232,"name":"$13 hand-crank","steam_id":76561198029998773,"connected_time":2557000000000,"state":"active","ping":46},{"user_id":263,"name":"Yony","steam_id":76561199070569941,"connected_time":179000000000,"state":"active","ping":63},{"user_id":255,"name":"Bottom of the barrel terrorist","steam_id":76561198929386604,"connected_time":348000000000,"state":"active","ping":101},{"user_id":243,"name":"dafydd","steam_id":76561198052200325,"connected_time":1554000000000,"state":"active","ping":90}]},{"server_id":321,"name":"Uncletopia | London | 4 | All Maps","name_short":"lon-4","host":"lon-1.uk.uncletopia.com","port":27045,"enabled":true,"region":"eu","cc":"gb","latitude":51.509865,"longitude":-0.118092,"reserved":0,"last_update":"0001-01-01T00:00:00Z","name_a2s":"Uncletopia | London | 4 | All Maps","protocol":17,"map":"pl_barnblitz","folder":"tf","game":"Team Fortress","app_id":440,"player_count":0,"max_players":24,"Bots":0,"server_type":"Dedicated","server_os":"Linux","password":true,"vac":true,"version":"7757534","steam_id":85568392924510193,"keywords":["nocrits","nodmgspread","payload","uncletopia"],"game_id":440,"stv_port":27046,"stv_name":"Uncletopia | London | 4 | All Maps | STV","players":null},{"server_id":21,"name":"Uncletopia | London | 5 | All Maps","name_short":"lon-5","host":"lon-1.uk.uncletopia.com","port":27055,"enabled":true,"region":"eu","cc":"gb","latitude":51.509865,"longitude":-0.118092,"reserved":0,"last_update":"0001-01-01T00:00:00Z","name_a2s":"Uncletopia | London | 5 | All Maps","protocol":17,"map":"pl_pier","folder":"tf","game":"Team Fortress","app_id":440,"player_count":0,"max_players":24,"Bots":0,"server_type":"Dedicated","server_os":"Linux","password":true,"vac":true,"version":"7757534","steam_id":85568392924742829,"keywords":["nocrits","nodmgspread","payload","uncletopia"],"game_id":440,"stv_port":27056,"stv_name":"Uncletopia | London | 5 | All Maps | STV","players":null},{"server_id":22,"name":"Uncletopia | London | 6 | All Maps","name_short":"lon-6","host":"lon-1.uk.uncletopia.com","port":27065,"enabled":true,"region":"eu","cc":"gb","latitude":51.509865,"longitude":-0.118092,"reserved":0,"last_update":"0001-01-01T00:00:00Z","name_a2s":"Uncletopia | London | 6 | All Maps","protocol":17,"map":"koth_highpass","folder":"tf","game":"Team Fortress","app_id":440,"player_count":0,"max_players":24,"Bots":0,"server_type":"Dedicated","server_os":"Linux","password":true,"vac":true,"version":"7757534","steam_id":85568392924742830,"keywords":["cp","nocrits","nodmgspread","uncletopia"],"game_id":440,"stv_port":27066,"stv_name":"Uncletopia | London | 6 | All Maps | STV","players":null},{"server_id":40,"name":"Uncletopia | London | 7 | No Payload","name_short":"lon-7","host":"lon-1.uk.uncletopia.com","port":27075,"enabled":true,"region":"eu","cc":"gb","latitude":51.509865,"longitude":-0.118092,"reserved":0,"last_update":"0001-01-01T00:00:00Z","name_a2s":"Uncletopia | London | 7 | No Payload","protocol":17,"map":"koth_highpass","folder":"tf","game":"Team Fortress","app_id":440,"player_count":0,"max_players":24,"Bots":0,"server_type":"Dedicated","server_os":"Linux","password":true,"vac":true,"version":"7757534","steam_id":85568392924964314,"keywords":["cp","nocrits","nodmgspread","uncletopia"],"game_id":440,"stv_port":27076,"stv_name":"Uncletopia | London | 7 | No Payload | STV","players":null},{"server_id":41,"name":"Uncletopia | London | 8 | Community","name_short":"lon-8","host":"lon-1.uk.uncletopia.com","port":27085,"enabled":true,"region":"eu","cc":"gb","latitude":51.509865,"longitude":-0.118092,"reserved":0,"last_update":"0001-01-01T00:00:00Z","name_a2s":"Uncletopia | London | 8 | Community","protocol":17,"map":"workshop/cp_kalinka_rc6a.ugc1272700588","folder":"tf","game":"Team Fortress","app_id":440,"player_count":24,"max_players":24,"Bots":0,"server_type":"Dedicated","server_os":"Linux","password":true,"vac":true,"version":"7757534","steam_id":85568392924964315,"keywords":["cp","nocrits","nodmgspread","uncletopia"],"game_id":440,"stv_port":27086,"stv_name":"Uncletopia | London | 8 | Community | STV","players":[{"user_id":97,"name":"SpagBolChomper","steam_id":76561198129347464,"connected_time":1132000000000,"state":"active","ping":44},{"user_id":39,"name":"AYE","steam_id":76561198181368101,"connected_time":4625000000000,"state":"active","ping":61},{"user_id":45,"name":"rob","steam_id":76561198122211848,"connected_time":4074000000000,"state":"active","ping":129},{"user_id":40,"name":"Swedde","steam_id":76561198297296440,"connected_time":4507000000000,"state":"active","ping":69},{"user_id":90,"name":"Blastrock64","steam_id":76561199008932704,"connected_time":1438000000000,"state":"active","ping":78},{"user_id":55,"name":"Cheers Mate!","steam_id":76561198265192382,"connected_time":3519000000000,"state":"active","ping":69},{"user_id":43,"name":"W.","steam_id":76561198444036574,"connected_time":4214000000000,"state":"active","ping":58},{"user_id":99,"name":"fox^","steam_id":76561198173355995,"connected_time":304000000000,"state":"active","ping":86},{"user_id":82,"name":"Guy with squares as username","steam_id":76561198269524918,"connected_time":2241000000000,"state":"active","ping":56},{"user_id":98,"name":"LukeLeal","steam_id":76561198049822995,"connected_time":318000000000,"state":"active","ping":177},{"user_id":93,"name":"Tom Fish","steam_id":76561199060805463,"connected_time":1221000000000,"state":"active","ping":73},{"user_id":94,"name":"Welder","steam_id":76561198355300561,"connected_time":1196000000000,"state":"active","ping":70},{"user_id":95,"name":"gneeda","steam_id":76561198147249160,"connected_time":1196000000000,"state":"active","ping":109},{"user_id":84,"name":"alvinulv","steam_id":76561198024487177,"connected_time":1881000000000,"state":"active","ping":60},{"user_id":57,"name":"Psychicpie","steam_id":76561198126065206,"connected_time":3431000000000,"state":"active","ping":57},{"user_id":101,"name":"P Diddy","steam_id":76561198829344838,"connected_time":33000000000,"state":"spawning","ping":254},{"user_id":63,"name":"HiiamAngel","steam_id":76561198240499888,"connected_time":3059000000000,"state":"active","ping":84},{"user_id":89,"name":"Wyro","steam_id":76561199176835169,"connected_time":1541000000000,"state":"active","ping":52},{"user_id":65,"name":"Uncle Owen","steam_id":76561198157999291,"connected_time":3033000000000,"state":"active","ping":89},{"user_id":74,"name":"Bob.","steam_id":76561198330093822,"connected_time":2776000000000,"state":"active","ping":84},{"user_id":87,"name":"TSx* Naxer","steam_id":76561198011986779,"connected_time":1664000000000,"state":"active","ping":80},{"user_id":86,"name":"TSx* Osa__PL","steam_id":76561198027016799,"connected_time":1850000000000,"state":"active","ping":75},{"user_id":96,"name":"BROOMSTER","steam_id":76561198344833818,"connected_time":1188000000000,"state":"active","ping":67},{"user_id":81,"name":"simon","steam_id":76561198880361394,"connected_time":2263000000000,"state":"active","ping":60}]},{"server_id":300,"name":"Uncletopia | Montréal | 1 | All Maps","name_short":"mtl-1","host":"mtl-1.ca.uncletopia.com","port":27015,"enabled":true,"region":"us-east","cc":"ca","latitude":45.50889,"longitude":-73.56167,"reserved":0,"last_update":"0001-01-01T00:00:00Z","name_a2s":"Uncletopia | Montréal | 1 | All Maps","protocol":17,"map":"cp_altitude","folder":"tf","game":"Team Fortress","app_id":440,"player_count":0,"max_players":24,"Bots":0,"server_type":"Dedicated","server_os":"Linux","password":true,"vac":true,"version":"7757534","steam_id":85568392924500087,"keywords":["cp","nocrits","nodmgspread","uncletopia"],"game_id":440,"stv_port":27016,"stv_name":"Uncletopia | Montréal | 1 | All Maps | STV","players":null},{"server_id":301,"name":"Uncletopia | Montréal | 2 | All Maps","name_short":"mtl-2","host":"mtl-1.ca.uncletopia.com","port":27025,"enabled":true,"region":"us-east","cc":"ca","latitude":45.50889,"longitude":-73.56167,"reserved":0,"last_update":"0001-01-01T00:00:00Z","name_a2s":"Uncletopia | Montréal | 2 | All Maps","protocol":17,"map":"cp_sunshine","folder":"tf","game":"Team Fortress","app_id":440,"player_count":0,"max_players":24,"Bots":0,"server_type":"Dedicated","server_os":"Linux","password":true,"vac":true,"version":"7757534","steam_id":85568392924500088,"keywords":["cp","nocrits","nodmgspread","uncletopia"],"game_id":440,"stv_port":27026,"stv_name":"Uncletopia | Montréal | 2 | All Maps | STV","players":null},{"server_id":302,"name":"Uncletopia | Montréal | 3 | All Maps","name_short":"mtl-3","host":"mtl-1.ca.uncletopia.com","port":27035,"enabled":true,"region":"us-east","cc":"ca","latitude":45.50889,"longitude":-73.56167,"reserved":0,"last_update":"0001-01-01T00:00:00Z","name_a2s":"Uncletopia | Montréal | 3 | All Maps","protocol":17,"map":"pl_frontier_final","folder":"tf","game":"Team Fortress","app_id":440,"player_count":0,"max_players":24,"Bots":0,"server_type":"Dedicated","server_os":"Linux","password":true,"vac":true,"version":"7757534","steam_id":85568392924500089,"keywords":["nocrits","nodmgspread","payload","uncletopia"],"game_id":440,"stv_port":27036,"stv_name":"Uncletopia | Montréal | 3 | All Maps | STV","players":null},{"server_id":303,"name":"Uncletopia | Montréal | 4 | No Payload","name_short":"mtl-4","host":"mtl-1.ca.uncletopia.com","port":27045,"enabled":true,"region":"us-east","cc":"ca","latitude":45.50889,"longitude":-73.56167,"reserved":0,"last_update":"0001-01-01T00:00:00Z","name_a2s":"Uncletopia | Montréal | 4 | No Payload","protocol":17,"map":"pl_pier","folder":"tf","game":"Team Fortress","app_id":440,"player_count":0,"max_players":24,"Bots":0,"server_type":"Dedicated","server_os":"Linux","password":true,"vac":true,"version":"7757534","steam_id":85568392924500090,"keywords":["nocrits","nodmgspread","payload","uncletopia"],"game_id":440,"stv_port":27046,"stv_name":"Uncletopia | Montréal | 4 | No Payload | STV","players":null},{"server_id":13,"name":"Uncletopia | New York City | 1 | All Maps","name_short":"nyc-1","host":"nyc-1.us.uncletopia.com","port":27015,"enabled":true,"region":"us-east","cc":"us","latitude":40.73061,"longitude":-73.93524,"reserved":0,"last_update":"0001-01-01T00:00:00Z","name_a2s":"Uncletopia | New York City | 1 | All Maps","protocol":17,"map":"koth_cascade","folder":"tf","game":"Team Fortress","app_id":440,"player_count":1,"max_players":24,"Bots":0,"server_type":"Dedicated","server_os":"Linux","password":true,"vac":true,"version":"7757534","steam_id":85568392924469993,"keywords":["cp","nocrits","nodmgspread","uncletopia"],"game_id":440,"stv_port":27016,"stv_name":"Uncletopia | New York City | 1 | All Maps | STV","players":[{"user_id":6,"name":"incredibly ill spy","steam_id":76561199097070694,"connected_time":8000000000,"state":"spawning","ping":54}]},{"server_id":14,"name":"Uncletopia | New York City | 2 | All Maps","name_short":"nyc-2","host":"nyc-1.us.uncletopia.com","port":27025,"enabled":true,"region":"us-east","cc":"us","latitude":40.73061,"longitude":-73.93524,"reserved":0,"last_update":"0001-01-01T00:00:00Z","name_a2s":"Uncletopia | New York City | 2 | All Maps","protocol":17,"map":"cp_dustbowl","folder":"tf","game":"Team Fortress","app_id":440,"player_count":0,"max_players":24,"Bots":0,"server_type":"Dedicated","server_os":"Linux","password":true,"vac":true,"version":"7757534","steam_id":85568392924469994,"keywords":["cp","nocrits","nodmgspread","uncletopia"],"game_id":440,"stv_port":27026,"stv_name":"Uncletopia | New York City | 2 | All Maps | STV","players":null},{"server_id":15,"name":"Uncletopia | New York City | 3 | Stopwatch Beta","name_short":"nyc-3","host":"nyc-1.us.uncletopia.com","port":27035,"enabled":true,"region":"us-east","cc":"us","latitude":40.73061,"longitude":-73.93524,"reserved":0,"last_update":"0001-01-01T00:00:00Z","name_a2s":"Uncletopia | New York City | 3 | Stopwatch Beta","protocol":17,"map":"koth_cascade","folder":"tf","game":"Team Fortress","app_id":440,"player_count":0,"max_players":24,"Bots":0,"server_type":"Dedicated","server_os":"Linux","password":true,"vac":true,"version":"7757534","steam_id":85568392924742820,"keywords":["cp","nocrits","nodmgspread","uncletopia"],"game_id":440,"stv_port":27036,"stv_name":"Uncletopia | New York City | 3 | Stopwatch Beta | STV","players":null},{"server_id":16,"name":"Uncletopia | New York City | 4 | Community","name_short":"nyc-4","host":"nyc-1.us.uncletopia.com","port":27045,"enabled":true,"region":"us-east","cc":"us","latitude":40.73061,"longitude":-73.93524,"reserved":0,"last_update":"0001-01-01T00:00:00Z","name_a2s":"Uncletopia | New York City | 4 | Community","protocol":17,"map":"pl_frontier_final","folder":"tf","game":"Team Fortress","app_id":440,"player_count":0,"max_players":24,"Bots":0,"server_type":"Dedicated","server_os":"Linux","password":true,"vac":true,"version":"7757534","steam_id":85568392924742821,"keywords":["nocrits","nodmgspread","payload","uncletopia"],"game_id":440,"stv_port":27046,"stv_name":"Uncletopia | New York City | 4 | Community | STV","players":null},{"server_id":142,"name":"Uncletopia | São Paulo | 1 | All Maps","name_short":"sao-1","host":"sao-1.br.uncletopia.com","port":27015,"enabled":true,"region":"sa","cc":"br","latitude":-23.533773,"longitude":-46.62529,"reserved":0,"last_update":"0001-01-01T00:00:00Z","name_a2s":"Uncletopia | São Paulo | 1 | All Maps","protocol":17,"map":"cp_altitude","folder":"tf","game":"Team Fortress","app_id":440,"player_count":0,"max_players":24,"Bots":0,"server_type":"Dedicated","server_os":"Linux","password":true,"vac":true,"version":"7757534","steam_id":85568392924469996,"keywords":["cp","nocrits","nodmgspread","uncletopia"],"game_id":440,"stv_port":27016,"stv_name":"Uncletopia | São Paulo | 1 | All Maps | STV","players":null},{"server_id":143,"name":"Uncletopia | São Paulo | 2 | All Maps","name_short":"sao-2","host":"sao-2.br.uncletopia.com","port":27015,"enabled":true,"region":"sa","cc":"br","latitude":-23.533773,"longitude":-46.62529,"reserved":0,"last_update":"0001-01-01T00:00:00Z","name_a2s":"Uncletopia | São Paulo | 2 | All Maps","protocol":17,"map":"koth_viaduct","folder":"tf","game":"Team Fortress","app_id":440,"player_count":0,"max_players":24,"Bots":0,"server_type":"Dedicated","server_os":"Linux","password":true,"vac":true,"version":"7757534","steam_id":85568392924485349,"keywords":["cp","nocrits","nodmgspread","uncletopia"],"game_id":440,"stv_port":27016,"stv_name":"Uncletopia | São Paulo | 2 | All Maps | STV","players":null},{"server_id":7,"name":"Uncletopia | Seattle | 1 | All Maps","name_short":"sea-1","host":"sea-1.us.uncletopia.com","port":27015,"enabled":true,"region":"us-west","cc":"us","latitude":47.608013,"longitude":-122.33517,"reserved":0,"last_update":"0001-01-01T00:00:00Z","name_a2s":"Uncletopia | Seattle | 1 | All Maps","protocol":17,"map":"koth_viaduct","folder":"tf","game":"Team Fortress","app_id":440,"player_count":23,"max_players":24,"Bots":0,"server_type":"Dedicated","server_os":"Linux","password":true,"vac":true,"version":"7757534","steam_id":85568392924469997,"keywords":["cp","nocrits","nodmgspread","uncletopia"],"game_id":440,"stv_port":27016,"stv_name":"Uncletopia | Seattle | 1 | All Maps | STV","players":[{"user_id":12,"name":"KingToaster","steam_id":76561198007903802,"connected_time":1713000000000,"state":"active","ping":36},{"user_id":21,"name":"Take the L","steam_id":76561198309760791,"connected_time":1546000000000,"state":"active","ping":129},{"user_id":5,"name":"[TrC] Dackstrus","steam_id":76561197973518509,"connected_time":1740000000000,"state":"active","ping":59},{"user_id":41,"name":"huntsman user","steam_id":76561198044220492,"connected_time":428000000000,"state":"active","ping":56},{"user_id":7,"name":"[TrC] Nosy","steam_id":76561197978859310,"connected_time":1735000000000,"state":"active","ping":60},{"user_id":20,"name":"Grassman (Cc)","steam_id":76561198026488532,"connected_time":1558000000000,"state":"active","ping":63},{"user_id":9,"name":"rebel","steam_id":76561198026049308,"connected_time":1732000000000,"state":"active","ping":45},{"user_id":27,"name":"autistic enby","steam_id":76561198440145948,"connected_time":1310000000000,"state":"active","ping":112},{"user_id":11,"name":"the war","steam_id":76561198133360797,"connected_time":1730000000000,"state":"active","ping":86},{"user_id":13,"name":"manbearswineflu","steam_id":76561198083945137,"connected_time":1707000000000,"state":"active","ping":107},{"user_id":15,"name":"nnobi","steam_id":76561198878729277,"connected_time":1694000000000,"state":"active","ping":131},{"user_id":16,"name":"kitsu ♥","steam_id":76561198091741658,"connected_time":1663000000000,"state":"active","ping":79},{"user_id":17,"name":"TheGreatDong","steam_id":76561198000634178,"connected_time":1656000000000,"state":"active","ping":75},{"user_id":39,"name":"Thomas the Dank Engine","steam_id":76561197997031958,"connected_time":577000000000,"state":"active","ping":73},{"user_id":26,"name":"Ashley Héloïse","steam_id":76561198103653429,"connected_time":1333000000000,"state":"active","ping":75},{"user_id":24,"name":"Fajita Master","steam_id":76561198329150962,"connected_time":1422000000000,"state":"active","ping":79},{"user_id":25,"name":"Vinny","steam_id":76561198336755046,"connected_time":1379000000000,"state":"active","ping":138},{"user_id":42,"name":"Trips","steam_id":76561198054581597,"connected_time":322000000000,"state":"active","ping":62},{"user_id":29,"name":"BIG HOG","steam_id":76561198079923652,"connected_time":1129000000000,"state":"active","ping":105},{"user_id":30,"name":"P90 Enthusiast","steam_id":76561198155176802,"connected_time":1089000000000,"state":"active","ping":166},{"user_id":37,"name":"THE NUT","steam_id":76561198067813626,"connected_time":804000000000,"state":"active","ping":47},{"user_id":40,"name":"Lamy","steam_id":76561198348354629,"connected_time":544000000000,"state":"active","ping":64},{"user_id":35,"name":"SgtMaj Soggy Titties","steam_id":76561198067732216,"connected_time":937000000000,"state":"active","ping":90}]},{"server_id":119,"name":"Uncletopia | Seattle | 2 | All Maps","name_short":"sea-2","host":"sea-1.us.uncletopia.com","port":27025,"enabled":true,"region":"us-west","cc":"us","latitude":47.608013,"longitude":-122.33517,"reserved":0,"last_update":"0001-01-01T00:00:00Z","name_a2s":"Uncletopia | Seattle | 2 | All Maps","protocol":17,"map":"pl_upward","folder":"tf","game":"Team Fortress","app_id":440,"player_count":0,"max_players":24,"Bots":0,"server_type":"Dedicated","server_os":"Linux","password":true,"vac":true,"version":"7757534","steam_id":85568392924469998,"keywords":["nocrits","nodmgspread","payload","uncletopia"],"game_id":440,"stv_port":27026,"stv_name":"Uncletopia | Seattle | 2 | All Maps | STV","players":null},{"server_id":406,"name":"Uncletopia | Seattle | 3 | Stopwatch Beta","name_short":"sea-3","host":"sea-1.us.uncletopia.com","port":27035,"enabled":true,"region":"us-west","cc":"us","latitude":47.608013,"longitude":-122.33517,"reserved":0,"last_update":"0001-01-01T00:00:00Z","name_a2s":"Uncletopia | Seattle | 3 | Stopwatch Beta","protocol":17,"map":"cp_process_final","folder":"tf","game":"Team Fortress","app_id":440,"player_count":0,"max_players":24,"Bots":0,"server_type":"Dedicated","server_os":"Linux","password":true,"vac":true,"version":"7757534","steam_id":85568392924515217,"keywords":["cp","nocrits","nodmgspread","uncletopia"],"game_id":440,"stv_port":27036,"stv_name":"Uncletopia | Seattle | 3 | Stopwatch Beta | STV","players":null},{"server_id":17,"name":"Uncletopia | San Francisco | 1 | All Maps","name_short":"sfo-1","host":"sfo-1.us.uncletopia.com","port":27015,"enabled":true,"region":"us-west","cc":"us","latitude":37.77397,"longitude":-122.4313,"reserved":0,"last_update":"0001-01-01T00:00:00Z","name_a2s":"Uncletopia | San Francisco | 1 | All Maps","protocol":17,"map":"pl_upward","folder":"tf","game":"Team Fortress","app_id":440,"player_count":0,"max_players":24,"Bots":0,"server_type":"Dedicated","server_os":"Linux","password":true,"vac":true,"version":"7757534","steam_id":85568392924469999,"keywords":["nocrits","nodmgspread","payload","uncletopia"],"game_id":440,"stv_port":27016,"stv_name":"Uncletopia | San Francisco | 1 | All Maps | STV","players":null},{"server_id":18,"name":"Uncletopia | San Francisco | 2 | All Maps","name_short":"sfo-2","host":"sfo-1.us.uncletopia.com","port":27025,"enabled":true,"region":"us-west","cc":"us","latitude":37.77397,"longitude":-122.4313,"reserved":0,"last_update":"0001-01-01T00:00:00Z","name_a2s":"Uncletopia | San Francisco | 2 | All Maps","protocol":17,"map":"koth_viaduct","folder":"tf","game":"Team Fortress","app_id":440,"player_count":0,"max_players":24,"Bots":0,"server_type":"Dedicated","server_os":"Linux","password":true,"vac":true,"version":"7757534","steam_id":85568392924470000,"keywords":["cp","nocrits","nodmgspread","uncletopia"],"game_id":440,"stv_port":27026,"stv_name":"Uncletopia | San Francisco | 2 | All Maps | STV","players":null},{"server_id":19,"name":"Uncletopia | San Francisco | 3 | Stopwatch Beta","name_short":"sfo-3","host":"sfo-1.us.uncletopia.com","port":27035,"enabled":true,"region":"us-west","cc":"us","latitude":37.77397,"longitude":-122.4313,"reserved":0,"last_update":"0001-01-01T00:00:00Z","name_a2s":"Uncletopia | San Francisco | 3 | Stopwatch Beta","protocol":17,"map":"cp_snakewater_final1","folder":"tf","game":"Team Fortress","app_id":440,"player_count":0,"max_players":24,"Bots":0,"server_type":"Dedicated","server_os":"Linux","password":true,"vac":true,"version":"7757534","steam_id":85568392924742824,"keywords":["cp","nocrits","nodmgspread","uncletopia"],"game_id":440,"stv_port":27036,"stv_name":"Uncletopia | San Francisco | 3 | Stopwatch Beta | STV","players":null},{"server_id":20,"name":"Uncletopia | San Francisco | 4 | Community","name_short":"sfo-4","host":"sfo-1.us.uncletopia.com","port":27045,"enabled":true,"region":"us-west","cc":"us","latitude":37.77397,"longitude":-122.4313,"reserved":0,"last_update":"0001-01-01T00:00:00Z","name_a2s":"Uncletopia | San Francisco | 4 | Community","protocol":17,"map":"pl_frontier_final","folder":"tf","game":"Team Fortress","app_id":440,"player_count":0,"max_players":24,"Bots":0,"server_type":"Dedicated","server_os":"Linux","password":true,"vac":true,"version":"7757534","steam_id":85568392924742826,"keywords":["nocrits","nodmgspread","payload","uncletopia"],"game_id":440,"stv_port":27046,"stv_name":"Uncletopia | San Francisco | 4 | Community | STV","players":null},{"server_id":141,"name":"Uncletopia | Sydney | 1 | All Maps","name_short":"syd-1","host":"syd-1.au.uncletopia.com","port":27015,"enabled":true,"region":"au","cc":"au","latitude":-33.865143,"longitude":151.2099,"reserved":0,"last_update":"0001-01-01T00:00:00Z","name_a2s":"Uncletopia | Sydney | 1 | All Maps","protocol":17,"map":"pl_frontier_final","folder":"tf","game":"Team Fortress","app_id":440,"player_count":0,"max_players":24,"Bots":0,"server_type":"Dedicated","server_os":"Linux","password":true,"vac":true,"version":"7757534","steam_id":85568392924470001,"keywords":["nocrits","nodmgspread","payload","uncletopia"],"game_id":440,"stv_port":27016,"stv_name":"Uncletopia | Sydney | 1 | All Maps | STV","players":null},{"server_id":123,"name":"Uncletopia | Sydney | 2 | All Maps","name_short":"syd-2","host":"syd-1.au.uncletopia.com","port":27025,"enabled":true,"region":"au","cc":"au","latitude":-33.865143,"longitude":151.2099,"reserved":0,"last_update":"0001-01-01T00:00:00Z","name_a2s":"Uncletopia | Sydney | 2 | All Maps","protocol":17,"map":"pl_barnblitz","folder":"tf","game":"Team Fortress","app_id":440,"player_count":23,"max_players":24,"Bots":0,"server_type":"Dedicated","server_os":"Linux","password":true,"vac":true,"version":"7757534","steam_id":85568392924470002,"keywords":["nocrits","nodmgspread","payload","uncletopia"],"game_id":440,"stv_port":27026,"stv_name":"Uncletopia | Sydney | 2 | All Maps | STV","players":[{"user_id":971,"name":"DÄNK D0PER$ØN","steam_id":76561198127257666,"connected_time":1203000000000,"state":"active","ping":57},{"user_id":933,"name":"soupy","steam_id":76561198073734936,"connected_time":3399000000000,"state":"active","ping":89},{"user_id":960,"name":"holy matrimony enjoyer","steam_id":76561198315774295,"connected_time":1870000000000,"state":"active","ping":63},{"user_id":934,"name":"dumbvent","steam_id":76561198190062810,"connected_time":3387000000000,"state":"active","ping":65},{"user_id":940,"name":"Branko","steam_id":76561199262196710,"connected_time":2984000000000,"state":"active","ping":40},{"user_id":966,"name":"ben","steam_id":76561198223331996,"connected_time":1347000000000,"state":"active","ping":64},{"user_id":965,"name":"saudi ambassador messi","steam_id":76561198031293430,"connected_time":1464000000000,"state":"active","ping":85},{"user_id":962,"name":"᲼᲼","steam_id":76561199044857303,"connected_time":1779000000000,"state":"active","ping":69},{"user_id":738,"name":"Empr","steam_id":76561198024387396,"connected_time":4874000000000,"state":"active","ping":61},{"user_id":967,"name":"jcoll444","steam_id":76561198143025380,"connected_time":1309000000000,"state":"active","ping":52},{"user_id":968,"name":"mmm","steam_id":76561198151416348,"connected_time":1304000000000,"state":"active","ping":62},{"user_id":526,"name":"old chunk of coal","steam_id":76561197990537324,"connected_time":5571000000000,"state":"active","ping":103},{"user_id":969,"name":"i\u003c3dabs","steam_id":76561198088648487,"connected_time":1299000000000,"state":"active","ping":64},{"user_id":953,"name":"medium weight shotgun guy","steam_id":76561199057568663,"connected_time":2578000000000,"state":"active","ping":59},{"user_id":973,"name":"Bork Pelly","steam_id":76561198157250318,"connected_time":657000000000,"state":"active","ping":60},{"user_id":935,"name":"dungle","steam_id":76561199113431531,"connected_time":3373000000000,"state":"active","ping":106},{"user_id":524,"name":"Pandora","steam_id":76561198096031453,"connected_time":5590000000000,"state":"active","ping":100},{"user_id":943,"name":"FrontlineNinja","steam_id":76561198046731954,"connected_time":2864000000000,"state":"active","ping":55},{"user_id":956,"name":"The Fesh Pince Of Blair","steam_id":76561198124442611,"connected_time":2491000000000,"state":"active","ping":80},{"user_id":972,"name":"Twink-182","steam_id":76561198090088613,"connected_time":1144000000000,"state":"active","ping":99},{"user_id":528,"name":"Bay Goy","steam_id":76561197989541221,"connected_time":5537000000000,"state":"active","ping":63},{"user_id":539,"name":"Usurper","steam_id":76561198008432357,"connected_time":5298000000000,"state":"active","ping":61},{"user_id":541,"name":"stinkysocksweat","steam_id":76561199005935911,"connected_time":5281000000000,"state":"active","ping":100}]},{"server_id":395,"name":"Uncletopia | Sydney | 3 | All Maps","name_short":"syd-3","host":"syd-1.au.uncletopia.com","port":27035,"enabled":true,"region":"au","cc":"au","latitude":-33.865143,"longitude":151.2099,"reserved":0,"last_update":"0001-01-01T00:00:00Z","name_a2s":"Uncletopia | Sydney | 3 | All Maps","protocol":17,"map":"koth_lakeside_final","folder":"tf","game":"Team Fortress","app_id":440,"player_count":0,"max_players":24,"Bots":0,"server_type":"Dedicated","server_os":"Linux","password":true,"vac":true,"version":"7757534","steam_id":85568392925194467,"keywords":["cp","nocrits","nodmgspread","uncletopia"],"game_id":440,"stv_port":27036,"stv_name":"Uncletopia | Sydney | 3 | All Maps | STV","players":null},{"server_id":396,"name":"Uncletopia | Sydney | 4 | All Maps","name_short":"syd-4","host":"syd-1.au.uncletopia.com","port":27045,"enabled":true,"region":"au","cc":"au","latitude":-33.865143,"longitude":151.2099,"reserved":0,"last_update":"0001-01-01T00:00:00Z","name_a2s":"Uncletopia | Sydney | 4 | All Maps","protocol":17,"map":"koth_viaduct","folder":"tf","game":"Team Fortress","app_id":440,"player_count":0,"max_players":24,"Bots":0,"server_type":"Dedicated","server_os":"Linux","password":true,"vac":true,"version":"7757534","steam_id":85568392925397958,"keywords":["cp","nocrits","nodmgspread","uncletopia"],"game_id":440,"stv_port":27046,"stv_name":"Uncletopia | Sydney | 4 | All Maps | STV","players":null},{"server_id":58,"name":"Uncletopia | Sydney | 5 | Stopwatch Beta","name_short":"syd-5","host":"syd-1.au.uncletopia.com","port":27055,"enabled":true,"region":"au","cc":"au","latitude":-33.865143,"longitude":151.2099,"reserved":0,"last_update":"0001-01-01T00:00:00Z","name_a2s":"Uncletopia | Sydney | 5 | Stopwatch Beta","protocol":17,"map":"koth_cascade","folder":"tf","game":"Team Fortress","app_id":440,"player_count":0,"max_players":24,"Bots":0,"server_type":"Dedicated","server_os":"Linux","password":true,"vac":true,"version":"7757534","steam_id":85568392925397959,"keywords":["cp","nocrits","nodmgspread","uncletopia"],"game_id":440,"stv_port":27056,"stv_name":"Uncletopia | Sydney | 5 | Stopwatch Beta | STV","players":null},{"server_id":59,"name":"Uncletopia | Sydney | 6 | Community","name_short":"syd-6","host":"syd-1.au.uncletopia.com","port":27065,"enabled":true,"region":"au","cc":"au","latitude":-33.865143,"longitude":151.2099,"reserved":0,"last_update":"0001-01-01T00:00:00Z","name_a2s":"Uncletopia | Sydney | 6 | Community","protocol":17,"map":"workshop/cp_glassworks_rc6a.ugc454118349","folder":"tf","game":"Team Fortress","app_id":440,"player_count":0,"max_players":24,"Bots":0,"server_type":"Dedicated","server_os":"Linux","password":true,"vac":true,"version":"7757534","steam_id":85568392925397960,"keywords":["cp","nocrits","nodmgspread","uncletopia"],"game_id":440,"stv_port":27066,"stv_name":"Uncletopia | Sydney | 6 | Community | STV","players":null},{"server_id":49,"name":"Uncletopia | Warsaw | 1 | All Maps","name_short":"waw-1","host":"waw-1.pl.uncletopia.com","port":27015,"enabled":true,"region":"eu","cc":"pl","latitude":52.2297,"longitude":21.017532,"reserved":0,"last_update":"0001-01-01T00:00:00Z","name_a2s":"","protocol":0,"map":"","folder":"","game":"","app_id":0,"player_count":0,"max_players":0,"Bots":0,"server_type":"","server_os":"","password":false,"vac":false,"version":"","steam_id":0,"keywords":null,"game_id":0,"stv_port":0,"stv_name":"","players":null},{"server_id":50,"name":"Uncletopia | Warsaw | 2 | All Maps","name_short":"waw-2","host":"waw-1.pl.uncletopia.com","port":27025,"enabled":true,"region":"eu","cc":"pl","latitude":52.2297,"longitude":21.017532,"reserved":0,"last_update":"0001-01-01T00:00:00Z","name_a2s":"Uncletopia | Warsaw | 2 | All Maps","protocol":17,"map":"koth_cascade","folder":"tf","game":"Team Fortress","app_id":440,"player_count":5,"max_players":24,"Bots":0,"server_type":"Dedicated","server_os":"Linux","password":true,"vac":true,"version":"7757534","steam_id":85568392925397851,"keywords":["cp","nocrits","nodmgspread","uncletopia"],"game_id":440,"stv_port":27026,"stv_name":"Uncletopia | Warsaw | 2 | All Maps | STV","players":[{"user_id":4,"name":"Truegr","steam_id":76561198811912339,"connected_time":2741000000000,"state":"active","ping":85},{"user_id":5,"name":"MarkBV","steam_id":76561198427014506,"connected_time":2500000000000,"state":"active","ping":135},{"user_id":6,"name":"Mandele","steam_id":76561199183213205,"connected_time":995000000000,"state":"active","ping":103},{"user_id":7,"name":"Vashontrash99","steam_id":76561199250946319,"connected_time":936000000000,"state":"active","ping":134},{"user_id":9,"name":"Lordware","steam_id":76561198022011299,"connected_time":93000000000,"state":"active","ping":88}]},{"server_id":51,"name":"Uncletopia | Warsaw | 3 | All Maps","name_short":"waw-3","host":"waw-1.pl.uncletopia.com","port":27035,"enabled":true,"region":"eu","cc":"pl","latitude":52.2297,"longitude":21.017532,"reserved":0,"last_update":"0001-01-01T00:00:00Z","name_a2s":"Uncletopia | Warsaw | 3 | All Maps","protocol":17,"map":"pl_barnblitz","folder":"tf","game":"Team Fortress","app_id":440,"player_count":0,"max_players":24,"Bots":0,"server_type":"Dedicated","server_os":"Linux","password":true,"vac":true,"version":"7757534","steam_id":85568392925397852,"keywords":["nocrits","nodmgspread","payload","uncletopia"],"game_id":440,"stv_port":27036,"stv_name":"Uncletopia | Warsaw | 3 | All Maps | STV","players":null},{"server_id":52,"name":"Uncletopia | Warsaw | 4 | All Maps","name_short":"waw-4","host":"waw-1.pl.uncletopia.com","port":27045,"enabled":true,"region":"eu","cc":"pl","latitude":52.2297,"longitude":21.017532,"reserved":0,"last_update":"0001-01-01T00:00:00Z","name_a2s":"Uncletopia | Warsaw | 4 | All Maps","protocol":17,"map":"cp_process_final","folder":"tf","game":"Team Fortress","app_id":440,"player_count":0,"max_players":24,"Bots":0,"server_type":"Dedicated","server_os":"Linux","password":true,"vac":true,"version":"7757534","steam_id":85568392925397853,"keywords":["cp","nocrits","nodmgspread","uncletopia"],"game_id":440,"stv_port":27046,"stv_name":"Uncletopia | Warsaw | 4 | All Maps | STV","players":null},{"server_id":53,"name":"Uncletopia | Warsaw | 5 | Stopwatch Beta","name_short":"waw-5","host":"waw-1.pl.uncletopia.com","port":27055,"enabled":true,"region":"eu","cc":"pl","latitude":52.2297,"longitude":21.017532,"reserved":0,"last_update":"0001-01-01T00:00:00Z","name_a2s":"Uncletopia | Warsaw | 5 | Stopwatch Beta","protocol":17,"map":"pl_pier","folder":"tf","game":"Team Fortress","app_id":440,"player_count":0,"max_players":24,"Bots":0,"server_type":"Dedicated","server_os":"Linux","password":true,"vac":true,"version":"7757534","steam_id":85568392925397854,"keywords":["nocrits","nodmgspread","payload","uncletopia"],"game_id":440,"stv_port":27056,"stv_name":"Uncletopia | Warsaw | 5 | Stopwatch Beta | STV","players":null},{"server_id":54,"name":"Uncletopia | Warsaw | 6 | Community","name_short":"waw-6","host":"waw-1.pl.uncletopia.com","port":27065,"enabled":true,"region":"eu","cc":"pl","latitude":52.2297,"longitude":21.017532,"reserved":0,"last_update":"0001-01-01T00:00:00Z","name_a2s":"Uncletopia | Warsaw | 6 | Community","protocol":17,"map":"koth_highpass","folder":"tf","game":"Team Fortress","app_id":440,"player_count":0,"max_players":24,"Bots":0,"server_type":"Dedicated","server_os":"Linux","password":true,"vac":true,"version":"7757534","steam_id":85568392925397856,"keywords":["cp","nocrits","nodmgspread","uncletopia"],"game_id":440,"stv_port":27066,"stv_name":"Uncletopia | Warsaw | 6 | Community | STV","players":null}]}