{"status":true,"message":"","result":[{"server_id":9,"name":"Uncletopia | Atlanta | 1 | All Maps","name_short":"atl-1","host":"atl-1.us.uncletopia.com","port":27015,"enabled":true,"region":"us-east","cc":"us","latitude":33.753746,"longitude":-84.38633,"reserved":0,"last_update":"0001-01-01T00:00:00Z","name_a2s":"Uncletopia | Atlanta | 1 | All Maps","protocol":17,"map":"koth_harvest_final","folder":"tf","game":"Team Fortress","app_id":440,"player_count":23,"max_players":24,"Bots":0,"server_type":"Dedicated","server_os":"Linux","password":true,"vac":true,"version":"7757534","steam_id":85568392924469982,"keywords":["cp","nocrits","nodmgspread","uncletopia"],"game_id":440,"stv_port":27016,"stv_name":"Uncletopia | Atlanta | 1 | All Maps | STV","players":[{"user_id":152,"name":"bonk","steam_id":76561198115269587,"connected_time":911000000000,"state":"active","ping":47},{"user_id":118,"name":"Bandicario","steam_id":76561198432036026,"connected_time":3166000000000,"state":"active","ping":49},{"user_id":157,"name":"DFR Le4n!!!","steam_id":76561198045522596,"connected_time":193000000000,"state":"active","ping":60},{"user_id":156,"name":"scrapheap","steam_id":76561198202407087,"connected_time":701000000000,"state":"active","ping":99},{"user_id":148,"name":"ATL1 | ma0re","steam_id":76561199231971506,"connected_time":1211000000000,"state":"active","ping":63},{"user_id":137,"name":"ATL1 | icyy","steam_id":76561198968001329,"connected_time":2348000000000,"state":"active","ping":45},{"user_id":159,"name":"lestagio","steam_id":76561199040214135,"connected_time":95000000000,"state":"active","ping":82},{"user_id":89,"name":"Mad Cow※","steam_id":76561198132498594,"connected_time":6496000000000,"state":"active","ping":65},{"user_id":126,"name":"Shrep","steam_id":76561198127341481,"connected_time":2711000000000,"state":"active","ping":89},{"user_id":124,"name":"Stampdawg","steam_id":76561198050500060,"connected_time":2761000000000,"state":"active","ping":76},{"user_id":149,"name":"squaggles!","steam_id":76561197994995011,"connected_time":926000000000,"state":"active","ping":30},{"user_id":151,"name":"Veilos","steam_id":76561198071897172,"connected_time":916000000000,"state":"active","ping":80},{"user_id":136,"name":"Nodspine","steam_id":76561198253579994,"connected_time":2456000000000,"state":"active","ping":109},{"user_id":153,"name":"garfield","steam_id":76561199082902507,"connected_time":909000000000,"state":"active","ping":50},{"user_id":114,"name":"SomeScuffedKid","steam_id":76561198086113234,"connected_time":3664000000000,"state":"active","ping":84},{"user_id":158,"name":"The Shiigster","steam_id":76561198919981160,"connected_time":136000000000,"state":"active","ping":63},{"user_id":82,"name":"Miramar","steam_id":76561198022057653,"connected_time":7266000000000,"state":"active","ping":79},{"user_id":155,"name":"beethan","steam_id":76561198148199120,"connected_time":851000000000,"state":"active","ping":80},{"user_id":120,"name":"Gimpy","steam_id":76561198981867692,"connected_time":3075000000000,"state":"active","ping":68},{"user_id":123,"name":"ATL1 | Lancer Fan Club","steam_id":76561198355495948,"connected_time":2790000000000,"state":"active","ping":77},{"user_id":131,"name":"Summer","steam_id":76561198121692871,"connected_time":2663000000000,"state":"active","ping":71},{"user_id":143,"name":"Daisy ❋","steam_id":76561198042144492,"connected_time":1631000000000,"state":"active","ping":53},{"user_id":146,"name":"Dark-Warden","steam_id":76561198838757422,"connected_time":1593000000000,"state":"active","ping":75}]},{"server_id":400,"name":"Uncletopia | Atlanta | 3 | Stopwatch Beta","name_short":"atl-3","host":"atl-1.us.uncletopia.com","port":27035,"enabled":true,"region":"us-east","cc":"us","latitude":33.753746,"longitude":-84.38633,"reserved":0,"last_update":"0001-01-01T00:00:00Z","name_a2s":"Uncletopia | Atlanta | 3 | Stopwatch Beta","protocol":17,"map":"pl_upward","folder":"tf","game":"Team Fortress","app_id":440,"player_count":0,"max_players":24,"Bots":0,"server_type":"Dedicated","server_os":"Linux","password":true,"vac":true,"version":"7757534","steam_id":85568392924515187,"keywords":["nocrits","nodmgspread","payload","uncletopia"],"game_id":440,"stv_port":27036,"stv_name":"Uncletopia | Atlanta | 3 | Stopwatch Beta | STV","players":null},{"server_id":401,"name":"Uncletopia | Atlanta | 4 | No Payload","name_short":"atl-4","host":"atl-1.us.uncletopia.com","port":27045,"enabled":true,"region":"us-east","cc":"us","latitude":33.753746,"longitude":-84.38633,"reserved":0,"last_update":"0001-01-01T00:00:00Z","name_a2s":"Uncletopia | Atlanta | 4 | No Payload","protocol":17,"map":"pl_pier","folder":"tf","game":"Team Fortress","app_id":440,"player_count":0,"max_players":24,"Bots":0,"server_type":"Dedicated","server_os":"Linux","password":true,"vac":true,"version":"7723704","steam_id":85568392924515188,"keywords":["nocrits","nodmgspread","payload","uncletopia"],"game_id":440,"stv_port":27046,"stv_name":"Uncletopia | Atlanta | 4 | No Payload | STV","players":null},{"server_id":2,"name":"Uncletopia | Chicago | 1 | All Maps","name_short":"chi-1","host":"chi-1.us.uncletopia.com","port":27015,"enabled":true,"region":"us-central","cc":"us","latitude":41.881832,"longitude":-87.62318,"reserved":0,"last_update":"0001-01-01T00:00:00Z","name_a2s":"Uncletopia | Chicago | 1 | All Maps","protocol":17,"map":"pl_badwater","folder":"tf","game":"Team Fortress","app_id":440,"player_count":24,"max_players":24,"Bots":0,"server_type":"Dedicated","server_os":"Linux","password":true,"vac":true,"version":"7757534","steam_id":85568392924469984,"keywords":["nocrits","nodmgspread","payload","uncletopia"],"game_id":440,"stv_port":27016,"stv_name":"Uncletopia | Chicago | 1 | All Maps | STV","players":[{"user_id":250,"name":"Nolan","steam_id":76561198169648081,"connected_time":2436000000000,"state":"active","ping":97},{"user_id":280,"name":"Epicus Lusor","steam_id":76561198271981088,"connected_time":126000000000,"state":"spawning","ping":69},{"user_id":258,"name":"Banes","steam_id":76561198083485876,"connected_time":2097000000000,"state":"active","ping":84},{"user_id":261,"name":"Swaggeroth","steam_id":76561198170353885,"connected_time":2068000000000,"state":"active","ping":79},{"user_id":251,"name":"Qball","steam_id":76561198179016466,"connected_time":2206000000000,"state":"active","ping":75},{"user_id":273,"name":"TrashDargon","steam_id":76561198423900560,"connected_time":1092000000000,"state":"active","ping":48},{"user_id":282,"name":"FELHEEE","steam_id":76561197987151150,"connected_time":31000000000,"state":"active","ping":178},{"user_id":275,"name":"OneBrickMan","steam_id":76561198335262877,"connected_time":647000000000,"state":"active","ping":95},{"user_id":262,"name":"YourFriendJessie #savetf2","steam_id":76561198176883097,"connected_time":2055000000000,"state":"active","ping":57},{"user_id":263,"name":"TeeTree","steam_id":76561198862307874,"connected_time":2027000000000,"state":"active","ping":60},{"user_id":277,"name":"Craig Isonychia","steam_id":76561198272013678,"connected_time":427000000000,"state":"active","ping":71},{"user_id":264,"name":"Platinum","steam_id":76561198052463484,"connected_time":2025000000000,"state":"active","ping":106},{"user_id":283,"name":"Bdresser","steam_id":76561198283663543,"connected_time":24000000000,"state":"active","ping":83},{"user_id":267,"name":"Bobbn","steam_id":76561198876124683,"connected_time":1941000000000,"state":"active","ping":75},{"user_id":274,"name":"♥ Femboy♥Ventily ♥","steam_id":76561198157260335,"connected_time":1029000000000,"state":"active","ping":59},{"user_id":268,"name":"MEDIC!","steam_id":76561198149344029,"connected_time":1913000000000,"state":"active","ping":64},{"user_id":254,"name":"Pancreas Enjoyer","steam_id":76561199438598904,"connected_time":2160000000000,"state":"active","ping":95},{"user_id":281,"name":"FieryRainbowDog","steam_id":76561199047810065,"connected_time":112000000000,"state":"active","ping":66},{"user_id":170,"name":"the deadliest pyroshark","steam_id":76561198374227766,"connected_time":8297000000000,"state":"active","ping":71},{"user_id":278,"name":"48","steam_id":76561198156422760,"connected_time":426000000000,"state":"active","ping":56},{"user_id":234,"name":"DrD","steam_id":76561198067266383,"connected_time":3801000000000,"state":"active","ping":84},{"user_id":256,"name":"Lawlessbacon","steam_id":76561198829997780,"connected_time":2125000000000,"state":"active","ping":81},{"user_id":279,"name":"IAmAProfesonal","steam_id":76561199171858953,"connected_time":390000000000,"state":"active","ping":48},{"user_id":205,"name":"snail","steam_id":76561198312155722,"connected_time":5778000000000,"state":"active","ping":174}]},{"server_id":106,"name":"Uncletopia | Chicago | 2 | All Maps","name_short":"chi-2","host":"chi-1.us.uncletopia.com","port":27025,"enabled":true,"region":"us-central","cc":"us","latitude":41.881832,"longitude":-87.62318,"reserved":0,"last_update":"0001-01-01T00:00:00Z","name_a2s":"Uncletopia | Chicago | 2 | All Maps","protocol":17,"map":"pl_barnblitz","folder":"tf","game":"Team Fortress","app_id":440,"player_count":24,"max_players":24,"Bots":0,"server_type":"Dedicated","server_os":"Linux","password":true,"vac":true,"version":"7757534","steam_id":85568392924469985,"keywords":["nocrits","nodmgspread","payload","uncletopia"],"game_id":440,"stv_port":27026,"stv_name":"Uncletopia | Chicago | 2 | All Maps | STV","players":[{"user_id":324,"name":"THRILLHO","steam_id":76561198371663047,"connected_time":341000000000,"state":"active","ping":63},{"user_id":307,"name":"TheElderFrog","steam_id":76561197985743135,"connected_time":2042000000000,"state":"active","ping":79},{"user_id":317,"name":"DreamKiller","steam_id":76561198028580715,"connected_time":504000000000,"state":"active","ping":95},{"user_id":321,"name":"mah dood","steam_id":76561198970102360,"connected_time":463000000000,"state":"active","ping":156},{"user_id":299,"name":"golem","steam_id":76561198355040593,"connected_time":2721000000000,"state":"active","ping":70},{"user_id":280,"name":"177013","steam_id":76561198072303290,"connected_time":4217000000000,"state":"active","ping":62},{"user_id":300,"name":"Clean Lines","steam_id":76561197960691518,"connected_time":2696000000000,"state":"active","ping":52},{"user_id":288,"name":"OddSlaush","steam_id":76561198043898488,"connected_time":3622000000000,"state":"active","ping":105},{"user_id":322,"name":"extinct111","steam_id":76561199013696367,"connected_time":361000000000,"state":"active","ping":63},{"user_id":323,"name":"N8","steam_id":76561198077788860,"connected_time":356000000000,"state":"active","ping":68},{"user_id":258,"name":"marcus tillius","steam_id":76561197982832274,"connected_time":6522000000000,"state":"active","ping":46},{"user_id":292,"name":"Bart Harley Jarvis","steam_id":76561199215811448,"connected_time":3415000000000,"state":"active","ping":67},{"user_id":257,"name":"peniblor","steam_id":76561198307923786,"connected_time":6560000000000,"state":"active","ping":141},{"user_id":83,"name":"Ojen","steam_id":76561197998414482,"connected_time":20921000000000,"state":"active","ping":72},{"user_id":332,"name":"jeremy elbertson","steam_id":76561198044420428,"connected_time":236000000000,"state":"active","ping":60},{"user_id":326,"name":"Flankster177","steam_id":76561198093129252,"connected_time":317000000000,"state":"active","ping":71},{"user_id":331,"name":"Tyrone","steam_id":76561198189429665,"connected_time":246000000000,"state":"active","ping":73},{"user_id":293,"name":"BillButtLicker69","steam_id":76561198070119268,"connected_time":3406000000000,"state":"active","ping":108},{"user_id":311,"name":"real trucks","steam_id":76561198233984300,"connected_time":1584000000000,"state":"active","ping":46},{"user_id":328,"name":"Spongebob","steam_id":76561198111975583,"connected_time":298000000000,"state":"active","ping":71},{"user_id":329,"name":"[Deep]GooeyGapedGrannys","steam_id":76561198089731303,"connected_time":295000000000,"state":"active","ping":69},{"user_id":297,"name":"Gas Station Pastry","steam_id":76561198093937585,"connected_time":3171000000000,"state":"active","ping":73},{"user_id":308,"name":"Juanelo","steam_id":76561199096390505,"connected_time":2037000000000,"state":"active","ping":82},{"user_id":315,"name":"he suckin on my rick til i mort","steam_id":76561198310711692,"connected_time":1150000000000,"state":"active","ping":164}]},{"server_id":402,"name":"Uncletopia | Chicago | 3 | All Maps","name_short":"chi-3","host":"chi-1.us.uncletopia.com","port":27035,"enabled":true,"region":"us-central","cc":"us","latitude":41.881832,"longitude":-87.62318,"reserved":0,"last_update":"0001-01-01T00:00:00Z","name_a2s":"Uncletopia | Chicago | 3 | All Maps","protocol":17,"map":"pl_swiftwater_final1","folder":"tf","game":"Team Fortress","app_id":440,"player_count":23,"max_players":24,"Bots":0,"server_type":"Dedicated","server_os":"Linux","password":true,"vac":true,"version":"7757534","steam_id":85568392924515191,"keywords":["nocrits","nodmgspread","payload","uncletopia"],"game_id":440,"stv_port":27036,"stv_name":"Uncletopia | Chicago | 3 | All Maps | STV","players":[{"user_id":131,"name":"♦♣Quadric♥♠","steam_id":76561198061003853,"connected_time":695000000000,"state":"active","ping":70},{"user_id":101,"name":"attentiondeficit","steam_id":76561198129682583,"connected_time":2144000000000,"state":"active","ping":72},{"user_id":47,"name":"Drizzle","steam_id":76561198152143806,"connected_time":5261000000000,"state":"active","ping":52},{"user_id":140,"name":"Maid 'n' China","steam_id":76561198423392976,"connected_time":119000000000,"state":"active","ping":90},{"user_id":141,"name":"stevemarshall","steam_id":76561198405982285,"connected_time":90000000000,"state":"active","ping":44},{"user_id":91,"name":"YHH COZY","steam_id":76561198310880776,"connected_time":3309000000000,"state":"active","ping":75},{"user_id":113,"name":"Filthy Acts at Reasonable Price","steam_id":76561198354615890,"connected_time":1725000000000,"state":"active","ping":57},{"user_id":132,"name":"El Bondin","steam_id":76561198820792434,"connected_time":686000000000,"state":"active","ping":95},{"user_id":144,"name":"soas","steam_id":76561198128440470,"connected_time":15000000000,"state":"spawning","ping":65},{"user_id":99,"name":"Tony Bologna","steam_id":76561198147454271,"connected_time":2346000000000,"state":"active","ping":86},{"user_id":129,"name":"Cooldude_15","steam_id":76561198346713382,"connected_time":808000000000,"state":"active","ping":46},{"user_id":120,"name":"7 000","steam_id":76561198171951847,"connected_time":1314000000000,"state":"active","ping":62},{"user_id":138,"name":"bloard","steam_id":76561198083206034,"connected_time":411000000000,"state":"active","ping":77},{"user_id":142,"name":"Milk","steam_id":76561198004362373,"connected_time":25000000000,"state":"active","ping":58},{"user_id":137,"name":"garfield","steam_id":76561198114119308,"connected_time":477000000000,"state":"active","ping":61},{"user_id":136,"name":"Titan Tezwa","steam_id":76561198030320618,"connected_time":540000000000,"state":"active","ping":70},{"user_id":76,"name":"Fablor","steam_id":76561198175644926,"connected_time":4196000000000,"state":"active","ping":99},{"user_id":143,"name":"SKIN IS WHERE THE FLAVOR IS","steam_id":76561198115842661,"connected_time":24000000000,"state":"active","ping":86},{"user_id":95,"name":"eWVra2Vy","steam_id":76561198453565942,"connected_time":2910000000000,"state":"active","ping":83},{"user_id":104,"name":"iLeMbeck","steam_id":76561198107096129,"connected_time":2135000000000,"state":"active","ping":47},{"user_id":105,"name":"lil_loggy03","steam_id":76561198383155448,"connected_time":2130000000000,"state":"active","ping":61},{"user_id":117,"name":"Bush.exe","steam_id":76561198124385307,"connected_time":1372000000000,"state":"active","ping":64},{"user_id":106,"name":"Lost","steam_id":76561198025933206,"connected_time":2127000000000,"state":"active","ping":58}]},{"server_id":403,"name":"Uncletopia | Chicago | 4 | All Maps","name_short":"chi-4","host":"chi-1.us.uncletopia.com","port":27045,"enabled":true,"region":"us-central","cc":"us","latitude":41.881832,"longitude":-87.62318,"reserved":0,"last_update":"0001-01-01T00:00:00Z","name_a2s":"Uncletopia | Chicago | 4 | All Maps","protocol":17,"map":"pl_borneo","folder":"tf","game":"Team Fortress","app_id":440,"player_count":0,"max_players":24,"Bots":0,"server_type":"Dedicated","server_os":"Linux","password":true,"vac":true,"version":"7757534","steam_id":85568392924515193,"keywords":["nocrits","nodmgspread","payload","uncletopia"],"game_id":440,"stv_port":27046,"stv_name":"Uncletopia | Chicago | 4 | All Maps | STV","players":null},{"server_id":36,"name":"Uncletopia | Chicago | 5 | All Maps","name_short":"chi-5","host":"chi-2.us.uncletopia.com","port":27015,"enabled":true,"region":"us-central","cc":"us","latitude":41.881832,"longitude":-87.62318,"reserved":0,"last_update":"0001-01-01T00:00:00Z","name_a2s":"Uncletopia | Chicago | 5 | All Maps","protocol":17,"map":"pl_upward","folder":"tf","game":"Team Fortress","app_id":440,"player_count":22,"max_players":24,"Bots":0,"server_type":"Dedicated","server_os":"Linux","password":true,"vac":true,"version":"7757534","steam_id":85568392924866362,"keywords":["nocrits","nodmgspread","payload","uncletopia"],"game_id":440,"stv_port":27016,"stv_name":"Uncletopia | Chicago | 5 | All Maps | STV","players":[{"user_id":321,"name":"Sous-Chef","steam_id":76561198075705827,"connected_time":1153000000000,"state":"active","ping":79},{"user_id":244,"name":"Reedobad","steam_id":76561198259576490,"connected_time":5482000000000,"state":"active","ping":59},{"user_id":304,"name":"legalizme223","steam_id":76561198051698391,"connected_time":2261000000000,"state":"active","ping":65},{"user_id":308,"name":"Yayifications","steam_id":76561198066227208,"connected_time":2047000000000,"state":"active","ping":58},{"user_id":327,"name":"its me crystal","steam_id":76561198801466280,"connected_time":196000000000,"state":"active","ping":72},{"user_id":330,"name":"Chase McCain","steam_id":76561198314538469,"connected_time":17000000000,"state":"active","ping":72},{"user_id":323,"name":"Doowid","steam_id":76561198145419024,"connected_time":1132000000000,"state":"active","ping":57},{"user_id":311,"name":"deech","steam_id":76561198066429444,"connected_time":1981000000000,"state":"active","ping":64},{"user_id":331,"name":"Moodflame","steam_id":76561199079466529,"connected_time":11000000000,"state":"spawning","ping":72},{"user_id":317,"name":"Menlymen","steam_id":76561198046508051,"connected_time":1437000000000,"state":"active","ping":64},{"user_id":320,"name":"Max_Attack","steam_id":76561198944028607,"connected_time":1171000000000,"state":"active","ping":76},{"user_id":325,"name":"flexer_2000","steam_id":76561198084422657,"connected_time":552000000000,"state":"active","ping":90},{"user_id":329,"name":"-flagellum","steam_id":76561198006297974,"connected_time":31000000000,"state":"active","ping":70},{"user_id":324,"name":"no","steam_id":76561198248853140,"connected_time":571000000000,"state":"active","ping":55},{"user_id":313,"name":"polarize","steam_id":76561198039686606,"connected_time":1977000000000,"state":"active","ping":71},{"user_id":309,"name":"spheregirl","steam_id":76561198103798508,"connected_time":2046000000000,"state":"active","ping":71},{"user_id":314,"name":"nathaniel b","steam_id":76561199221690850,"connected_time":1946000000000,"state":"active","ping":94},{"user_id":272,"name":"toastman","steam_id":76561198207073088,"connected_time":3529000000000,"state":"active","ping":76},{"user_id":328,"name":"Wso1123","steam_id":76561198048040111,"connected_time":175000000000,"state":"active","ping":65},{"user_id":306,"name":"Slashes","steam_id":76561197968573499,"connected_time":2240000000000,"state":"active","ping":54},{"user_id":307,"name":"skipper","steam_id":76561198395965181,"connected_time":2202000000000,"state":"active","ping":65},{"user_id":224,"name":"Zeora","steam_id":76561198799145251,"connected_time":7373000000000,"state":"active","ping":71}]},{"server_id":37,"name":"Uncletopia | Chicago | 6 | All Maps","name_short":"chi-6","host":"chi-2.us.uncletopia.com","port":27025,"enabled":true,"region":"us-central","cc":"us","latitude":41.881832,"longitude":-87.62318,"reserved":0,"last_update":"0001-01-01T00:00:00Z","name_a2s":"Uncletopia | Chicago | 6 | All Maps","protocol":17,"map":"pl_borneo","folder":"tf","game":"Team Fortress","app_id":440,"player_count":24,"max_players":24,"Bots":0,"server_type":"Dedicated","server_os":"Linux","password":true,"vac":true,"version":"7757534","steam_id":85568392924866363,"keywords":["nocrits","nodmgspread","payload","uncletopia"],"game_id":440,"stv_port":27026,"stv_name":"Uncletopia | Chicago | 6 | All Maps | STV","players":[{"user_id":210,"name":"Owl Pacino","steam_id":76561197979970666,"connected_time":1410000000000,"state":"active","ping":59},{"user_id":193,"name":"M249 | Spectre","steam_id":76561198118334485,"connected_time":2535000000000,"state":"active","ping":77},{"user_id":223,"name":"Lord GabeN","steam_id":76561198140862723,"connected_time":776000000000,"state":"active","ping":66},{"user_id":224,"name":"SomeFuckingGuy","steam_id":76561199239165015,"connected_time":497000000000,"state":"active","ping":81},{"user_id":226,"name":"Jas","steam_id":76561198250524296,"connected_time":478000000000,"state":"active","ping":61},{"user_id":184,"name":"Candy Sparkles","steam_id":76561198126871264,"connected_time":2797000000000,"state":"active","ping":83},{"user_id":211,"name":"moocub","steam_id":76561198201449709,"connected_time":1408000000000,"state":"active","ping":65},{"user_id":212,"name":"Maelstrom manipulator","steam_id":76561198838282369,"connected_time":1406000000000,"state":"active","ping":75},{"user_id":163,"name":"Kinbo2487","steam_id":76561198184714198,"connected_time":4667000000000,"state":"active","ping":76},{"user_id":220,"name":"rice white","steam_id":76561198320732910,"connected_time":895000000000,"state":"active","ping":79},{"user_id":172,"name":"Bri","steam_id":76561198089908485,"connected_time":4320000000000,"state":"active","ping":105},{"user_id":229,"name":"goopgrabber","steam_id":76561199029951083,"connected_time":391000000000,"state":"active","ping":94},{"user_id":213,"name":"kametro4","steam_id":76561198835430429,"connected_time":1403000000000,"state":"active","ping":87},{"user_id":218,"name":"Riku","steam_id":76561198047287940,"connected_time":1073000000000,"state":"active","ping":84},{"user_id":195,"name":"Tallywyn","steam_id":76561197998572962,"connected_time":2456000000000,"state":"active","ping":68},{"user_id":203,"name":"white ray","steam_id":76561198026664629,"connected_time":1691000000000,"state":"active","ping":54},{"user_id":227,"name":"Lemur","steam_id":76561198065300466,"connected_time":476000000000,"state":"active","ping":75},{"user_id":219,"name":"El Mas Buscado","steam_id":76561198169291327,"connected_time":962000000000,"state":"active","ping":80},{"user_id":173,"name":"shellaa","steam_id":76561198044124102,"connected_time":4304000000000,"state":"active","ping":70},{"user_id":180,"name":"abomination","steam_id":76561198167974713,"connected_time":3042000000000,"state":"active","ping":74},{"user_id":228,"name":"Phat_nibba29","steam_id":76561198165661855,"connected_time":473000000000,"state":"active","ping":95},{"user_id":221,"name":"e","steam_id":76561198131245396,"connected_time":858000000000,"state":"active","ping":56},{"user_id":167,"name":"Winter the Witchie","steam_id":76561198151971178,"connected_time":4569000000000,"state":"active","ping":65},{"user_id":175,"name":"Rappitor","steam_id":76561198105613110,"connected_time":4087000000000,"state":"active","ping":67}]},{"server_id":38,"name":"Uncletopia | Chicago | 7 | Stopwatch Beta","name_short":"chi-7","host":"chi-2.us.uncletopia.com","port":27035,"enabled":true,"region":"us-central","cc":"us","latitude":41.881832,"longitude":-87.62318,"reserved":0,"last_update":"0001-01-01T00:00:00Z","name_a2s":"Uncletopia | Chicago | 7 | Stopwatch Beta","protocol":17,"map":"cp_gullywash_final1","folder":"tf","game":"Team Fortress","app_id":440,"player_count":10,"max_players":24,"Bots":0,"server_type":"Dedicated","server_os":"Linux","password":true,"vac":true,"version":"7757534","steam_id":85568392924866364,"keywords":["cp","nocrits","nodmgspread","uncletopia"],"game_id":440,"stv_port":27036,"stv_name":"Uncletopia | Chicago | 7 | Stopwatch Beta | STV","players":[{"user_id":16,"name":"Inevitable","steam_id":76561198210050169,"connected_time":678000000000,"state":"active","ping":64},{"user_id":6,"name":"Zububu","steam_id":76561198024293060,"connected_time":2233000000000,"state":"active","ping":74},{"user_id":7,"name":"The PriceMaster","steam_id":76561198034552198,"connected_time":2227000000000,"state":"active","ping":60},{"user_id":8,"name":"Ineffable","steam_id":76561198968869068,"connected_time":2221000000000,"state":"active","ping":85},{"user_id":10,"name":"mintongryphon","steam_id":76561199427146067,"connected_time":1496000000000,"state":"active","ping":74},{"user_id":19,"name":"rubb3r","steam_id":76561198096874230,"connected_time":277000000000,"state":"active","ping":69},{"user_id":21,"name":"MLG BOOTMAN","steam_id":76561198234179320,"connected_time":38000000000,"state":"active","ping":74},{"user_id":18,"name":"Porytal","steam_id":76561198306101889,"connected_time":310000000000,"state":"active","ping":99},{"user_id":20,"name":"girr","steam_id":76561198995114110,"connected_time":272000000000,"state":"active","ping":111},{"user_id":22,"name":"gremlin (real)","steam_id":76561199062414681,"connected_time":36000000000,"state":"active","ping":72}]},{"server_id":39,"name":"Uncletopia | Chicago | 8 | Community","name_short":"chi-8","host":"chi-2.us.uncletopia.com","port":27045,"enabled":true,"region":"us-central","cc":"us","latitude":41.881832,"longitude":-87.62318,"reserved":0,"last_update":"0001-01-01T00:00:00Z","name_a2s":"Uncletopia | Chicago | 8 | Community","protocol":17,"map":"workshop/koth_slaughter_rc1.ugc1712845210","folder":"tf","game":"Team Fortress","app_id":440,"player_count":0,"max_players":24,"Bots":0,"server_type":"Dedicated","server_os":"Linux","password":true,"vac":true,"version":"7757534","steam_id":85568392924866365,"keywords":["cp","nocrits","nodmgspread","uncletopia"],"game_id":440,"stv_port":27046,"stv_name":"Uncletopia | Chicago | 8 | Community | STV","players":null},{"server_id":8,"name":"Uncletopia | Dallas | 1 | All Maps","name_short":"dal-1","host":"dal-1.us.uncletopia.com","port":27015,"enabled":true,"region":"us-central","cc":"us","latitude":32.779167,"longitude":-96.80889,"reserved":0,"last_update":"0001-01-01T00:00:00Z","name_a2s":"Uncletopia | Dallas | 1 | All Maps","protocol":17,"map":"pl_swiftwater_final1","folder":"tf","game":"Team Fortress","app_id":440,"player_count":24,"max_players":24,"Bots":0,"server_type":"Dedicated","server_os":"Linux","password":true,"vac":true,"version":"7757534","steam_id":85568392924469986,"keywords":["nocrits","nodmgspread","payload","uncletopia"],"game_id":440,"stv_port":27016,"stv_name":"Uncletopia | Dallas | 1 | All Maps | STV","players":[{"user_id":343,"name":"Barack Obama Gaming","steam_id":76561198129242016,"connected_time":1072000000000,"state":"active","ping":103},{"user_id":346,"name":"INFINITE","steam_id":76561197971285557,"connected_time":979000000000,"state":"active","ping":90},{"user_id":347,"name":"The Hoagie Hero","steam_id":76561198057569298,"connected_time":976000000000,"state":"active","ping":104},{"user_id":340,"name":"Sanic (not controller gamin)","steam_id":76561198083124962,"connected_time":2482000000000,"state":"active","ping":62},{"user_id":320,"name":"Hamee333","steam_id":76561199388127663,"connected_time":3743000000000,"state":"active","ping":101},{"user_id":316,"name":"$3.99 Shrimps","steam_id":76561198077272494,"connected_time":4127000000000,"state":"active","ping":62},{"user_id":367,"name":"Warfart1","steam_id":76561197997598520,"connected_time":166000000000,"state":"active","ping":57},{"user_id":351,"name":"rawrski","steam_id":76561197972464020,"connected_time":930000000000,"state":"active","ping":91},{"user_id":355,"name":"Daz","steam_id":76561198041431938,"connected_time":868000000000,"state":"active","ping":78},{"user_id":360,"name":"plsplsplslol","steam_id":76561198868084626,"connected_time":603000000000,"state":"active","ping":85},{"user_id":366,"name":"Motorolª","steam_id":76561198358119669,"connected_time":326000000000,"state":"active","ping":125},{"user_id":81,"name":"Hooray!","steam_id":76561198136487957,"connected_time":17485000000000,"state":"active","ping":62},{"user_id":350,"name":"Sammich","steam_id":76561198010543087,"connected_time":955000000000,"state":"active","ping":82},{"user_id":337,"name":"webaline","steam_id":76561199052450127,"connected_time":3007000000000,"state":"active","ping":78},{"user_id":299,"name":"G. Howard Dee","steam_id":76561198058382812,"connected_time":5234000000000,"state":"active","ping":74},{"user_id":352,"name":"sockman","steam_id":76561198306826566,"connected_time":912000000000,"state":"active","ping":96},{"user_id":309,"name":"the meta","steam_id":76561199071495058,"connected_time":4978000000000,"state":"active","ping":89},{"user_id":353,"name":"not_sus_enough","steam_id":76561199230420800,"connected_time":905000000000,"state":"active","ping":87},{"user_id":319,"name":"Dictator Noodle","steam_id":76561198277243768,"connected_time":3871000000000,"state":"active","ping":86},{"user_id":354,"name":"RokkitFrog","steam_id":76561198046465850,"connected_time":905000000000,"state":"active","ping":50},{"user_id":368,"name":"Sup m8","steam_id":76561198081659121,"connected_time":153000000000,"state":"active","ping":57},{"user_id":363,"name":"=PB=","steam_id":76561197999146612,"connected_time":529000000000,"state":"active","ping":157},{"user_id":359,"name":"FiddyFoMike","steam_id":76561198057072581,"connected_time":697000000000,"state":"active","ping":89},{"user_id":365,"name":"Fater Steve","steam_id":76561198904684819,"connected_time":362000000000,"state":"active","ping":103}]},{"server_id":108,"name":"Uncletopia | Dallas | 2 | All Maps","name_short":"dal-2","host":"dal-1.us.uncletopia.com","port":27025,"enabled":true,"region":"us-central","cc":"us","latitude":32.779167,"longitude":-96.80889,"reserved":0,"last_update":"0001-01-01T00:00:00Z","name_a2s":"Uncletopia | Dallas | 2 | All Maps","protocol":17,"map":"pl_upward","folder":"tf","game":"Team Fortress","app_id":440,"player_count":24,"max_players":24,"Bots":0,"server_type":"Dedicated","server_os":"Linux","password":true,"vac":true,"version":"7757534","steam_id":85568392924469988,"keywords":["nocrits","nodmgspread","payload","uncletopia"],"game_id":440,"stv_port":27026,"stv_name":"Uncletopia | Dallas | 2 | All Maps | STV","players":[{"user_id":148,"name":"punkly","steam_id":76561198129831492,"connected_time":1462000000000,"state":"active","ping":48},{"user_id":149,"name":"AugustusLove","steam_id":76561198004785839,"connected_time":1411000000000,"state":"active","ping":76},{"user_id":107,"name":"EggsAndBacon","steam_id":76561198031789082,"connected_time":3786000000000,"state":"active","ping":85},{"user_id":95,"name":"sock","steam_id":76561199117597830,"connected_time":4062000000000,"state":"active","ping":55},{"user_id":142,"name":"Anon","steam_id":76561198109740776,"connected_time":2016000000000,"state":"active","ping":94},{"user_id":158,"name":"SonicTheHedgehogEpicGamer2013","steam_id":76561199229577594,"connected_time":1033000000000,"state":"active","ping":92},{"user_id":143,"name":"pelican","steam_id":76561199144340440,"connected_time":2013000000000,"state":"active","ping":58},{"user_id":110,"name":"Rhutebeer","steam_id":76561198018302761,"connected_time":3589000000000,"state":"active","ping":77},{"user_id":102,"name":"Lord Scrubling","steam_id":76561198263744445,"connected_time":3890000000000,"state":"active","ping":47},{"user_id":155,"name":"conscripted monk","steam_id":76561199029246232,"connected_time":1080000000000,"state":"active","ping":46},{"user_id":111,"name":"[LINUX] Purple Penguin Pybro","steam_id":76561198093538786,"connected_time":3570000000000,"state":"active","ping":48},{"user_id":157,"name":"Largelad","steam_id":76561198024042970,"connected_time":1048000000000,"state":"active","ping":54},{"user_id":130,"name":"FunGi","steam_id":76561198881418662,"connected_time":2649000000000,"state":"active","ping":78},{"user_id":131,"name":"Barz","steam_id":76561198027330785,"connected_time":2649000000000,"state":"active","ping":108},{"user_id":139,"name":"dinomikk09","steam_id":76561198337514637,"connected_time":2539000000000,"state":"active","ping":86},{"user_id":127,"name":"Salt","steam_id":76561198418001135,"connected_time":2825000000000,"state":"active","ping":64},{"user_id":136,"name":"C40H56","steam_id":76561198150528384,"connected_time":2589000000000,"state":"active","ping":124},{"user_id":128,"name":"dP | I'm in a Wookie Suit","steam_id":76561198083307644,"connected_time":2815000000000,"state":"active","ping":106},{"user_id":154,"name":"Onyx","steam_id":76561198275349640,"connected_time":1096000000000,"state":"active","ping":61},{"user_id":140,"name":"Tophu","steam_id":76561198380229671,"connected_time":2319000000000,"state":"active","ping":88},{"user_id":161,"name":"PINGAS DISPENSER™","steam_id":76561198014868070,"connected_time":209000000000,"state":"active","ping":75},{"user_id":146,"name":"Atomic Waffles","steam_id":76561197970935570,"connected_time":1757000000000,"state":"active","ping":89},{"user_id":135,"name":"hunky dory","steam_id":76561198030422254,"connected_time":2618000000000,"state":"active","ping":137},{"user_id":137,"name":"scuttles","steam_id":76561199250039100,"connected_time":2588000000000,"state":"active","ping":58}]},{"server_id":5,"name":"Uncletopia | Frankfurt | 1 | All Maps","name_short":"frk-1","host":"frk-1.de.uncletopia.com","port":27015,"enabled":true,"region":"eu","cc":"de","latitude":50.110924,"longitude":8.682127,"reserved":0,"last_update":"0001-01-01T00:00:00Z","name_a2s":"Uncletopia | Frankfurt | 1 | All Maps","protocol":17,"map":"cp_snakewater_final1","folder":"tf","game":"Team Fortress","app_id":440,"player_count":0,"max_players":24,"Bots":0,"server_type":"Dedicated","server_os":"Linux","password":true,"vac":true,"version":"7757534","steam_id":85568392924469989,"keywords":["cp","nocrits","nodmgspread","uncletopia"],"game_id":440,"stv_port":27016,"stv_name":"Uncletopia | Frankfurt | 1 | All Maps | STV","players":null},{"server_id":110,"name":"Uncletopia | Frankfurt | 2 | All Maps","name_short":"frk-2","host":"frk-1.de.uncletopia.com","port":27025,"enabled":true,"region":"eu","cc":"de","latitude":50.110924,"longitude":8.682127,"reserved":0,"last_update":"0001-01-01T00:00:00Z","name_a2s":"Uncletopia | Frankfurt | 2 | All Maps","protocol":17,"map":"pl_swiftwater_final1","folder":"tf","game":"Team Fortress","app_id":440,"player_count":0,"max_players":24,"Bots":0,"server_type":"Dedicated","server_os":"Linux","password":true,"vac":true,"version":"7757534","steam_id":85568392924469990,"keywords":["nocrits","nodmgspread","payload","uncletopia"],"game_id":440,"stv_port":27026,"stv_name":"Uncletopia | Frankfurt | 2 | All Maps | STV","players":null},{"server_id":308,"name":"Uncletopia | Frankfurt | 3 | All Maps","name_short":"frk-3","host":"frk-1.de.uncletopia.com","port":27035,"enabled":true,"region":"eu","cc":"de","latitude":50.110924,"longitude":8.682127,"reserved":0,"last_update":"0001-01-01T00:00:00Z","name_a2s":"Uncletopia | Frankfurt | 3 | All Maps","protocol":17,"map":"cp_snakewater_final1","folder":"tf","game":"Team Fortress","app_id":440,"player_count":24,"max_players":24,"Bots":0,"server_type":"Dedicated","server_os":"Linux","password":true,"vac":true,"version":"7757534","steam_id":85568392924504274,"keywords":["cp","nocrits","nodmgspread","uncletopia"],"game_id":440,"stv_port":27036,"stv_name":"Uncletopia | Frankfurt | 3 | All Maps | STV","players":[{"user_id":644,"name":"Superiumentarius","steam_id":76561198081642249,"connected_time":893000000000,"state":"active","ping":56},{"user_id":647,"name":"Lag","steam_id":76561198159360376,"connected_time":580000000000,"state":"active","ping":49},{"user_id":573,"name":"nobody","steam_id":76561198180637374,"connected_time":4214000000000,"state":"active","ping":85},{"user_id":652,"name":"JugoTopia","steam_id":76561197996067209,"connected_time":19000000000,"state":"active","ping":118},{"user_id":621,"name":"anime drug dealer","steam_id":76561198235739036,"connected_time":1858000000000,"state":"active","ping":77},{"user_id":641,"name":"Shirogame","steam_id":76561198126154697,"connected_time":981000000000,"state":"active","ping":71},{"user_id":511,"name":"vroom doom","steam_id":76561198192671475,"connected_time":7249000000000,"state":"active","ping":59},{"user_id":645,"name":"Dr. Mario","steam_id":76561199125182282,"connected_time":882000000000,"state":"active","ping":52},{"user_id":625,"name":"Yxel","steam_id":76561198123982890,"connected_time":1552000000000,"state":"active","ping":60},{"user_id":646,"name":"Le Bon Toutou","steam_id":76561198300902712,"connected_time":772000000000,"state":"active","ping":77},{"user_id":651,"name":"boy","steam_id":76561198162462063,"connected_time":335000000000,"state":"active","ping":70},{"user_id":613,"name":"siarczan (VI) miedzi (II)","steam_id":76561198327848460,"connected_time":2299000000000,"state":"active","ping":66},{"user_id":615,"name":"PLUTO","steam_id":76561198312436128,"connected_time":2251000000000,"state":"active","ping":118},{"user_id":576,"name":"German Prick","steam_id":76561198181410637,"connected_time":4153000000000,"state":"active","ping":54},{"user_id":631,"name":"nedilya","steam_id":76561198039692077,"connected_time":1386000000000,"state":"active","ping":57},{"user_id":632,"name":"fallingpencil","steam_id":76561199230233148,"connected_time":1357000000000,"state":"active","ping":68},{"user_id":622,"name":".bRdyyy","steam_id":76561198057256978,"connected_time":1844000000000,"state":"active","ping":48},{"user_id":649,"name":"Maxinator80","steam_id":76561198064728122,"connected_time":392000000000,"state":"active","ping":56},{"user_id":580,"name":"giclure :;","steam_id":76561197986362828,"connected_time":4049000000000,"state":"active","ping":62},{"user_id":653,"name":"maximf","steam_id":76561198291717647,"connected_time":13000000000,"state":"active","ping":114},{"user_id":549,"name":"Semyr","steam_id":76561198125655939,"connected_time":5622000000000,"state":"active","ping":152},{"user_id":614,"name":"AlphaPrime","steam_id":76561197994285625,"connected_time":2276000000000,"state":"active","ping":70},{"user_id":624,"name":"Dee","steam_id":76561198257836694,"connected_time":1813000000000,"state":"active","ping":58},{"user_id":554,"name":"Hanzo (Poor)","steam_id":76561198041690676,"connected_time":5528000000000,"state":"active","ping":67}]},{"server_id":309,"name":"Uncletopia | Frankfurt | 4 | All Maps","name_short":"frk-4","host":"frk-1.de.uncletopia.com","port":27045,"enabled":true,"region":"eu","cc":"de","latitude":50.110924,"longitude":8.682127,"reserved":0,"last_update":"0001-01-01T00:00:00Z","name_a2s":"Uncletopia | Frankfurt | 4 | All Maps","protocol":17,"map":"pl_upward","folder":"tf","game":"Team Fortress","app_id":440,"player_count":24,"max_players":24,"Bots":0,"server_type":"Dedicated","server_os":"Linux","password":true,"vac":true,"version":"7757534","steam_id":85568392924504275,"keywords":["nocrits","nodmgspread","payload","uncletopia"],"game_id":440,"stv_port":27046,"stv_name":"Uncletopia | Frankfurt | 4 | All Maps | STV","players":[{"user_id":454,"name":"bloons tower defense 6","steam_id":76561198281682473,"connected_time":3318000000000,"state":"active","ping":137},{"user_id":475,"name":"theogliam","steam_id":76561198814626472,"connected_time":1497000000000,"state":"active","ping":69},{"user_id":445,"name":"Magiczny Łukasz","steam_id":76561198047000504,"connected_time":3667000000000,"state":"active","ping":73},{"user_id":472,"name":".....","steam_id":76561198065009070,"connected_time":1750000000000,"state":"active","ping":68},{"user_id":471,"name":"BlueMoon","steam_id":76561198097713633,"connected_time":1868000000000,"state":"active","ping":75},{"user_id":464,"name":"Family Guy S19E02 Full No cuts","steam_id":76561198042774930,"connected_time":2508000000000,"state":"active","ping":79},{"user_id":476,"name":"Joe mama","steam_id":76561198806718750,"connected_time":1496000000000,"state":"active","ping":54},{"user_id":497,"name":"haah waaw","steam_id":76561197997807016,"connected_time":135000000000,"state":"active","ping":79},{"user_id":438,"name":"Vol't","steam_id":76561198808294219,"connected_time":4643000000000,"state":"active","ping":174},{"user_id":489,"name":"Kjall","steam_id":76561198159249203,"connected_time":331000000000,"state":"active","ping":90},{"user_id":488,"name":"Cosmetic brain","steam_id":76561198055936410,"connected_time":413000000000,"state":"active","ping":85},{"user_id":490,"name":"kokba3ste$n","steam_id":76561198058970797,"connected_time":323000000000,"state":"active","ping":144},{"user_id":446,"name":"jebac disa","steam_id":76561197995572935,"connected_time":3633000000000,"state":"active","ping":77},{"user_id":491,"name":"Blo","steam_id":76561198161651469,"connected_time":312000000000,"state":"active","ping":61},{"user_id":477,"name":"Ptahotep","steam_id":76561198008708645,"connected_time":1484000000000,"state":"active","ping":64},{"user_id":496,"name":"O-O","steam_id":76561198418538887,"connected_time":187000000000,"state":"active","ping":94},{"user_id":479,"name":"Juiceydough","steam_id":76561197997323419,"connected_time":1465000000000,"state":"active","ping":87},{"user_id":492,"name":"Castellan","steam_id":76561197994861142,"connected_time":311000000000,"state":"active","ping":66},{"user_id":466,"name":"Wise Tree","steam_id":76561198108606437,"connected_time":2143000000000,"state":"active","ping":68},{"user_id":493,"name":"rolmos","steam_id":76561198024121853,"connected_time":251000000000,"state":"active","ping":73},{"user_id":494,"name":"rummy","steam_id":76561197997573379,"connected_time":248000000000,"state":"active","ping":66},{"user_id":268,"name":"vladixxk","steam_id":76561198273199378,"connected_time":14048000000000,"state":"active","ping":83},{"user_id":495,"name":"wungus gaming","steam_id":76561198086132840,"connected_time":245000000000,"state":"active","ping":79},{"user_id":481,"name":"Vezage","steam_id":76561198064916164,"connected_time":1406000000000,"state":"active","ping":80}]},{"server_id":310,"name":"Uncletopia | Frankfurt | 5 | All Maps","name_short":"frk-5","host":"frk-1.de.uncletopia.com","port":27055,"enabled":true,"region":"eu","cc":"de","latitude":50.110924,"longitude":8.682127,"reserved":0,"last_update":"0001-01-01T00:00:00Z","name_a2s":"Uncletopia | Frankfurt | 5 | All Maps","protocol":17,"map":"pl_pier","folder":"tf","game":"Team Fortress","app_id":440,"player_count":23,"max_players":24,"Bots":0,"server_type":"Dedicated","server_os":"Linux","password":true,"vac":true,"version":"7757534","steam_id":85568392924504277,"keywords":["nocrits","nodmgspread","payload","uncletopia"],"game_id":440,"stv_port":27056,"stv_name":"Uncletopia | Frankfurt | 5 | All Maps | STV","players":[{"user_id":611,"name":"KlevukaS™","steam_id":76561198312867604,"connected_time":984000000000,"state":"active","ping":80},{"user_id":582,"name":"gOnzaLOXX2005","steam_id":76561198056744152,"connected_time":3429000000000,"state":"active","ping":71},{"user_id":619,"name":"big hoops","steam_id":76561198004703799,"connected_time":258000000000,"state":"active","ping":45},{"user_id":601,"name":"IggyYT","steam_id":76561198317980567,"connected_time":1428000000000,"state":"active","ping":170},{"user_id":620,"name":"ersh","steam_id":76561198020649771,"connected_time":206000000000,"state":"active","ping":74},{"user_id":599,"name":"Waffel","steam_id":76561198137729291,"connected_time":1778000000000,"state":"active","ping":96},{"user_id":529,"name":"Lolihunter","steam_id":76561198285406228,"connected_time":7566000000000,"state":"active","ping":78},{"user_id":570,"name":"Marley","steam_id":76561198045380078,"connected_time":4379000000000,"state":"active","ping":74},{"user_id":602,"name":"Oolongcat","steam_id":76561198027033783,"connected_time":1416000000000,"state":"active","ping":50},{"user_id":614,"name":"katten","steam_id":76561198163615254,"connected_time":539000000000,"state":"active","ping":46},{"user_id":542,"name":"Control Panel","steam_id":76561198154677956,"connected_time":6893000000000,"state":"active","ping":71},{"user_id":600,"name":"Maikelo","steam_id":76561198065268893,"connected_time":1554000000000,"state":"active","ping":99},{"user_id":628,"name":"TidB","steam_id":76561198055342304,"connected_time":41000000000,"state":"active","ping":55},{"user_id":594,"name":"Mor'du","steam_id":76561198274105878,"connected_time":1951000000000,"state":"active","ping":75},{"user_id":598,"name":"im just clicking mouse","steam_id":76561198164723910,"connected_time":1813000000000,"state":"active","ping":62},{"user_id":606,"name":"Pico","steam_id":76561198063552545,"connected_time":1313000000000,"state":"active","ping":99},{"user_id":615,"name":"G3R4LT_RIVIA","steam_id":76561198120728921,"connected_time":539000000000,"state":"active","ping":126},{"user_id":616,"name":"blåhaj","steam_id":76561198094268619,"connected_time":469000000000,"state":"active","ping":65},{"user_id":622,"name":"DocTwoEight","steam_id":76561198153488940,"connected_time":168000000000,"state":"active","ping":82},{"user_id":525,"name":"GoodCombine","steam_id":76561198014057015,"connected_time":7886000000000,"state":"active","ping":76},{"user_id":623,"name":"original too expensive","steam_id":76561198173695818,"connected_time":155000000000,"state":"active","ping":70},{"user_id":617,"name":"Mr_Pulse_","steam_id":76561198095001602,"connected_time":400000000000,"state":"active","ping":86},{"user_id":624,"name":"mohemmedmokhter2005","steam_id":76561199197650506,"connected_time":143000000000,"state":"active","ping":110}]},{"server_id":311,"name":"Uncletopia | Frankfurt | 6 | All Maps","name_short":"frk-6","host":"frk-1.de.uncletopia.com","port":27065,"enabled":true,"region":"eu","cc":"de","latitude":50.110924,"longitude":8.682127,"reserved":0,"last_update":"0001-01-01T00:00:00Z","name_a2s":"Uncletopia | Frankfurt | 6 | All Maps","protocol":17,"map":"cp_sunshine","folder":"tf","game":"Team Fortress","app_id":440,"player_count":0,"max_players":24,"Bots":0,"server_type":"Dedicated","server_os":"Linux","password":true,"vac":true,"version":"7757534","steam_id":85568392924504278,"keywords":["cp","nocrits","nodmgspread","uncletopia"],"game_id":440,"stv_port":27066,"stv_name":"Uncletopia | Frankfurt | 6 | All Maps | STV","players":null},{"server_id":23,"name":"Uncletopia | Frankfurt | 7 | Stopwatch Beta","name_short":"frk-7","host":"frk-1.de.uncletopia.com","port":27075,"enabled":true,"region":"eu","cc":"de","latitude":50.110924,"longitude":8.682127,"reserved":0,"last_update":"0001-01-01T00:00:00Z","name_a2s":"Uncletopia | Frankfurt | 7 | Stopwatch Beta","protocol":17,"map":"koth_lakeside_final","folder":"tf","game":"Team Fortress","app_id":440,"player_count":0,"max_players":24,"Bots":0,"server_type":"Dedicated","server_os":"Linux","password":true,"vac":true,"version":"7757534","steam_id":85568392924742827,"keywords":["cp","nocrits","nodmgspread","uncletopia"],"game_id":440,"stv_port":27076,"stv_name":"Uncletopia | Frankfurt | 7 | Stopwatch Beta | STV","players":null},{"server_id":24,"name":"Uncletopia | Frankfurt | 8 | Community","name_short":"frk-8","host":"frk-1.de.uncletopia.com","port":27085,"enabled":true,"region":"eu","cc":"de","latitude":50.110924,"longitude":8.682127,"reserved":0,"last_update":"0001-01-01T00:00:00Z","name_a2s":"Uncletopia | Frankfurt | 8 | Community","protocol":17,"map":"workshop/koth_synthetic_rc6a.ugc1549817316","folder":"tf","game":"Team Fortress","app_id":440,"player_count":2,"max_players":24,"Bots":0,"server_type":"Dedicated","server_os":"Linux","password":true,"vac":true,"version":"7757534","steam_id":85568392924742828,"keywords":["cp","nocrits","nodmgspread","uncletopia"],"game_id":440,"stv_port":27086,"stv_name":"Uncletopia | Frankfurt | 8 | Community | STV","players":[{"user_id":229,"name":"KatTheCookiCat","steam_id":76561199054643392,"connected_time":2166000000000,"state":"active","ping":45},{"user_id":230,"name":"Explodingrayman","steam_id":76561198185783005,"connected_time":2150000000000,"state":"active","ping":181}]},{"server_id":202,"name":"Uncletopia | Hong Kong | 1 | All Maps","name_short":"hgk-1","host":"hgk-1.hk.uncletopia.com","port":27015,"enabled":true,"region":"asia","cc":"hk","latitude":22.302711,"longitude":114.177216,"reserved":0,"last_update":"0001-01-01T00:00:00Z","name_a2s":"Uncletopia | Hong Kong | 1 | All Maps","protocol":17,"map":"pl_frontier_final","folder":"tf","game":"Team Fortress","app_id":440,"player_count":0,"max_players":24,"Bots":0,"server_type":"Dedicated","server_os":"Linux","password":true,"vac":true,"version":"7757534","steam_id":85568392924494504,"keywords":["nocrits","nodmgspread","payload","uncletopia"],"game_id":440,"stv_port":27016,"stv_name":"Uncletopia | Hong Kong | 1 | All Maps | STV","players":null},{"server_id":1,"name":"Uncletopia | Los Angeles | 1 | All Maps","name_short":"lax-1","host":"lax-1.us.uncletopia.com","port":27015,"enabled":true,"region":"us-west","cc":"us","latitude":33.94279,"longitude":-118.41004,"reserved":0,"last_update":"0001-01-01T00:00:00Z","name_a2s":"Uncletopia | Los Angeles | 1 | All Maps","protocol":17,"map":"pl_borneo","folder":"tf","game":"Team Fortress","app_id":440,"player_count":24,"max_players":24,"Bots":0,"server_type":"Dedicated","server_os":"Linux","password":true,"vac":true,"version":"7757534","steam_id":85568392924469991,"keywords":["nocrits","nodmgspread","payload","uncletopia"],"game_id":440,"stv_port":27016,"stv_name":"Uncletopia | Los Angeles | 1 | All Maps | STV","players":[{"user_id":198,"name":"Delimeat","steam_id":76561198043824595,"connected_time":999000000000,"state":"active","ping":44},{"user_id":160,"name":"ChefMike","steam_id":76561198414034069,"connected_time":3958000000000,"state":"active","ping":118},{"user_id":191,"name":"luis","steam_id":76561198081341347,"connected_time":1349000000000,"state":"active","ping":72},{"user_id":207,"name":"Jax O'Gaytor","steam_id":76561198288922168,"connected_time":249000000000,"state":"active","ping":68},{"user_id":170,"name":"Jokergamma","steam_id":76561198807984541,"connected_time":3605000000000,"state":"active","ping":85},{"user_id":187,"name":"Mr. Call You Back","steam_id":76561198025172811,"connected_time":1727000000000,"state":"active","ping":60},{"user_id":199,"name":"oil","steam_id":76561198099980149,"connected_time":961000000000,"state":"active","ping":45},{"user_id":140,"name":"jturner1nm","steam_id":76561198344493652,"connected_time":5536000000000,"state":"active","ping":121},{"user_id":201,"name":"HeroOfTime","steam_id":76561199096218001,"connected_time":890000000000,"state":"active","ping":51},{"user_id":197,"name":"Frazzer","steam_id":76561198088679707,"connected_time":1070000000000,"state":"active","ping":44},{"user_id":184,"name":"The Guinea BIG","steam_id":76561198318096526,"connected_time":2444000000000,"state":"active","ping":86},{"user_id":193,"name":"Ob_Beta","steam_id":76561199122140327,"connected_time":1259000000000,"state":"active","ping":146},{"user_id":202,"name":"Tanner Jarring","steam_id":76561198172024365,"connected_time":880000000000,"state":"active","ping":115},{"user_id":163,"name":"An Inordinate Amount of Beans","steam_id":76561198022758805,"connected_time":3900000000000,"state":"active","ping":85},{"user_id":180,"name":"Mina's Ninas","steam_id":76561198046502179,"connected_time":2744000000000,"state":"active","ping":56},{"user_id":176,"name":"nhoj_","steam_id":76561198048003380,"connected_time":2938000000000,"state":"active","ping":44},{"user_id":204,"name":"Dimple","steam_id":76561198980324190,"connected_time":680000000000,"state":"active","ping":78},{"user_id":208,"name":"Goldbug","steam_id":76561198025221202,"connected_time":76000000000,"state":"active","ping":60},{"user_id":203,"name":"JelloSniffer","steam_id":76561198142770733,"connected_time":841000000000,"state":"active","ping":112},{"user_id":188,"name":"Alex62","steam_id":76561198260473504,"connected_time":1696000000000,"state":"active","ping":77},{"user_id":159,"name":"YourWishes","steam_id":76561198154414336,"connected_time":4000000000000,"state":"active","ping":51},{"user_id":186,"name":"Schnitz(Lost my Glasses)","steam_id":76561198265484253,"connected_time":2053000000000,"state":"active","ping":55},{"user_id":194,"name":"Ryle #SaveTF2","steam_id":76561198216682264,"connected_time":1226000000000,"state":"active","ping":45},{"user_id":206,"name":"Saulce","steam_id":76561198066142119,"connected_time":504000000000,"state":"active","ping":61}]},{"server_id":112,"name":"Uncletopia | Los Angeles | 2 | All Maps","name_short":"lax-2","host":"lax-1.us.uncletopia.com","port":27025,"enabled":true,"region":"us-west","cc":"us","latitude":33.94279,"longitude":-118.41004,"reserved":0,"last_update":"0001-01-01T00:00:00Z","name_a2s":"Uncletopia | Los Angeles | 2 | All Maps","protocol":17,"map":"cp_mountainlab","folder":"tf","game":"Team Fortress","app_id":440,"player_count":0,"max_players":24,"Bots":0,"server_type":"Dedicated","server_os":"Linux","password":true,"vac":true,"version":"7757534","steam_id":85568392924469992,"keywords":["cp","nocrits","nodmgspread","uncletopia"],"game_id":440,"stv_port":27026,"stv_name":"Uncletopia | Los Angeles | 2 | All Maps | STV","players":null},{"server_id":324,"name":"Uncletopia | Los Angeles | 3 | All Maps","name_short":"lax-3","host":"lax-1.us.uncletopia.com","port":27035,"enabled":true,"region":"us-west","cc":"us","latitude":33.94279,"longitude":-118.41004,"reserved":0,"last_update":"0001-01-01T00:00:00Z","name_a2s":"Uncletopia | Los Angeles | 3 | All Maps","protocol":17,"map":"koth_highpass","folder":"tf","game":"Team Fortress","app_id":440,"player_count":0,"max_players":24,"Bots":0,"server_type":"Dedicated","server_os":"Linux","password":true,"vac":true,"version":"7757534","steam_id":85568392924510198,"keywords":["cp","nocrits","nodmgspread","uncletopia"],"game_id":440,"stv_port":27036,"stv_name":"Uncletopia | Los Angeles | 3 | All Maps | STV","players":null},{"server_id":25,"name":"Uncletopia | Los Angeles | 4 | Stopwatch Beta","name_short":"lax-4","host":"lax-1.us.uncletopia.com","port":27045,"enabled":true,"region":"us-west","cc":"us","latitude":33.94279,"longitude":-118.41004,"reserved":0,"last_update":"0001-01-01T00:00:00Z","name_a2s":"Uncletopia | Los Angeles | 4 | Stopwatch Beta","protocol":17,"map":"koth_viaduct","folder":"tf","game":"Team Fortress","app_id":440,"player_count":0,"max_players":24,"Bots":0,"server_type":"Dedicated","server_os":"Linux","password":true,"vac":true,"version":"7757534","steam_id":85568392924510199,"keywords":["cp","nocrits","nodmgspread","uncletopia"],"game_id":440,"stv_port":27046,"stv_name":"Uncletopia | Los Angeles | 4 | Stopwatch Beta | STV","players":null},{"server_id":11,"name":"Uncletopia | London | 1 | All Maps","name_short":"lon-1","host":"lon-1.uk.uncletopia.com","port":27015,"enabled":true,"region":"eu","cc":"gb","latitude":51.509865,"longitude":-0.118092,"reserved":0,"last_update":"0001-01-01T00:00:00Z","name_a2s":"Uncletopia | London | 1 | All Maps","protocol":17,"map":"pl_barnblitz","folder":"tf","game":"Team Fortress","app_id":440,"player_count":24,"max_players":24,"Bots":0,"server_type":"Dedicated","server_os":"Linux","password":true,"vac":true,"version":"7757534","steam_id":85568392924367362,"keywords":["nocrits","nodmgspread","payload","uncletopia"],"game_id":440,"stv_port":27016,"stv_name":"Uncletopia | London | 1 | All Maps | STV","players":[{"user_id":802,"name":"Birger :-)","steam_id":76561198213763199,"connected_time":1669000000000,"state":"active","ping":61},{"user_id":728,"name":"Aaron","steam_id":76561197990046953,"connected_time":6054000000000,"state":"active","ping":65},{"user_id":815,"name":"dec","steam_id":76561198009660168,"connected_time":468000000000,"state":"active","ping":59},{"user_id":812,"name":"Aziz","steam_id":76561198168882012,"connected_time":895000000000,"state":"active","ping":55},{"user_id":796,"name":"Dom.","steam_id":76561199065917088,"connected_time":2013000000000,"state":"active","ping":66},{"user_id":799,"name":"homeinvasion$","steam_id":76561199111905021,"connected_time":1773000000000,"state":"active","ping":225},{"user_id":817,"name":"Alegz","steam_id":76561198287810139,"connected_time":30000000000,"state":"active","ping":80},{"user_id":793,"name":"André","steam_id":76561198848885591,"connected_time":2406000000000,"state":"active","ping":100},{"user_id":792,"name":"SuperBob103","steam_id":76561199175360012,"connected_time":2418000000000,"state":"active","ping":53},{"user_id":816,"name":"Tigas","steam_id":76561198930230191,"connected_time":118000000000,"state":"active","ping":91},{"user_id":787,"name":"fear the old blood","steam_id":76561199026097466,"connected_time":2607000000000,"state":"active","ping":75},{"user_id":804,"name":"Akira Yamaoka Fan","steam_id":76561198146194820,"connected_time":1526000000000,"state":"active","ping":50},{"user_id":775,"name":"teddy","steam_id":76561198007436837,"connected_time":3535000000000,"state":"active","ping":37},{"user_id":790,"name":"Neto","steam_id":76561198201204507,"connected_time":2501000000000,"state":"active","ping":77},{"user_id":785,"name":"kiki","steam_id":76561198838277022,"connected_time":2676000000000,"state":"active","ping":78},{"user_id":781,"name":"Dellroy","steam_id":76561198161222252,"connected_time":3097000000000,"state":"active","ping":46},{"user_id":797,"name":"pakin157","steam_id":76561198035125667,"connected_time":2003000000000,"state":"active","ping":134},{"user_id":778,"name":"Tomau5","steam_id":76561198027409468,"connected_time":3468000000000,"state":"active","ping":50},{"user_id":809,"name":"lawrencefishdom","steam_id":76561199190918059,"connected_time":1315000000000,"state":"active","ping":62},{"user_id":814,"name":"El'berto","steam_id":76561198361769318,"connected_time":596000000000,"state":"active","ping":44},{"user_id":795,"name":"Posho","steam_id":76561198062396436,"connected_time":2305000000000,"state":"active","ping":42},{"user_id":761,"name":"da gloop","steam_id":76561198298576765,"connected_time":4533000000000,"state":"active","ping":84},{"user_id":808,"name":"BOT Jeremus","steam_id":76561198072981684,"connected_time":1369000000000,"state":"active","ping":47},{"user_id":745,"name":"SOPHIIEE","steam_id":76561198443798981,"connected_time":5028000000000,"state":"active","ping":58}]},{"server_id":114,"name":"Uncletopia | London | 2 | All Maps","name_short":"lon-2","host":"lon-1.uk.uncletopia.com","port":27025,"enabled":true,"region":"eu","cc":"gb","latitude":51.509865,"longitude":-0.118092,"reserved":0,"last_update":"0001-01-01T00:00:00Z","name_a2s":"Uncletopia | London | 2 | All Maps","protocol":17,"map":"pl_upward","folder":"tf","game":"Team Fortress","app_id":440,"player_count":24,"max_players":24,"Bots":0,"server_type":"Dedicated","server_os":"Linux","password":true,"vac":true,"version":"7757534","steam_id":85568392924470941,"keywords":["nocrits","nodmgspread","payload","uncletopia"],"game_id":440,"stv_port":27026,"stv_name":"Uncletopia | London | 2 | All Maps | STV","players":[{"user_id":710,"name":"3L","steam_id":76561198007208996,"connected_time":2602000000000,"state":"active","ping":49},{"user_id":690,"name":"skull","steam_id":76561198269491159,"connected_time":4370000000000,"state":"active","ping":46},{"user_id":726,"name":"Enforcer02","steam_id":76561197966045944,"connected_time":804000000000,"state":"active","ping":60},{"user_id":730,"name":"Cirox","steam_id":76561198383142404,"connected_time":653000000000,"state":"active","ping":86},{"user_id":719,"name":"khuligan.abdullah.95","steam_id":76561198349000185,"connected_time":1745000000000,"state":"active","ping":109},{"user_id":737,"name":"Thomas Jefferson","steam_id":76561198182135114,"connected_time":158000000000,"state":"active","ping":74},{"user_id":722,"name":"JUSTIN","steam_id":76561198250762422,"connected_time":1513000000000,"state":"active","ping":71},{"user_id":733,"name":"Arioxie","steam_id":76561198882000163,"connected_time":229000000000,"state":"active","ping":63},{"user_id":731,"name":"randompixel","steam_id":76561198003941207,"connected_time":515000000000,"state":"active","ping":57},{"user_id":700,"name":"Blitzether","steam_id":76561198082367882,"connected_time":3494000000000,"state":"active","ping":74},{"user_id":714,"name":"LemonFresh","steam_id":76561198439745263,"connected_time":1835000000000,"state":"active","ping":171},{"user_id":729,"name":"paguro","steam_id":76561198119560871,"connected_time":739000000000,"state":"active","ping":68},{"user_id":720,"name":"milk","steam_id":76561198798668759,"connected_time":1728000000000,"state":"active","ping":149},{"user_id":734,"name":"ender45","steam_id":76561198840955715,"connected_time":218000000000,"state":"active","ping":31},{"user_id":692,"name":"Fluffed up Maverick","steam_id":76561198843516708,"connected_time":4225000000000,"state":"active","ping":74},{"user_id":721,"name":"0","steam_id":76561198267909207,"connected_time":1720000000000,"state":"active","ping":100},{"user_id":738,"name":"marcel","steam_id":76561198360009237,"connected_time":101000000000,"state":"active","ping":45},{"user_id":735,"name":"AsuX","steam_id":76561197990333289,"connected_time":208000000000,"state":"active","ping":58},{"user_id":724,"name":"Tafrum","steam_id":76561198053868147,"connected_time":1453000000000,"state":"active","ping":95},{"user_id":716,"name":"LeonIsMooi","steam_id":76561198041524085,"connected_time":1810000000000,"state":"active","ping":65},{"user_id":706,"name":"Mewo Gaming","steam_id":76561198886136382,"connected_time":2738000000000,"state":"active","ping":49},{"user_id":711,"name":"45","steam_id":76561198278463603,"connected_time":2488000000000,"state":"active","ping":147},{"user_id":736,"name":"Sniffz_2","steam_id":76561199433459491,"connected_time":196000000000,"state":"active","ping":79},{"user_id":559,"name":"Monoxide","steam_id":76561198056844412,"connected_time":9682000000000,"state":"active","ping":57}]},{"server_id":320,"name":"Uncletopia | London | 3 | All Maps","name_short":"lon-3","host":"lon-1.uk.uncletopia.com","port":27035,"enabled":true,"region":"eu","cc":"gb","latitude":51.509865,"longitude":-0.118092,"reserved":0,"last_update":"0001-01-01T00:00:00Z","name_a2s":"Uncletopia | London | 3 | All Maps","protocol":17,"map":"pl_upward","folder":"tf","game":"Team Fortress","app_id":440,"player_count":24,"max_players":24,"Bots":0,"server_type":"Dedicated","server_os":"Linux","password":true,"vac":true,"version":"7757534","steam_id":85568392924510192,"keywords":["nocrits","nodmgspread","payload","uncletopia"],"game_id":440,"stv_port":27036,"stv_name":"Uncletopia | London | 3 | All Maps | STV","players":[{"user_id":1139,"name":"mr gaming","steam_id":76561198110103308,"connected_time":429000000000,"state":"active","ping":56},{"user_id":1100,"name":"David Random","steam_id":76561198144497918,"connected_time":2600000000000,"state":"active","ping":73},{"user_id":1052,"name":"A Succulent Chinese Meal","steam_id":76561198069472440,"connected_time":6442000000000,"state":"active","ping":63},{"user_id":1130,"name":"manKe","steam_id":76561198008564860,"connected_time":1078000000000,"state":"active","ping":47},{"user_id":1084,"name":"Obvi","steam_id":76561198088735927,"connected_time":3151000000000,"state":"active","ping":59},{"user_id":1121,"name":"ImFr0sty","steam_id":76561199441249487,"connected_time":1537000000000,"state":"active","ping":138},{"user_id":1083,"name":"EGirl | Klarra","steam_id":76561198077745407,"connected_time":3169000000000,"state":"active","ping":73},{"user_id":1140,"name":"Lewee","steam_id":76561198058828018,"connected_time":413000000000,"state":"active","ping":49},{"user_id":1102,"name":"r06u3","steam_id":76561198254099253,"connected_time":2578000000000,"state":"active","ping":181},{"user_id":1115,"name":"soil.dirt.earth","steam_id":76561198014377623,"connected_time":1993000000000,"state":"active","ping":54},{"user_id":1135,"name":"Benzo Fury","steam_id":76561198025259336,"connected_time":556000000000,"state":"active","ping":42},{"user_id":1136,"name":"Fat Pigeon","steam_id":76561198817940142,"connected_time":551000000000,"state":"active","ping":45},{"user_id":1116,"name":"The Fellow Feller","steam_id":76561198188864306,"connected_time":1960000000000,"state":"active","ping":73},{"user_id":1137,"name":"dodge","steam_id":76561198085296668,"connected_time":550000000000,"state":"active","ping":46},{"user_id":1092,"name":"FROMBO b3nny","steam_id":76561197977122134,"connected_time":2874000000000,"state":"active","ping":63},{"user_id":1138,"name":"Avg. Santa Believer (Nice list)","steam_id":76561198040444697,"connected_time":533000000000,"state":"active","ping":128},{"user_id":1022,"name":"Mrforgetful","steam_id":76561198869654419,"connected_time":8761000000000,"state":"active","ping":61},{"user_id":1094,"name":"Yachooo","steam_id":76561198085972300,"connected_time":2778000000000,"state":"active","ping":68},{"user_id":1112,"name":"MAKENTAKEN","steam_id":76561199127359587,"connected_time":2297000000000,"state":"active","ping":100},{"user_id":1119,"name":"ебатель","steam_id":76561198220179531,"connected_time":1854000000000,"state":"active","ping":91},{"user_id":1132,"name":"kogned","steam_id":76561198089285145,"connected_time":795000000000,"state":"active","ping":99},{"user_id":1133,"name":"S.Scary","steam_id":76561198248602386,"connected_time":703000000000,"state":"active","ping":75},{"user_id":1123,"name":"luma","steam_id":76561198081649669,"connected_time":1449000000000,"state":"active","ping":76},{"user_id":1104,"name":"Videogamer","steam_id":76561198106012909,"connected_time":2552000000000,"state":"active","ping":81}]},{"server_id":321,"name":"Uncletopia | London | 4 | All Maps","name_short":"lon-4","host":"lon-1.uk.uncletopia.com","port":27045,"enabled":true,"region":"eu","cc":"gb","latitude":51.509865,"longitude":-0.118092,"reserved":0,"last_update":"0001-01-01T00:00:00Z","name_a2s":"Uncletopia | London | 4 | All Maps","protocol":17,"map":"koth_viaduct","folder":"tf","game":"Team Fortress","app_id":440,"player_count":18,"max_players":24,"Bots":0,"server_type":"Dedicated","server_os":"Linux","password":true,"vac":true,"version":"7757534","steam_id":85568392924510193,"keywords":["cp","nocrits","nodmgspread","uncletopia"],"game_id":440,"stv_port":27046,"stv_name":"Uncletopia | London | 4 | All Maps | STV","players":[{"user_id":505,"name":"oskarskellyboi","steam_id":76561199365966333,"connected_time":90000000000,"state":"active","ping":59},{"user_id":478,"name":"house in the froggy valley","steam_id":76561198064115286,"connected_time":1367000000000,"state":"active","ping":63},{"user_id":504,"name":"fk","steam_id":76561199081695697,"connected_time":141000000000,"state":"active","ping":83},{"user_id":498,"name":"snake","steam_id":76561198097712283,"connected_time":412000000000,"state":"active","ping":77},{"user_id":501,"name":"MR.BLOTTO","steam_id":76561198067920111,"connected_time":308000000000,"state":"active","ping":61},{"user_id":506,"name":"Breadcrab","steam_id":76561198015924039,"connected_time":82000000000,"state":"active","ping":66},{"user_id":461,"name":"Joe","steam_id":76561198061717026,"connected_time":3404000000000,"state":"active","ping":49},{"user_id":507,"name":"Cavalier","steam_id":76561198077283980,"connected_time":78000000000,"state":"spawning","ping":85},{"user_id":415,"name":"Fizzarolli","steam_id":76561198102168681,"connected_time":9312000000000,"state":"active","ping":97},{"user_id":509,"name":"risco1bolota","steam_id":76561198323074603,"connected_time":65000000000,"state":"active","ping":76},{"user_id":510,"name":"spy gaming","steam_id":76561198410955546,"connected_time":57000000000,"state":"active","ping":75},{"user_id":511,"name":"Joy","steam_id":76561198155314925,"connected_time":0,"state":"spawning","ping":0},{"user_id":492,"name":"ghenios","steam_id":76561198030011207,"connected_time":1061000000000,"state":"active","ping":96},{"user_id":487,"name":"Arnnaldo","steam_id":76561198144704531,"connected_time":1250000000000,"state":"active","ping":60},{"user_id":377,"name":"K.V. #RemoveRandomCrits","steam_id":76561197994832993,"connected_time":12530000000000,"state":"active","ping":78},{"user_id":470,"name":"Arturias","steam_id":76561198188720263,"connected_time":3017000000000,"state":"active","ping":56},{"user_id":494,"name":"Spooks","steam_id":76561199171471823,"connected_time":993000000000,"state":"active","ping":61},{"user_id":474,"name":"hatsune mike","steam_id":76561198051582865,"connected_time":2668000000000,"state":"active","ping":75}]},{"server_id":21,"name":"Uncletopia | London | 5 | All Maps","name_short":"lon-5","host":"lon-1.uk.uncletopia.com","port":27055,"enabled":true,"region":"eu","cc":"gb","latitude":51.509865,"longitude":-0.118092,"reserved":0,"last_update":"0001-01-01T00:00:00Z","name_a2s":"Uncletopia | London | 5 | All Maps","protocol":17,"map":"pl_badwater","folder":"tf","game":"Team Fortress","app_id":440,"player_count":24,"max_players":24,"Bots":0,"server_type":"Dedicated","server_os":"Linux","password":true,"vac":true,"version":"7757534","steam_id":85568392924742829,"keywords":["nocrits","nodmgspread","payload","uncletopia"],"game_id":440,"stv_port":27056,"stv_name":"Uncletopia | London | 5 | All Maps | STV","players":[{"user_id":447,"name":"smell_my_cheese","steam_id":76561198008517427,"connected_time":1002000000000,"state":"active","ping":51},{"user_id":457,"name":"CoZzH","steam_id":76561198818045037,"connected_time":356000000000,"state":"active","ping":59},{"user_id":458,"name":"washed up","steam_id":76561198275742101,"connected_time":243000000000,"state":"active","ping":68},{"user_id":437,"name":"Doughy","steam_id":76561198044084210,"connected_time":1806000000000,"state":"active","ping":65},{"user_id":459,"name":"PetitPhoqueBlanc","steam_id":76561197961288495,"connected_time":233000000000,"state":"active","ping":51},{"user_id":407,"name":"Fart Sniffer","steam_id":76561198064513206,"connected_time":3625000000000,"state":"active","ping":56},{"user_id":460,"name":"red⋆mits","steam_id":76561198015590113,"connected_time":232000000000,"state":"active","ping":45},{"user_id":433,"name":"Hugo","steam_id":76561198121260981,"connected_time":1842000000000,"state":"active","ping":44},{"user_id":445,"name":"Searching...","steam_id":76561198191078771,"connected_time":1066000000000,"state":"active","ping":68},{"user_id":443,"name":"3st bl0ke","steam_id":76561198012526576,"connected_time":1378000000000,"state":"active","ping":58},{"user_id":434,"name":"you crashed my plane","steam_id":76561198049312442,"connected_time":1840000000000,"state":"active","ping":45},{"user_id":461,"name":"THE_HARD_TIMES","steam_id":76561198058697973,"connected_time":217000000000,"state":"active","ping":63},{"user_id":435,"name":"bugpov","steam_id":76561198104896547,"connected_time":1839000000000,"state":"active","ping":74},{"user_id":450,"name":"Eing","steam_id":76561198253125820,"connected_time":930000000000,"state":"active","ping":72},{"user_id":462,"name":"Big Al","steam_id":76561198067692439,"connected_time":156000000000,"state":"active","ping":106},{"user_id":412,"name":"Fofenho","steam_id":76561198436817109,"connected_time":3519000000000,"state":"active","ping":47},{"user_id":441,"name":"aph","steam_id":76561198057722639,"connected_time":1686000000000,"state":"active","ping":74},{"user_id":442,"name":"subway vergil","steam_id":76561199110064166,"connected_time":1685000000000,"state":"active","ping":85},{"user_id":455,"name":"Rain","steam_id":76561198186993269,"connected_time":752000000000,"state":"active","ping":69},{"user_id":463,"name":"X45Y","steam_id":76561198112534025,"connected_time":96000000000,"state":"active","ping":47},{"user_id":464,"name":"Timo49er","steam_id":76561198012856068,"connected_time":34000000000,"state":"active","ping":146},{"user_id":465,"name":"Trontallent","steam_id":76561198277647230,"connected_time":34000000000,"state":"active","ping":34},{"user_id":436,"name":"jack healish","steam_id":76561198117247903,"connected_time":1836000000000,"state":"active","ping":39},{"user_id":440,"name":"EoN","steam_id":76561198103660553,"connected_time":1769000000000,"state":"active","ping":90}]},{"server_id":22,"name":"Uncletopia | London | 6 | All Maps","name_short":"lon-6","host":"lon-1.uk.uncletopia.com","port":27065,"enabled":true,"region":"eu","cc":"gb","latitude":51.509865,"longitude":-0.118092,"reserved":0,"last_update":"0001-01-01T00:00:00Z","name_a2s":"Uncletopia | London | 6 | All Maps","protocol":17,"map":"koth_viaduct","folder":"tf","game":"Team Fortress","app_id":440,"player_count":20,"max_players":24,"Bots":0,"server_type":"Dedicated","server_os":"Linux","password":true,"vac":true,"version":"7757534","steam_id":85568392924742830,"keywords":["cp","nocrits","nodmgspread","uncletopia"],"game_id":440,"stv_port":27066,"stv_name":"Uncletopia | London | 6 | All Maps | STV","players":[{"user_id":425,"name":"LuxieFen","steam_id":76561198314554227,"connected_time":135000000000,"state":"active","ping":47},{"user_id":354,"name":"s a i","steam_id":76561197970379754,"connected_time":4687000000000,"state":"active","ping":62},{"user_id":360,"name":"Wood 'N Fish","steam_id":76561198034490541,"connected_time":3880000000000,"state":"active","ping":83},{"user_id":340,"name":"lark","steam_id":76561198091724522,"connected_time":5370000000000,"state":"active","ping":59},{"user_id":421,"name":"macironi and chesse","steam_id":76561199098060805,"connected_time":193000000000,"state":"active","ping":146},{"user_id":268,"name":"Suspicious Cabin","steam_id":76561198083261198,"connected_time":9197000000000,"state":"active","ping":53},{"user_id":419,"name":"Egtu","steam_id":76561198013757235,"connected_time":287000000000,"state":"active","ping":74},{"user_id":422,"name":"『Dorarhim』","steam_id":76561198220232352,"connected_time":165000000000,"state":"active","ping":45},{"user_id":379,"name":"Fantomas","steam_id":76561198132857955,"connected_time":2369000000000,"state":"active","ping":61},{"user_id":361,"name":"S0LDaTo","steam_id":76561198269413360,"connected_time":3867000000000,"state":"active","ping":60},{"user_id":426,"name":"SuntanPikachu","steam_id":76561198121242476,"connected_time":78000000000,"state":"active","ping":53},{"user_id":413,"name":"John Xina","steam_id":76561198030304391,"connected_time":635000000000,"state":"active","ping":40},{"user_id":363,"name":"Genesis","steam_id":76561198128885863,"connected_time":3847000000000,"state":"active","ping":54},{"user_id":414,"name":"SaltySeaBiscuts","steam_id":76561199204549005,"connected_time":623000000000,"state":"active","ping":125},{"user_id":415,"name":"Proto-arc","steam_id":76561198012776747,"connected_time":552000000000,"state":"active","ping":50},{"user_id":416,"name":"Piellino","steam_id":76561198156873276,"connected_time":548000000000,"state":"active","ping":120},{"user_id":402,"name":"Kalypso","steam_id":76561198241519562,"connected_time":1205000000000,"state":"active","ping":90},{"user_id":403,"name":"Woman (Real)","steam_id":76561199151823932,"connected_time":1203000000000,"state":"active","ping":80},{"user_id":418,"name":"Idkmxhx","steam_id":76561198110935755,"connected_time":385000000000,"state":"active","ping":85},{"user_id":404,"name":"Washed up medic main","steam_id":76561198347336086,"connected_time":1201000000000,"state":"active","ping":49}]},{"server_id":40,"name":"Uncletopia | London | 7 | No Payload","name_short":"lon-7","host":"lon-1.uk.uncletopia.com","port":27075,"enabled":true,"region":"eu","cc":"gb","latitude":51.509865,"longitude":-0.118092,"reserved":0,"last_update":"0001-01-01T00:00:00Z","name_a2s":"Uncletopia | London | 7 | No Payload","protocol":17,"map":"cp_metalworks","folder":"tf","game":"Team Fortress","app_id":440,"player_count":0,"max_players":24,"Bots":0,"server_type":"Dedicated","server_os":"Linux","password":true,"vac":true,"version":"7757534","steam_id":85568392924964314,"keywords":["cp","nocrits","nodmgspread","uncletopia"],"game_id":440,"stv_port":27076,"stv_name":"Uncletopia | London | 7 | No Payload | STV","players":null},{"server_id":41,"name":"Uncletopia | London | 8 | Community","name_short":"lon-8","host":"lon-1.uk.uncletopia.com","port":27085,"enabled":true,"region":"eu","cc":"gb","latitude":51.509865,"longitude":-0.118092,"reserved":0,"last_update":"0001-01-01T00:00:00Z","name_a2s":"Uncletopia | London | 8 | Community","protocol":17,"map":"workshop/pl_cactuscanyon_redux_rc4b.ugc2579644293","folder":"tf","game":"Team Fortress","app_id":440,"player_count":13,"max_players":24,"Bots":0,"server_type":"Dedicated","server_os":"Linux","password":true,"vac":true,"version":"7757534","steam_id":85568392924964315,"keywords":["nocrits","nodmgspread","payload","uncletopia"],"game_id":440,"stv_port":27086,"stv_name":"Uncletopia | London | 8 | Community | STV","players":[{"user_id":79,"name":"big al","steam_id":76561198800662675,"connected_time":3278000000000,"state":"active","ping":60},{"user_id":110,"name":"Sam","steam_id":76561198203070687,"connected_time":863000000000,"state":"active","ping":57},{"user_id":119,"name":"Connnnair","steam_id":76561198156075754,"connected_time":32000000000,"state":"active","ping":150},{"user_id":112,"name":"Merca #savetf2","steam_id":76561198088782472,"connected_time":696000000000,"state":"active","ping":56},{"user_id":104,"name":"TheRowdyGamer_","steam_id":76561198829553046,"connected_time":1046000000000,"state":"active","ping":57},{"user_id":113,"name":"Le Chevalier Pingouin","steam_id":76561198221355000,"connected_time":693000000000,"state":"active","ping":40},{"user_id":105,"name":"Gogu","steam_id":76561198287835342,"connected_time":1012000000000,"state":"active","ping":89},{"user_id":114,"name":"htraB","steam_id":76561198043122677,"connected_time":589000000000,"state":"active","ping":65},{"user_id":115,"name":"the joy of recycling","steam_id":76561198138509827,"connected_time":582000000000,"state":"active","ping":75},{"user_id":117,"name":"Zaf-Zaf","steam_id":76561198192667798,"connected_time":452000000000,"state":"active","ping":56},{"user_id":118,"name":"that1pig","steam_id":76561198185459619,"connected_time":439000000000,"state":"active","ping":62},{"user_id":106,"name":"ALL IN","steam_id":76561198809860267,"connected_time":985000000000,"state":"active","ping":93},{"user_id":109,"name":"deianrty","steam_id":76561199209632672,"connected_time":969000000000,"state":"active","ping":79}]},{"server_id":300,"name":"Uncletopia | Montréal | 1 | All Maps","name_short":"mtl-1","host":"mtl-1.ca.uncletopia.com","port":27015,"enabled":true,"region":"us-east","cc":"ca","latitude":45.50889,"longitude":-73.56167,"reserved":0,"last_update":"0001-01-01T00:00:00Z","name_a2s":"Uncletopia | Montréal | 1 | All Maps","protocol":17,"map":"koth_viaduct","folder":"tf","game":"Team Fortress","app_id":440,"player_count":0,"max_players":24,"Bots":0,"server_type":"Dedicated","server_os":"Linux","password":true,"vac":true,"version":"7757534","steam_id":85568392924500087,"keywords":["cp","nocrits","nodmgspread","uncletopia"],"game_id":440,"stv_port":27016,"stv_name":"Uncletopia | Montréal | 1 | All Maps | STV","players":null},{"server_id":301,"name":"Uncletopia | Montréal | 2 | All Maps","name_short":"mtl-2","host":"mtl-1.ca.uncletopia.com","port":27025,"enabled":true,"region":"us-east","cc":"ca","latitude":45.50889,"longitude":-73.56167,"reserved":0,"last_update":"0001-01-01T00:00:00Z","name_a2s":"Uncletopia | Montréal | 2 | All Maps","protocol":17,"map":"pl_badwater","folder":"tf","game":"Team Fortress","app_id":440,"player_count":10,"max_players":24,"Bots":0,"server_type":"Dedicated","server_os":"Linux","password":true,"vac":true,"version":"7757534","steam_id":85568392924500088,"keywords":["nocrits","nodmgspread","payload","uncletopia"],"game_id":440,"stv_port":27026,"stv_name":"Uncletopia | Montréal | 2 | All Maps | STV","players":[{"user_id":8,"name":"Kiervce","steam_id":76561199175427371,"connected_time":2747000000000,"state":"active","ping":59},{"user_id":6,"name":"aisonsndoahish","steam_id":76561199443965774,"connected_time":5499000000000,"state":"active","ping":124},{"user_id":24,"name":"BIGGEST MAC","steam_id":76561198847517098,"connected_time":687000000000,"state":"active","ping":80},{"user_id":10,"name":"matthew.lovatt","steam_id":76561198280681132,"connected_time":2354000000000,"state":"active","ping":201},{"user_id":18,"name":"Chicken but","steam_id":76561198257872736,"connected_time":1821000000000,"state":"active","ping":46},{"user_id":28,"name":"Coco","steam_id":76561199047858865,"connected_time":168000000000,"state":"active","ping":66},{"user_id":26,"name":"limegrass619","steam_id":76561198167789909,"connected_time":511000000000,"state":"active","ping":144},{"user_id":29,"name":"WM1 PYRO","steam_id":76561198045893896,"connected_time":122000000000,"state":"active","ping":106},{"user_id":16,"name":"alexwasherefirst","steam_id":76561198846755124,"connected_time":1889000000000,"state":"active","ping":132},{"user_id":17,"name":"Weary","steam_id":76561199129017139,"connected_time":1869000000000,"state":"active","ping":58}]},{"server_id":302,"name":"Uncletopia | Montréal | 3 | All Maps","name_short":"mtl-3","host":"mtl-1.ca.uncletopia.com","port":27035,"enabled":true,"region":"us-east","cc":"ca","latitude":45.50889,"longitude":-73.56167,"reserved":0,"last_update":"0001-01-01T00:00:00Z","name_a2s":"Uncletopia | Montréal | 3 | All Maps","protocol":17,"map":"koth_cascade","folder":"tf","game":"Team Fortress","app_id":440,"player_count":0,"max_players":24,"Bots":0,"server_type":"Dedicated","server_os":"Linux","password":true,"vac":true,"version":"7757534","steam_id":85568392924500089,"keywords":["cp","nocrits","nodmgspread","uncletopia"],"game_id":440,"stv_port":27036,"stv_name":"Uncletopia | Montréal | 3 | All Maps | STV","players":null},{"server_id":303,"name":"Uncletopia | Montréal | 4 | No Payload","name_short":"mtl-4","host":"mtl-1.ca.uncletopia.com","port":27045,"enabled":true,"region":"us-east","cc":"ca","latitude":45.50889,"longitude":-73.56167,"reserved":0,"last_update":"0001-01-01T00:00:00Z","name_a2s":"Uncletopia | Montréal | 4 | No Payload","protocol":17,"map":"koth_lakeside_final","folder":"tf","game":"Team Fortress","app_id":440,"player_count":0,"max_players":24,"Bots":0,"server_type":"Dedicated","server_os":"Linux","password":true,"vac":true,"version":"7757534","steam_id":85568392924500090,"keywords":["cp","nocrits","nodmgspread","uncletopia"],"game_id":440,"stv_port":27046,"stv_name":"Uncletopia | Montréal | 4 | No Payload | STV","players":null},{"server_id":13,"name":"Uncletopia | New York City | 1 | All Maps","name_short":"nyc-1","host":"nyc-1.us.uncletopia.com","port":27015,"enabled":true,"region":"us-east","cc":"us","latitude":40.73061,"longitude":-73.93524,"reserved":0,"last_update":"0001-01-01T00:00:00Z","name_a2s":"Uncletopia | New York City | 1 | All Maps","protocol":17,"map":"pl_swiftwater_final1","folder":"tf","game":"Team Fortress","app_id":440,"player_count":23,"max_players":24,"Bots":0,"server_type":"Dedicated","server_os":"Linux","password":true,"vac":true,"version":"7757534","steam_id":85568392924469993,"keywords":["nocrits","nodmgspread","payload","uncletopia"],"game_id":440,"stv_port":27016,"stv_name":"Uncletopia | New York City | 1 | All Maps | STV","players":[{"user_id":137,"name":"30day","steam_id":76561198219163831,"connected_time":863000000000,"state":"active","ping":60},{"user_id":120,"name":"O.o","steam_id":76561198056871257,"connected_time":2046000000000,"state":"active","ping":45},{"user_id":119,"name":"The Circle rules Your Life","steam_id":76561198072095399,"connected_time":2055000000000,"state":"active","ping":39},{"user_id":124,"name":"*","steam_id":76561198173047169,"connected_time":2000000000000,"state":"active","ping":45},{"user_id":144,"name":"cellogamer","steam_id":76561198016937098,"connected_time":745000000000,"state":"active","ping":55},{"user_id":79,"name":"PzVIIIMaus","steam_id":76561198346559365,"connected_time":4354000000000,"state":"active","ping":52},{"user_id":162,"name":"❤ Ashley ❤","steam_id":76561198056428303,"connected_time":316000000000,"state":"active","ping":108},{"user_id":131,"name":"DS8U","steam_id":76561198151554321,"connected_time":1181000000000,"state":"active","ping":76},{"user_id":128,"name":"Cheeseburger Terrorist","steam_id":76561199071928945,"connected_time":1585000000000,"state":"active","ping":49},{"user_id":140,"name":"Flooper02","steam_id":76561199160709507,"connected_time":792000000000,"state":"active","ping":68},{"user_id":112,"name":"117Crap?","steam_id":76561198047707806,"connected_time":2317000000000,"state":"active","ping":72},{"user_id":126,"name":"medic 2","steam_id":76561198057149083,"connected_time":1768000000000,"state":"active","ping":85},{"user_id":141,"name":"slickjay101","steam_id":76561199454344791,"connected_time":784000000000,"state":"active","ping":68},{"user_id":142,"name":"jumbo shrimp","steam_id":76561199085931379,"connected_time":759000000000,"state":"active","ping":72},{"user_id":100,"name":"SquirrelAway™","steam_id":76561197998828619,"connected_time":3022000000000,"state":"active","ping":86},{"user_id":136,"name":"MEATBALL","steam_id":76561198028499312,"connected_time":929000000000,"state":"active","ping":53},{"user_id":62,"name":"beats","steam_id":76561199245717718,"connected_time":5232000000000,"state":"active","ping":56},{"user_id":154,"name":"bikerkid207","steam_id":76561198390782783,"connected_time":509000000000,"state":"active","ping":59},{"user_id":105,"name":"simplyhere141","steam_id":76561199204117948,"connected_time":2701000000000,"state":"active","ping":47},{"user_id":110,"name":"(1)medic 2","steam_id":76561198053046161,"connected_time":2430000000000,"state":"active","ping":48},{"user_id":125,"name":"ebbaxter13","steam_id":76561198839647688,"connected_time":1999000000000,"state":"active","ping":69},{"user_id":109,"name":"trippingbull419","steam_id":76561199111639935,"connected_time":2491000000000,"state":"active","ping":84},{"user_id":135,"name":"Chimpin723","steam_id":76561199388637537,"connected_time":990000000000,"state":"active","ping":55}]},{"server_id":14,"name":"Uncletopia | New York City | 2 | All Maps","name_short":"nyc-2","host":"nyc-1.us.uncletopia.com","port":27025,"enabled":true,"region":"us-east","cc":"us","latitude":40.73061,"longitude":-73.93524,"reserved":0,"last_update":"0001-01-01T00:00:00Z","name_a2s":"Uncletopia | New York City | 2 | All Maps","protocol":17,"map":"cp_dustbowl","folder":"tf","game":"Team Fortress","app_id":440,"player_count":24,"max_players":24,"Bots":0,"server_type":"Dedicated","server_os":"Linux","password":true,"vac":true,"version":"7757534","steam_id":85568392924469994,"keywords":["cp","nocrits","nodmgspread","uncletopia"],"game_id":440,"stv_port":27026,"stv_name":"Uncletopia | New York City | 2 | All Maps | STV","players":[{"user_id":595,"name":"Scooter O'Boyl","steam_id":76561197971687069,"connected_time":885000000000,"state":"active","ping":69},{"user_id":601,"name":"Dracoza_","steam_id":76561199177611911,"connected_time":630000000000,"state":"active","ping":79},{"user_id":552,"name":"Master Bateman","steam_id":76561198131400543,"connected_time":3773000000000,"state":"active","ping":84},{"user_id":496,"name":"TheWallaby","steam_id":76561198948037546,"connected_time":8309000000000,"state":"active","ping":52},{"user_id":608,"name":"Trans Bumblebee","steam_id":76561198119393205,"connected_time":128000000000,"state":"active","ping":76},{"user_id":606,"name":"4ling","steam_id":76561197994398381,"connected_time":335000000000,"state":"active","ping":53},{"user_id":602,"name":"=FAZE= Fernandinho the Eggplant","steam_id":76561198042988373,"connected_time":615000000000,"state":"active","ping":59},{"user_id":609,"name":"Heropon","steam_id":76561198105224481,"connected_time":90000000000,"state":"active","ping":57},{"user_id":607,"name":"Ursus Ludius","steam_id":76561198025470722,"connected_time":316000000000,"state":"active","ping":69},{"user_id":489,"name":"bimbo blow up doll! \u003c3","steam_id":76561198959541006,"connected_time":9621000000000,"state":"active","ping":72},{"user_id":580,"name":"Ferguson","steam_id":76561198121349387,"connected_time":1431000000000,"state":"active","ping":84},{"user_id":570,"name":"WhoIsFrosty","steam_id":76561198880588117,"connected_time":2092000000000,"state":"active","ping":75},{"user_id":610,"name":"guyinatophat51","steam_id":76561198180230694,"connected_time":75000000000,"state":"active","ping":86},{"user_id":554,"name":"Jadthegamerofgames","steam_id":76561198310575719,"connected_time":3711000000000,"state":"active","ping":47},{"user_id":605,"name":"Ham Fatty","steam_id":76561198071454198,"connected_time":373000000000,"state":"active","ping":99},{"user_id":416,"name":"kwout","steam_id":76561197997139225,"connected_time":15486000000000,"state":"active","ping":48},{"user_id":586,"name":"PoptheTarts","steam_id":76561198241106268,"connected_time":1325000000000,"state":"active","ping":103},{"user_id":594,"name":"Snorty","steam_id":76561198114304454,"connected_time":899000000000,"state":"active","ping":79},{"user_id":543,"name":"Ozy","steam_id":76561198257359584,"connected_time":4089000000000,"state":"active","ping":152},{"user_id":564,"name":"Moofins","steam_id":76561198050291949,"connected_time":2801000000000,"state":"active","ping":69},{"user_id":485,"name":"Eden","steam_id":76561198075587475,"connected_time":9895000000000,"state":"active","ping":70},{"user_id":598,"name":"titular tube","steam_id":76561198057374871,"connected_time":859000000000,"state":"active","ping":76},{"user_id":579,"name":"Mr. Soupman","steam_id":76561198021649598,"connected_time":1656000000000,"state":"active","ping":36},{"user_id":600,"name":"Smooth - Santana ft. Rob Thomas","steam_id":76561198145283389,"connected_time":715000000000,"state":"active","ping":55}]},{"server_id":15,"name":"Uncletopia | New York City | 3 | Stopwatch Beta","name_short":"nyc-3","host":"nyc-1.us.uncletopia.com","port":27035,"enabled":true,"region":"us-east","cc":"us","latitude":40.73061,"longitude":-73.93524,"reserved":0,"last_update":"0001-01-01T00:00:00Z","name_a2s":"Uncletopia | New York City | 3 | Stopwatch Beta","protocol":17,"map":"workshop/pl_barnblitz_pro7.ugc582280235","folder":"tf","game":"Team Fortress","app_id":440,"player_count":0,"max_players":24,"Bots":0,"server_type":"Dedicated","server_os":"Linux","password":true,"vac":true,"version":"7757534","steam_id":85568392924742820,"keywords":["nocrits","nodmgspread","payload","uncletopia"],"game_id":440,"stv_port":27036,"stv_name":"Uncletopia | New York City | 3 | Stopwatch Beta | STV","players":null},{"server_id":16,"name":"Uncletopia | New York City | 4 | Community","name_short":"nyc-4","host":"nyc-1.us.uncletopia.com","port":27045,"enabled":true,"region":"us-east","cc":"us","latitude":40.73061,"longitude":-73.93524,"reserved":0,"last_update":"0001-01-01T00:00:00Z","name_a2s":"Uncletopia | New York City | 4 | Community","protocol":17,"map":"workshop/koth_ashville_final.ugc2130459942","folder":"tf","game":"Team Fortress","app_id":440,"player_count":24,"max_players":24,"Bots":0,"server_type":"Dedicated","server_os":"Linux","password":true,"vac":true,"version":"7757534","steam_id":85568392924742821,"keywords":["cp","nocrits","nodmgspread","uncletopia"],"game_id":440,"stv_port":27046,"stv_name":"Uncletopia | New York City | 4 | Community | STV","players":[{"user_id":275,"name":"Ninty","steam_id":76561199364725776,"connected_time":646000000000,"state":"active","ping":86},{"user_id":273,"name":"new years hooters","steam_id":76561198068022595,"connected_time":737000000000,"state":"active","ping":46},{"user_id":285,"name":"Rat Smacker","steam_id":76561198158567701,"connected_time":301000000000,"state":"active","ping":66},{"user_id":291,"name":"Berries","steam_id":76561198109312962,"connected_time":180000000000,"state":"active","ping":63},{"user_id":270,"name":"Eviscerator","steam_id":76561197980073637,"connected_time":1260000000000,"state":"active","ping":87},{"user_id":287,"name":"*Monkey Noises*","steam_id":76561198136529691,"connected_time":234000000000,"state":"active","ping":130},{"user_id":257,"name":"Gheeotine","steam_id":76561198010181698,"connected_time":3379000000000,"state":"active","ping":77},{"user_id":280,"name":"FreonAddict9x19","steam_id":76561198060010824,"connected_time":472000000000,"state":"active","ping":67},{"user_id":236,"name":"Godmode","steam_id":76561198076240365,"connected_time":5433000000000,"state":"active","ping":109},{"user_id":269,"name":"dr peppah chug!","steam_id":76561198068835693,"connected_time":1380000000000,"state":"active","ping":79},{"user_id":262,"name":"stuporvillian","steam_id":76561198083796225,"connected_time":2057000000000,"state":"active","ping":85},{"user_id":205,"name":"Fudgely","steam_id":76561198039425862,"connected_time":8439000000000,"state":"active","ping":64},{"user_id":288,"name":"Mentally Idle","steam_id":76561198889455609,"connected_time":221000000000,"state":"active","ping":54},{"user_id":289,"name":"BluElephant","steam_id":76561198286177533,"connected_time":220000000000,"state":"active","ping":55},{"user_id":212,"name":"riri ᗜᴗᗜ","steam_id":76561198055462404,"connected_time":8000000000000,"state":"active","ping":106},{"user_id":290,"name":"Professor Piper","steam_id":76561198156041205,"connected_time":202000000000,"state":"active","ping":59},{"user_id":292,"name":"Huntpk","steam_id":76561198340591674,"connected_time":171000000000,"state":"active","ping":72},{"user_id":296,"name":"Im totally a hacker","steam_id":76561198888005736,"connected_time":22000000000,"state":"spawning","ping":153},{"user_id":247,"name":"Kitt(eh) ∑:3","steam_id":76561198110858518,"connected_time":3966000000000,"state":"active","ping":69},{"user_id":266,"name":"stardusttt","steam_id":76561198413930183,"connected_time":1789000000000,"state":"active","ping":45},{"user_id":252,"name":"Lawrence Pemberton","steam_id":76561198180863090,"connected_time":3677000000000,"state":"active","ping":78},{"user_id":264,"name":"miguel.hernandez.2012","steam_id":76561198285192693,"connected_time":1937000000000,"state":"active","ping":63},{"user_id":225,"name":"Chemo","steam_id":76561197961308370,"connected_time":6790000000000,"state":"active","ping":54}]},{"server_id":142,"name":"Uncletopia | São Paulo | 1 | All Maps","name_short":"sao-1","host":"sao-1.br.uncletopia.com","port":27015,"enabled":true,"region":"sa","cc":"br","latitude":-23.533773,"longitude":-46.62529,"reserved":0,"last_update":"0001-01-01T00:00:00Z","name_a2s":"Uncletopia | São Paulo | 1 | All Maps","protocol":17,"map":"koth_lakeside_final","folder":"tf","game":"Team Fortress","app_id":440,"player_count":0,"max_players":24,"Bots":0,"server_type":"Dedicated","server_os":"Linux","password":true,"vac":true,"version":"7757534","steam_id":85568392924469996,"keywords":["cp","nocrits","nodmgspread","uncletopia"],"game_id":440,"stv_port":27016,"stv_name":"Uncletopia | São Paulo | 1 | All Maps | STV","players":null},{"server_id":143,"name":"Uncletopia | São Paulo | 2 | All Maps","name_short":"sao-2","host":"sao-2.br.uncletopia.com","port":27015,"enabled":true,"region":"sa","cc":"br","latitude":-23.533773,"longitude":-46.62529,"reserved":0,"last_update":"0001-01-01T00:00:00Z","name_a2s":"Uncletopia | São Paulo | 2 | All Maps","protocol":17,"map":"pl_badwater","folder":"tf","game":"Team Fortress","app_id":440,"player_count":19,"max_players":24,"Bots":0,"server_type":"Dedicated","server_os":"Linux","password":true,"vac":true,"version":"7757534","steam_id":85568392924485349,"keywords":["nocrits","nodmgspread","payload","uncletopia"],"game_id":440,"stv_port":27016,"stv_name":"Uncletopia | São Paulo | 2 | All Maps | STV","players":[{"user_id":188,"name":"B1-268","steam_id":76561198191475573,"connected_time":1143000000000,"state":"active","ping":48},{"user_id":182,"name":"Zoom!","steam_id":76561198289562649,"connected_time":1603000000000,"state":"active","ping":43},{"user_id":201,"name":"El MARICOTA","steam_id":76561198253606882,"connected_time":168000000000,"state":"active","ping":139},{"user_id":200,"name":"beto","steam_id":76561199468359485,"connected_time":450000000000,"state":"active","ping":57},{"user_id":202,"name":"trolled","steam_id":76561198186907834,"connected_time":141000000000,"state":"active","ping":127},{"user_id":199,"name":"iGOD","steam_id":76561198080764351,"connected_time":505000000000,"state":"active","ping":95},{"user_id":185,"name":".fnord","steam_id":76561198119754613,"connected_time":1187000000000,"state":"active","ping":46},{"user_id":189,"name":"keshik","steam_id":76561198867928520,"connected_time":1093000000000,"state":"active","ping":47},{"user_id":203,"name":"Emperor Reinhard","steam_id":76561198181006839,"connected_time":129000000000,"state":"active","ping":73},{"user_id":204,"name":"Ducknator","steam_id":76561198053365492,"connected_time":120000000000,"state":"active","ping":109},{"user_id":155,"name":"RHD BRAZIL [\u003c O \u003e]","steam_id":76561198028190080,"connected_time":3875000000000,"state":"active","ping":46},{"user_id":205,"name":"rafx","steam_id":76561198083321227,"connected_time":25000000000,"state":"active","ping":80},{"user_id":157,"name":"Capitão JooJ™","steam_id":76561198150426885,"connected_time":3685000000000,"state":"active","ping":47},{"user_id":146,"name":"MidNightPoison","steam_id":76561199071181809,"connected_time":4425000000000,"state":"active","ping":74},{"user_id":197,"name":"SCARFACE™","steam_id":76561198227772584,"connected_time":627000000000,"state":"active","ping":76},{"user_id":158,"name":"CJAIME01345","steam_id":76561199091599141,"connected_time":3599000000000,"state":"active","ping":90},{"user_id":198,"name":"Nothing Rain","steam_id":76561198127225425,"connected_time":534000000000,"state":"active","ping":45},{"user_id":150,"name":"TomatoSandwich","steam_id":76561199080817141,"connected_time":4151000000000,"state":"active","ping":74},{"user_id":161,"name":"MrRodje™","steam_id":76561198058756855,"connected_time":3542000000000,"state":"active","ping":74}]},{"server_id":7,"name":"Uncletopia | Seattle | 1 | All Maps","name_short":"sea-1","host":"sea-1.us.uncletopia.com","port":27015,"enabled":true,"region":"us-west","cc":"us","latitude":47.608013,"longitude":-122.33517,"reserved":0,"last_update":"0001-01-01T00:00:00Z","name_a2s":"Uncletopia | Seattle | 1 | All Maps","protocol":17,"map":"cp_steel","folder":"tf","game":"Team Fortress","app_id":440,"player_count":24,"max_players":24,"Bots":0,"server_type":"Dedicated","server_os":"Linux","password":true,"vac":true,"version":"7757534","steam_id":85568392924469997,"keywords":["cp","nocrits","nodmgspread","uncletopia"],"game_id":440,"stv_port":27016,"stv_name":"Uncletopia | Seattle | 1 | All Maps | STV","players":[{"user_id":365,"name":"dust","steam_id":76561198045218909,"connected_time":350000000000,"state":"active","ping":42},{"user_id":370,"name":"East","steam_id":76561197973050453,"connected_time":296000000000,"state":"active","ping":38},{"user_id":375,"name":"ah piss I left the oven on agai","steam_id":76561198160569248,"connected_time":253000000000,"state":"active","ping":53},{"user_id":359,"name":"Walrus","steam_id":76561198001799905,"connected_time":1147000000000,"state":"active","ping":79},{"user_id":357,"name":"PLATYPUS","steam_id":76561198255796625,"connected_time":1319000000000,"state":"active","ping":168},{"user_id":308,"name":"jacix3 [gay wolfgirl]{she/it}","steam_id":76561198205004165,"connected_time":5149000000000,"state":"active","ping":58},{"user_id":372,"name":"Huntsman Legend","steam_id":76561199122670387,"connected_time":280000000000,"state":"active","ping":95},{"user_id":348,"name":"monterman115","steam_id":76561199054688085,"connected_time":1651000000000,"state":"active","ping":126},{"user_id":371,"name":"Gaming","steam_id":76561198327632113,"connected_time":295000000000,"state":"active","ping":46},{"user_id":346,"name":"Julien","steam_id":76561199389584938,"connected_time":1723000000000,"state":"active","ping":42},{"user_id":339,"name":"Optimore","steam_id":76561198047662990,"connected_time":2092000000000,"state":"active","ping":75},{"user_id":330,"name":"Sam","steam_id":76561198146472900,"connected_time":2701000000000,"state":"active","ping":70},{"user_id":349,"name":"AAAAAAAAAAAAAAAAAAAAAAAAAAAAAAA","steam_id":76561198817866879,"connected_time":1650000000000,"state":"active","ping":135},{"user_id":373,"name":"helloyes_123","steam_id":76561198184669555,"connected_time":277000000000,"state":"active","ping":74},{"user_id":326,"name":"cassius","steam_id":76561198203851303,"connected_time":2941000000000,"state":"active","ping":80},{"user_id":331,"name":"Ullapool Caber","steam_id":76561198349311667,"connected_time":2657000000000,"state":"active","ping":91},{"user_id":341,"name":"Whizzo the Clown","steam_id":76561197995910627,"connected_time":2061000000000,"state":"active","ping":141},{"user_id":368,"name":"spacetoven","steam_id":76561198115821131,"connected_time":307000000000,"state":"active","ping":74},{"user_id":374,"name":"Roz257","steam_id":76561198842844532,"connected_time":265000000000,"state":"active","ping":124},{"user_id":361,"name":"quack","steam_id":76561198242362464,"connected_time":1109000000000,"state":"active","ping":113},{"user_id":350,"name":"a narwhal thing","steam_id":76561198175955138,"connected_time":1647000000000,"state":"active","ping":76},{"user_id":351,"name":"RinkusDinkus","steam_id":76561199183721222,"connected_time":1646000000000,"state":"active","ping":142},{"user_id":354,"name":"Local","steam_id":76561198170915102,"connected_time":1554000000000,"state":"active","ping":58},{"user_id":364,"name":"Sweets","steam_id":76561198998446307,"connected_time":353000000000,"state":"active","ping":65}]},{"server_id":119,"name":"Uncletopia | Seattle | 2 | All Maps","name_short":"sea-2","host":"sea-1.us.uncletopia.com","port":27025,"enabled":true,"region":"us-west","cc":"us","latitude":47.608013,"longitude":-122.33517,"reserved":0,"last_update":"0001-01-01T00:00:00Z","name_a2s":"Uncletopia | Seattle | 2 | All Maps","protocol":17,"map":"pl_barnblitz","folder":"tf","game":"Team Fortress","app_id":440,"player_count":24,"max_players":24,"Bots":0,"server_type":"Dedicated","server_os":"Linux","password":true,"vac":true,"version":"7757534","steam_id":85568392924469998,"keywords":["nocrits","nodmgspread","payload","uncletopia"],"game_id":440,"stv_port":27026,"stv_name":"Uncletopia | Seattle | 2 | All Maps | STV","players":[{"user_id":195,"name":"Batso","steam_id":76561198106589452,"connected_time":2176000000000,"state":"active","ping":98},{"user_id":219,"name":"EEBIGAA","steam_id":76561198056535988,"connected_time":160000000000,"state":"active","ping":72},{"user_id":217,"name":"pizzalover_2014","steam_id":76561198870649125,"connected_time":345000000000,"state":"active","ping":76},{"user_id":214,"name":"Bubbamanme","steam_id":76561198119778504,"connected_time":437000000000,"state":"active","ping":61},{"user_id":210,"name":"Ari","steam_id":76561198183269215,"connected_time":833000000000,"state":"active","ping":98},{"user_id":175,"name":"E-ferret","steam_id":76561198394134715,"connected_time":2647000000000,"state":"active","ping":143},{"user_id":163,"name":"Themasterman75","steam_id":76561199385573293,"connected_time":3264000000000,"state":"active","ping":68},{"user_id":199,"name":"MyMonkeyBaby","steam_id":76561198046896670,"connected_time":1763000000000,"state":"active","ping":59},{"user_id":176,"name":"Wyatt the Wallaby","steam_id":76561198151881388,"connected_time":2640000000000,"state":"active","ping":143},{"user_id":177,"name":"Big Gazza","steam_id":76561199030963367,"connected_time":2618000000000,"state":"active","ping":56},{"user_id":178,"name":"WayPastMeh","steam_id":76561198440277329,"connected_time":2608000000000,"state":"active","ping":62},{"user_id":179,"name":"The Pepsi® Superbowl®!","steam_id":76561198080828981,"connected_time":2603000000000,"state":"active","ping":79},{"user_id":203,"name":"Dog","steam_id":76561197979056451,"connected_time":1474000000000,"state":"active","ping":47},{"user_id":181,"name":"Bacon Boy","steam_id":76561199284869546,"connected_time":2535000000000,"state":"active","ping":55},{"user_id":196,"name":"Alpharius","steam_id":76561197996284353,"connected_time":2158000000000,"state":"active","ping":73},{"user_id":197,"name":"MAN RAY","steam_id":76561198198403873,"connected_time":2073000000000,"state":"active","ping":128},{"user_id":185,"name":"TinyBandaid","steam_id":76561199118787289,"connected_time":2458000000000,"state":"active","ping":104},{"user_id":218,"name":"Psychic","steam_id":76561198086675590,"connected_time":297000000000,"state":"active","ping":87},{"user_id":209,"name":"Naffers","steam_id":76561198195957335,"connected_time":888000000000,"state":"active","ping":45},{"user_id":220,"name":"MarshallMellows","steam_id":76561198231561020,"connected_time":130000000000,"state":"active","ping":58},{"user_id":189,"name":"Trenbolone Acetate 10ml","steam_id":76561198970233482,"connected_time":2362000000000,"state":"active","ping":57},{"user_id":200,"name":"hoOmIN","steam_id":76561198334947079,"connected_time":1571000000000,"state":"active","ping":74},{"user_id":216,"name":"well i'll be","steam_id":76561198272092906,"connected_time":402000000000,"state":"active","ping":97},{"user_id":194,"name":"The_LiverKing","steam_id":76561198189716435,"connected_time":2203000000000,"state":"active","ping":58}]},{"server_id":406,"name":"Uncletopia | Seattle | 3 | Stopwatch Beta","name_short":"sea-3","host":"sea-1.us.uncletopia.com","port":27035,"enabled":true,"region":"us-west","cc":"us","latitude":47.608013,"longitude":-122.33517,"reserved":0,"last_update":"0001-01-01T00:00:00Z","name_a2s":"Uncletopia | Seattle | 3 | Stopwatch Beta","protocol":17,"map":"koth_lakeside_final","folder":"tf","game":"Team Fortress","app_id":440,"player_count":1,"max_players":24,"Bots":0,"server_type":"Dedicated","server_os":"Linux","password":true,"vac":true,"version":"7757534","steam_id":85568392924515217,"keywords":["cp","nocrits","nodmgspread","uncletopia"],"game_id":440,"stv_port":27036,"stv_name":"Uncletopia | Seattle | 3 | Stopwatch Beta | STV","players":[{"user_id":6,"name":"Cloud","steam_id":76561198272454184,"connected_time":42000000000,"state":"active","ping":167}]},{"server_id":17,"name":"Uncletopia | San Francisco | 1 | All Maps","name_short":"sfo-1","host":"sfo-1.us.uncletopia.com","port":27015,"enabled":true,"region":"us-west","cc":"us","latitude":37.77397,"longitude":-122.4313,"reserved":0,"last_update":"0001-01-01T00:00:00Z","name_a2s":"Uncletopia | San Francisco | 1 | All Maps","protocol":17,"map":"pl_borneo","folder":"tf","game":"Team Fortress","app_id":440,"player_count":0,"max_players":24,"Bots":0,"server_type":"Dedicated","server_os":"Linux","password":true,"vac":true,"version":"7757534","steam_id":85568392924469999,"keywords":["nocrits","nodmgspread","payload","uncletopia"],"game_id":440,"stv_port":27016,"stv_name":"Uncletopia | San Francisco | 1 | All Maps | STV","players":null},{"server_id":18,"name":"Uncletopia | San Francisco | 2 | All Maps","name_short":"sfo-2","host":"sfo-1.us.uncletopia.com","port":27025,"enabled":true,"region":"us-west","cc":"us","latitude":37.77397,"longitude":-122.4313,"reserved":0,"last_update":"0001-01-01T00:00:00Z","name_a2s":"Uncletopia | San Francisco | 2 | All Maps","protocol":17,"map":"cp_mountainlab","folder":"tf","game":"Team Fortress","app_id":440,"player_count":0,"max_players":24,"Bots":0,"server_type":"Dedicated","server_os":"Linux","password":true,"vac":true,"version":"7757534","steam_id":85568392924470000,"keywords":["cp","nocrits","nodmgspread","uncletopia"],"game_id":440,"stv_port":27026,"stv_name":"Uncletopia | San Francisco | 2 | All Maps | STV","players":null},{"server_id":19,"name":"Uncletopia | San Francisco | 3 | Stopwatch Beta","name_short":"sfo-3","host":"sfo-1.us.uncletopia.com","port":27035,"enabled":true,"region":"us-west","cc":"us","latitude":37.77397,"longitude":-122.4313,"reserved":0,"last_update":"0001-01-01T00:00:00Z","name_a2s":"Uncletopia | San Francisco | 3 | Stopwatch Beta","protocol":17,"map":"koth_viaduct","folder":"tf","game":"Team Fortress","app_id":440,"player_count":0,"max_players":24,"Bots":0,"server_type":"Dedicated","server_os":"Linux","password":true,"vac":true,"version":"7757534","steam_id":85568392924742824,"keywords":["cp","nocrits","nodmgspread","uncletopia"],"game_id":440,"stv_port":27036,"stv_name":"Uncletopia | San Francisco | 3 | Stopwatch Beta | STV","players":null},{"server_id":20,"name":"Uncletopia | San Francisco | 4 | Community","name_short":"sfo-4","host":"sfo-1.us.uncletopia.com","port":27045,"enabled":true,"region":"us-west","cc":"us","latitude":37.77397,"longitude":-122.4313,"reserved":0,"last_update":"0001-01-01T00:00:00Z","name_a2s":"Uncletopia | San Francisco | 4 | Community","protocol":17,"map":"pl_borneo","folder":"tf","game":"Team Fortress","app_id":440,"player_count":0,"max_players":24,"Bots":0,"server_type":"Dedicated","server_os":"Linux","password":true,"vac":true,"version":"7757534","steam_id":85568392924742826,"keywords":["nocrits","nodmgspread","payload","uncletopia"],"game_id":440,"stv_port":27046,"stv_name":"Uncletopia | San Francisco | 4 | Community | STV","players":null},{"server_id":141,"name":"Uncletopia | Sydney | 1 | All Maps","name_short":"syd-1","host":"syd-1.au.uncletopia.com","port":27015,"enabled":true,"region":"au","cc":"au","latitude":-33.865143,"longitude":151.2099,"reserved":0,"last_update":"0001-01-01T00:00:00Z","name_a2s":"Uncletopia | Sydney | 1 | All Maps","protocol":17,"map":"koth_lakeside_final","folder":"tf","game":"Team Fortress","app_id":440,"player_count":0,"max_players":24,"Bots":0,"server_type":"Dedicated","server_os":"Linux","password":true,"vac":true,"version":"7757534","steam_id":85568392924470001,"keywords":["cp","nocrits","nodmgspread","uncletopia"],"game_id":440,"stv_port":27016,"stv_name":"Uncletopia | Sydney | 1 | All Maps | STV","players":null},{"server_id":123,"name":"Uncletopia | Sydney | 2 | All Maps","name_short":"syd-2","host":"syd-1.au.uncletopia.com","port":27025,"enabled":true,"region":"au","cc":"au","latitude":-33.865143,"longitude":151.2099,"reserved":0,"last_update":"0001-01-01T00:00:00Z","name_a2s":"Uncletopia | Sydney | 2 | All Maps","protocol":17,"map":"koth_viaduct","folder":"tf","game":"Team Fortress","app_id":440,"player_count":0,"max_players":24,"Bots":0,"server_type":"Dedicated","server_os":"Linux","password":true,"vac":true,"version":"7757534","steam_id":85568392924470002,"keywords":["cp","nocrits","nodmgspread","uncletopia"],"game_id":440,"stv_port":27026,"stv_name":"Uncletopia | Sydney | 2 | All Maps | STV","players":null},{"server_id":395,"name":"Uncletopia | Sydney | 3 | All Maps","name_short":"syd-3","host":"syd-1.au.uncletopia.com","port":27035,"enabled":true,"region":"au","cc":"au","latitude":-33.865143,"longitude":151.2099,"reserved":0,"last_update":"0001-01-01T00:00:00Z","name_a2s":"Uncletopia | Sydney | 3 | All Maps","protocol":17,"map":"cp_dustbowl","folder":"tf","game":"Team Fortress","app_id":440,"player_count":0,"max_players":24,"Bots":0,"server_type":"Dedicated","server_os":"Linux","password":true,"vac":true,"version":"7757534","steam_id":85568392925194467,"keywords":["cp","nocrits","nodmgspread","uncletopia"],"game_id":440,"stv_port":27036,"stv_name":"Uncletopia | Sydney | 3 | All Maps | STV","players":null},{"server_id":396,"name":"Uncletopia | Sydney | 4 | All Maps","name_short":"syd-4","host":"syd-1.au.uncletopia.com","port":27045,"enabled":true,"region":"au","cc":"au","latitude":-33.865143,"longitude":151.2099,"reserved":0,"last_update":"0001-01-01T00:00:00Z","name_a2s":"Uncletopia | Sydney | 4 | All Maps","protocol":17,"map":"cp_snakewater_final1","folder":"tf","game":"Team Fortress","app_id":440,"player_count":0,"max_players":24,"Bots":0,"server_type":"Dedicated","server_os":"Linux","password":true,"vac":true,"version":"7757534","steam_id":85568392925397958,"keywords":["cp","nocrits","nodmgspread","uncletopia"],"game_id":440,"stv_port":27046,"stv_name":"Uncletopia | Sydney | 4 | All Maps | STV","players":null},{"server_id":58,"name":"Uncletopia | Sydney | 5 | Stopwatch Beta","name_short":"syd-5","host":"syd-1.au.uncletopia.com","port":27055,"enabled":true,"region":"au","cc":"au","latitude":-33.865143,"longitude":151.2099,"reserved":0,"last_update":"0001-01-01T00:00:00Z","name_a2s":"Uncletopia | Sydney | 5 | Stopwatch Beta","protocol":17,"map":"pl_barnblitz","folder":"tf","game":"Team Fortress","app_id":440,"player_count":0,"max_players":24,"Bots":0,"server_type":"Dedicated","server_os":"Linux","password":true,"vac":true,"version":"7757534","steam_id":85568392925397959,"keywords":["nocrits","nodmgspread","payload","uncletopia"],"game_id":440,"stv_port":27056,"stv_name":"Uncletopia | Sydney | 5 | Stopwatch Beta | STV","players":null},{"server_id":59,"name":"Uncletopia | Sydney | 6 | Community","name_short":"syd-6","host":"syd-1.au.uncletopia.com","port":27065,"enabled":true,"region":"au","cc":"au","latitude":-33.865143,"longitude":151.2099,"reserved":0,"last_update":"0001-01-01T00:00:00Z","name_a2s":"Uncletopia | Sydney | 6 | Community","protocol":17,"map":"workshop/cp_caldera_rc2.ugc2834196889","folder":"tf","game":"Team Fortress","app_id":440,"player_count":0,"max_players":24,"Bots":0,"server_type":"Dedicated","server_os":"Linux","password":true,"vac":true,"version":"7757534","steam_id":85568392925397960,"keywords":["cp","nocrits","nodmgspread","uncletopia"],"game_id":440,"stv_port":27066,"stv_name":"Uncletopia | Sydney | 6 | Community | STV","players":null},{"server_id":49,"name":"Uncletopia | Warsaw | 1 | All Maps","name_short":"waw-1","host":"waw-1.pl.uncletopia.com","port":27015,"enabled":true,"region":"eu","cc":"pl","latitude":52.2297,"longitude":21.017532,"reserved":0,"last_update":"0001-01-01T00:00:00Z","name_a2s":"","protocol":0,"map":"","folder":"","game":"","app_id":0,"player_count":0,"max_players":0,"Bots":0,"server_type":"","server_os":"","password":false,"vac":false,"version":"","steam_id":0,"keywords":null,"game_id":0,"stv_port":0,"stv_name":"","players":null},{"server_id":50,"name":"Uncletopia | Warsaw | 2 | All Maps","name_short":"waw-2","host":"waw-1.pl.uncletopia.com","port":27025,"enabled":true,"region":"eu","cc":"pl","latitude":52.2297,"longitude":21.017532,"reserved":0,"last_update":"0001-01-01T00:00:00Z","name_a2s":"Uncletopia | Warsaw | 2 | All Maps","protocol":17,"map":"pl_frontier_final","folder":"tf","game":"Team Fortress","app_id":440,"player_count":0,"max_players":24,"Bots":0,"server_type":"Dedicated","server_os":"Linux","password":true,"vac":true,"version":"7757534","steam_id":85568392925397851,"keywords":["nocrits","nodmgspread","payload","uncletopia"],"game_id":440,"stv_port":27026,"stv_name":"Uncletopia | Warsaw | 2 | All Maps | STV","players":null},{"server_id":51,"name":"Uncletopia | Warsaw | 3 | All Maps","name_short":"waw-3","host":"waw-1.pl.uncletopia.com","port":27035,"enabled":true,"region":"eu","cc":"pl","latitude":52.2297,"longitude":21.017532,"reserved":0,"last_update":"0001-01-01T00:00:00Z","name_a2s":"Uncletopia | Warsaw | 3 | All Maps","protocol":17,"map":"koth_suijin","folder":"tf","game":"Team Fortress","app_id":440,"player_count":0,"max_players":24,"Bots":0,"server_type":"Dedicated","server_os":"Linux","password":true,"vac":true,"version":"7757534","steam_id":85568392925397852,"keywords":["cp","nocrits","nodmgspread","uncletopia"],"game_id":440,"stv_port":27036,"stv_name":"Uncletopia | Warsaw | 3 | All Maps | STV","players":null},{"server_id":52,"name":"Uncletopia | Warsaw | 4 | All Maps","name_short":"waw-4","host":"waw-1.pl.uncletopia.com","port":27045,"enabled":true,"region":"eu","cc":"pl","latitude":52.2297,"longitude":21.017532,"reserved":0,"last_update":"0001-01-01T00:00:00Z","name_a2s":"Uncletopia | Warsaw | 4 | All Maps","protocol":17,"map":"pl_swiftwater_final1","folder":"tf","game":"Team Fortress","app_id":440,"player_count":0,"max_players":24,"Bots":0,"server_type":"Dedicated","server_os":"Linux","password":true,"vac":true,"version":"7757534","steam_id":85568392925397853,"keywords":["nocrits","nodmgspread","payload","uncletopia"],"game_id":440,"stv_port":27046,"stv_name":"Uncletopia | Warsaw | 4 | All Maps | STV","players":null},{"server_id":53,"name":"Uncletopia | Warsaw | 5 | Stopwatch Beta","name_short":"waw-5","host":"waw-1.pl.uncletopia.com","port":27055,"enabled":true,"region":"eu","cc":"pl","latitude":52.2297,"longitude":21.017532,"reserved":0,"last_update":"0001-01-01T00:00:00Z","name_a2s":"Uncletopia | Warsaw | 5 | Stopwatch Beta","protocol":17,"map":"workshop/koth_product_final.ugc454272353","folder":"tf","game":"Team Fortress","app_id":440,"player_count":0,"max_players":24,"Bots":0,"server_type":"Dedicated","server_os":"Linux","password":true,"vac":true,"version":"7757534","steam_id":85568392925397854,"keywords":["cp","nocrits","nodmgspread","uncletopia"],"game_id":440,"stv_port":27056,"stv_name":"Uncletopia | Warsaw | 5 | Stopwatch Beta | STV","players":null},{"server_id":54,"name":"Uncletopia | Warsaw | 6 | Community","name_short":"waw-6","host":"waw-1.pl.uncletopia.com","port":27065,"enabled":true,"region":"eu","cc":"pl","latitude":52.2297,"longitude":21.017532,"reserved":0,"last_update":"0001-01-01T00:00:00Z","name_a2s":"Uncletopia | Warsaw | 6 | Community","protocol":17,"map":"workshop/cp_villa_b19.ugc2113052569","folder":"tf","game":"Team Fortress","app_id":440,"player_count":0,"max_players":24,"Bots":0,"server_type":"Dedicated","server_os":"Linux","password":true,"vac":true,"version":"7757534","steam_id":85568392925397856,"keywords":["cp","nocrits","nodmgspread","uncletopia"],"game_id":440,"stv_port":27066,"stv_name":"Uncletopia | Warsaw | 6 | Community | STV","players":null}]}