{"status":true,"message":"","result":[{"server_id":9,"name":"Uncletopia | Atlanta | 1 | All Maps","name_short":"atl-1","host":"atl-1.us.uncletopia.com","port":27015,"enabled":true,"region":"us-east","cc":"us","latitude":33.753746,"longitude":-84.38633,"reserved":0,"last_update":"0001-01-01T00:00:00Z","name_a2s":"Uncletopia | Atlanta | 1 | All Maps","protocol":17,"map":"koth_cascade","folder":"tf","game":"Team Fortress","app_id":440,"player_count":0,"max_players":24,"Bots":0,"server_type":"Dedicated","server_os":"Linux","password":true,"vac":true,"version":"7932396","steam_id":85568392924469982,"keywords":["cp","nocrits","nodmgspread","uncletopia"],"game_id":440,"stv_port":27016,"stv_name":"Uncletopia | Atlanta | 1 | All Maps | STV","players":null},{"server_id":104,"name":"Uncletopia | Atlanta | 2 | All Maps","name_short":"atl-2","host":"atl-1.us.uncletopia.com","port":27025,"enabled":true,"region":"us-east","cc":"us","latitude":33.753746,"longitude":-84.38633,"reserved":0,"last_update":"0001-01-01T00:00:00Z","name_a2s":"Uncletopia | Atlanta | 2 | All Maps","protocol":17,"map":"cp_snakewater_final1","folder":"tf","game":"Team Fortress","app_id":440,"player_count":0,"max_players":24,"Bots":0,"server_type":"Dedicated","server_os":"Linux","password":true,"vac":true,"version":"7932396","steam_id":85568392924469983,"keywords":["cp","nocrits","nodmgspread","uncletopia"],"game_id":440,"stv_port":27026,"stv_name":"Uncletopia | Atlanta | 2 | All Maps | STV","players":null},{"server_id":400,"name":"Uncletopia | Atlanta | 3 | Community","name_short":"atl-3","host":"atl-1.us.uncletopia.com","port":27035,"enabled":true,"region":"us-east","cc":"us","latitude":33.753746,"longitude":-84.38633,"reserved":0,"last_update":"0001-01-01T00:00:00Z","name_a2s":"Uncletopia | Atlanta | 3 | Community","protocol":17,"map":"workshop/koth_trenchfoot_b1a.ugc731436616","folder":"tf","game":"Team Fortress","app_id":440,"player_count":0,"max_players":24,"Bots":0,"server_type":"Dedicated","server_os":"Linux","password":true,"vac":true,"version":"7932396","steam_id":85568392924515187,"keywords":["cp","nocrits","nodmgspread","uncletopia"],"game_id":440,"stv_port":27036,"stv_name":"Uncletopia | Atlanta | 3 | Community | STV","players":null},{"server_id":401,"name":"Uncletopia | Atlanta | 4 | No Payload","name_short":"atl-4","host":"atl-1.us.uncletopia.com","port":27045,"enabled":true,"region":"us-east","cc":"us","latitude":33.753746,"longitude":-84.38633,"reserved":0,"last_update":"0001-01-01T00:00:00Z","name_a2s":"","protocol":0,"map":"","folder":"","game":"","app_id":0,"player_count":0,"max_players":0,"Bots":0,"server_type":"","server_os":"","password":false,"vac":false,"version":"","steam_id":0,"keywords":null,"game_id":0,"stv_port":0,"stv_name":"","players":null},{"server_id":2,"name":"Uncletopia | Chicago | 1 | All Maps","name_short":"chi-1","host":"chi-1.us.uncletopia.com","port":27015,"enabled":true,"region":"us-central","cc":"us","latitude":41.881832,"longitude":-87.62318,"reserved":0,"last_update":"0001-01-01T00:00:00Z","name_a2s":"Uncletopia | Chicago | 1 | All Maps","protocol":17,"map":"pl_borneo","folder":"tf","game":"Team Fortress","app_id":440,"player_count":24,"max_players":24,"Bots":0,"server_type":"Dedicated","server_os":"Linux","password":true,"vac":true,"version":"7932396","steam_id":85568392924469984,"keywords":["nocrits","nodmgspread","payload","uncletopia"],"game_id":440,"stv_port":27016,"stv_name":"Uncletopia | Chicago | 1 | All Maps | STV","players":[{"user_id":575,"name":"5p00n","steam_id":76561199005902364,"connected_time":1989000000000,"state":"active","ping":93},{"user_id":603,"name":"Spaceman","steam_id":76561198349305249,"connected_time":167000000000,"state":"active","ping":109},{"user_id":597,"name":"shelf","steam_id":76561198260021696,"connected_time":568000000000,"state":"active","ping":90},{"user_id":591,"name":"Jerry Bondle","steam_id":76561198337512213,"connected_time":672000000000,"state":"active","ping":68},{"user_id":572,"name":"El Bondin","steam_id":76561198820792434,"connected_time":2069000000000,"state":"active","ping":100},{"user_id":577,"name":"Necronoxide","steam_id":76561197997856321,"connected_time":1588000000000,"state":"active","ping":85},{"user_id":557,"name":"Luca!","steam_id":76561198137880777,"connected_time":3130000000000,"state":"active","ping":78},{"user_id":594,"name":"Elm","steam_id":76561198127972568,"connected_time":589000000000,"state":"active","ping":72},{"user_id":580,"name":"Kazmirl","steam_id":76561198116008410,"connected_time":1519000000000,"state":"active","ping":107},{"user_id":584,"name":"[]{}#^*+=","steam_id":76561198127039453,"connected_time":1121000000000,"state":"active","ping":102},{"user_id":474,"name":"Maverick","steam_id":76561198322829814,"connected_time":10181000000000,"state":"active","ping":77},{"user_id":582,"name":"Comradical","steam_id":76561197990808285,"connected_time":1462000000000,"state":"active","ping":86},{"user_id":598,"name":"TheLuzinator","steam_id":76561198377144604,"connected_time":566000000000,"state":"active","ping":95},{"user_id":587,"name":"Mehman","steam_id":76561199020244051,"connected_time":913000000000,"state":"active","ping":96},{"user_id":593,"name":"MoonWolf","steam_id":76561198095735033,"connected_time":598000000000,"state":"active","ping":71},{"user_id":579,"name":"PyroEagle","steam_id":76561198296434231,"connected_time":1531000000000,"state":"active","ping":63},{"user_id":590,"name":"Local Sink Stealer","steam_id":76561199034119390,"connected_time":718000000000,"state":"active","ping":67},{"user_id":595,"name":"flaccid","steam_id":76561198299241777,"connected_time":588000000000,"state":"active","ping":95},{"user_id":602,"name":"stall","steam_id":76561199152861652,"connected_time":356000000000,"state":"active","ping":58},{"user_id":540,"name":"noah","steam_id":76561198173310157,"connected_time":4268000000000,"state":"active","ping":52},{"user_id":588,"name":"Cream Corn","steam_id":76561198043791586,"connected_time":910000000000,"state":"active","ping":54},{"user_id":599,"name":"Kitt„Äú","steam_id":76561198108685037,"connected_time":560000000000,"state":"active","ping":72},{"user_id":601,"name":"Obese Pete","steam_id":76561198203443358,"connected_time":386000000000,"state":"active","ping":87},{"user_id":600,"name":"soulless cop (thug shaker)","steam_id":76561198150535873,"connected_time":550000000000,"state":"active","ping":71}]},{"server_id":106,"name":"Uncletopia | Chicago | 2 | All Maps","name_short":"chi-2","host":"chi-1.us.uncletopia.com","port":27025,"enabled":true,"region":"us-central","cc":"us","latitude":41.881832,"longitude":-87.62318,"reserved":0,"last_update":"0001-01-01T00:00:00Z","name_a2s":"Uncletopia | Chicago | 2 | All Maps","protocol":17,"map":"cp_snakewater_final1","folder":"tf","game":"Team Fortress","app_id":440,"player_count":24,"max_players":24,"Bots":0,"server_type":"Dedicated","server_os":"Linux","password":true,"vac":true,"version":"7932396","steam_id":85568392924469985,"keywords":["cp","nocrits","nodmgspread","uncletopia"],"game_id":440,"stv_port":27026,"stv_name":"Uncletopia | Chicago | 2 | All Maps | STV","players":[{"user_id":567,"name":"Oopsie Daisy ‚ùã","steam_id":76561198042144492,"connected_time":320000000000,"state":"active","ping":73},{"user_id":550,"name":"dealinwithit","steam_id":76561198127424835,"connected_time":1270000000000,"state":"active","ping":69},{"user_id":391,"name":"scapegoat","steam_id":76561198188722751,"connected_time":9156000000000,"state":"active","ping":91},{"user_id":564,"name":"Heck Engine","steam_id":76561198055759310,"connected_time":426000000000,"state":"active","ping":85},{"user_id":551,"name":"Milkmur","steam_id":76561198210043821,"connected_time":1247000000000,"state":"active","ping":58},{"user_id":563,"name":"nav","steam_id":76561198872608266,"connected_time":462000000000,"state":"active","ping":80},{"user_id":534,"name":"Raptortastic","steam_id":76561198105613110,"connected_time":2614000000000,"state":"active","ping":59},{"user_id":520,"name":"popfulmail","steam_id":76561198865971290,"connected_time":3525000000000,"state":"active","ping":101},{"user_id":518,"name":"Solstrom","steam_id":76561198313364985,"connected_time":4264000000000,"state":"active","ping":73},{"user_id":552,"name":"boog","steam_id":76561197993699665,"connected_time":1217000000000,"state":"active","ping":81},{"user_id":549,"name":"Filliam","steam_id":76561198124028151,"connected_time":1287000000000,"state":"active","ping":60},{"user_id":558,"name":"Not an Expert","steam_id":76561198079855227,"connected_time":655000000000,"state":"active","ping":74},{"user_id":536,"name":"CHAIRMAN MAO GAMING","steam_id":76561198066018972,"connected_time":2313000000000,"state":"active","ping":72},{"user_id":565,"name":"Joe Family guy","steam_id":76561198065327106,"connected_time":426000000000,"state":"active","ping":69},{"user_id":569,"name":"sludge fan","steam_id":76561198987579589,"connected_time":207000000000,"state":"active","ping":51},{"user_id":559,"name":"Hob-Goblin Jim The IV","steam_id":76561199046650666,"connected_time":648000000000,"state":"active","ping":59},{"user_id":557,"name":"TheSecretNewbie","steam_id":76561198194671218,"connected_time":741000000000,"state":"active","ping":45},{"user_id":426,"name":"chiswola","steam_id":76561198046920142,"connected_time":6890000000000,"state":"active","ping":70},{"user_id":568,"name":"Lexabyte","steam_id":76561198065032237,"connected_time":272000000000,"state":"active","ping":76},{"user_id":571,"name":"Mail Delivery","steam_id":76561198290046318,"connected_time":76000000000,"state":"active","ping":54},{"user_id":529,"name":"spherewithahat","steam_id":76561199122192660,"connected_time":2769000000000,"state":"active","ping":70},{"user_id":561,"name":"JadEDU","steam_id":76561198170648674,"connected_time":616000000000,"state":"active","ping":64},{"user_id":543,"name":"Ground Beef Popsicle","steam_id":76561198045499333,"connected_time":1653000000000,"state":"active","ping":55},{"user_id":570,"name":"LiftN","steam_id":76561198167974713,"connected_time":176000000000,"state":"active","ping":74}]},{"server_id":402,"name":"Uncletopia | Chicago | 3 | All Maps","name_short":"chi-3","host":"chi-1.us.uncletopia.com","port":27035,"enabled":true,"region":"us-central","cc":"us","latitude":41.881832,"longitude":-87.62318,"reserved":0,"last_update":"0001-01-01T00:00:00Z","name_a2s":"Uncletopia | Chicago | 3 | All Maps","protocol":17,"map":"pl_barnblitz","folder":"tf","game":"Team Fortress","app_id":440,"player_count":24,"max_players":24,"Bots":0,"server_type":"Dedicated","server_os":"Linux","password":true,"vac":true,"version":"7932396","steam_id":85568392924515191,"keywords":["nocrits","nodmgspread","payload","uncletopia"],"game_id":440,"stv_port":27036,"stv_name":"Uncletopia | Chicago | 3 | All Maps | STV","players":[{"user_id":124,"name":"honkeytonkbadonkadonk","steam_id":76561198304265800,"connected_time":764000000000,"state":"active","ping":76},{"user_id":139,"name":"CamelyKonas","steam_id":76561198097672992,"connected_time":368000000000,"state":"active","ping":60},{"user_id":129,"name":"Izik","steam_id":76561198053560264,"connected_time":638000000000,"state":"active","ping":82},{"user_id":127,"name":"Gay Mushroom","steam_id":76561198151549658,"connected_time":661000000000,"state":"active","ping":81},{"user_id":137,"name":"Alistar","steam_id":76561198073748373,"connected_time":501000000000,"state":"active","ping":55},{"user_id":101,"name":"FOST!","steam_id":76561198361424714,"connected_time":1737000000000,"state":"active","ping":108},{"user_id":85,"name":"The Circle rules Your Life","steam_id":76561198072095399,"connected_time":2602000000000,"state":"active","ping":55},{"user_id":120,"name":"Gibby","steam_id":76561199336569123,"connected_time":836000000000,"state":"active","ping":116},{"user_id":141,"name":"Samrizo el Chorizo","steam_id":76561198009838162,"connected_time":73000000000,"state":"active","ping":66},{"user_id":112,"name":"Gilgamesh","steam_id":76561198317113179,"connected_time":1017000000000,"state":"active","ping":60},{"user_id":128,"name":"Smug ¬¨‚Äø¬¨ Smug","steam_id":76561198325526945,"connected_time":647000000000,"state":"active","ping":69},{"user_id":79,"name":"cotton candy tyrant","steam_id":76561198058998371,"connected_time":2929000000000,"state":"active","ping":66},{"user_id":131,"name":"who is gavin?","steam_id":76561198069415057,"connected_time":617000000000,"state":"active","ping":61},{"user_id":40,"name":"Gnome Tank","steam_id":76561198984179092,"connected_time":6319000000000,"state":"active","ping":82},{"user_id":140,"name":"Criss‚≠ï‚É§","steam_id":76561198873539085,"connected_time":214000000000,"state":"active","ping":73},{"user_id":132,"name":"Ringo x Seiran","steam_id":76561198357437908,"connected_time":614000000000,"state":"active","ping":70},{"user_id":94,"name":"superbad","steam_id":76561198065913973,"connected_time":2378000000000,"state":"active","ping":105},{"user_id":133,"name":"souuuljah","steam_id":76561198427653112,"connected_time":614000000000,"state":"active","ping":99},{"user_id":46,"name":"The Noob Sire","steam_id":76561198119219754,"connected_time":6016000000000,"state":"active","ping":90},{"user_id":138,"name":"Gotta Move That Gear Up","steam_id":76561197993467034,"connected_time":389000000000,"state":"active","ping":49},{"user_id":135,"name":"ClokWrk","steam_id":76561198072904405,"connected_time":606000000000,"state":"active","ping":111},{"user_id":74,"name":"kairOs.fk","steam_id":76561197972421260,"connected_time":3371000000000,"state":"active","ping":62},{"user_id":109,"name":"joethefool","steam_id":76561199015436319,"connected_time":1118000000000,"state":"active","ping":409},{"user_id":114,"name":"Cleverless Biped","steam_id":76561198045984856,"connected_time":993000000000,"state":"active","ping":115}]},{"server_id":403,"name":"Uncletopia | Chicago | 4 | All Maps","name_short":"chi-4","host":"chi-1.us.uncletopia.com","port":27045,"enabled":true,"region":"us-central","cc":"us","latitude":41.881832,"longitude":-87.62318,"reserved":0,"last_update":"0001-01-01T00:00:00Z","name_a2s":"Uncletopia | Chicago | 4 | All Maps","protocol":17,"map":"pl_barnblitz","folder":"tf","game":"Team Fortress","app_id":440,"player_count":24,"max_players":24,"Bots":0,"server_type":"Dedicated","server_os":"Linux","password":true,"vac":true,"version":"7932396","steam_id":85568392924515193,"keywords":["nocrits","nodmgspread","payload","uncletopia"],"game_id":440,"stv_port":27046,"stv_name":"Uncletopia | Chicago | 4 | All Maps | STV","players":[{"user_id":59,"name":"Liebestr√§ume","steam_id":76561198038862034,"connected_time":7825000000000,"state":"active","ping":93},{"user_id":93,"name":"you keep smelling the syrup","steam_id":76561198142756572,"connected_time":4689000000000,"state":"active","ping":60},{"user_id":159,"name":"Ninetees","steam_id":76561198119483989,"connected_time":338000000000,"state":"active","ping":76},{"user_id":125,"name":"Missing Minus","steam_id":76561198120822928,"connected_time":2643000000000,"state":"active","ping":61},{"user_id":146,"name":"kingcab","steam_id":76561197998531589,"connected_time":1237000000000,"state":"active","ping":75},{"user_id":113,"name":"Brumal-Eventide","steam_id":76561198131474503,"connected_time":3239000000000,"state":"active","ping":62},{"user_id":151,"name":"Paradox","steam_id":76561198284164847,"connected_time":913000000000,"state":"active","ping":75},{"user_id":87,"name":"Hare-Trigger","steam_id":76561198062671986,"connected_time":5187000000000,"state":"active","ping":56},{"user_id":153,"name":"monk mode protocol","steam_id":76561199100342013,"connected_time":897000000000,"state":"active","ping":92},{"user_id":154,"name":"SuppressedBarrel","steam_id":76561198032336504,"connected_time":893000000000,"state":"active","ping":62},{"user_id":72,"name":"lili","steam_id":76561199391478575,"connected_time":7012000000000,"state":"active","ping":101},{"user_id":136,"name":"craf","steam_id":76561198163535075,"connected_time":1738000000000,"state":"active","ping":76},{"user_id":155,"name":"Jak(i)","steam_id":76561198076823144,"connected_time":887000000000,"state":"active","ping":62},{"user_id":156,"name":"Xrath","steam_id":76561198220741860,"connected_time":886000000000,"state":"active","ping":66},{"user_id":142,"name":"Protoss High Templar","steam_id":76561198020001645,"connected_time":1349000000000,"state":"active","ping":72},{"user_id":157,"name":"SneakyJayMLP","steam_id":76561198969565685,"connected_time":885000000000,"state":"active","ping":83},{"user_id":143,"name":"PINGAS DISPENSER‚Ñ¢","steam_id":76561198014868070,"connected_time":1347000000000,"state":"active","ping":92},{"user_id":161,"name":"Rec","steam_id":76561198022813906,"connected_time":57000000000,"state":"active","ping":51},{"user_id":160,"name":"b√ºddeh","steam_id":76561198070735936,"connected_time":199000000000,"state":"active","ping":60},{"user_id":90,"name":"TransSammie","steam_id":76561198046331930,"connected_time":4985000000000,"state":"active","ping":99},{"user_id":105,"name":"JSClinton","steam_id":76561198067487389,"connected_time":3729000000000,"state":"active","ping":68},{"user_id":139,"name":"D","steam_id":76561198292908619,"connected_time":1671000000000,"state":"active","ping":74},{"user_id":141,"name":"Baker","steam_id":76561198055196430,"connected_time":1510000000000,"state":"active","ping":70},{"user_id":110,"name":"smellybeast69","steam_id":76561198929471282,"connected_time":3626000000000,"state":"active","ping":57}]},{"server_id":36,"name":"Uncletopia | Chicago | 5 | All Maps","name_short":"chi-5","host":"chi-2.us.uncletopia.com","port":27015,"enabled":true,"region":"us-central","cc":"us","latitude":41.881832,"longitude":-87.62318,"reserved":0,"last_update":"0001-01-01T00:00:00Z","name_a2s":"Uncletopia | Chicago | 5 | All Maps","protocol":17,"map":"pl_barnblitz","folder":"tf","game":"Team Fortress","app_id":440,"player_count":24,"max_players":24,"Bots":0,"server_type":"Dedicated","server_os":"Linux","password":true,"vac":true,"version":"7932396","steam_id":85568392924866362,"keywords":["nocrits","nodmgspread","payload","uncletopia"],"game_id":440,"stv_port":27016,"stv_name":"Uncletopia | Chicago | 5 | All Maps | STV","players":[{"user_id":197,"name":"volta","steam_id":76561199214283884,"connected_time":160000000000,"state":"active","ping":93},{"user_id":186,"name":"El Duderino","steam_id":76561198084404539,"connected_time":574000000000,"state":"active","ping":93},{"user_id":188,"name":"Scrap2552","steam_id":76561198814967954,"connected_time":495000000000,"state":"active","ping":100},{"user_id":169,"name":"emily","steam_id":76561198051872256,"connected_time":2490000000000,"state":"active","ping":56},{"user_id":136,"name":"b3afy","steam_id":76561198084208649,"connected_time":5056000000000,"state":"active","ping":90},{"user_id":155,"name":"nayonhaha","steam_id":76561198066507360,"connected_time":4579000000000,"state":"active","ping":71},{"user_id":170,"name":"IFong","steam_id":76561198047571208,"connected_time":2478000000000,"state":"active","ping":73},{"user_id":189,"name":"A_Malebolgia","steam_id":76561198097722818,"connected_time":474000000000,"state":"active","ping":89},{"user_id":182,"name":"Doubting Dave","steam_id":76561198066410749,"connected_time":1548000000000,"state":"active","ping":68},{"user_id":171,"name":"GhettoSmash@freenudecelebs.com","steam_id":76561198168864083,"connected_time":2475000000000,"state":"active","ping":97},{"user_id":184,"name":"nullptr","steam_id":76561198111790388,"connected_time":1103000000000,"state":"active","ping":86},{"user_id":156,"name":"pop7585","steam_id":76561198149021193,"connected_time":4415000000000,"state":"active","ping":75},{"user_id":196,"name":"el wiwi","steam_id":76561198857304367,"connected_time":288000000000,"state":"active","ping":75},{"user_id":149,"name":"Raichu4u","steam_id":76561198056913690,"connected_time":4739000000000,"state":"active","ping":80},{"user_id":177,"name":"Jetmonkey","steam_id":76561198013652143,"connected_time":2178000000000,"state":"active","ping":71},{"user_id":191,"name":"terrapieseven","steam_id":76561198072062415,"connected_time":426000000000,"state":"active","ping":74},{"user_id":152,"name":"ConnorBruh","steam_id":76561198869159718,"connected_time":4678000000000,"state":"active","ping":87},{"user_id":192,"name":"Bleem","steam_id":76561199013619130,"connected_time":420000000000,"state":"active","ping":113},{"user_id":76,"name":"Ozwald","steam_id":76561198125241562,"connected_time":10610000000000,"state":"active","ping":61},{"user_id":83,"name":"Stranger in a Strange Land","steam_id":76561198049843671,"connected_time":9503000000000,"state":"active","ping":61},{"user_id":175,"name":"Hashslinging Slasher","steam_id":76561198099015430,"connected_time":2378000000000,"state":"active","ping":122},{"user_id":176,"name":"K20Z3","steam_id":76561198131686389,"connected_time":2348000000000,"state":"active","ping":115},{"user_id":195,"name":"The Doc K","steam_id":76561198035695029,"connected_time":312000000000,"state":"active","ping":107}]},{"server_id":37,"name":"Uncletopia | Chicago | 6 | All Maps","name_short":"chi-6","host":"chi-2.us.uncletopia.com","port":27025,"enabled":true,"region":"us-central","cc":"us","latitude":41.881832,"longitude":-87.62318,"reserved":0,"last_update":"0001-01-01T00:00:00Z","name_a2s":"Uncletopia | Chicago | 6 | All Maps","protocol":17,"map":"pl_upward","folder":"tf","game":"Team Fortress","app_id":440,"player_count":23,"max_players":24,"Bots":0,"server_type":"Dedicated","server_os":"Linux","password":true,"vac":true,"version":"7932396","steam_id":85568392924866363,"keywords":["nocrits","nodmgspread","payload","uncletopia"],"game_id":440,"stv_port":27026,"stv_name":"Uncletopia | Chicago | 6 | All Maps | STV","players":[{"user_id":217,"name":"AnonymousCritter","steam_id":76561198864475187,"connected_time":6629000000000,"state":"spawning","ping":36},{"user_id":304,"name":"SneakySneak","steam_id":76561198064847921,"connected_time":1117000000000,"state":"spawning","ping":46},{"user_id":228,"name":"BugsAreMyWorstEnemy","steam_id":76561199440395505,"connected_time":6105000000000,"state":"spawning","ping":80},{"user_id":305,"name":"Loggybears","steam_id":76561198366828434,"connected_time":1103000000000,"state":"spawning","ping":78},{"user_id":297,"name":"nori_420","steam_id":76561199117134203,"connected_time":1686000000000,"state":"spawning","ping":121},{"user_id":299,"name":"JSlayz","steam_id":76561198853768655,"connected_time":1616000000000,"state":"spawning","ping":36},{"user_id":309,"name":"MantisToboggan","steam_id":76561197969447887,"connected_time":462000000000,"state":"spawning","ping":125},{"user_id":315,"name":"4d4","steam_id":76561198402360789,"connected_time":5000000000,"state":"spawning","ping":59},{"user_id":281,"name":"ATLS 1 | Krissy","steam_id":76561197960848174,"connected_time":2245000000000,"state":"spawning","ping":74},{"user_id":246,"name":"Walkiing","steam_id":76561198074473413,"connected_time":4592000000000,"state":"spawning","ping":34},{"user_id":286,"name":"palace","steam_id":76561199124082417,"connected_time":1833000000000,"state":"spawning","ping":63},{"user_id":313,"name":"Snoopy","steam_id":76561198273735974,"connected_time":9000000000,"state":"spawning","ping":103},{"user_id":310,"name":"Defragmented","steam_id":76561198854210081,"connected_time":381000000000,"state":"spawning","ping":50},{"user_id":308,"name":"The Funnytaker","steam_id":76561198049457308,"connected_time":651000000000,"state":"spawning","ping":152},{"user_id":292,"name":"toptier","steam_id":76561199059257565,"connected_time":1769000000000,"state":"spawning","ping":71},{"user_id":311,"name":"jarrettconsult","steam_id":76561198249998262,"connected_time":213000000000,"state":"spawning","ping":68},{"user_id":307,"name":"Merchant","steam_id":76561198130468663,"connected_time":724000000000,"state":"spawning","ping":198},{"user_id":115,"name":"Zen56","steam_id":76561198074554894,"connected_time":14349000000000,"state":"spawning","ping":70},{"user_id":303,"name":"I have taken your liver.","steam_id":76561199137113193,"connected_time":1175000000000,"state":"spawning","ping":72},{"user_id":122,"name":"lukas","steam_id":76561198172454407,"connected_time":13892000000000,"state":"spawning","ping":81},{"user_id":312,"name":"Otto von Bismarck","steam_id":76561198327496801,"connected_time":35000000000,"state":"spawning","ping":128},{"user_id":314,"name":"cool guy!","steam_id":76561198204995668,"connected_time":6000000000,"state":"spawning","ping":88},{"user_id":65,"name":"daemon","steam_id":76561198001541433,"connected_time":16859000000000,"state":"active","ping":274}]},{"server_id":38,"name":"Uncletopia | Chicago | 7 | Stopwatch Beta","name_short":"chi-7","host":"chi-2.us.uncletopia.com","port":27035,"enabled":true,"region":"us-central","cc":"us","latitude":41.881832,"longitude":-87.62318,"reserved":0,"last_update":"0001-01-01T00:00:00Z","name_a2s":"Uncletopia | Chicago | 7 | Stopwatch Beta","protocol":17,"map":"pl_borneo","folder":"tf","game":"Team Fortress","app_id":440,"player_count":0,"max_players":24,"Bots":0,"server_type":"Dedicated","server_os":"Linux","password":true,"vac":true,"version":"7932396","steam_id":85568392924866364,"keywords":["nocrits","nodmgspread","payload","uncletopia"],"game_id":440,"stv_port":27036,"stv_name":"Uncletopia | Chicago | 7 | Stopwatch Beta | STV","players":null},{"server_id":39,"name":"Uncletopia | Chicago | 8 | Community","name_short":"chi-8","host":"chi-2.us.uncletopia.com","port":27045,"enabled":true,"region":"us-central","cc":"us","latitude":41.881832,"longitude":-87.62318,"reserved":0,"last_update":"0001-01-01T00:00:00Z","name_a2s":"Uncletopia | Chicago | 8 | Community","protocol":17,"map":"workshop/cp_propaganda_b18.ugc1603743849","folder":"tf","game":"Team Fortress","app_id":440,"player_count":8,"max_players":24,"Bots":0,"server_type":"Dedicated","server_os":"Linux","password":true,"vac":true,"version":"7932396","steam_id":85568392924866365,"keywords":["cp","nocrits","nodmgspread","uncletopia"],"game_id":440,"stv_port":27046,"stv_name":"Uncletopia | Chicago | 8 | Community | STV","players":[{"user_id":360,"name":"pudl","steam_id":76561198043726592,"connected_time":337000000000,"state":"active","ping":60},{"user_id":359,"name":"cakgamin","steam_id":76561199088909749,"connected_time":783000000000,"state":"active","ping":56},{"user_id":361,"name":"StuartBell511","steam_id":76561198060931721,"connected_time":284000000000,"state":"active","ping":75},{"user_id":362,"name":"Indigo","steam_id":76561198430362969,"connected_time":249000000000,"state":"active","ping":78},{"user_id":363,"name":"E P H E M E R A L","steam_id":76561198128614882,"connected_time":161000000000,"state":"active","ping":92},{"user_id":355,"name":"Wiggee","steam_id":76561197972792989,"connected_time":1000000000000,"state":"active","ping":67},{"user_id":338,"name":"Seakeal","steam_id":76561198069388472,"connected_time":2280000000000,"state":"active","ping":47},{"user_id":317,"name":"i wish you obelisk","steam_id":76561198032482394,"connected_time":4208000000000,"state":"active","ping":73}]},{"server_id":8,"name":"Uncletopia | Dallas | 1 | All Maps","name_short":"dal-1","host":"dal-1.us.uncletopia.com","port":27015,"enabled":true,"region":"us-central","cc":"us","latitude":32.779167,"longitude":-96.80889,"reserved":0,"last_update":"0001-01-01T00:00:00Z","name_a2s":"Uncletopia | Dallas | 1 | All Maps","protocol":17,"map":"pl_upward","folder":"tf","game":"Team Fortress","app_id":440,"player_count":24,"max_players":24,"Bots":0,"server_type":"Dedicated","server_os":"Linux","password":true,"vac":true,"version":"7932396","steam_id":85568392924469986,"keywords":["nocrits","nodmgspread","payload","uncletopia"],"game_id":440,"stv_port":27016,"stv_name":"Uncletopia | Dallas | 1 | All Maps | STV","players":[{"user_id":138,"name":"younggflylyfe","steam_id":76561199477357832,"connected_time":5838000000000,"state":"active","ping":37},{"user_id":162,"name":"Zir√òhh","steam_id":76561198202286460,"connected_time":3613000000000,"state":"active","ping":63},{"user_id":186,"name":"Sensational Sesame Seed","steam_id":76561198092494136,"connected_time":1044000000000,"state":"active","ping":45},{"user_id":190,"name":"Sky","steam_id":76561198097549374,"connected_time":820000000000,"state":"active","ping":106},{"user_id":140,"name":"Onyx","steam_id":76561198275349640,"connected_time":5718000000000,"state":"active","ping":59},{"user_id":130,"name":"Phosu","steam_id":76561198180162801,"connected_time":6062000000000,"state":"active","ping":63},{"user_id":142,"name":"GaiBerd","steam_id":76561198177100634,"connected_time":5576000000000,"state":"active","ping":75},{"user_id":191,"name":"Greg Boberton 2012","steam_id":76561198983566026,"connected_time":820000000000,"state":"active","ping":84},{"user_id":178,"name":"Rowmaster","steam_id":76561198271659574,"connected_time":1763000000000,"state":"active","ping":65},{"user_id":199,"name":"Riff III","steam_id":76561198066921423,"connected_time":119000000000,"state":"active","ping":65},{"user_id":167,"name":"OddSlaush","steam_id":76561198043898488,"connected_time":2852000000000,"state":"active","ping":93},{"user_id":174,"name":"oh the treachery","steam_id":76561198127851014,"connected_time":2448000000000,"state":"active","ping":47},{"user_id":187,"name":"cup","steam_id":76561198121245586,"connected_time":990000000000,"state":"active","ping":100},{"user_id":177,"name":"Bl√∂dmann","steam_id":76561198149634242,"connected_time":1782000000000,"state":"active","ping":90},{"user_id":169,"name":"Ojen","steam_id":76561197998414482,"connected_time":2822000000000,"state":"active","ping":91},{"user_id":156,"name":"Tuvok Shakur","steam_id":76561198018875334,"connected_time":3866000000000,"state":"active","ping":61},{"user_id":185,"name":"Joe Nathan","steam_id":76561198041030399,"connected_time":1059000000000,"state":"active","ping":55},{"user_id":196,"name":"Unreliable Narrator","steam_id":76561198021303959,"connected_time":281000000000,"state":"active","ping":81},{"user_id":182,"name":"caca sniffer","steam_id":76561199099914725,"connected_time":1446000000000,"state":"active","ping":103},{"user_id":175,"name":"5mech","steam_id":76561198979167520,"connected_time":2219000000000,"state":"active","ping":55},{"user_id":188,"name":"xiPoison","steam_id":76561198064961659,"connected_time":981000000000,"state":"active","ping":67},{"user_id":147,"name":"Colonel Salt","steam_id":76561198207009563,"connected_time":5369000000000,"state":"active","ping":56},{"user_id":197,"name":"LORDMARF","steam_id":76561198143122675,"connected_time":188000000000,"state":"active","ping":71},{"user_id":153,"name":"andyiscolorless","steam_id":76561199239870921,"connected_time":4497000000000,"state":"active","ping":146}]},{"server_id":108,"name":"Uncletopia | Dallas | 2 | All Maps","name_short":"dal-2","host":"dal-1.us.uncletopia.com","port":27025,"enabled":true,"region":"us-central","cc":"us","latitude":32.779167,"longitude":-96.80889,"reserved":0,"last_update":"0001-01-01T00:00:00Z","name_a2s":"Uncletopia | Dallas | 2 | All Maps","protocol":17,"map":"koth_lakeside_final","folder":"tf","game":"Team Fortress","app_id":440,"player_count":0,"max_players":24,"Bots":0,"server_type":"Dedicated","server_os":"Linux","password":true,"vac":true,"version":"7932396","steam_id":85568392924469988,"keywords":["cp","nocrits","nodmgspread","uncletopia"],"game_id":440,"stv_port":27026,"stv_name":"Uncletopia | Dallas | 2 | All Maps | STV","players":null},{"server_id":5,"name":"Uncletopia | Frankfurt | 1 | All Maps","name_short":"frk-1","host":"frk-1.de.uncletopia.com","port":27015,"enabled":true,"region":"eu","cc":"de","latitude":50.110924,"longitude":8.682127,"reserved":0,"last_update":"0001-01-01T00:00:00Z","name_a2s":"Uncletopia | Frankfurt | 1 | All Maps","protocol":17,"map":"pl_snowycoast","folder":"tf","game":"Team Fortress","app_id":440,"player_count":19,"max_players":24,"Bots":0,"server_type":"Dedicated","server_os":"Linux","password":true,"vac":true,"version":"7932396","steam_id":85568392924469989,"keywords":["nocrits","nodmgspread","payload","uncletopia"],"game_id":440,"stv_port":27016,"stv_name":"Uncletopia | Frankfurt | 1 | All Maps | STV","players":[{"user_id":692,"name":"Schmack","steam_id":76561198026535437,"connected_time":35000000000,"state":"active","ping":59},{"user_id":656,"name":"killer of noob, winner of game","steam_id":76561198190583242,"connected_time":4806000000000,"state":"active","ping":68},{"user_id":675,"name":"tallen","steam_id":76561198061708595,"connected_time":1856000000000,"state":"active","ping":76},{"user_id":687,"name":"Ptahotep","steam_id":76561198008708645,"connected_time":735000000000,"state":"active","ping":54},{"user_id":684,"name":"BELADIT","steam_id":76561198011911501,"connected_time":1037000000000,"state":"active","ping":73},{"user_id":659,"name":"Healix","steam_id":76561198130270161,"connected_time":4633000000000,"state":"active","ping":53},{"user_id":624,"name":"Toasty5050","steam_id":76561198073540881,"connected_time":6591000000000,"state":"active","ping":45},{"user_id":689,"name":"Jeff","steam_id":76561198426044127,"connected_time":491000000000,"state":"active","ping":48},{"user_id":679,"name":"DeCypher \u003c3","steam_id":76561198171992619,"connected_time":1292000000000,"state":"active","ping":61},{"user_id":592,"name":"nymph","steam_id":76561199249569889,"connected_time":10526000000000,"state":"active","ping":60},{"user_id":652,"name":"rigel_","steam_id":76561198148640847,"connected_time":5115000000000,"state":"active","ping":75},{"user_id":627,"name":"Rimx","steam_id":76561198053034840,"connected_time":6577000000000,"state":"active","ping":98},{"user_id":670,"name":"domek brexit geezerüá¨üáß","steam_id":76561198048447632,"connected_time":2855000000000,"state":"active","ping":60},{"user_id":686,"name":"Robijnvogel","steam_id":76561198124376623,"connected_time":899000000000,"state":"active","ping":63},{"user_id":632,"name":"Nate","steam_id":76561198022122387,"connected_time":6556000000000,"state":"active","ping":95},{"user_id":688,"name":"Ryter","steam_id":76561198396279597,"connected_time":732000000000,"state":"active","ping":79},{"user_id":633,"name":"Zoe","steam_id":76561198055380605,"connected_time":6555000000000,"state":"active","ping":68},{"user_id":685,"name":"TidB","steam_id":76561198055342304,"connected_time":982000000000,"state":"active","ping":59},{"user_id":665,"name":"Tomura Shigaraki","steam_id":76561198127465110,"connected_time":3362000000000,"state":"active","ping":75}]},{"server_id":110,"name":"Uncletopia | Frankfurt | 2 | All Maps","name_short":"frk-2","host":"frk-1.de.uncletopia.com","port":27025,"enabled":true,"region":"eu","cc":"de","latitude":50.110924,"longitude":8.682127,"reserved":0,"last_update":"0001-01-01T00:00:00Z","name_a2s":"Uncletopia | Frankfurt | 2 | All Maps","protocol":17,"map":"pl_upward","folder":"tf","game":"Team Fortress","app_id":440,"player_count":24,"max_players":24,"Bots":0,"server_type":"Dedicated","server_os":"Linux","password":true,"vac":true,"version":"7932396","steam_id":85568392924469990,"keywords":["nocrits","nodmgspread","payload","uncletopia"],"game_id":440,"stv_port":27026,"stv_name":"Uncletopia | Frankfurt | 2 | All Maps | STV","players":[{"user_id":310,"name":"m√®x","steam_id":76561197975951572,"connected_time":14255000000000,"state":"active","ping":47},{"user_id":369,"name":"Gaxkang","steam_id":76561198125768571,"connected_time":11931000000000,"state":"active","ping":68},{"user_id":544,"name":"JeanCorben","steam_id":76561197965133561,"connected_time":526000000000,"state":"active","ping":48},{"user_id":532,"name":"42","steam_id":76561198257836694,"connected_time":1328000000000,"state":"active","ping":45},{"user_id":545,"name":"Popop","steam_id":76561198004793795,"connected_time":404000000000,"state":"active","ping":57},{"user_id":552,"name":"mlody johnny","steam_id":76561199024816404,"connected_time":33000000000,"state":"active","ping":64},{"user_id":522,"name":"Pvt. Prinny","steam_id":76561198030278562,"connected_time":1504000000000,"state":"active","ping":57},{"user_id":523,"name":"minespweper","steam_id":76561199096919345,"connected_time":1492000000000,"state":"active","ping":68},{"user_id":547,"name":"questionable_wallhacker2012","steam_id":76561198343328308,"connected_time":119000000000,"state":"active","ping":59},{"user_id":553,"name":"Dr.Kentuki","steam_id":76561199005328153,"connected_time":25000000000,"state":"active","ping":92},{"user_id":524,"name":"R","steam_id":76561199379233899,"connected_time":1486000000000,"state":"active","ping":101},{"user_id":548,"name":"Dr Roach","steam_id":76561199242750887,"connected_time":116000000000,"state":"active","ping":174},{"user_id":549,"name":"wing","steam_id":76561198311501957,"connected_time":93000000000,"state":"active","ping":160},{"user_id":502,"name":"woop","steam_id":76561198985105074,"connected_time":4253000000000,"state":"active","ping":82},{"user_id":526,"name":"kevinus","steam_id":76561198059722457,"connected_time":1449000000000,"state":"active","ping":56},{"user_id":535,"name":"szmen","steam_id":76561198072569764,"connected_time":1316000000000,"state":"active","ping":85},{"user_id":539,"name":"–ë–∞—Ä—Ö–∞—Ç–Ω—ã–µ —Ç—è–≥–∏, –ö","steam_id":76561198214926087,"connected_time":1102000000000,"state":"active","ping":91},{"user_id":550,"name":"bomba","steam_id":76561199110001925,"connected_time":85000000000,"state":"active","ping":65},{"user_id":551,"name":"Barbiehunter #SaveTF2","steam_id":76561198071630928,"connected_time":66000000000,"state":"active","ping":59},{"user_id":554,"name":"reis","steam_id":76561199232952016,"connected_time":12000000000,"state":"spawning","ping":226},{"user_id":541,"name":"Googlemaps","steam_id":76561198098135409,"connected_time":830000000000,"state":"active","ping":67},{"user_id":508,"name":"topiesie","steam_id":76561198338099207,"connected_time":3540000000000,"state":"active","ping":95},{"user_id":555,"name":"Flying skyhigh","steam_id":76561198372971096,"connected_time":5000000000,"state":"spawning","ping":61},{"user_id":536,"name":"qegqgq","steam_id":76561198235739036,"connected_time":1291000000000,"state":"active","ping":67}]},{"server_id":308,"name":"Uncletopia | Frankfurt | 3 | All Maps","name_short":"frk-3","host":"frk-1.de.uncletopia.com","port":27035,"enabled":true,"region":"eu","cc":"de","latitude":50.110924,"longitude":8.682127,"reserved":0,"last_update":"0001-01-01T00:00:00Z","name_a2s":"Uncletopia | Frankfurt | 3 | All Maps","protocol":17,"map":"koth_highpass","folder":"tf","game":"Team Fortress","app_id":440,"player_count":1,"max_players":24,"Bots":0,"server_type":"Dedicated","server_os":"Linux","password":true,"vac":true,"version":"7932396","steam_id":85568392924504274,"keywords":["cp","nocrits","nodmgspread","uncletopia"],"game_id":440,"stv_port":27036,"stv_name":"Uncletopia | Frankfurt | 3 | All Maps | STV","players":[{"user_id":31,"name":"SeaKane","steam_id":76561198165453318,"connected_time":193000000000,"state":"active","ping":52}]},{"server_id":309,"name":"Uncletopia | Frankfurt | 4 | All Maps","name_short":"frk-4","host":"frk-1.de.uncletopia.com","port":27045,"enabled":true,"region":"eu","cc":"de","latitude":50.110924,"longitude":8.682127,"reserved":0,"last_update":"0001-01-01T00:00:00Z","name_a2s":"Uncletopia | Frankfurt | 4 | All Maps","protocol":17,"map":"pl_borneo","folder":"tf","game":"Team Fortress","app_id":440,"player_count":24,"max_players":24,"Bots":0,"server_type":"Dedicated","server_os":"Linux","password":true,"vac":true,"version":"7932396","steam_id":85568392924504275,"keywords":["nocrits","nodmgspread","payload","uncletopia"],"game_id":440,"stv_port":27046,"stv_name":"Uncletopia | Frankfurt | 4 | All Maps | STV","players":[{"user_id":454,"name":"Adam","steam_id":76561199103777436,"connected_time":4511000000000,"state":"active","ping":75},{"user_id":493,"name":"Waffle","steam_id":76561198397024973,"connected_time":1344000000000,"state":"active","ping":46},{"user_id":464,"name":" ≤·∂†·µç ‚ú´","steam_id":76561199062437546,"connected_time":3700000000000,"state":"active","ping":45},{"user_id":515,"name":"Muppburg","steam_id":76561198031070682,"connected_time":96000000000,"state":"active","ping":72},{"user_id":470,"name":"etc","steam_id":76561197998394797,"connected_time":3620000000000,"state":"active","ping":56},{"user_id":479,"name":"duck","steam_id":76561198030677425,"connected_time":3325000000000,"state":"active","ping":48},{"user_id":503,"name":"frosty","steam_id":76561198094560834,"connected_time":820000000000,"state":"active","ping":60},{"user_id":508,"name":"Towercat","steam_id":76561198013141793,"connected_time":349000000000,"state":"active","ping":68},{"user_id":453,"name":"Kahvi","steam_id":76561198723244199,"connected_time":4683000000000,"state":"active","ping":89},{"user_id":510,"name":"paguro","steam_id":76561198119560871,"connected_time":292000000000,"state":"active","ping":72},{"user_id":482,"name":"Tanza -","steam_id":76561197961335217,"connected_time":3044000000000,"state":"active","ping":72},{"user_id":447,"name":"Dabadyeet","steam_id":76561198047359132,"connected_time":4953000000000,"state":"active","ping":70},{"user_id":507,"name":"tone","steam_id":76561197975301462,"connected_time":526000000000,"state":"active","ping":86},{"user_id":516,"name":"alan","steam_id":76561198306947435,"connected_time":6000000000,"state":"spawning","ping":69},{"user_id":449,"name":"Dragon","steam_id":76561198163255365,"connected_time":4900000000000,"state":"active","ping":95},{"user_id":463,"name":"SchneezySchitzel","steam_id":76561198401693881,"connected_time":3711000000000,"state":"active","ping":38},{"user_id":494,"name":"quesadilla","steam_id":76561198162873354,"connected_time":1273000000000,"state":"active","ping":109},{"user_id":499,"name":"Xolty","steam_id":76561199183586999,"connected_time":1114000000000,"state":"active","ping":62},{"user_id":500,"name":"stonebum","steam_id":76561198057004606,"connected_time":984000000000,"state":"active","ping":60},{"user_id":509,"name":"Scootz","steam_id":76561198018491455,"connected_time":347000000000,"state":"active","ping":63},{"user_id":512,"name":"Endi","steam_id":76561198914938199,"connected_time":242000000000,"state":"active","ping":90},{"user_id":468,"name":"Satanael","steam_id":76561198165252930,"connected_time":3655000000000,"state":"active","ping":121},{"user_id":513,"name":"TAFI03","steam_id":76561198213082089,"connected_time":197000000000,"state":"active","ping":55},{"user_id":489,"name":"Jon","steam_id":76561199380849468,"connected_time":1769000000000,"state":"active","ping":61}]},{"server_id":310,"name":"Uncletopia | Frankfurt | 5 | All Maps","name_short":"frk-5","host":"frk-1.de.uncletopia.com","port":27055,"enabled":true,"region":"eu","cc":"de","latitude":50.110924,"longitude":8.682127,"reserved":0,"last_update":"0001-01-01T00:00:00Z","name_a2s":"Uncletopia | Frankfurt | 5 | All Maps","protocol":17,"map":"cp_dustbowl","folder":"tf","game":"Team Fortress","app_id":440,"player_count":24,"max_players":24,"Bots":0,"server_type":"Dedicated","server_os":"Linux","password":true,"vac":true,"version":"7932396","steam_id":85568392924504277,"keywords":["cp","nocrits","nodmgspread","uncletopia"],"game_id":440,"stv_port":27056,"stv_name":"Uncletopia | Frankfurt | 5 | All Maps | STV","players":[{"user_id":868,"name":"Urfangonultasadana","steam_id":76561199389286151,"connected_time":1054000000000,"state":"active","ping":99},{"user_id":885,"name":"FishD.ck_47","steam_id":76561198114773103,"connected_time":8000000000,"state":"spawning","ping":75},{"user_id":862,"name":"MaypulSoyrup","steam_id":76561199213966821,"connected_time":1335000000000,"state":"active","ping":95},{"user_id":864,"name":"Panter","steam_id":76561198285729061,"connected_time":1229000000000,"state":"active","ping":72},{"user_id":873,"name":"Vitamin Weee","steam_id":76561199183937747,"connected_time":882000000000,"state":"active","ping":75},{"user_id":875,"name":"rummy","steam_id":76561197997573379,"connected_time":832000000000,"state":"active","ping":63},{"user_id":803,"name":"eeeeee","steam_id":76561198017786875,"connected_time":6508000000000,"state":"active","ping":57},{"user_id":840,"name":"Aroo","steam_id":76561198132601368,"connected_time":2610000000000,"state":"active","ping":72},{"user_id":830,"name":"Michal jordan","steam_id":76561199106262610,"connected_time":3382000000000,"state":"active","ping":61},{"user_id":886,"name":"Pain in a Box","steam_id":76561197990777173,"connected_time":8000000000,"state":"spawning","ping":75},{"user_id":876,"name":"rmz.ssj","steam_id":76561198329613930,"connected_time":819000000000,"state":"active","ping":63},{"user_id":839,"name":"jasu","steam_id":76561198041295143,"connected_time":2940000000000,"state":"active","ping":63},{"user_id":809,"name":"Carrotcracker","steam_id":76561198034862396,"connected_time":6433000000000,"state":"active","ping":72},{"user_id":879,"name":"Aleknat","steam_id":76561198055379857,"connected_time":777000000000,"state":"active","ping":63},{"user_id":877,"name":"Filin_Fill","steam_id":76561198044037139,"connected_time":819000000000,"state":"active","ping":93},{"user_id":884,"name":"Pepsi Man","steam_id":76561198061835461,"connected_time":352000000000,"state":"active","ping":67},{"user_id":878,"name":"BeefHammer","steam_id":76561198078426223,"connected_time":813000000000,"state":"active","ping":101},{"user_id":841,"name":"Valen","steam_id":76561198049614521,"connected_time":2251000000000,"state":"active","ping":76},{"user_id":866,"name":"4","steam_id":76561197964945192,"connected_time":1213000000000,"state":"active","ping":49},{"user_id":835,"name":"tm`","steam_id":76561197993580412,"connected_time":3245000000000,"state":"active","ping":59},{"user_id":880,"name":"lun4tic","steam_id":76561198850496647,"connected_time":764000000000,"state":"active","ping":58},{"user_id":883,"name":"Doctor Marijuana","steam_id":76561198288289879,"connected_time":559000000000,"state":"active","ping":61},{"user_id":870,"name":"A simple berry picker","steam_id":76561198091969871,"connected_time":999000000000,"state":"active","ping":93}]},{"server_id":311,"name":"Uncletopia | Frankfurt | 6 | All Maps","name_short":"frk-6","host":"frk-1.de.uncletopia.com","port":27065,"enabled":true,"region":"eu","cc":"de","latitude":50.110924,"longitude":8.682127,"reserved":0,"last_update":"0001-01-01T00:00:00Z","name_a2s":"Uncletopia | Frankfurt | 6 | All Maps","protocol":17,"map":"koth_highpass","folder":"tf","game":"Team Fortress","app_id":440,"player_count":1,"max_players":24,"Bots":0,"server_type":"Dedicated","server_os":"Linux","password":true,"vac":true,"version":"7932396","steam_id":85568392924504278,"keywords":["cp","nocrits","nodmgspread","uncletopia"],"game_id":440,"stv_port":27066,"stv_name":"Uncletopia | Frankfurt | 6 | All Maps | STV","players":[{"user_id":39,"name":"hugorobert3101","steam_id":76561198173261302,"connected_time":1243000000000,"state":"active","ping":75}]},{"server_id":23,"name":"Uncletopia | Frankfurt | 7 | Stopwatch Beta","name_short":"frk-7","host":"frk-1.de.uncletopia.com","port":27075,"enabled":true,"region":"eu","cc":"de","latitude":50.110924,"longitude":8.682127,"reserved":0,"last_update":"0001-01-01T00:00:00Z","name_a2s":"Uncletopia | Frankfurt | 7 | Stopwatch Beta","protocol":17,"map":"pl_snowycoast","folder":"tf","game":"Team Fortress","app_id":440,"player_count":0,"max_players":24,"Bots":0,"server_type":"Dedicated","server_os":"Linux","password":true,"vac":true,"version":"7932396","steam_id":85568392924742827,"keywords":["nocrits","nodmgspread","payload","uncletopia"],"game_id":440,"stv_port":27076,"stv_name":"Uncletopia | Frankfurt | 7 | Stopwatch Beta | STV","players":null},{"server_id":24,"name":"Uncletopia | Frankfurt | 8 | Community","name_short":"frk-8","host":"frk-1.de.uncletopia.com","port":27085,"enabled":true,"region":"eu","cc":"de","latitude":50.110924,"longitude":8.682127,"reserved":0,"last_update":"0001-01-01T00:00:00Z","name_a2s":"Uncletopia | Frankfurt | 8 | Community","protocol":17,"map":"workshop/koth_synthetic_rc6a.ugc1549817316","folder":"tf","game":"Team Fortress","app_id":440,"player_count":4,"max_players":24,"Bots":0,"server_type":"Dedicated","server_os":"Linux","password":true,"vac":true,"version":"7932396","steam_id":85568392924742828,"keywords":["cp","nocrits","nodmgspread","uncletopia"],"game_id":440,"stv_port":27086,"stv_name":"Uncletopia | Frankfurt | 8 | Community | STV","players":[{"user_id":95,"name":"Hampter","steam_id":76561198966522530,"connected_time":2714000000000,"state":"active","ping":88},{"user_id":96,"name":"‚ù§Cute Femboy‚ù§","steam_id":76561199258890641,"connected_time":2714000000000,"state":"active","ping":72},{"user_id":98,"name":"JeffTheDwarf","steam_id":76561198867619407,"connected_time":1857000000000,"state":"active","ping":70},{"user_id":103,"name":"Mr Gnash","steam_id":76561198007410990,"connected_time":692000000000,"state":"active","ping":82}]},{"server_id":202,"name":"Uncletopia | Hong Kong | 1 | All Maps","name_short":"hgk-1","host":"hgk-1.hk.uncletopia.com","port":27015,"enabled":true,"region":"asia","cc":"hk","latitude":22.302711,"longitude":114.177216,"reserved":0,"last_update":"0001-01-01T00:00:00Z","name_a2s":"Uncletopia | Hong Kong | 1 | All Maps","protocol":17,"map":"cp_altitude","folder":"tf","game":"Team Fortress","app_id":440,"player_count":0,"max_players":24,"Bots":0,"server_type":"Dedicated","server_os":"Linux","password":true,"vac":true,"version":"7932396","steam_id":85568392924494504,"keywords":["cp","nocrits","nodmgspread","uncletopia"],"game_id":440,"stv_port":27016,"stv_name":"Uncletopia | Hong Kong | 1 | All Maps | STV","players":null},{"server_id":1,"name":"Uncletopia | Los Angeles | 1 | All Maps","name_short":"lax-1","host":"lax-1.us.uncletopia.com","port":27015,"enabled":true,"region":"us-west","cc":"us","latitude":33.94279,"longitude":-118.41004,"reserved":0,"last_update":"0001-01-01T00:00:00Z","name_a2s":"Uncletopia | Los Angeles | 1 | All Maps","protocol":17,"map":"koth_highpass","folder":"tf","game":"Team Fortress","app_id":440,"player_count":0,"max_players":24,"Bots":0,"server_type":"Dedicated","server_os":"Linux","password":true,"vac":true,"version":"7932396","steam_id":85568392924469991,"keywords":["cp","nocrits","nodmgspread","uncletopia"],"game_id":440,"stv_port":27016,"stv_name":"Uncletopia | Los Angeles | 1 | All Maps | STV","players":null},{"server_id":112,"name":"Uncletopia | Los Angeles | 2 | All Maps","name_short":"lax-2","host":"lax-1.us.uncletopia.com","port":27025,"enabled":true,"region":"us-west","cc":"us","latitude":33.94279,"longitude":-118.41004,"reserved":0,"last_update":"0001-01-01T00:00:00Z","name_a2s":"Uncletopia | Los Angeles | 2 | All Maps","protocol":17,"map":"cp_dustbowl","folder":"tf","game":"Team Fortress","app_id":440,"player_count":24,"max_players":24,"Bots":0,"server_type":"Dedicated","server_os":"Linux","password":true,"vac":true,"version":"7932396","steam_id":85568392924469992,"keywords":["cp","nocrits","nodmgspread","uncletopia"],"game_id":440,"stv_port":27026,"stv_name":"Uncletopia | Los Angeles | 2 | All Maps | STV","players":[{"user_id":116,"name":"vioxynteris","steam_id":76561198161428666,"connected_time":874000000000,"state":"active","ping":35},{"user_id":96,"name":"Chalks","steam_id":76561198045978275,"connected_time":2453000000000,"state":"active","ping":51},{"user_id":97,"name":"Verily","steam_id":76561198200558318,"connected_time":2333000000000,"state":"active","ping":107},{"user_id":87,"name":"usedhalfcart","steam_id":76561198072621852,"connected_time":3185000000000,"state":"active","ping":82},{"user_id":122,"name":"Tastyplate","steam_id":76561198028026017,"connected_time":416000000000,"state":"active","ping":72},{"user_id":91,"name":"pomson op fr","steam_id":76561199488432671,"connected_time":2947000000000,"state":"active","ping":76},{"user_id":99,"name":"Eremital","steam_id":76561198069557669,"connected_time":2142000000000,"state":"active","ping":60},{"user_id":89,"name":"G‡∂ûMER","steam_id":76561198340389876,"connected_time":3006000000000,"state":"active","ping":56},{"user_id":115,"name":"gioza","steam_id":76561198074394332,"connected_time":1042000000000,"state":"active","ping":85},{"user_id":101,"name":"Dunski","steam_id":76561198440277329,"connected_time":2110000000000,"state":"active","ping":91},{"user_id":102,"name":"Big Gazza","steam_id":76561199030963367,"connected_time":2105000000000,"state":"active","ping":83},{"user_id":128,"name":"secret version of physical tram","steam_id":76561198978951141,"connected_time":231000000000,"state":"active","ping":93},{"user_id":119,"name":"One Canadian Derg","steam_id":76561198212687343,"connected_time":627000000000,"state":"active","ping":98},{"user_id":132,"name":"Nen","steam_id":76561198893347370,"connected_time":1000000000,"state":"spawning","ping":39},{"user_id":31,"name":"riSygneD","steam_id":76561198331618687,"connected_time":6174000000000,"state":"active","ping":34},{"user_id":118,"name":"Rix FPV","steam_id":76561198299320893,"connected_time":774000000000,"state":"active","ping":103},{"user_id":105,"name":"Temy","steam_id":76561198827223782,"connected_time":2070000000000,"state":"active","ping":105},{"user_id":123,"name":"Petroleum Jelly","steam_id":76561198118778800,"connected_time":413000000000,"state":"active","ping":47},{"user_id":124,"name":"Takyon","steam_id":76561198240014196,"connected_time":411000000000,"state":"active","ping":45},{"user_id":108,"name":"Pines","steam_id":76561199024146278,"connected_time":2028000000000,"state":"active","ping":58},{"user_id":76,"name":"Bocchers From Bocchi The Rock","steam_id":76561198986388085,"connected_time":3675000000000,"state":"active","ping":114},{"user_id":125,"name":"Metalogic","steam_id":76561198049469629,"connected_time":387000000000,"state":"active","ping":110},{"user_id":120,"name":"PeptoBismol","steam_id":76561198082669076,"connected_time":474000000000,"state":"active","ping":62},{"user_id":111,"name":"mrzachab0i","steam_id":76561199444911765,"connected_time":1955000000000,"state":"active","ping":96}]},{"server_id":324,"name":"Uncletopia | Los Angeles | 3 | All Maps","name_short":"lax-3","host":"lax-1.us.uncletopia.com","port":27035,"enabled":true,"region":"us-west","cc":"us","latitude":33.94279,"longitude":-118.41004,"reserved":0,"last_update":"0001-01-01T00:00:00Z","name_a2s":"Uncletopia | Los Angeles | 3 | All Maps","protocol":17,"map":"cp_dustbowl","folder":"tf","game":"Team Fortress","app_id":440,"player_count":24,"max_players":24,"Bots":0,"server_type":"Dedicated","server_os":"Linux","password":true,"vac":true,"version":"7932396","steam_id":85568392924510198,"keywords":["cp","nocrits","nodmgspread","uncletopia"],"game_id":440,"stv_port":27036,"stv_name":"Uncletopia | Los Angeles | 3 | All Maps | STV","players":[{"user_id":75,"name":"SillyHead","steam_id":76561198844773637,"connected_time":1045000000000,"state":"active","ping":90},{"user_id":47,"name":"Patrick Bateman","steam_id":76561198967020759,"connected_time":2386000000000,"state":"active","ping":83},{"user_id":18,"name":"parkace","steam_id":76561198079476666,"connected_time":4222000000000,"state":"active","ping":102},{"user_id":80,"name":"Eric","steam_id":76561198073577252,"connected_time":524000000000,"state":"active","ping":51},{"user_id":73,"name":"crox","steam_id":76561199024792831,"connected_time":1104000000000,"state":"active","ping":101},{"user_id":62,"name":"DamienIsAsian","steam_id":76561198228819444,"connected_time":1495000000000,"state":"active","ping":63},{"user_id":56,"name":"Clay Pot","steam_id":76561199030644557,"connected_time":1935000000000,"state":"active","ping":114},{"user_id":79,"name":"zanefoxgames","steam_id":76561198801872568,"connected_time":879000000000,"state":"active","ping":74},{"user_id":57,"name":"donkeyballs2007","steam_id":76561199466298683,"connected_time":1928000000000,"state":"active","ping":41},{"user_id":27,"name":"[FGCP] party hat","steam_id":76561198044268609,"connected_time":3344000000000,"state":"active","ping":118},{"user_id":30,"name":"CrystalClear","steam_id":76561198210417120,"connected_time":3100000000000,"state":"active","ping":66},{"user_id":78,"name":"Boom Slime","steam_id":76561198811421882,"connected_time":908000000000,"state":"active","ping":100},{"user_id":74,"name":"frostedflakes99","steam_id":76561199049292578,"connected_time":1067000000000,"state":"active","ping":51},{"user_id":84,"name":"mentos14","steam_id":76561198097993629,"connected_time":61000000000,"state":"active","ping":51},{"user_id":85,"name":"hosewater","steam_id":76561198023383126,"connected_time":4000000000,"state":"spawning","ping":82},{"user_id":70,"name":"Bodhisattva","steam_id":76561198085228896,"connected_time":1136000000000,"state":"active","ping":46},{"user_id":83,"name":"Danny Fentanyl","steam_id":76561197970791798,"connected_time":100000000000,"state":"active","ping":60},{"user_id":41,"name":"JonBoy","steam_id":76561198082052480,"connected_time":2584000000000,"state":"active","ping":91},{"user_id":71,"name":"the man","steam_id":76561198389268114,"connected_time":1136000000000,"state":"active","ping":82},{"user_id":59,"name":"459d","steam_id":76561198336142389,"connected_time":1794000000000,"state":"active","ping":116},{"user_id":58,"name":"Magician357","steam_id":76561198009308255,"connected_time":1915000000000,"state":"active","ping":49},{"user_id":45,"name":"Girth Control","steam_id":76561198060780467,"connected_time":2476000000000,"state":"active","ping":76},{"user_id":65,"name":"Yhimir","steam_id":76561198973439216,"connected_time":1197000000000,"state":"active","ping":78},{"user_id":81,"name":"Hayd3nQ","steam_id":76561198124849736,"connected_time":151000000000,"state":"active","ping":105}]},{"server_id":25,"name":"Uncletopia | Los Angeles | 4 | Stopwatch Beta","name_short":"lax-4","host":"lax-1.us.uncletopia.com","port":27045,"enabled":true,"region":"us-west","cc":"us","latitude":33.94279,"longitude":-118.41004,"reserved":0,"last_update":"0001-01-01T00:00:00Z","name_a2s":"Uncletopia | Los Angeles | 4 | Stopwatch Beta","protocol":17,"map":"cp_sunshine","folder":"tf","game":"Team Fortress","app_id":440,"player_count":0,"max_players":24,"Bots":0,"server_type":"Dedicated","server_os":"Linux","password":true,"vac":true,"version":"7932396","steam_id":85568392924510199,"keywords":["cp","nocrits","nodmgspread","uncletopia"],"game_id":440,"stv_port":27046,"stv_name":"Uncletopia | Los Angeles | 4 | Stopwatch Beta | STV","players":null},{"server_id":11,"name":"Uncletopia | London | 1 | All Maps","name_short":"lon-1","host":"lon-1.uk.uncletopia.com","port":27015,"enabled":true,"region":"eu","cc":"gb","latitude":51.509865,"longitude":-0.118092,"reserved":0,"last_update":"0001-01-01T00:00:00Z","name_a2s":"Uncletopia | London | 1 | All Maps","protocol":17,"map":"pl_barnblitz","folder":"tf","game":"Team Fortress","app_id":440,"player_count":24,"max_players":24,"Bots":0,"server_type":"Dedicated","server_os":"Linux","password":true,"vac":true,"version":"7932396","steam_id":85568392924367362,"keywords":["nocrits","nodmgspread","payload","uncletopia"],"game_id":440,"stv_port":27016,"stv_name":"Uncletopia | London | 1 | All Maps | STV","players":[{"user_id":922,"name":"Gregor Mays","steam_id":76561198355292280,"connected_time":2441000000000,"state":"active","ping":53},{"user_id":867,"name":"Snake-chan","steam_id":76561199044755854,"connected_time":7027000000000,"state":"active","ping":81},{"user_id":941,"name":"Padgriffin","steam_id":76561198205745757,"connected_time":719000000000,"state":"active","ping":67},{"user_id":897,"name":"Sakari","steam_id":76561197997811299,"connected_time":3989000000000,"state":"active","ping":60},{"user_id":942,"name":"I hate 5-3 I hate 5-3 I hate 5-","steam_id":76561198173218318,"connected_time":700000000000,"state":"active","ping":46},{"user_id":938,"name":"KPhii","steam_id":76561198970587061,"connected_time":968000000000,"state":"active","ping":58},{"user_id":916,"name":"Day 10","steam_id":76561198024438352,"connected_time":2683000000000,"state":"active","ping":44},{"user_id":919,"name":"Fwebbie","steam_id":76561199006875621,"connected_time":2614000000000,"state":"active","ping":49},{"user_id":948,"name":"[PKBG] Pipera","steam_id":76561197998280567,"connected_time":329000000000,"state":"active","ping":54},{"user_id":925,"name":"Aegyptiasaur","steam_id":76561198990109097,"connected_time":2410000000000,"state":"active","ping":68},{"user_id":929,"name":"sora (live :3)","steam_id":76561198096547662,"connected_time":2172000000000,"state":"active","ping":52},{"user_id":914,"name":"soup","steam_id":76561198386933065,"connected_time":2745000000000,"state":"active","ping":73},{"user_id":947,"name":"Blue‚õßMelon","steam_id":76561197970926435,"connected_time":362000000000,"state":"active","ping":123},{"user_id":927,"name":"jt7","steam_id":76561198073655162,"connected_time":2283000000000,"state":"active","ping":81},{"user_id":937,"name":"Aaron","steam_id":76561197990046953,"connected_time":1152000000000,"state":"active","ping":57},{"user_id":930,"name":"nappo","steam_id":76561198060105180,"connected_time":2164000000000,"state":"active","ping":74},{"user_id":931,"name":"Redeye","steam_id":76561198024388565,"connected_time":2144000000000,"state":"active","ping":55},{"user_id":949,"name":"baggy bum the beer belly","steam_id":76561199157336836,"connected_time":329000000000,"state":"active","ping":71},{"user_id":944,"name":"Woa","steam_id":76561198345683201,"connected_time":601000000000,"state":"active","ping":53},{"user_id":902,"name":"Zlyron","steam_id":76561198951447833,"connected_time":3805000000000,"state":"active","ping":99},{"user_id":928,"name":"Olaf Gasbrigi","steam_id":76561198000618491,"connected_time":2276000000000,"state":"active","ping":73},{"user_id":933,"name":"Format Warper","steam_id":76561199008933241,"connected_time":2121000000000,"state":"active","ping":59},{"user_id":946,"name":"Lord","steam_id":76561198241305816,"connected_time":506000000000,"state":"active","ping":122},{"user_id":934,"name":"euww","steam_id":76561198061179194,"connected_time":2112000000000,"state":"active","ping":60}]},{"server_id":114,"name":"Uncletopia | London | 2 | All Maps","name_short":"lon-2","host":"lon-1.uk.uncletopia.com","port":27025,"enabled":true,"region":"eu","cc":"gb","latitude":51.509865,"longitude":-0.118092,"reserved":0,"last_update":"0001-01-01T00:00:00Z","name_a2s":"Uncletopia | London | 2 | All Maps","protocol":17,"map":"pl_badwater","folder":"tf","game":"Team Fortress","app_id":440,"player_count":24,"max_players":24,"Bots":0,"server_type":"Dedicated","server_os":"Linux","password":true,"vac":true,"version":"7932396","steam_id":85568392924470941,"keywords":["nocrits","nodmgspread","payload","uncletopia"],"game_id":440,"stv_port":27026,"stv_name":"Uncletopia | London | 2 | All Maps | STV","players":[{"user_id":437,"name":"penis gnome","steam_id":76561198097612561,"connected_time":1137000000000,"state":"active","ping":70},{"user_id":438,"name":"Rage spell","steam_id":76561198279952779,"connected_time":1136000000000,"state":"active","ping":159},{"user_id":439,"name":"‚ô§ ùòøùôÖ ùôÜ@ùôÉùô†ùôã\ufffd","steam_id":76561198308490265,"connected_time":1103000000000,"state":"active","ping":60},{"user_id":454,"name":"Danny Phanny","steam_id":76561199123135608,"connected_time":218000000000,"state":"active","ping":140},{"user_id":432,"name":"WIND TURBINE TECHNOLOGY","steam_id":76561198798803845,"connected_time":1327000000000,"state":"active","ping":58},{"user_id":433,"name":"Wattseyy","steam_id":76561198248567360,"connected_time":1303000000000,"state":"active","ping":42},{"user_id":455,"name":"Mr. Meow II","steam_id":76561199476440897,"connected_time":214000000000,"state":"active","ping":137},{"user_id":434,"name":"nightcore car crash","steam_id":76561198088624259,"connected_time":1290000000000,"state":"active","ping":61},{"user_id":449,"name":"breezingthrough","steam_id":76561198032582116,"connected_time":455000000000,"state":"active","ping":50},{"user_id":441,"name":"neophyte78","steam_id":76561198010009076,"connected_time":1079000000000,"state":"active","ping":47},{"user_id":450,"name":"Darkmaen","steam_id":76561198060543390,"connected_time":443000000000,"state":"active","ping":59},{"user_id":435,"name":"K4ne","steam_id":76561198362544562,"connected_time":1228000000000,"state":"active","ping":83},{"user_id":425,"name":"John Noob","steam_id":76561197999170026,"connected_time":1824000000000,"state":"active","ping":79},{"user_id":417,"name":"Na'vi Misato (by popular demand","steam_id":76561198130860698,"connected_time":2364000000000,"state":"active","ping":63},{"user_id":443,"name":"dochris.2","steam_id":76561198026478625,"connected_time":986000000000,"state":"active","ping":59},{"user_id":436,"name":"Lilliputt","steam_id":76561198090146457,"connected_time":1191000000000,"state":"active","ping":81},{"user_id":427,"name":"Alienketchup","steam_id":76561197970585162,"connected_time":1700000000000,"state":"active","ping":75},{"user_id":445,"name":"sareena","steam_id":76561198810194062,"connected_time":955000000000,"state":"active","ping":74},{"user_id":451,"name":"foursixsixseven","steam_id":76561199123727043,"connected_time":422000000000,"state":"active","ping":60},{"user_id":452,"name":"Lorelei","steam_id":76561198056341754,"connected_time":373000000000,"state":"active","ping":48},{"user_id":397,"name":"Steen","steam_id":76561198122992510,"connected_time":4422000000000,"state":"active","ping":45},{"user_id":412,"name":"tigersonalex","steam_id":76561198197991235,"connected_time":3177000000000,"state":"active","ping":72},{"user_id":423,"name":"Tusho","steam_id":76561198115447383,"connected_time":2115000000000,"state":"active","ping":86},{"user_id":431,"name":"n//?!bu","steam_id":76561198307037169,"connected_time":1645000000000,"state":"active","ping":49}]},{"server_id":320,"name":"Uncletopia | London | 3 | All Maps","name_short":"lon-3","host":"lon-1.uk.uncletopia.com","port":27035,"enabled":true,"region":"eu","cc":"gb","latitude":51.509865,"longitude":-0.118092,"reserved":0,"last_update":"0001-01-01T00:00:00Z","name_a2s":"Uncletopia | London | 3 | All Maps","protocol":17,"map":"pl_frontier_final","folder":"tf","game":"Team Fortress","app_id":440,"player_count":21,"max_players":24,"Bots":0,"server_type":"Dedicated","server_os":"Linux","password":true,"vac":true,"version":"7932396","steam_id":85568392924510192,"keywords":["nocrits","nodmgspread","payload","uncletopia"],"game_id":440,"stv_port":27036,"stv_name":"Uncletopia | London | 3 | All Maps | STV","players":[{"user_id":819,"name":"_Starlight_","steam_id":76561197993885738,"connected_time":710000000000,"state":"active","ping":88},{"user_id":830,"name":"Moohsem","steam_id":76561198172198154,"connected_time":48000000000,"state":"active","ping":119},{"user_id":822,"name":"Ë™∞„Åã„ÅåË¶ã„Å¶„ÅÑ„Çã","steam_id":76561198834913692,"connected_time":431000000000,"state":"active","ping":75},{"user_id":829,"name":"Mr.O #deletesniper","steam_id":76561198039567498,"connected_time":93000000000,"state":"active","ping":54},{"user_id":672,"name":"cream gravy","steam_id":76561198973069177,"connected_time":7587000000000,"state":"active","ping":59},{"user_id":786,"name":"tradcath texan latinx","steam_id":76561198168180501,"connected_time":3548000000000,"state":"active","ping":95},{"user_id":687,"name":"Baron","steam_id":76561198021901783,"connected_time":6900000000000,"state":"active","ping":56},{"user_id":810,"name":"Dim","steam_id":76561198141549249,"connected_time":1848000000000,"state":"active","ping":147},{"user_id":823,"name":"veto vuyisio","steam_id":76561199101145470,"connected_time":426000000000,"state":"active","ping":71},{"user_id":818,"name":"cuddles \u003c3","steam_id":76561198805181599,"connected_time":781000000000,"state":"active","ping":49},{"user_id":825,"name":"Zmora","steam_id":76561199057422095,"connected_time":369000000000,"state":"active","ping":87},{"user_id":690,"name":"Teecho","steam_id":76561197995269610,"connected_time":6873000000000,"state":"active","ping":55},{"user_id":787,"name":"Puss in Boots","steam_id":76561198211599767,"connected_time":3492000000000,"state":"active","ping":54},{"user_id":826,"name":"bowchika wowa #SlavaUkraine","steam_id":76561198159564550,"connected_time":265000000000,"state":"active","ping":70},{"user_id":782,"name":"Will","steam_id":76561198173329977,"connected_time":4343000000000,"state":"active","ping":54},{"user_id":827,"name":"D_Ink","steam_id":76561198267716662,"connected_time":224000000000,"state":"active","ping":44},{"user_id":806,"name":"Alibi","steam_id":76561198061845595,"connected_time":1996000000000,"state":"active","ping":55},{"user_id":793,"name":"AftiksPL","steam_id":76561198875182686,"connected_time":3277000000000,"state":"active","ping":104},{"user_id":801,"name":"nobodyy","steam_id":76561198027735766,"connected_time":2659000000000,"state":"active","ping":63},{"user_id":797,"name":"THE Grosser","steam_id":76561197995530666,"connected_time":3188000000000,"state":"active","ping":61},{"user_id":820,"name":"wingo","steam_id":76561198254576930,"connected_time":563000000000,"state":"active","ping":66}]},{"server_id":321,"name":"Uncletopia | London | 4 | All Maps","name_short":"lon-4","host":"lon-1.uk.uncletopia.com","port":27045,"enabled":true,"region":"eu","cc":"gb","latitude":51.509865,"longitude":-0.118092,"reserved":0,"last_update":"0001-01-01T00:00:00Z","name_a2s":"Uncletopia | London | 4 | All Maps","protocol":17,"map":"pl_swiftwater_final1","folder":"tf","game":"Team Fortress","app_id":440,"player_count":23,"max_players":24,"Bots":0,"server_type":"Dedicated","server_os":"Linux","password":true,"vac":true,"version":"7932396","steam_id":85568392924510193,"keywords":["nocrits","nodmgspread","payload","uncletopia"],"game_id":440,"stv_port":27046,"stv_name":"Uncletopia | London | 4 | All Maps | STV","players":[{"user_id":493,"name":"Envy","steam_id":76561198132723219,"connected_time":3462000000000,"state":"active","ping":104},{"user_id":507,"name":"YC Lacus","steam_id":76561199107625942,"connected_time":1779000000000,"state":"active","ping":72},{"user_id":482,"name":"Rapop101","steam_id":76561198125796030,"connected_time":3626000000000,"state":"active","ping":69},{"user_id":496,"name":"gmem","steam_id":76561198070006725,"connected_time":3339000000000,"state":"active","ping":52},{"user_id":533,"name":"Moonkey","steam_id":76561199013741389,"connected_time":12000000000,"state":"active","ping":138},{"user_id":396,"name":"Let's Get Retarded","steam_id":76561198342570528,"connected_time":9659000000000,"state":"active","ping":72},{"user_id":517,"name":"yoursbzt","steam_id":76561198201866574,"connected_time":1258000000000,"state":"active","ping":74},{"user_id":523,"name":"that fat croc from donkey kong","steam_id":76561198159172495,"connected_time":918000000000,"state":"active","ping":79},{"user_id":527,"name":"jovi_","steam_id":76561198449280552,"connected_time":496000000000,"state":"active","ping":51},{"user_id":528,"name":"HetNet","steam_id":76561198207584963,"connected_time":457000000000,"state":"active","ping":84},{"user_id":531,"name":"I Don't Know","steam_id":76561198841011430,"connected_time":330000000000,"state":"active","ping":76},{"user_id":526,"name":"DJPNK","steam_id":76561197989948420,"connected_time":537000000000,"state":"active","ping":55},{"user_id":497,"name":"Jones","steam_id":76561198134347032,"connected_time":3321000000000,"state":"active","ping":63},{"user_id":532,"name":"hawkblob","steam_id":76561198803720565,"connected_time":308000000000,"state":"spawning","ping":74},{"user_id":506,"name":"Jucatron","steam_id":76561198044259577,"connected_time":1793000000000,"state":"active","ping":79},{"user_id":503,"name":"Dudepile","steam_id":76561198005831909,"connected_time":2613000000000,"state":"active","ping":78},{"user_id":446,"name":"NitPig","steam_id":76561198212991935,"connected_time":6605000000000,"state":"active","ping":96},{"user_id":490,"name":"Woman (Real)","steam_id":76561199151823932,"connected_time":3559000000000,"state":"active","ping":81},{"user_id":508,"name":"cheese88","steam_id":76561198103670631,"connected_time":1702000000000,"state":"active","ping":132},{"user_id":525,"name":"livitup786","steam_id":76561198332721210,"connected_time":618000000000,"state":"active","ping":43},{"user_id":445,"name":"LemonLeCitron","steam_id":76561198215545267,"connected_time":6703000000000,"state":"active","ping":70},{"user_id":516,"name":"Comfy_","steam_id":76561198154656307,"connected_time":1357000000000,"state":"active","ping":53},{"user_id":529,"name":"Sir Crust","steam_id":76561199122077146,"connected_time":452000000000,"state":"active","ping":53}]},{"server_id":21,"name":"Uncletopia | London | 5 | All Maps","name_short":"lon-5","host":"lon-1.uk.uncletopia.com","port":27055,"enabled":true,"region":"eu","cc":"gb","latitude":51.509865,"longitude":-0.118092,"reserved":0,"last_update":"0001-01-01T00:00:00Z","name_a2s":"Uncletopia | London | 5 | All Maps","protocol":17,"map":"koth_viaduct","folder":"tf","game":"Team Fortress","app_id":440,"player_count":23,"max_players":24,"Bots":0,"server_type":"Dedicated","server_os":"Linux","password":true,"vac":true,"version":"7932396","steam_id":85568392924742829,"keywords":["cp","nocrits","nodmgspread","uncletopia"],"game_id":440,"stv_port":27056,"stv_name":"Uncletopia | London | 5 | All Maps | STV","players":[{"user_id":244,"name":"hot guy","steam_id":76561198083063005,"connected_time":2659000000000,"state":"active","ping":36},{"user_id":267,"name":"PASTAMAN!!!","steam_id":76561198995641765,"connected_time":33000000000,"state":"active","ping":63},{"user_id":257,"name":"Zelenskiy","steam_id":76561198273199378,"connected_time":490000000000,"state":"active","ping":75},{"user_id":256,"name":"√§pl√§","steam_id":76561198245495152,"connected_time":499000000000,"state":"active","ping":60},{"user_id":263,"name":"Teathling.ttv","steam_id":76561198061580505,"connected_time":162000000000,"state":"active","ping":53},{"user_id":210,"name":"Consider Phlebas","steam_id":76561197980736364,"connected_time":5178000000000,"state":"active","ping":81},{"user_id":209,"name":"Mi Manchi","steam_id":76561198171573129,"connected_time":5241000000000,"state":"active","ping":72},{"user_id":236,"name":"Roxie (she/her)","steam_id":76561198283084060,"connected_time":3133000000000,"state":"active","ping":155},{"user_id":193,"name":"Wilderhammer","steam_id":76561198132133702,"connected_time":6222000000000,"state":"active","ping":48},{"user_id":264,"name":"Cronomax","steam_id":76561198285308399,"connected_time":161000000000,"state":"active","ping":150},{"user_id":216,"name":"DragonLord","steam_id":76561198074279225,"connected_time":4471000000000,"state":"active","ping":48},{"user_id":232,"name":"Vershal Smershal","steam_id":76561198116223995,"connected_time":3688000000000,"state":"active","ping":56},{"user_id":239,"name":"Bajas","steam_id":76561198179339326,"connected_time":2782000000000,"state":"active","ping":77},{"user_id":259,"name":"sachiko #","steam_id":76561198139615715,"connected_time":375000000000,"state":"active","ping":56},{"user_id":225,"name":"r4s1","steam_id":76561198024034917,"connected_time":4167000000000,"state":"active","ping":57},{"user_id":262,"name":":)","steam_id":76561198977420882,"connected_time":263000000000,"state":"active","ping":46},{"user_id":231,"name":"ZePequenio","steam_id":76561197968506094,"connected_time":3933000000000,"state":"active","ping":64},{"user_id":265,"name":"Explosive Poptart","steam_id":76561198023918830,"connected_time":136000000000,"state":"active","ping":45},{"user_id":253,"name":"Yuzu","steam_id":76561198121694613,"connected_time":1246000000000,"state":"active","ping":51},{"user_id":250,"name":"Just Navlis","steam_id":76561198090479609,"connected_time":1615000000000,"state":"active","ping":59},{"user_id":266,"name":"CB","steam_id":76561198255389232,"connected_time":118000000000,"state":"active","ping":66},{"user_id":227,"name":"MEGOS","steam_id":76561198172740637,"connected_time":4157000000000,"state":"active","ping":63},{"user_id":235,"name":"xavier","steam_id":76561198076494034,"connected_time":3470000000000,"state":"active","ping":50}]},{"server_id":22,"name":"Uncletopia | London | 6 | All Maps","name_short":"lon-6","host":"lon-1.uk.uncletopia.com","port":27065,"enabled":true,"region":"eu","cc":"gb","latitude":51.509865,"longitude":-0.118092,"reserved":0,"last_update":"0001-01-01T00:00:00Z","name_a2s":"Uncletopia | London | 6 | All Maps","protocol":17,"map":"pl_pier","folder":"tf","game":"Team Fortress","app_id":440,"player_count":24,"max_players":24,"Bots":0,"server_type":"Dedicated","server_os":"Linux","password":true,"vac":true,"version":"7932396","steam_id":85568392924742830,"keywords":["nocrits","nodmgspread","payload","uncletopia"],"game_id":440,"stv_port":27066,"stv_name":"Uncletopia | London | 6 | All Maps | STV","players":[{"user_id":306,"name":"Richking","steam_id":76561198310905128,"connected_time":344000000000,"state":"active","ping":73},{"user_id":266,"name":"perry the platypus","steam_id":76561199379159771,"connected_time":3997000000000,"state":"active","ping":147},{"user_id":286,"name":"snorrbrod","steam_id":76561198142389396,"connected_time":2159000000000,"state":"active","ping":80},{"user_id":290,"name":"Borat","steam_id":76561198122226417,"connected_time":2031000000000,"state":"active","ping":41},{"user_id":302,"name":"Bubbel","steam_id":76561198059540376,"connected_time":472000000000,"state":"active","ping":63},{"user_id":303,"name":"Lubrsi","steam_id":76561198040208195,"connected_time":462000000000,"state":"active","ping":47},{"user_id":250,"name":"sexmaster67","steam_id":76561198209602131,"connected_time":4688000000000,"state":"active","ping":68},{"user_id":304,"name":"Prison Mike","steam_id":76561198014221596,"connected_time":451000000000,"state":"active","ping":59},{"user_id":289,"name":"ThatBlackNorwegian (TCR)","steam_id":76561198271609633,"connected_time":2104000000000,"state":"active","ping":90},{"user_id":299,"name":"SPONGE","steam_id":76561198040933472,"connected_time":1212000000000,"state":"active","ping":101},{"user_id":279,"name":"dinorno","steam_id":76561198146276830,"connected_time":3264000000000,"state":"active","ping":151},{"user_id":297,"name":"Tyulmi","steam_id":76561198041432710,"connected_time":1346000000000,"state":"active","ping":152},{"user_id":189,"name":"CAR DOOR","steam_id":76561198055283295,"connected_time":6985000000000,"state":"active","ping":54},{"user_id":245,"name":"AFerociousTeddyBearSlayer","steam_id":76561198247447256,"connected_time":4787000000000,"state":"active","ping":50},{"user_id":287,"name":"Hovinator","steam_id":76561198158407634,"connected_time":2154000000000,"state":"active","ping":80},{"user_id":278,"name":"Alumento","steam_id":76561198043857441,"connected_time":3363000000000,"state":"active","ping":57},{"user_id":298,"name":"Exe_Red","steam_id":76561198154952759,"connected_time":1263000000000,"state":"active","ping":88},{"user_id":265,"name":"Kurage","steam_id":76561198021221288,"connected_time":4047000000000,"state":"active","ping":74},{"user_id":252,"name":"fucklord15","steam_id":76561198872866010,"connected_time":4667000000000,"state":"active","ping":66},{"user_id":305,"name":"H2n9","steam_id":76561198055811259,"connected_time":442000000000,"state":"active","ping":60},{"user_id":295,"name":"Prostate stealer","steam_id":76561198866972538,"connected_time":1561000000000,"state":"active","ping":92},{"user_id":47,"name":"NAHIDA","steam_id":76561198349648942,"connected_time":10392000000000,"state":"active","ping":91},{"user_id":275,"name":"sloppy transgirl toppy","steam_id":76561198057092208,"connected_time":3714000000000,"state":"active","ping":74},{"user_id":262,"name":"IndigoJones","steam_id":76561198050284262,"connected_time":4446000000000,"state":"active","ping":75}]},{"server_id":40,"name":"Uncletopia | London | 7 | No Payload","name_short":"lon-7","host":"lon-1.uk.uncletopia.com","port":27075,"enabled":true,"region":"eu","cc":"gb","latitude":51.509865,"longitude":-0.118092,"reserved":0,"last_update":"0001-01-01T00:00:00Z","name_a2s":"Uncletopia | London | 7 | No Payload","protocol":17,"map":"cp_gullywash_final1","folder":"tf","game":"Team Fortress","app_id":440,"player_count":9,"max_players":24,"Bots":0,"server_type":"Dedicated","server_os":"Linux","password":true,"vac":true,"version":"7932396","steam_id":85568392924964314,"keywords":["cp","nocrits","nodmgspread","uncletopia"],"game_id":440,"stv_port":27076,"stv_name":"Uncletopia | London | 7 | No Payload | STV","players":[{"user_id":20,"name":"Just_Chilling","steam_id":76561198036712229,"connected_time":3527000000000,"state":"active","ping":60},{"user_id":48,"name":"ROX","steam_id":76561198272289320,"connected_time":2080000000000,"state":"active","ping":67},{"user_id":27,"name":"Goose of Wisdom","steam_id":76561198233465044,"connected_time":3089000000000,"state":"active","ping":145},{"user_id":47,"name":"TSx* Osa__PL","steam_id":76561198027016799,"connected_time":2268000000000,"state":"active","ping":75},{"user_id":42,"name":"TSx* Naxer","steam_id":76561198011986779,"connected_time":2358000000000,"state":"active","ping":75},{"user_id":62,"name":"General William Tecumseh Sherma","steam_id":76561199078307343,"connected_time":882000000000,"state":"active","ping":165},{"user_id":44,"name":"TSx* EmperoT","steam_id":76561198018656942,"connected_time":2336000000000,"state":"active","ping":80},{"user_id":49,"name":"NANI?!?!?!","steam_id":76561198172078559,"connected_time":2049000000000,"state":"active","ping":73},{"user_id":52,"name":"Solarwolf64 #SaveTF2","steam_id":76561198023570251,"connected_time":2010000000000,"state":"active","ping":57}]},{"server_id":41,"name":"Uncletopia | London | 8 | Community","name_short":"lon-8","host":"lon-1.uk.uncletopia.com","port":27085,"enabled":true,"region":"eu","cc":"gb","latitude":51.509865,"longitude":-0.118092,"reserved":0,"last_update":"0001-01-01T00:00:00Z","name_a2s":"Uncletopia | London | 8 | Community","protocol":17,"map":"workshop/koth_trenchfoot_b1a.ugc731436616","folder":"tf","game":"Team Fortress","app_id":440,"player_count":0,"max_players":24,"Bots":0,"server_type":"Dedicated","server_os":"Linux","password":true,"vac":true,"version":"7932396","steam_id":85568392924964315,"keywords":["cp","nocrits","nodmgspread","uncletopia"],"game_id":440,"stv_port":27086,"stv_name":"Uncletopia | London | 8 | Community | STV","players":null},{"server_id":300,"name":"Uncletopia | Montr√©al | 1 | All Maps","name_short":"mtl-1","host":"mtl-1.ca.uncletopia.com","port":27015,"enabled":true,"region":"us-east","cc":"ca","latitude":45.50889,"longitude":-73.56167,"reserved":0,"last_update":"0001-01-01T00:00:00Z","name_a2s":"Uncletopia | Montr√©al | 1 | All Maps","protocol":17,"map":"pl_borneo","folder":"tf","game":"Team Fortress","app_id":440,"player_count":23,"max_players":24,"Bots":0,"server_type":"Dedicated","server_os":"Linux","password":true,"vac":true,"version":"7932396","steam_id":85568392924500087,"keywords":["nocrits","nodmgspread","payload","uncletopia"],"game_id":440,"stv_port":27016,"stv_name":"Uncletopia | Montr√©al | 1 | All Maps | STV","players":[{"user_id":5,"name":"theduckgoesmoo","steam_id":76561198232695752,"connected_time":6077000000000,"state":"active","ping":72},{"user_id":6,"name":"Umbrex","steam_id":76561198804359810,"connected_time":6069000000000,"state":"active","ping":88},{"user_id":7,"name":"Cherry Juice","steam_id":76561198366570108,"connected_time":6060000000000,"state":"active","ping":59},{"user_id":27,"name":"Wremtch","steam_id":76561198444572059,"connected_time":4124000000000,"state":"active","ping":50},{"user_id":9,"name":"Armoured Bear","steam_id":76561198081552558,"connected_time":6031000000000,"state":"active","ping":159},{"user_id":10,"name":"Fun Police","steam_id":76561198267520577,"connected_time":6031000000000,"state":"active","ping":108},{"user_id":116,"name":"yes daddy","steam_id":76561198166100997,"connected_time":240000000000,"state":"active","ping":75},{"user_id":119,"name":"Stonehead","steam_id":76561198850051665,"connected_time":83000000000,"state":"spawning","ping":109},{"user_id":72,"name":"√ârable enneig√©","steam_id":76561199435941474,"connected_time":1946000000000,"state":"active","ping":48},{"user_id":115,"name":"Spy TF2","steam_id":76561198824209727,"connected_time":402000000000,"state":"active","ping":179},{"user_id":121,"name":"Heal","steam_id":76561198798229240,"connected_time":53000000000,"state":"active","ping":61},{"user_id":78,"name":"Error 404","steam_id":76561198368349900,"connected_time":1794000000000,"state":"active","ping":88},{"user_id":79,"name":"Korporal K. Reep","steam_id":76561199098222561,"connected_time":1770000000000,"state":"active","ping":184},{"user_id":44,"name":"DaGaminBurrito844","steam_id":76561199015200316,"connected_time":3455000000000,"state":"active","ping":60},{"user_id":80,"name":"crayonnipple","steam_id":76561198070253331,"connected_time":1745000000000,"state":"active","ping":47},{"user_id":114,"name":"Rx Auntie","steam_id":76561198051618393,"connected_time":637000000000,"state":"active","ping":53},{"user_id":51,"name":"[TSG] Turner's Chocolate Milk","steam_id":76561198058963288,"connected_time":2944000000000,"state":"active","ping":56},{"user_id":118,"name":"Scientist005","steam_id":76561198117825609,"connected_time":128000000000,"state":"active","ping":51},{"user_id":122,"name":"Passive-Aggressive Land Whale","steam_id":76561198058057999,"connected_time":18000000000,"state":"active","ping":289},{"user_id":111,"name":"Sergeant Joker #savetf2","steam_id":76561198854616604,"connected_time":757000000000,"state":"active","ping":53},{"user_id":33,"name":"ZeroX","steam_id":76561198980510227,"connected_time":4008000000000,"state":"active","ping":79},{"user_id":34,"name":"L4gman","steam_id":76561198048227040,"connected_time":4005000000000,"state":"active","ping":142},{"user_id":112,"name":"reymundo","steam_id":76561197989412830,"connected_time":709000000000,"state":"active","ping":135}]},{"server_id":301,"name":"Uncletopia | Montr√©al | 2 | All Maps","name_short":"mtl-2","host":"mtl-1.ca.uncletopia.com","port":27025,"enabled":true,"region":"us-east","cc":"ca","latitude":45.50889,"longitude":-73.56167,"reserved":0,"last_update":"0001-01-01T00:00:00Z","name_a2s":"Uncletopia | Montr√©al | 2 | All Maps","protocol":17,"map":"koth_lakeside_final","folder":"tf","game":"Team Fortress","app_id":440,"player_count":0,"max_players":24,"Bots":0,"server_type":"Dedicated","server_os":"Linux","password":true,"vac":true,"version":"7932396","steam_id":85568392924500088,"keywords":["cp","nocrits","nodmgspread","uncletopia"],"game_id":440,"stv_port":27026,"stv_name":"Uncletopia | Montr√©al | 2 | All Maps | STV","players":null},{"server_id":302,"name":"Uncletopia | Montr√©al | 3 | All Maps","name_short":"mtl-3","host":"mtl-1.ca.uncletopia.com","port":27035,"enabled":true,"region":"us-east","cc":"ca","latitude":45.50889,"longitude":-73.56167,"reserved":0,"last_update":"0001-01-01T00:00:00Z","name_a2s":"Uncletopia | Montr√©al | 3 | All Maps","protocol":17,"map":"koth_cascade","folder":"tf","game":"Team Fortress","app_id":440,"player_count":0,"max_players":24,"Bots":0,"server_type":"Dedicated","server_os":"Linux","password":true,"vac":true,"version":"7932396","steam_id":85568392924500089,"keywords":["cp","nocrits","nodmgspread","uncletopia"],"game_id":440,"stv_port":27036,"stv_name":"Uncletopia | Montr√©al | 3 | All Maps | STV","players":null},{"server_id":303,"name":"Uncletopia | Montr√©al | 4 | No Payload","name_short":"mtl-4","host":"mtl-1.ca.uncletopia.com","port":27045,"enabled":true,"region":"us-east","cc":"ca","latitude":45.50889,"longitude":-73.56167,"reserved":0,"last_update":"0001-01-01T00:00:00Z","name_a2s":"Uncletopia | Montr√©al | 4 | No Payload","protocol":17,"map":"cp_snakewater_final1","folder":"tf","game":"Team Fortress","app_id":440,"player_count":0,"max_players":24,"Bots":0,"server_type":"Dedicated","server_os":"Linux","password":true,"vac":true,"version":"7932396","steam_id":85568392924500090,"keywords":["cp","nocrits","nodmgspread","uncletopia"],"game_id":440,"stv_port":27046,"stv_name":"Uncletopia | Montr√©al | 4 | No Payload | STV","players":null},{"server_id":13,"name":"Uncletopia | New York City | 1 | All Maps","name_short":"nyc-1","host":"nyc-1.us.uncletopia.com","port":27015,"enabled":true,"region":"us-east","cc":"us","latitude":40.73061,"longitude":-73.93524,"reserved":0,"last_update":"0001-01-01T00:00:00Z","name_a2s":"Uncletopia | New York City | 1 | All Maps","protocol":17,"map":"pl_badwater","folder":"tf","game":"Team Fortress","app_id":440,"player_count":23,"max_players":24,"Bots":0,"server_type":"Dedicated","server_os":"Linux","password":true,"vac":true,"version":"7932396","steam_id":85568392924469993,"keywords":["nocrits","nodmgspread","payload","uncletopia"],"game_id":440,"stv_port":27016,"stv_name":"Uncletopia | New York City | 1 | All Maps | STV","players":[{"user_id":256,"name":"Mattron1","steam_id":76561198012270524,"connected_time":150000000000,"state":"active","ping":72},{"user_id":245,"name":"Jeugh","steam_id":76561198073498865,"connected_time":871000000000,"state":"active","ping":80},{"user_id":236,"name":"Keymaster","steam_id":76561198881514228,"connected_time":1327000000000,"state":"active","ping":59},{"user_id":246,"name":"Jamendithas","steam_id":76561198119537716,"connected_time":863000000000,"state":"active","ping":60},{"user_id":237,"name":"Myn","steam_id":76561198055438857,"connected_time":1311000000000,"state":"active","ping":60},{"user_id":238,"name":"Chary","steam_id":76561199090461064,"connected_time":1287000000000,"state":"active","ping":176},{"user_id":212,"name":"LordOfTheNoobs","steam_id":76561197962697523,"connected_time":3187000000000,"state":"active","ping":81},{"user_id":221,"name":"Brown_Dream","steam_id":76561198975766145,"connected_time":2676000000000,"state":"active","ping":72},{"user_id":253,"name":"lwyr","steam_id":76561198007982579,"connected_time":518000000000,"state":"active","ping":46},{"user_id":258,"name":"cosmic ambiance","steam_id":76561198042788986,"connected_time":27000000000,"state":"active","ping":67},{"user_id":247,"name":"Punished Kong","steam_id":76561198973620882,"connected_time":855000000000,"state":"active","ping":82},{"user_id":240,"name":"Parth Makeo","steam_id":76561198002516581,"connected_time":1239000000000,"state":"active","ping":45},{"user_id":233,"name":"malon milk","steam_id":76561198042558913,"connected_time":1484000000000,"state":"active","ping":70},{"user_id":215,"name":"Tankless Water Heater","steam_id":76561198014574925,"connected_time":3121000000000,"state":"active","ping":66},{"user_id":248,"name":"beyond","steam_id":76561198051009126,"connected_time":853000000000,"state":"active","ping":47},{"user_id":257,"name":"Robot Rob","steam_id":76561198397832881,"connected_time":57000000000,"state":"active","ping":68},{"user_id":244,"name":"BarrowBaron","steam_id":76561198013633236,"connected_time":1051000000000,"state":"active","ping":77},{"user_id":250,"name":"malarkeyman","steam_id":76561198844473584,"connected_time":788000000000,"state":"active","ping":69},{"user_id":251,"name":"ancientfunland","steam_id":76561199220174291,"connected_time":777000000000,"state":"active","ping":70},{"user_id":218,"name":"Matt","steam_id":76561198008108521,"connected_time":3108000000000,"state":"active","ping":63},{"user_id":229,"name":"Fish","steam_id":76561199258053772,"connected_time":2435000000000,"state":"active","ping":93},{"user_id":255,"name":"Kickpuncher","steam_id":76561198121528357,"connected_time":348000000000,"state":"active","ping":57},{"user_id":242,"name":"Sysadmin Stress Release","steam_id":76561197997326384,"connected_time":1158000000000,"state":"active","ping":57}]},{"server_id":14,"name":"Uncletopia | New York City | 2 | All Maps","name_short":"nyc-2","host":"nyc-1.us.uncletopia.com","port":27025,"enabled":true,"region":"us-east","cc":"us","latitude":40.73061,"longitude":-73.93524,"reserved":0,"last_update":"0001-01-01T00:00:00Z","name_a2s":"Uncletopia | New York City | 2 | All Maps","protocol":17,"map":"pl_pier","folder":"tf","game":"Team Fortress","app_id":440,"player_count":24,"max_players":24,"Bots":0,"server_type":"Dedicated","server_os":"Linux","password":true,"vac":true,"version":"7932396","steam_id":85568392924469994,"keywords":["nocrits","nodmgspread","payload","uncletopia"],"game_id":440,"stv_port":27026,"stv_name":"Uncletopia | New York City | 2 | All Maps | STV","players":[{"user_id":147,"name":"xXCallOfDoodyQuikScopeMaster34X","steam_id":76561198067232540,"connected_time":1130000000000,"state":"active","ping":76},{"user_id":121,"name":"Nerrrd_","steam_id":76561198870129960,"connected_time":2568000000000,"state":"active","ping":44},{"user_id":109,"name":"[BBC] Justario","steam_id":76561198016095410,"connected_time":3348000000000,"state":"active","ping":50},{"user_id":125,"name":"drain.pablo.2005","steam_id":76561198303963691,"connected_time":2388000000000,"state":"active","ping":74},{"user_id":148,"name":"brian.dahlmann","steam_id":76561198360431651,"connected_time":1111000000000,"state":"active","ping":71},{"user_id":158,"name":"Peter the Panda","steam_id":76561198300786324,"connected_time":364000000000,"state":"active","ping":52},{"user_id":144,"name":"Styx","steam_id":76561198158334494,"connected_time":1291000000000,"state":"active","ping":92},{"user_id":150,"name":"Prsm","steam_id":76561198053344995,"connected_time":836000000000,"state":"active","ping":40},{"user_id":152,"name":"Kedata","steam_id":76561198047750050,"connected_time":462000000000,"state":"active","ping":60},{"user_id":145,"name":"nicolaspinedaaa","steam_id":76561199036084450,"connected_time":1276000000000,"state":"active","ping":129},{"user_id":161,"name":"Matchstick","steam_id":76561198399856863,"connected_time":139000000000,"state":"active","ping":86},{"user_id":76,"name":"wise","steam_id":76561198030066204,"connected_time":6649000000000,"state":"active","ping":38},{"user_id":110,"name":"Your Mental State","steam_id":76561198754521104,"connected_time":3296000000000,"state":"active","ping":54},{"user_id":127,"name":"Idk","steam_id":76561198971629959,"connected_time":2310000000000,"state":"active","ping":132},{"user_id":140,"name":"The Horselords and Animal Gods","steam_id":76561197975094050,"connected_time":1429000000000,"state":"active","ping":121},{"user_id":141,"name":"Cheesi","steam_id":76561199417190840,"connected_time":1393000000000,"state":"active","ping":93},{"user_id":146,"name":"Bananadu","steam_id":76561198078062042,"connected_time":1242000000000,"state":"active","ping":45},{"user_id":138,"name":"heavy is dead","steam_id":76561199094974747,"connected_time":1685000000000,"state":"active","ping":56},{"user_id":156,"name":"Simply-Vincenzo","steam_id":76561198044580842,"connected_time":380000000000,"state":"active","ping":101},{"user_id":134,"name":"scriblemelego","steam_id":76561198105197203,"connected_time":2129000000000,"state":"active","ping":75},{"user_id":159,"name":"doodlenoodles","steam_id":76561199345823430,"connected_time":207000000000,"state":"active","ping":47},{"user_id":160,"name":"B·µ¢g B‚Çí‚Çõ‚Çõ","steam_id":76561198090271815,"connected_time":192000000000,"state":"active","ping":126},{"user_id":151,"name":"(Voice) God","steam_id":76561198118605824,"connected_time":817000000000,"state":"active","ping":54},{"user_id":157,"name":"Ursus Ludius","steam_id":76561198025470722,"connected_time":379000000000,"state":"active","ping":72}]},{"server_id":15,"name":"Uncletopia | New York City | 3 | Stopwatch Beta","name_short":"nyc-3","host":"nyc-1.us.uncletopia.com","port":27035,"enabled":true,"region":"us-east","cc":"us","latitude":40.73061,"longitude":-73.93524,"reserved":0,"last_update":"0001-01-01T00:00:00Z","name_a2s":"Uncletopia | New York City | 3 | Stopwatch Beta","protocol":17,"map":"workshop/koth_clearcut_b15.ugc2107050255","folder":"tf","game":"Team Fortress","app_id":440,"player_count":0,"max_players":24,"Bots":0,"server_type":"Dedicated","server_os":"Linux","password":true,"vac":true,"version":"7932396","steam_id":85568392924742820,"keywords":["cp","nocrits","nodmgspread","uncletopia"],"game_id":440,"stv_port":27036,"stv_name":"Uncletopia | New York City | 3 | Stopwatch Beta | STV","players":null},{"server_id":16,"name":"Uncletopia | New York City | 4 | Community","name_short":"nyc-4","host":"nyc-1.us.uncletopia.com","port":27045,"enabled":true,"region":"us-east","cc":"us","latitude":40.73061,"longitude":-73.93524,"reserved":0,"last_update":"0001-01-01T00:00:00Z","name_a2s":"Uncletopia | New York City | 4 | Community","protocol":17,"map":"workshop/pl_cashworks_final1.ugc2904065412","folder":"tf","game":"Team Fortress","app_id":440,"player_count":23,"max_players":24,"Bots":0,"server_type":"Dedicated","server_os":"Linux","password":true,"vac":true,"version":"7932396","steam_id":85568392924742821,"keywords":["nocrits","nodmgspread","payload","uncletopia"],"game_id":440,"stv_port":27046,"stv_name":"Uncletopia | New York City | 4 | Community | STV","players":[{"user_id":232,"name":"esoobac","steam_id":76561198010370396,"connected_time":529000000000,"state":"active","ping":64},{"user_id":188,"name":"Bee","steam_id":76561198074681324,"connected_time":4159000000000,"state":"active","ping":46},{"user_id":226,"name":"SodaKid_7","steam_id":76561198079419485,"connected_time":586000000000,"state":"active","ping":122},{"user_id":234,"name":"Junko","steam_id":76561198146089003,"connected_time":473000000000,"state":"active","ping":32},{"user_id":147,"name":"Blitzy","steam_id":76561198149472890,"connected_time":6781000000000,"state":"active","ping":90},{"user_id":220,"name":"Lucille_Bluth","steam_id":76561198206133916,"connected_time":1158000000000,"state":"active","ping":65},{"user_id":187,"name":"gIBBY","steam_id":76561198080099598,"connected_time":4241000000000,"state":"active","ping":44},{"user_id":146,"name":"üÖúüÖîüÖîüÖöüÖ¢üÖ£üÖî\ufffd\ufffd\ufffd","steam_id":76561197999748343,"connected_time":6792000000000,"state":"active","ping":84},{"user_id":227,"name":"he got that dog in him","steam_id":76561198116767286,"connected_time":584000000000,"state":"active","ping":60},{"user_id":238,"name":"!mute","steam_id":76561198219209367,"connected_time":173000000000,"state":"active","ping":86},{"user_id":237,"name":"lifted tater","steam_id":76561198404564240,"connected_time":218000000000,"state":"active","ping":46},{"user_id":225,"name":"Jesus","steam_id":76561198866558435,"connected_time":879000000000,"state":"active","ping":92},{"user_id":228,"name":"Virtual Zorua","steam_id":76561198196180302,"connected_time":582000000000,"state":"active","ping":66},{"user_id":171,"name":"·∂ú·µÉ·∂ú·µÉÀ¢·µñ ∏","steam_id":76561198140946476,"connected_time":5108000000000,"state":"active","ping":105},{"user_id":229,"name":"Brooklyn","steam_id":76561199242737130,"connected_time":581000000000,"state":"active","ping":68},{"user_id":230,"name":"SentPie","steam_id":76561198796459932,"connected_time":579000000000,"state":"active","ping":90},{"user_id":239,"name":"sheep man shaun","steam_id":76561198994349483,"connected_time":76000000000,"state":"active","ping":115},{"user_id":184,"name":"Zephyr","steam_id":76561198063155482,"connected_time":4431000000000,"state":"active","ping":73},{"user_id":233,"name":"Reisen Udongein Inaba","steam_id":76561198051082314,"connected_time":519000000000,"state":"active","ping":143},{"user_id":240,"name":"k1tty","steam_id":76561198869348268,"connected_time":64000000000,"state":"active","ping":119},{"user_id":224,"name":"Mr. Pink","steam_id":76561198065858172,"connected_time":1006000000000,"state":"active","ping":49},{"user_id":235,"name":"Chicken Joe","steam_id":76561198278185182,"connected_time":355000000000,"state":"active","ping":56},{"user_id":222,"name":"scourge","steam_id":76561198288577898,"connected_time":1122000000000,"state":"active","ping":116}]},{"server_id":142,"name":"Uncletopia | S√£o Paulo | 1 | All Maps","name_short":"sao-1","host":"sao-1.br.uncletopia.com","port":27015,"enabled":true,"region":"sa","cc":"br","latitude":-23.533773,"longitude":-46.62529,"reserved":0,"last_update":"0001-01-01T00:00:00Z","name_a2s":"Uncletopia | S√£o Paulo | 1 | All Maps","protocol":17,"map":"koth_lakeside_final","folder":"tf","game":"Team Fortress","app_id":440,"player_count":0,"max_players":24,"Bots":0,"server_type":"Dedicated","server_os":"Linux","password":true,"vac":true,"version":"7932396","steam_id":85568392924469996,"keywords":["cp","nocrits","nodmgspread","uncletopia"],"game_id":440,"stv_port":27016,"stv_name":"Uncletopia | S√£o Paulo | 1 | All Maps | STV","players":null},{"server_id":143,"name":"Uncletopia | S√£o Paulo | 2 | All Maps","name_short":"sao-2","host":"sao-2.br.uncletopia.com","port":27015,"enabled":true,"region":"sa","cc":"br","latitude":-23.533773,"longitude":-46.62529,"reserved":0,"last_update":"0001-01-01T00:00:00Z","name_a2s":"Uncletopia | S√£o Paulo | 2 | All Maps","protocol":17,"map":"koth_cascade","folder":"tf","game":"Team Fortress","app_id":440,"player_count":0,"max_players":24,"Bots":0,"server_type":"Dedicated","server_os":"Linux","password":true,"vac":true,"version":"7932396","steam_id":85568392924485349,"keywords":["cp","nocrits","nodmgspread","uncletopia"],"game_id":440,"stv_port":27016,"stv_name":"Uncletopia | S√£o Paulo | 2 | All Maps | STV","players":null},{"server_id":7,"name":"Uncletopia | Seattle | 1 | All Maps","name_short":"sea-1","host":"sea-1.us.uncletopia.com","port":27015,"enabled":true,"region":"us-west","cc":"us","latitude":47.608013,"longitude":-122.33517,"reserved":0,"last_update":"0001-01-01T00:00:00Z","name_a2s":"Uncletopia | Seattle | 1 | All Maps","protocol":17,"map":"pl_pier","folder":"tf","game":"Team Fortress","app_id":440,"player_count":24,"max_players":24,"Bots":0,"server_type":"Dedicated","server_os":"Linux","password":true,"vac":true,"version":"7932396","steam_id":85568392924469997,"keywords":["nocrits","nodmgspread","payload","uncletopia"],"game_id":440,"stv_port":27016,"stv_name":"Uncletopia | Seattle | 1 | All Maps | STV","players":[{"user_id":135,"name":"lavender","steam_id":76561199069518286,"connected_time":649000000000,"state":"active","ping":74},{"user_id":120,"name":"mr. nine","steam_id":76561198097599414,"connected_time":2935000000000,"state":"active","ping":84},{"user_id":124,"name":"GudeGuy","steam_id":76561198011801747,"connected_time":2654000000000,"state":"active","ping":68},{"user_id":133,"name":"_ROBLOX_LOVER_","steam_id":76561198870649125,"connected_time":996000000000,"state":"active","ping":85},{"user_id":116,"name":"FI LO","steam_id":76561198976530881,"connected_time":3027000000000,"state":"active","ping":72},{"user_id":132,"name":"honked off the bobo","steam_id":76561198123287268,"connected_time":999000000000,"state":"active","ping":102},{"user_id":134,"name":"Ultra Pinstinct","steam_id":76561198336604599,"connected_time":990000000000,"state":"active","ping":73},{"user_id":99,"name":"La Tabda","steam_id":76561198120364620,"connected_time":4337000000000,"state":"active","ping":47},{"user_id":128,"name":"Little Linguine","steam_id":76561198816986370,"connected_time":1254000000000,"state":"active","ping":64},{"user_id":53,"name":"bemo","steam_id":76561198344331503,"connected_time":8023000000000,"state":"active","ping":49},{"user_id":138,"name":"Joh Bags","steam_id":76561198097004438,"connected_time":228000000000,"state":"active","ping":85},{"user_id":102,"name":"(ultra)DiViNe","steam_id":76561198109084485,"connected_time":4262000000000,"state":"active","ping":71},{"user_id":58,"name":"greenpeace","steam_id":76561197983221708,"connected_time":7703000000000,"state":"active","ping":69},{"user_id":59,"name":"unfathomable heights of bliss","steam_id":76561198048925904,"connected_time":7701000000000,"state":"active","ping":91},{"user_id":125,"name":"camp3r","steam_id":76561197992870439,"connected_time":1885000000000,"state":"active","ping":35},{"user_id":136,"name":"ZEKKER","steam_id":76561197967968980,"connected_time":404000000000,"state":"active","ping":55},{"user_id":131,"name":"Astronat","steam_id":76561198096321896,"connected_time":1242000000000,"state":"active","ping":70},{"user_id":108,"name":"Pestilence","steam_id":76561198272327629,"connected_time":4156000000000,"state":"active","ping":80},{"user_id":64,"name":"26O3 Ê•µÂÖâÈù¢Á¥ó","steam_id":76561198964074985,"connected_time":7573000000000,"state":"active","ping":69},{"user_id":94,"name":"selvhat","steam_id":76561198114225509,"connected_time":4944000000000,"state":"active","ping":104},{"user_id":127,"name":"Glorious Leader Kim Jim the III","steam_id":76561198149714906,"connected_time":1256000000000,"state":"active","ping":67},{"user_id":93,"name":"Ira","steam_id":76561198855586261,"connected_time":5002000000000,"state":"active","ping":66},{"user_id":123,"name":"delight","steam_id":76561197980280272,"connected_time":2764000000000,"state":"active","ping":51},{"user_id":98,"name":"E4Estrogen","steam_id":76561198085813708,"connected_time":4401000000000,"state":"active","ping":119}]},{"server_id":119,"name":"Uncletopia | Seattle | 2 | All Maps","name_short":"sea-2","host":"sea-1.us.uncletopia.com","port":27025,"enabled":true,"region":"us-west","cc":"us","latitude":47.608013,"longitude":-122.33517,"reserved":0,"last_update":"0001-01-01T00:00:00Z","name_a2s":"Uncletopia | Seattle | 2 | All Maps","protocol":17,"map":"koth_highpass","folder":"tf","game":"Team Fortress","app_id":440,"player_count":24,"max_players":24,"Bots":0,"server_type":"Dedicated","server_os":"Linux","password":true,"vac":true,"version":"7932396","steam_id":85568392924469998,"keywords":["cp","nocrits","nodmgspread","uncletopia"],"game_id":440,"stv_port":27026,"stv_name":"Uncletopia | Seattle | 2 | All Maps | STV","players":[{"user_id":492,"name":"Cinnifox","steam_id":76561198068773971,"connected_time":3374000000000,"state":"active","ping":65},{"user_id":504,"name":"Thequirka #ForFountainMann","steam_id":76561198968058652,"connected_time":1833000000000,"state":"active","ping":49},{"user_id":498,"name":"ToxicWaste","steam_id":76561198827196688,"connected_time":2185000000000,"state":"active","ping":60},{"user_id":497,"name":"Tomato","steam_id":76561197996472649,"connected_time":2562000000000,"state":"active","ping":120},{"user_id":491,"name":"PachucoWaffle TTV","steam_id":76561198051491032,"connected_time":3880000000000,"state":"active","ping":55},{"user_id":527,"name":"Zurgoff_The_Stressed","steam_id":76561198295702993,"connected_time":945000000000,"state":"active","ping":94},{"user_id":514,"name":"Zato 1's Slut","steam_id":76561198135880720,"connected_time":1528000000000,"state":"active","ping":126},{"user_id":526,"name":"GardenOfStone","steam_id":76561199069870534,"connected_time":972000000000,"state":"active","ping":24},{"user_id":540,"name":"oil","steam_id":76561198099980149,"connected_time":14000000000,"state":"active","ping":81},{"user_id":503,"name":"squash","steam_id":76561198150281353,"connected_time":1889000000000,"state":"active","ping":57},{"user_id":505,"name":"The Supreme Leader Kim Jong Un","steam_id":76561198067272391,"connected_time":1750000000000,"state":"active","ping":54},{"user_id":535,"name":"knatspray","steam_id":76561198832507482,"connected_time":109000000000,"state":"active","ping":86},{"user_id":539,"name":"Cosmic Torgue","steam_id":76561198828724945,"connected_time":22000000000,"state":"active","ping":121},{"user_id":537,"name":"Honeybunch","steam_id":76561198014850580,"connected_time":51000000000,"state":"active","ping":42},{"user_id":513,"name":"=Silver=","steam_id":76561198292307127,"connected_time":1599000000000,"state":"active","ping":71},{"user_id":538,"name":"jozthebob","steam_id":76561199476198856,"connected_time":40000000000,"state":"active","ping":82},{"user_id":533,"name":"bobbymcbobington","steam_id":76561199089411172,"connected_time":242000000000,"state":"active","ping":166},{"user_id":512,"name":"Psychromaniac","steam_id":76561198012215214,"connected_time":1618000000000,"state":"active","ping":55},{"user_id":515,"name":"no brain","steam_id":76561198451032322,"connected_time":1503000000000,"state":"active","ping":92},{"user_id":529,"name":"MonteJT","steam_id":76561198055409360,"connected_time":921000000000,"state":"active","ping":37},{"user_id":532,"name":"jackhillard83","steam_id":76561199057098390,"connected_time":274000000000,"state":"active","ping":124},{"user_id":518,"name":"ÈáåËäã - Tarooo","steam_id":76561198392986348,"connected_time":1384000000000,"state":"active","ping":74},{"user_id":530,"name":"Vlad","steam_id":76561198072334604,"connected_time":916000000000,"state":"active","ping":52},{"user_id":534,"name":"CPTforever","steam_id":76561198237767198,"connected_time":211000000000,"state":"active","ping":48}]},{"server_id":406,"name":"Uncletopia | Seattle | 3 | Stopwatch Beta","name_short":"sea-3","host":"sea-1.us.uncletopia.com","port":27035,"enabled":true,"region":"us-west","cc":"us","latitude":47.608013,"longitude":-122.33517,"reserved":0,"last_update":"0001-01-01T00:00:00Z","name_a2s":"Uncletopia | Seattle | 3 | Stopwatch Beta","protocol":17,"map":"workshop/koth_bagel_rc6.ugc2514036946","folder":"tf","game":"Team Fortress","app_id":440,"player_count":0,"max_players":24,"Bots":0,"server_type":"Dedicated","server_os":"Linux","password":true,"vac":true,"version":"7932396","steam_id":85568392924515217,"keywords":["cp","nocrits","nodmgspread","uncletopia"],"game_id":440,"stv_port":27036,"stv_name":"Uncletopia | Seattle | 3 | Stopwatch Beta | STV","players":null},{"server_id":17,"name":"Uncletopia | San Francisco | 1 | All Maps","name_short":"sfo-1","host":"sfo-1.us.uncletopia.com","port":27015,"enabled":true,"region":"us-west","cc":"us","latitude":37.77397,"longitude":-122.4313,"reserved":0,"last_update":"0001-01-01T00:00:00Z","name_a2s":"Uncletopia | San Francisco | 1 | All Maps","protocol":17,"map":"koth_cascade","folder":"tf","game":"Team Fortress","app_id":440,"player_count":0,"max_players":24,"Bots":0,"server_type":"Dedicated","server_os":"Linux","password":true,"vac":true,"version":"7932396","steam_id":85568392924469999,"keywords":["cp","nocrits","nodmgspread","uncletopia"],"game_id":440,"stv_port":27016,"stv_name":"Uncletopia | San Francisco | 1 | All Maps | STV","players":null},{"server_id":18,"name":"Uncletopia | San Francisco | 2 | All Maps","name_short":"sfo-2","host":"sfo-1.us.uncletopia.com","port":27025,"enabled":true,"region":"us-west","cc":"us","latitude":37.77397,"longitude":-122.4313,"reserved":0,"last_update":"0001-01-01T00:00:00Z","name_a2s":"Uncletopia | San Francisco | 2 | All Maps","protocol":17,"map":"cp_snakewater_final1","folder":"tf","game":"Team Fortress","app_id":440,"player_count":0,"max_players":24,"Bots":0,"server_type":"Dedicated","server_os":"Linux","password":true,"vac":true,"version":"7932396","steam_id":85568392924470000,"keywords":["cp","nocrits","nodmgspread","uncletopia"],"game_id":440,"stv_port":27026,"stv_name":"Uncletopia | San Francisco | 2 | All Maps | STV","players":null},{"server_id":19,"name":"Uncletopia | San Francisco | 3 | Stopwatch Beta","name_short":"sfo-3","host":"sfo-1.us.uncletopia.com","port":27035,"enabled":true,"region":"us-west","cc":"us","latitude":37.77397,"longitude":-122.4313,"reserved":0,"last_update":"0001-01-01T00:00:00Z","name_a2s":"Uncletopia | San Francisco | 3 | Stopwatch Beta","protocol":17,"map":"workshop/pl_vigil_rc9.ugc1266210012","folder":"tf","game":"Team Fortress","app_id":440,"player_count":0,"max_players":24,"Bots":0,"server_type":"Dedicated","server_os":"Linux","password":true,"vac":true,"version":"7932396","steam_id":85568392924742824,"keywords":["nocrits","nodmgspread","payload","uncletopia"],"game_id":440,"stv_port":27036,"stv_name":"Uncletopia | San Francisco | 3 | Stopwatch Beta | STV","players":null},{"server_id":20,"name":"Uncletopia | San Francisco | 4 | Community","name_short":"sfo-4","host":"sfo-1.us.uncletopia.com","port":27045,"enabled":true,"region":"us-west","cc":"us","latitude":37.77397,"longitude":-122.4313,"reserved":0,"last_update":"0001-01-01T00:00:00Z","name_a2s":"Uncletopia | San Francisco | 4 | Community","protocol":17,"map":"pl_borneo","folder":"tf","game":"Team Fortress","app_id":440,"player_count":0,"max_players":24,"Bots":0,"server_type":"Dedicated","server_os":"Linux","password":true,"vac":true,"version":"7932396","steam_id":85568392924742826,"keywords":["nocrits","nodmgspread","payload","uncletopia"],"game_id":440,"stv_port":27046,"stv_name":"Uncletopia | San Francisco | 4 | Community | STV","players":null},{"server_id":141,"name":"Uncletopia | Sydney | 1 | All Maps","name_short":"syd-1","host":"syd-1.au.uncletopia.com","port":27015,"enabled":true,"region":"au","cc":"au","latitude":-33.865143,"longitude":151.2099,"reserved":0,"last_update":"0001-01-01T00:00:00Z","name_a2s":"Uncletopia | Sydney | 1 | All Maps","protocol":17,"map":"cp_mountainlab","folder":"tf","game":"Team Fortress","app_id":440,"player_count":0,"max_players":24,"Bots":0,"server_type":"Dedicated","server_os":"Linux","password":true,"vac":true,"version":"7932396","steam_id":85568392924470001,"keywords":["cp","nocrits","nodmgspread","uncletopia"],"game_id":440,"stv_port":27016,"stv_name":"Uncletopia | Sydney | 1 | All Maps | STV","players":null},{"server_id":123,"name":"Uncletopia | Sydney | 2 | All Maps","name_short":"syd-2","host":"syd-1.au.uncletopia.com","port":27025,"enabled":true,"region":"au","cc":"au","latitude":-33.865143,"longitude":151.2099,"reserved":0,"last_update":"0001-01-01T00:00:00Z","name_a2s":"Uncletopia | Sydney | 2 | All Maps","protocol":17,"map":"cp_altitude","folder":"tf","game":"Team Fortress","app_id":440,"player_count":4,"max_players":24,"Bots":0,"server_type":"Dedicated","server_os":"Linux","password":true,"vac":true,"version":"7932396","steam_id":85568392924470002,"keywords":["cp","nocrits","nodmgspread","uncletopia"],"game_id":440,"stv_port":27026,"stv_name":"Uncletopia | Sydney | 2 | All Maps | STV","players":[{"user_id":3,"name":"Catz'","steam_id":76561198275949250,"connected_time":2315000000000,"state":"active","ping":323},{"user_id":4,"name":"ralsei gaming","steam_id":76561199191689612,"connected_time":1700000000000,"state":"active","ping":325},{"user_id":8,"name":"Your Local Karen Hunter","steam_id":76561199469410668,"connected_time":790000000000,"state":"active","ping":101},{"user_id":11,"name":"Phibs","steam_id":76561199323730865,"connected_time":195000000000,"state":"active","ping":36}]},{"server_id":395,"name":"Uncletopia | Sydney | 3 | All Maps","name_short":"syd-3","host":"syd-1.au.uncletopia.com","port":27035,"enabled":true,"region":"au","cc":"au","latitude":-33.865143,"longitude":151.2099,"reserved":0,"last_update":"0001-01-01T00:00:00Z","name_a2s":"Uncletopia | Sydney | 3 | All Maps","protocol":17,"map":"pl_barnblitz","folder":"tf","game":"Team Fortress","app_id":440,"player_count":0,"max_players":24,"Bots":0,"server_type":"Dedicated","server_os":"Linux","password":true,"vac":true,"version":"7932396","steam_id":85568392925194467,"keywords":["nocrits","nodmgspread","payload","uncletopia"],"game_id":440,"stv_port":27036,"stv_name":"Uncletopia | Sydney | 3 | All Maps | STV","players":null},{"server_id":396,"name":"Uncletopia | Sydney | 4 | All Maps","name_short":"syd-4","host":"syd-1.au.uncletopia.com","port":27045,"enabled":true,"region":"au","cc":"au","latitude":-33.865143,"longitude":151.2099,"reserved":0,"last_update":"0001-01-01T00:00:00Z","name_a2s":"Uncletopia | Sydney | 4 | All Maps","protocol":17,"map":"pl_pier","folder":"tf","game":"Team Fortress","app_id":440,"player_count":0,"max_players":24,"Bots":0,"server_type":"Dedicated","server_os":"Linux","password":true,"vac":true,"version":"7932396","steam_id":85568392925397958,"keywords":["nocrits","nodmgspread","payload","uncletopia"],"game_id":440,"stv_port":27046,"stv_name":"Uncletopia | Sydney | 4 | All Maps | STV","players":null},{"server_id":58,"name":"Uncletopia | Sydney | 5 | Stopwatch Beta","name_short":"syd-5","host":"syd-1.au.uncletopia.com","port":27055,"enabled":true,"region":"au","cc":"au","latitude":-33.865143,"longitude":151.2099,"reserved":0,"last_update":"0001-01-01T00:00:00Z","name_a2s":"Uncletopia | Sydney | 5 | Stopwatch Beta","protocol":17,"map":"pl_borneo","folder":"tf","game":"Team Fortress","app_id":440,"player_count":0,"max_players":24,"Bots":0,"server_type":"Dedicated","server_os":"Linux","password":true,"vac":true,"version":"7932396","steam_id":85568392925397959,"keywords":["nocrits","nodmgspread","payload","uncletopia"],"game_id":440,"stv_port":27056,"stv_name":"Uncletopia | Sydney | 5 | Stopwatch Beta | STV","players":null},{"server_id":59,"name":"Uncletopia | Sydney | 6 | Community","name_short":"syd-6","host":"syd-1.au.uncletopia.com","port":27065,"enabled":true,"region":"au","cc":"au","latitude":-33.865143,"longitude":151.2099,"reserved":0,"last_update":"0001-01-01T00:00:00Z","name_a2s":"Uncletopia | Sydney | 6 | Community","protocol":17,"map":"pl_badwater","folder":"tf","game":"Team Fortress","app_id":440,"player_count":0,"max_players":24,"Bots":0,"server_type":"Dedicated","server_os":"Linux","password":true,"vac":true,"version":"7932396","steam_id":85568392925397960,"keywords":["nocrits","nodmgspread","payload","uncletopia"],"game_id":440,"stv_port":27066,"stv_name":"Uncletopia | Sydney | 6 | Community | STV","players":null},{"server_id":49,"name":"Uncletopia | Warsaw | 1 | All Maps","name_short":"waw-1","host":"waw-1.pl.uncletopia.com","port":27015,"enabled":true,"region":"eu","cc":"pl","latitude":52.2297,"longitude":21.017532,"reserved":0,"last_update":"0001-01-01T00:00:00Z","name_a2s":"","protocol":0,"map":"","folder":"","game":"","app_id":0,"player_count":0,"max_players":0,"Bots":0,"server_type":"","server_os":"","password":false,"vac":false,"version":"","steam_id":0,"keywords":null,"game_id":0,"stv_port":0,"stv_name":"","players":null},{"server_id":50,"name":"Uncletopia | Warsaw | 2 | All Maps","name_short":"waw-2","host":"waw-1.pl.uncletopia.com","port":27025,"enabled":true,"region":"eu","cc":"pl","latitude":52.2297,"longitude":21.017532,"reserved":0,"last_update":"0001-01-01T00:00:00Z","name_a2s":"Uncletopia | Warsaw | 2 | All Maps","protocol":17,"map":"pl_borneo","folder":"tf","game":"Team Fortress","app_id":440,"player_count":21,"max_players":24,"Bots":0,"server_type":"Dedicated","server_os":"Linux","password":true,"vac":true,"version":"7932396","steam_id":85568392925397851,"keywords":["nocrits","nodmgspread","payload","uncletopia"],"game_id":440,"stv_port":27026,"stv_name":"Uncletopia | Warsaw | 2 | All Maps | STV","players":[{"user_id":300,"name":"E√ò","steam_id":76561197993407916,"connected_time":6366000000000,"state":"active","ping":147},{"user_id":302,"name":"Œ£O","steam_id":76561198120855213,"connected_time":6300000000000,"state":"active","ping":73},{"user_id":301,"name":"E0","steam_id":76561198006634620,"connected_time":6325000000000,"state":"active","ping":67},{"user_id":368,"name":"Piss Stain?","steam_id":76561198807720603,"connected_time":244000000000,"state":"active","ping":80},{"user_id":352,"name":"oriano","steam_id":76561198099916327,"connected_time":1793000000000,"state":"active","ping":79},{"user_id":336,"name":"Matix777","steam_id":76561198837428042,"connected_time":4667000000000,"state":"active","ping":71},{"user_id":337,"name":"Ixsus\u003c3","steam_id":76561198094756869,"connected_time":4509000000000,"state":"active","ping":77},{"user_id":354,"name":"TwisteD [Robo.CEO]","steam_id":76561197968406174,"connected_time":1392000000000,"state":"active","ping":100},{"user_id":351,"name":"LuckLuster","steam_id":76561198092986647,"connected_time":2140000000000,"state":"active","ping":77},{"user_id":356,"name":"Alem","steam_id":76561198116356280,"connected_time":1270000000000,"state":"active","ping":69},{"user_id":357,"name":"Maxaru","steam_id":76561198065584327,"connected_time":1270000000000,"state":"active","ping":86},{"user_id":271,"name":"Syd","steam_id":76561198020515027,"connected_time":7717000000000,"state":"active","ping":59},{"user_id":360,"name":"hopfu","steam_id":76561198004504732,"connected_time":1211000000000,"state":"active","ping":84},{"user_id":311,"name":"Sentry Gun ( LVL 3)","steam_id":76561199175841465,"connected_time":5853000000000,"state":"active","ping":94},{"user_id":358,"name":"Orange Cat","steam_id":76561198998546958,"connected_time":1264000000000,"state":"active","ping":82},{"user_id":359,"name":"ECHO_7","steam_id":76561198049464147,"connected_time":1235000000000,"state":"active","ping":60},{"user_id":325,"name":"astigmatic","steam_id":76561199103959197,"connected_time":5228000000000,"state":"active","ping":85},{"user_id":353,"name":"scartzoyu","steam_id":76561198016066134,"connected_time":1627000000000,"state":"active","ping":90},{"user_id":274,"name":"Hercules","steam_id":76561198041164170,"connected_time":7581000000000,"state":"active","ping":35},{"user_id":365,"name":"LOBZIK","steam_id":76561198114830120,"connected_time":348000000000,"state":"active","ping":47},{"user_id":364,"name":"Nekramite","steam_id":76561198166617261,"connected_time":927000000000,"state":"active","ping":35}]},{"server_id":51,"name":"Uncletopia | Warsaw | 3 | All Maps","name_short":"waw-3","host":"waw-1.pl.uncletopia.com","port":27035,"enabled":true,"region":"eu","cc":"pl","latitude":52.2297,"longitude":21.017532,"reserved":0,"last_update":"0001-01-01T00:00:00Z","name_a2s":"Uncletopia | Warsaw | 3 | All Maps","protocol":17,"map":"pl_pier","folder":"tf","game":"Team Fortress","app_id":440,"player_count":0,"max_players":24,"Bots":0,"server_type":"Dedicated","server_os":"Linux","password":true,"vac":true,"version":"7932396","steam_id":85568392925397852,"keywords":["nocrits","nodmgspread","payload","uncletopia"],"game_id":440,"stv_port":27036,"stv_name":"Uncletopia | Warsaw | 3 | All Maps | STV","players":null},{"server_id":52,"name":"Uncletopia | Warsaw | 4 | All Maps","name_short":"waw-4","host":"waw-1.pl.uncletopia.com","port":27045,"enabled":true,"region":"eu","cc":"pl","latitude":52.2297,"longitude":21.017532,"reserved":0,"last_update":"0001-01-01T00:00:00Z","name_a2s":"Uncletopia | Warsaw | 4 | All Maps","protocol":17,"map":"pl_frontier_final","folder":"tf","game":"Team Fortress","app_id":440,"player_count":0,"max_players":24,"Bots":0,"server_type":"Dedicated","server_os":"Linux","password":true,"vac":true,"version":"7932396","steam_id":85568392925397853,"keywords":["nocrits","nodmgspread","payload","uncletopia"],"game_id":440,"stv_port":27046,"stv_name":"Uncletopia | Warsaw | 4 | All Maps | STV","players":null},{"server_id":53,"name":"Uncletopia | Warsaw | 5 | Stopwatch Beta","name_short":"waw-5","host":"waw-1.pl.uncletopia.com","port":27055,"enabled":true,"region":"eu","cc":"pl","latitude":52.2297,"longitude":21.017532,"reserved":0,"last_update":"0001-01-01T00:00:00Z","name_a2s":"Uncletopia | Warsaw | 5 | Stopwatch Beta","protocol":17,"map":"pl_upward","folder":"tf","game":"Team Fortress","app_id":440,"player_count":0,"max_players":24,"Bots":0,"server_type":"Dedicated","server_os":"Linux","password":true,"vac":true,"version":"7932396","steam_id":85568392925397854,"keywords":["nocrits","nodmgspread","payload","uncletopia"],"game_id":440,"stv_port":27056,"stv_name":"Uncletopia | Warsaw | 5 | Stopwatch Beta | STV","players":null},{"server_id":54,"name":"Uncletopia | Warsaw | 6 | Community","name_short":"waw-6","host":"waw-1.pl.uncletopia.com","port":27065,"enabled":true,"region":"eu","cc":"pl","latitude":52.2297,"longitude":21.017532,"reserved":0,"last_update":"0001-01-01T00:00:00Z","name_a2s":"Uncletopia | Warsaw | 6 | Community","protocol":17,"map":"workshop/cp_bruhstbowl_b6.ugc2878604990","folder":"tf","game":"Team Fortress","app_id":440,"player_count":0,"max_players":24,"Bots":0,"server_type":"Dedicated","server_os":"Linux","password":true,"vac":true,"version":"7932396","steam_id":85568392925397856,"keywords":["cp","nocrits","nodmgspread","uncletopia"],"game_id":440,"stv_port":27066,"stv_name":"Uncletopia | Warsaw | 6 | Community | STV","players":null}]}