{"status":true,"message":"","result":[{"server_id":9,"name":"Uncletopia | Atlanta | 1 | All Maps","name_short":"atl-1","host":"atl-1.us.uncletopia.com","port":27015,"enabled":true,"region":"us-east","cc":"us","latitude":33.753746,"longitude":-84.38633,"reserved":0,"last_update":"0001-01-01T00:00:00Z","name_a2s":"Uncletopia | Atlanta | 1 | All Maps","protocol":17,"map":"pl_borneo","folder":"tf","game":"Team Fortress","app_id":440,"player_count":21,"max_players":24,"Bots":0,"server_type":"Dedicated","server_os":"Linux","password":true,"vac":true,"version":"7757534","steam_id":85568392924469982,"keywords":["nocrits","nodmgspread","payload","uncletopia"],"game_id":440,"stv_port":27016,"stv_name":"Uncletopia | Atlanta | 1 | All Maps | STV","players":[{"user_id":147,"name":"Brown_Dream","steam_id":76561198975766145,"connected_time":5432000000000,"state":"active","ping":71},{"user_id":202,"name":"glquantum","steam_id":76561198057553971,"connected_time":1285000000000,"state":"active","ping":55},{"user_id":178,"name":"Mazdamundi!","steam_id":76561198044691081,"connected_time":2580000000000,"state":"active","ping":53},{"user_id":193,"name":"Project_Counter","steam_id":76561198152786076,"connected_time":2067000000000,"state":"active","ping":77},{"user_id":215,"name":"Zillers","steam_id":76561198095248744,"connected_time":834000000000,"state":"active","ping":71},{"user_id":204,"name":"The Krusty Krab Massacre (2012)","steam_id":76561198153092724,"connected_time":1178000000000,"state":"active","ping":45},{"user_id":223,"name":"he suckin on my rick til i mort","steam_id":76561198310711692,"connected_time":297000000000,"state":"active","ping":150},{"user_id":191,"name":"melancholy","steam_id":76561198024301465,"connected_time":2316000000000,"state":"active","ping":39},{"user_id":222,"name":"Look See","steam_id":76561198157253413,"connected_time":381000000000,"state":"active","ping":73},{"user_id":218,"name":"Guwop","steam_id":76561197970425737,"connected_time":537000000000,"state":"active","ping":58},{"user_id":156,"name":"Tito GInius","steam_id":76561198281359582,"connected_time":5026000000000,"state":"active","ping":85},{"user_id":142,"name":"wakeupbdot","steam_id":76561198160786631,"connected_time":6585000000000,"state":"active","ping":92},{"user_id":211,"name":"noided","steam_id":76561198353924837,"connected_time":976000000000,"state":"active","ping":75},{"user_id":216,"name":"HarryjusttHarry","steam_id":76561198982810452,"connected_time":572000000000,"state":"active","ping":78},{"user_id":225,"name":"BackwardsEagle","steam_id":76561199013712612,"connected_time":67000000000,"state":"active","ping":75},{"user_id":205,"name":".waxiest.","steam_id":76561199248749283,"connected_time":1173000000000,"state":"active","ping":69},{"user_id":220,"name":"9Bendy9","steam_id":76561198164023601,"connected_time":470000000000,"state":"active","ping":133},{"user_id":212,"name":"Female Gamer","steam_id":76561199366482682,"connected_time":891000000000,"state":"active","ping":117},{"user_id":208,"name":"Jerphf","steam_id":76561198328825964,"connected_time":1123000000000,"state":"active","ping":43},{"user_id":226,"name":"town.midi","steam_id":76561198059041027,"connected_time":12000000000,"state":"spawning","ping":98},{"user_id":201,"name":"Scum F*ck Flower Boi","steam_id":76561198397009880,"connected_time":1321000000000,"state":"active","ping":48}]},{"server_id":104,"name":"Uncletopia | Atlanta | 2 | All Maps","name_short":"atl-2","host":"atl-1.us.uncletopia.com","port":27025,"enabled":true,"region":"us-east","cc":"us","latitude":33.753746,"longitude":-84.38633,"reserved":0,"last_update":"0001-01-01T00:00:00Z","name_a2s":"Uncletopia | Atlanta | 2 | All Maps","protocol":17,"map":"cp_dustbowl","folder":"tf","game":"Team Fortress","app_id":440,"player_count":19,"max_players":24,"Bots":0,"server_type":"Dedicated","server_os":"Linux","password":true,"vac":true,"version":"7757534","steam_id":85568392924469983,"keywords":["cp","nocrits","nodmgspread","uncletopia"],"game_id":440,"stv_port":27026,"stv_name":"Uncletopia | Atlanta | 2 | All Maps | STV","players":[{"user_id":132,"name":"Blackbear63","steam_id":76561198867378457,"connected_time":334000000000,"state":"active","ping":131},{"user_id":126,"name":"Azuras","steam_id":76561198156416843,"connected_time":670000000000,"state":"active","ping":96},{"user_id":133,"name":"FlopPatrick Bateman","steam_id":76561198115901626,"connected_time":211000000000,"state":"active","ping":55},{"user_id":125,"name":"Oopsie Daisy ❋","steam_id":76561198042144492,"connected_time":872000000000,"state":"active","ping":54},{"user_id":134,"name":"Slazzer","steam_id":76561198404351844,"connected_time":192000000000,"state":"active","ping":64},{"user_id":95,"name":"RX 6500 XT","steam_id":76561197999657118,"connected_time":4344000000000,"state":"active","ping":100},{"user_id":117,"name":"Wumbologist","steam_id":76561198188729514,"connected_time":1366000000000,"state":"active","ping":48},{"user_id":93,"name":"1 2 Oatmeal","steam_id":76561197999318398,"connected_time":4483000000000,"state":"active","ping":127},{"user_id":135,"name":"Kdwag","steam_id":76561198030761042,"connected_time":134000000000,"state":"active","ping":93},{"user_id":136,"name":"Sarah D she\\her","steam_id":76561199376578224,"connected_time":22000000000,"state":"active","ping":120},{"user_id":128,"name":"idk100987","steam_id":76561199447977988,"connected_time":476000000000,"state":"active","ping":93},{"user_id":46,"name":"peace dog","steam_id":76561198267988522,"connected_time":7550000000000,"state":"active","ping":69},{"user_id":101,"name":"The Pope","steam_id":76561198313560302,"connected_time":3892000000000,"state":"active","ping":44},{"user_id":123,"name":"YUNG LOAF","steam_id":76561198237338018,"connected_time":1188000000000,"state":"active","ping":65},{"user_id":122,"name":"custodian","steam_id":76561198058793778,"connected_time":1230000000000,"state":"active","ping":68},{"user_id":119,"name":"Michaelpc1","steam_id":76561198088365519,"connected_time":1317000000000,"state":"active","ping":74},{"user_id":91,"name":"Marc G","steam_id":76561198062650363,"connected_time":4522000000000,"state":"active","ping":74},{"user_id":131,"name":"Timon's high on crack cocaine!","steam_id":76561198180396430,"connected_time":360000000000,"state":"active","ping":69},{"user_id":99,"name":"The Circle rules Your Life","steam_id":76561198072095399,"connected_time":4274000000000,"state":"active","ping":56}]},{"server_id":400,"name":"Uncletopia | Atlanta | 3 | Community","name_short":"atl-3","host":"atl-1.us.uncletopia.com","port":27035,"enabled":true,"region":"us-east","cc":"us","latitude":33.753746,"longitude":-84.38633,"reserved":0,"last_update":"0001-01-01T00:00:00Z","name_a2s":"Uncletopia | Atlanta | 3 | Community","protocol":17,"map":"workshop/pl_cactuscanyon_redux_final2.ugc2579644293","folder":"tf","game":"Team Fortress","app_id":440,"player_count":0,"max_players":24,"Bots":0,"server_type":"Dedicated","server_os":"Linux","password":true,"vac":true,"version":"7757534","steam_id":85568392924515187,"keywords":["nocrits","nodmgspread","payload","uncletopia"],"game_id":440,"stv_port":27036,"stv_name":"Uncletopia | Atlanta | 3 | Community | STV","players":null},{"server_id":401,"name":"Uncletopia | Atlanta | 4 | No Payload","name_short":"atl-4","host":"atl-1.us.uncletopia.com","port":27045,"enabled":true,"region":"us-east","cc":"us","latitude":33.753746,"longitude":-84.38633,"reserved":0,"last_update":"0001-01-01T00:00:00Z","name_a2s":"","protocol":0,"map":"","folder":"","game":"","app_id":0,"player_count":0,"max_players":0,"Bots":0,"server_type":"","server_os":"","password":false,"vac":false,"version":"","steam_id":0,"keywords":null,"game_id":0,"stv_port":0,"stv_name":"","players":null},{"server_id":2,"name":"Uncletopia | Chicago | 1 | All Maps","name_short":"chi-1","host":"chi-1.us.uncletopia.com","port":27015,"enabled":true,"region":"us-central","cc":"us","latitude":41.881832,"longitude":-87.62318,"reserved":0,"last_update":"0001-01-01T00:00:00Z","name_a2s":"Uncletopia | Chicago | 1 | All Maps","protocol":17,"map":"pl_upward","folder":"tf","game":"Team Fortress","app_id":440,"player_count":24,"max_players":24,"Bots":0,"server_type":"Dedicated","server_os":"Linux","password":true,"vac":true,"version":"7757534","steam_id":85568392924469984,"keywords":["nocrits","nodmgspread","payload","uncletopia"],"game_id":440,"stv_port":27016,"stv_name":"Uncletopia | Chicago | 1 | All Maps | STV","players":[{"user_id":240,"name":"CrunchCisco","steam_id":76561199162724832,"connected_time":2082000000000,"state":"connecting","ping":80},{"user_id":222,"name":"Eve","steam_id":76561198039832932,"connected_time":3442000000000,"state":"connecting","ping":72},{"user_id":252,"name":"Banjo","steam_id":76561198004652853,"connected_time":2000000000,"state":"connecting","ping":108},{"user_id":205,"name":"Scotch Tape","steam_id":76561199389314894,"connected_time":5298000000000,"state":"connecting","ping":77},{"user_id":236,"name":"I SEXED THE PUMPKIN","steam_id":76561198152641397,"connected_time":2283000000000,"state":"connecting","ping":57},{"user_id":162,"name":"viagra addict","steam_id":76561198017705248,"connected_time":8475000000000,"state":"connecting","ping":58},{"user_id":204,"name":"Thundermonkey (SMOKE)","steam_id":76561198017631728,"connected_time":5303000000000,"state":"connecting","ping":76},{"user_id":237,"name":"MSP","steam_id":76561198118234827,"connected_time":2278000000000,"state":"connecting","ping":111},{"user_id":247,"name":"Apricot","steam_id":76561198355699935,"connected_time":900000000000,"state":"connecting","ping":59},{"user_id":197,"name":"Mann","steam_id":76561199030987614,"connected_time":6170000000000,"state":"connecting","ping":91},{"user_id":239,"name":"Aiden939","steam_id":76561198860530097,"connected_time":2170000000000,"state":"connecting","ping":114},{"user_id":187,"name":"MoonlightDragon","steam_id":76561198124808865,"connected_time":6734000000000,"state":"connecting","ping":99},{"user_id":244,"name":"Sonidad","steam_id":76561198082763204,"connected_time":1711000000000,"state":"connecting","ping":73},{"user_id":250,"name":"blob","steam_id":76561198122375328,"connected_time":28000000000,"state":"connecting","ping":55},{"user_id":231,"name":"poland","steam_id":76561198829460487,"connected_time":2759000000000,"state":"connecting","ping":76},{"user_id":249,"name":"Xeare","steam_id":76561198064102650,"connected_time":32000000000,"state":"connecting","ping":119},{"user_id":251,"name":".JIFF","steam_id":76561198045181760,"connected_time":11000000000,"state":"connecting","ping":59},{"user_id":189,"name":"Draco6257","steam_id":76561199147322448,"connected_time":6723000000000,"state":"connecting","ping":70},{"user_id":214,"name":"Delilah-fluff","steam_id":76561198977968066,"connected_time":4391000000000,"state":"connecting","ping":87},{"user_id":216,"name":"Acehay14","steam_id":76561198052373291,"connected_time":4166000000000,"state":"connecting","ping":73},{"user_id":232,"name":"femboy foxgirl","steam_id":76561198056432756,"connected_time":2442000000000,"state":"connecting","ping":53},{"user_id":248,"name":"Doubting Dave","steam_id":76561198066410749,"connected_time":509000000000,"state":"connecting","ping":83},{"user_id":227,"name":"Edder","steam_id":76561198011088393,"connected_time":3038000000000,"state":"connecting","ping":80},{"user_id":230,"name":"The Dweller","steam_id":76561198158896227,"connected_time":2840000000000,"state":"connecting","ping":90}]},{"server_id":106,"name":"Uncletopia | Chicago | 2 | All Maps","name_short":"chi-2","host":"chi-1.us.uncletopia.com","port":27025,"enabled":true,"region":"us-central","cc":"us","latitude":41.881832,"longitude":-87.62318,"reserved":0,"last_update":"0001-01-01T00:00:00Z","name_a2s":"Uncletopia | Chicago | 2 | All Maps","protocol":17,"map":"pl_thundermountain","folder":"tf","game":"Team Fortress","app_id":440,"player_count":24,"max_players":24,"Bots":0,"server_type":"Dedicated","server_os":"Linux","password":true,"vac":true,"version":"7757534","steam_id":85568392924469985,"keywords":["nocrits","nodmgspread","payload","uncletopia"],"game_id":440,"stv_port":27026,"stv_name":"Uncletopia | Chicago | 2 | All Maps | STV","players":[{"user_id":268,"name":"Leyor","steam_id":76561199037658406,"connected_time":8162000000000,"state":"active","ping":116},{"user_id":174,"name":"thecal","steam_id":76561198307893384,"connected_time":15427000000000,"state":"active","ping":49},{"user_id":323,"name":"Fat Mac","steam_id":76561198068009285,"connected_time":2856000000000,"state":"active","ping":53},{"user_id":344,"name":"Nekoknight","steam_id":76561198400058665,"connected_time":1321000000000,"state":"active","ping":74},{"user_id":276,"name":"xAndrew","steam_id":76561199203948381,"connected_time":7075000000000,"state":"active","ping":177},{"user_id":320,"name":"andyiscolorless","steam_id":76561199239870921,"connected_time":2872000000000,"state":"active","ping":134},{"user_id":327,"name":"HellaCopter","steam_id":76561198062313698,"connected_time":2490000000000,"state":"active","ping":101},{"user_id":345,"name":"Arathyn","steam_id":76561198179955586,"connected_time":1310000000000,"state":"active","ping":84},{"user_id":326,"name":"i acquired 91,000 live ladybugs","steam_id":76561198358787639,"connected_time":2560000000000,"state":"active","ping":59},{"user_id":346,"name":"suns","steam_id":76561198079583278,"connected_time":1273000000000,"state":"active","ping":65},{"user_id":329,"name":"parachute","steam_id":76561198042735130,"connected_time":2430000000000,"state":"active","ping":105},{"user_id":339,"name":"Temmie500","steam_id":76561199067942631,"connected_time":1863000000000,"state":"active","ping":52},{"user_id":312,"name":"Kieran","steam_id":76561198072788168,"connected_time":3843000000000,"state":"active","ping":76},{"user_id":328,"name":"Bronze Age Furvert","steam_id":76561198859118263,"connected_time":2484000000000,"state":"active","ping":69},{"user_id":278,"name":"Flaming O'Gaming","steam_id":76561198044185725,"connected_time":7018000000000,"state":"active","ping":74},{"user_id":332,"name":"Goldoche","steam_id":76561197995065045,"connected_time":2227000000000,"state":"active","ping":83},{"user_id":348,"name":"enmgxcltayiqoacx","steam_id":76561197974965536,"connected_time":453000000000,"state":"active","ping":64},{"user_id":337,"name":"crumblejon","steam_id":76561198111273302,"connected_time":2015000000000,"state":"active","ping":69},{"user_id":347,"name":"Trove","steam_id":76561198110970476,"connected_time":1262000000000,"state":"active","ping":45},{"user_id":340,"name":"Peter Popoff","steam_id":76561198027171160,"connected_time":1717000000000,"state":"active","ping":45},{"user_id":342,"name":"crashymicsplody","steam_id":76561198213916765,"connected_time":1333000000000,"state":"active","ping":72},{"user_id":349,"name":"TheSnipersHat","steam_id":76561198057684066,"connected_time":342000000000,"state":"active","ping":65},{"user_id":350,"name":"Ricky Dicky Doo Dah Grimes","steam_id":76561198143221900,"connected_time":230000000000,"state":"active","ping":151},{"user_id":353,"name":"BlueToffe","steam_id":76561198295178024,"connected_time":63000000000,"state":"active","ping":72}]},{"server_id":402,"name":"Uncletopia | Chicago | 3 | All Maps","name_short":"chi-3","host":"chi-1.us.uncletopia.com","port":27035,"enabled":true,"region":"us-central","cc":"us","latitude":41.881832,"longitude":-87.62318,"reserved":0,"last_update":"0001-01-01T00:00:00Z","name_a2s":"Uncletopia | Chicago | 3 | All Maps","protocol":17,"map":"cp_powerhouse","folder":"tf","game":"Team Fortress","app_id":440,"player_count":24,"max_players":24,"Bots":0,"server_type":"Dedicated","server_os":"Linux","password":true,"vac":true,"version":"7757534","steam_id":85568392924515191,"keywords":["cp","nocrits","nodmgspread","uncletopia"],"game_id":440,"stv_port":27036,"stv_name":"Uncletopia | Chicago | 3 | All Maps | STV","players":[{"user_id":241,"name":"ButterNutz","steam_id":76561198122404516,"connected_time":1483000000000,"state":"active","ping":89},{"user_id":222,"name":"Goldensliv","steam_id":76561198161673891,"connected_time":2894000000000,"state":"active","ping":91},{"user_id":179,"name":"Balerion the Black Dread","steam_id":76561198003728369,"connected_time":6468000000000,"state":"active","ping":66},{"user_id":208,"name":"Sprit ♥","steam_id":76561198268780781,"connected_time":3643000000000,"state":"active","ping":53},{"user_id":246,"name":"maS","steam_id":76561198033846407,"connected_time":991000000000,"state":"active","ping":57},{"user_id":135,"name":"Truly Cryo","steam_id":76561198347497484,"connected_time":9847000000000,"state":"active","ping":87},{"user_id":224,"name":"girlpeen supreme","steam_id":76561198031242903,"connected_time":2479000000000,"state":"active","ping":65},{"user_id":232,"name":"Highphin","steam_id":76561198986584680,"connected_time":1842000000000,"state":"active","ping":70},{"user_id":227,"name":"Space_Cowboy","steam_id":76561198202240772,"connected_time":2294000000000,"state":"active","ping":86},{"user_id":235,"name":"VividDragon","steam_id":76561198050659285,"connected_time":1723000000000,"state":"active","ping":66},{"user_id":182,"name":"Jake from FedEx","steam_id":76561198051258256,"connected_time":6126000000000,"state":"active","ping":90},{"user_id":157,"name":"Admiral Crumbs","steam_id":76561198108791583,"connected_time":8214000000000,"state":"active","ping":61},{"user_id":247,"name":"Dizzyformula","steam_id":76561198177347521,"connected_time":288000000000,"state":"active","ping":122},{"user_id":248,"name":"Evolution","steam_id":76561198144767370,"connected_time":286000000000,"state":"active","ping":46},{"user_id":237,"name":"countrychefbeerboy92","steam_id":76561198132476501,"connected_time":1683000000000,"state":"active","ping":51},{"user_id":176,"name":"Tylody","steam_id":76561198229690552,"connected_time":6576000000000,"state":"active","ping":103},{"user_id":242,"name":"threethree","steam_id":76561198177354155,"connected_time":1455000000000,"state":"active","ping":70},{"user_id":236,"name":"Eins","steam_id":76561199030343810,"connected_time":1722000000000,"state":"active","ping":54},{"user_id":228,"name":"pizzaroger2003 #savejulia","steam_id":76561198179785873,"connected_time":2145000000000,"state":"active","ping":81},{"user_id":243,"name":"moist","steam_id":76561197986487487,"connected_time":1261000000000,"state":"active","ping":61},{"user_id":250,"name":"stop reading this","steam_id":76561199054362073,"connected_time":45000000000,"state":"active","ping":63},{"user_id":226,"name":"Crystallixed","steam_id":76561198072263515,"connected_time":2391000000000,"state":"active","ping":77},{"user_id":240,"name":"1-800-GHOST-DANCE","steam_id":76561198835430429,"connected_time":1596000000000,"state":"active","ping":79},{"user_id":239,"name":"Candy Sparkles","steam_id":76561198126871264,"connected_time":1631000000000,"state":"active","ping":86}]},{"server_id":403,"name":"Uncletopia | Chicago | 4 | All Maps","name_short":"chi-4","host":"chi-1.us.uncletopia.com","port":27045,"enabled":true,"region":"us-central","cc":"us","latitude":41.881832,"longitude":-87.62318,"reserved":0,"last_update":"0001-01-01T00:00:00Z","name_a2s":"Uncletopia | Chicago | 4 | All Maps","protocol":17,"map":"pl_borneo","folder":"tf","game":"Team Fortress","app_id":440,"player_count":24,"max_players":24,"Bots":0,"server_type":"Dedicated","server_os":"Linux","password":true,"vac":true,"version":"7757534","steam_id":85568392924515193,"keywords":["nocrits","nodmgspread","payload","uncletopia"],"game_id":440,"stv_port":27046,"stv_name":"Uncletopia | Chicago | 4 | All Maps | STV","players":[{"user_id":179,"name":"Reed","steam_id":76561198147139783,"connected_time":501000000000,"state":"active","ping":75},{"user_id":184,"name":"Joshua31704","steam_id":76561198125898714,"connected_time":465000000000,"state":"active","ping":82},{"user_id":175,"name":"jeff","steam_id":76561198059450566,"connected_time":615000000000,"state":"active","ping":60},{"user_id":89,"name":"ShadBad","steam_id":76561198248287390,"connected_time":7292000000000,"state":"active","ping":108},{"user_id":157,"name":"!","steam_id":76561198116821551,"connected_time":3340000000000,"state":"active","ping":56},{"user_id":181,"name":"Aubrey","steam_id":76561198061512239,"connected_time":488000000000,"state":"active","ping":57},{"user_id":185,"name":"「ꜱᴛɪɴᴋʏ」","steam_id":76561198190323610,"connected_time":440000000000,"state":"active","ping":89},{"user_id":122,"name":"Citrus","steam_id":76561198090650837,"connected_time":5191000000000,"state":"active","ping":144},{"user_id":123,"name":"Dizzies","steam_id":76561198856577762,"connected_time":5158000000000,"state":"active","ping":61},{"user_id":186,"name":"Curlytop","steam_id":76561198368845472,"connected_time":430000000000,"state":"active","ping":90},{"user_id":163,"name":"J1407B","steam_id":76561199003447981,"connected_time":3000000000000,"state":"active","ping":84},{"user_id":187,"name":"test","steam_id":76561198197388678,"connected_time":426000000000,"state":"active","ping":90},{"user_id":193,"name":"Kidzbopsicle","steam_id":76561198047660691,"connected_time":140000000000,"state":"active","ping":60},{"user_id":173,"name":"Cosmic sR","steam_id":76561198081738675,"connected_time":927000000000,"state":"active","ping":92},{"user_id":188,"name":"Kedata","steam_id":76561198047750050,"connected_time":417000000000,"state":"active","ping":45},{"user_id":171,"name":"turd ferguson","steam_id":76561198071620782,"connected_time":1602000000000,"state":"active","ping":84},{"user_id":189,"name":"The entire polish space agency","steam_id":76561198427502200,"connected_time":399000000000,"state":"active","ping":115},{"user_id":178,"name":"Pan Wizard","steam_id":76561198031939694,"connected_time":516000000000,"state":"active","ping":84},{"user_id":161,"name":"R1Deathwish","steam_id":76561198002451882,"connected_time":3236000000000,"state":"active","ping":77},{"user_id":190,"name":"JimJee","steam_id":76561199120656064,"connected_time":389000000000,"state":"active","ping":78},{"user_id":136,"name":"madturtle3","steam_id":76561198146953474,"connected_time":4737000000000,"state":"active","ping":92},{"user_id":191,"name":"blue of days","steam_id":76561199113013688,"connected_time":385000000000,"state":"active","ping":89},{"user_id":162,"name":"Broadsword","steam_id":76561198011160411,"connected_time":3193000000000,"state":"active","ping":82},{"user_id":192,"name":"A normal guy","steam_id":76561198341428833,"connected_time":177000000000,"state":"active","ping":75}]},{"server_id":36,"name":"Uncletopia | Chicago | 5 | All Maps","name_short":"chi-5","host":"chi-2.us.uncletopia.com","port":27015,"enabled":true,"region":"us-central","cc":"us","latitude":41.881832,"longitude":-87.62318,"reserved":0,"last_update":"0001-01-01T00:00:00Z","name_a2s":"Uncletopia | Chicago | 5 | All Maps","protocol":17,"map":"pl_borneo","folder":"tf","game":"Team Fortress","app_id":440,"player_count":6,"max_players":24,"Bots":0,"server_type":"Dedicated","server_os":"Linux","password":true,"vac":true,"version":"7757534","steam_id":85568392924866362,"keywords":["nocrits","nodmgspread","payload","uncletopia"],"game_id":440,"stv_port":27016,"stv_name":"Uncletopia | Chicago | 5 | All Maps | STV","players":[{"user_id":10,"name":"Hovg9000.TV","steam_id":76561199191556710,"connected_time":1484000000000,"state":"active","ping":78},{"user_id":11,"name":"bobletoob","steam_id":76561199184464900,"connected_time":1256000000000,"state":"active","ping":99},{"user_id":14,"name":"DraGoN","steam_id":76561198006224312,"connected_time":659000000000,"state":"active","ping":89},{"user_id":15,"name":"SNaKe","steam_id":76561198249832738,"connected_time":610000000000,"state":"active","ping":86},{"user_id":16,"name":"odacovA","steam_id":76561199383345208,"connected_time":332000000000,"state":"active","ping":60},{"user_id":17,"name":"⛧elly bell⛧","steam_id":76561198117032513,"connected_time":35000000000,"state":"active","ping":89}]},{"server_id":37,"name":"Uncletopia | Chicago | 6 | All Maps","name_short":"chi-6","host":"chi-2.us.uncletopia.com","port":27025,"enabled":true,"region":"us-central","cc":"us","latitude":41.881832,"longitude":-87.62318,"reserved":0,"last_update":"0001-01-01T00:00:00Z","name_a2s":"Uncletopia | Chicago | 6 | All Maps","protocol":17,"map":"pl_swiftwater_final1","folder":"tf","game":"Team Fortress","app_id":440,"player_count":21,"max_players":24,"Bots":0,"server_type":"Dedicated","server_os":"Linux","password":true,"vac":true,"version":"7757534","steam_id":85568392924866363,"keywords":["nocrits","nodmgspread","payload","uncletopia"],"game_id":440,"stv_port":27026,"stv_name":"Uncletopia | Chicago | 6 | All Maps | STV","players":[{"user_id":159,"name":"Mrs.Frizzle","steam_id":76561198117157085,"connected_time":302000000000,"state":"active","ping":67},{"user_id":153,"name":"Achtan","steam_id":76561198078189844,"connected_time":1386000000000,"state":"active","ping":58},{"user_id":155,"name":"Wuncle Dumps","steam_id":76561198067167895,"connected_time":1075000000000,"state":"active","ping":73},{"user_id":160,"name":"Not_Douglas","steam_id":76561199024184136,"connected_time":252000000000,"state":"active","ping":66},{"user_id":115,"name":"LerN","steam_id":76561198083463877,"connected_time":3422000000000,"state":"active","ping":62},{"user_id":158,"name":"Tamalito109","steam_id":76561198310531554,"connected_time":640000000000,"state":"active","ping":90},{"user_id":89,"name":"Blueberry The Fox","steam_id":76561198311460784,"connected_time":5254000000000,"state":"active","ping":86},{"user_id":91,"name":"Viriditaz","steam_id":76561198255457461,"connected_time":5180000000000,"state":"active","ping":81},{"user_id":124,"name":"esoobac","steam_id":76561198010370396,"connected_time":2918000000000,"state":"active","ping":45},{"user_id":144,"name":"loser","steam_id":76561198171507451,"connected_time":1832000000000,"state":"active","ping":92},{"user_id":156,"name":"jema","steam_id":76561198276513608,"connected_time":1007000000000,"state":"active","ping":167},{"user_id":162,"name":"Javis","steam_id":76561198204163123,"connected_time":79000000000,"state":"active","ping":64},{"user_id":106,"name":"Maverick","steam_id":76561198322829814,"connected_time":3949000000000,"state":"active","ping":83},{"user_id":148,"name":"Rufious","steam_id":76561198082572510,"connected_time":1773000000000,"state":"active","ping":89},{"user_id":60,"name":"Fresh0c0","steam_id":76561198271933283,"connected_time":7297000000000,"state":"active","ping":61},{"user_id":107,"name":"SHADY SWEATER SALESMAN","steam_id":76561198014616865,"connected_time":3936000000000,"state":"active","ping":83},{"user_id":151,"name":"Zomwashroomz","steam_id":76561198131316167,"connected_time":1739000000000,"state":"active","ping":90},{"user_id":143,"name":"recycle","steam_id":76561198819562111,"connected_time":1864000000000,"state":"active","ping":74},{"user_id":163,"name":"oomper","steam_id":76561199189982701,"connected_time":77000000000,"state":"active","ping":68},{"user_id":157,"name":"Jango","steam_id":76561198084589742,"connected_time":797000000000,"state":"active","ping":82},{"user_id":164,"name":"Maxley","steam_id":76561198148602225,"connected_time":59000000000,"state":"active","ping":86}]},{"server_id":38,"name":"Uncletopia | Chicago | 7 | Stopwatch Beta","name_short":"chi-7","host":"chi-2.us.uncletopia.com","port":27035,"enabled":true,"region":"us-central","cc":"us","latitude":41.881832,"longitude":-87.62318,"reserved":0,"last_update":"0001-01-01T00:00:00Z","name_a2s":"Uncletopia | Chicago | 7 | Stopwatch Beta","protocol":17,"map":"pl_barnblitz","folder":"tf","game":"Team Fortress","app_id":440,"player_count":0,"max_players":24,"Bots":0,"server_type":"Dedicated","server_os":"Linux","password":true,"vac":true,"version":"7757534","steam_id":85568392924866364,"keywords":["nocrits","nodmgspread","payload","uncletopia"],"game_id":440,"stv_port":27036,"stv_name":"Uncletopia | Chicago | 7 | Stopwatch Beta | STV","players":null},{"server_id":39,"name":"Uncletopia | Chicago | 8 | Community","name_short":"chi-8","host":"chi-2.us.uncletopia.com","port":27045,"enabled":true,"region":"us-central","cc":"us","latitude":41.881832,"longitude":-87.62318,"reserved":0,"last_update":"0001-01-01T00:00:00Z","name_a2s":"Uncletopia | Chicago | 8 | Community","protocol":17,"map":"koth_cascade","folder":"tf","game":"Team Fortress","app_id":440,"player_count":0,"max_players":24,"Bots":0,"server_type":"Dedicated","server_os":"Linux","password":true,"vac":true,"version":"7757534","steam_id":85568392924866365,"keywords":["cp","nocrits","nodmgspread","uncletopia"],"game_id":440,"stv_port":27046,"stv_name":"Uncletopia | Chicago | 8 | Community | STV","players":null},{"server_id":8,"name":"Uncletopia | Dallas | 1 | All Maps","name_short":"dal-1","host":"dal-1.us.uncletopia.com","port":27015,"enabled":true,"region":"us-central","cc":"us","latitude":32.779167,"longitude":-96.80889,"reserved":0,"last_update":"0001-01-01T00:00:00Z","name_a2s":"Uncletopia | Dallas | 1 | All Maps","protocol":17,"map":"pl_snowycoast","folder":"tf","game":"Team Fortress","app_id":440,"player_count":23,"max_players":24,"Bots":0,"server_type":"Dedicated","server_os":"Linux","password":true,"vac":true,"version":"7757534","steam_id":85568392924469986,"keywords":["nocrits","nodmgspread","payload","uncletopia"],"game_id":440,"stv_port":27016,"stv_name":"Uncletopia | Dallas | 1 | All Maps | STV","players":[{"user_id":197,"name":"Mellou","steam_id":76561198212048740,"connected_time":2426000000000,"state":"active","ping":43},{"user_id":199,"name":"kat","steam_id":76561198121070295,"connected_time":2310000000000,"state":"active","ping":94},{"user_id":218,"name":"Arrluk","steam_id":76561198396679452,"connected_time":390000000000,"state":"active","ping":65},{"user_id":131,"name":"ror!","steam_id":76561198021227843,"connected_time":7359000000000,"state":"active","ping":61},{"user_id":107,"name":"Wounded","steam_id":76561199440954924,"connected_time":9572000000000,"state":"active","ping":94},{"user_id":149,"name":"Moonflower ✦","steam_id":76561198191782483,"connected_time":6517000000000,"state":"active","ping":49},{"user_id":220,"name":"CreativeUsername","steam_id":76561198186045503,"connected_time":123000000000,"state":"active","ping":97},{"user_id":184,"name":"X-7","steam_id":76561198127217378,"connected_time":3902000000000,"state":"active","ping":128},{"user_id":189,"name":"A Straw","steam_id":76561199367935846,"connected_time":3417000000000,"state":"active","ping":71},{"user_id":217,"name":"mcjuice","steam_id":76561198087730829,"connected_time":627000000000,"state":"active","ping":85},{"user_id":201,"name":"TechnoBear2099","steam_id":76561198238863596,"connected_time":2244000000000,"state":"active","ping":36},{"user_id":206,"name":"TheEmeraldLiker","steam_id":76561198323926464,"connected_time":2123000000000,"state":"active","ping":129},{"user_id":219,"name":"Quomples","steam_id":76561198140996628,"connected_time":134000000000,"state":"active","ping":60},{"user_id":222,"name":"mawk","steam_id":76561198255834224,"connected_time":72000000000,"state":"active","ping":74},{"user_id":216,"name":"RyInc","steam_id":76561198874261643,"connected_time":779000000000,"state":"active","ping":63},{"user_id":196,"name":"beans","steam_id":76561199082781884,"connected_time":2536000000000,"state":"active","ping":65},{"user_id":203,"name":"A Shiny Meat Bicycle","steam_id":76561198358757709,"connected_time":2184000000000,"state":"active","ping":97},{"user_id":191,"name":"Vassalaerial","steam_id":76561199144524002,"connected_time":3273000000000,"state":"active","ping":64},{"user_id":223,"name":"Orca?","steam_id":76561198164341099,"connected_time":40000000000,"state":"active","ping":70},{"user_id":214,"name":"Pyro Of The Lake","steam_id":76561199149576897,"connected_time":996000000000,"state":"active","ping":48},{"user_id":198,"name":"DMM","steam_id":76561198065426171,"connected_time":2408000000000,"state":"active","ping":60},{"user_id":209,"name":"STONE COLD","steam_id":76561198041643833,"connected_time":1328000000000,"state":"active","ping":65},{"user_id":213,"name":"Doomagedden","steam_id":76561198272589475,"connected_time":1047000000000,"state":"active","ping":60}]},{"server_id":108,"name":"Uncletopia | Dallas | 2 | All Maps","name_short":"dal-2","host":"dal-1.us.uncletopia.com","port":27025,"enabled":true,"region":"us-central","cc":"us","latitude":32.779167,"longitude":-96.80889,"reserved":0,"last_update":"0001-01-01T00:00:00Z","name_a2s":"Uncletopia | Dallas | 2 | All Maps","protocol":17,"map":"pl_pier","folder":"tf","game":"Team Fortress","app_id":440,"player_count":0,"max_players":24,"Bots":0,"server_type":"Dedicated","server_os":"Linux","password":true,"vac":true,"version":"7757534","steam_id":85568392924469988,"keywords":["nocrits","nodmgspread","payload","uncletopia"],"game_id":440,"stv_port":27026,"stv_name":"Uncletopia | Dallas | 2 | All Maps | STV","players":null},{"server_id":5,"name":"Uncletopia | Frankfurt | 1 | All Maps","name_short":"frk-1","host":"frk-1.de.uncletopia.com","port":27015,"enabled":true,"region":"eu","cc":"de","latitude":50.110924,"longitude":8.682127,"reserved":0,"last_update":"0001-01-01T00:00:00Z","name_a2s":"Uncletopia | Frankfurt | 1 | All Maps","protocol":17,"map":"pl_pier","folder":"tf","game":"Team Fortress","app_id":440,"player_count":20,"max_players":24,"Bots":0,"server_type":"Dedicated","server_os":"Linux","password":true,"vac":true,"version":"7757534","steam_id":85568392924469989,"keywords":["nocrits","nodmgspread","payload","uncletopia"],"game_id":440,"stv_port":27016,"stv_name":"Uncletopia | Frankfurt | 1 | All Maps | STV","players":[{"user_id":473,"name":"Itai","steam_id":76561198804555329,"connected_time":2502000000000,"state":"active","ping":99},{"user_id":491,"name":"Scipionemiliano","steam_id":76561198027646559,"connected_time":1457000000000,"state":"active","ping":128},{"user_id":505,"name":"Ozzak","steam_id":76561198353664262,"connected_time":659000000000,"state":"active","ping":45},{"user_id":500,"name":"fisch","steam_id":76561198382833003,"connected_time":886000000000,"state":"active","ping":57},{"user_id":502,"name":"Torttu","steam_id":76561198013980029,"connected_time":737000000000,"state":"active","ping":59},{"user_id":499,"name":"Jörmungandr","steam_id":76561198129595377,"connected_time":989000000000,"state":"active","ping":78},{"user_id":503,"name":"nibs","steam_id":76561198040099538,"connected_time":734000000000,"state":"active","ping":75},{"user_id":506,"name":"Benzo Fury","steam_id":76561198025259336,"connected_time":654000000000,"state":"active","ping":51},{"user_id":486,"name":"4","steam_id":76561197964945192,"connected_time":2110000000000,"state":"active","ping":50},{"user_id":507,"name":"Carrot Arc","steam_id":76561198164957006,"connected_time":520000000000,"state":"active","ping":91},{"user_id":518,"name":"Lyell","steam_id":76561198350329389,"connected_time":226000000000,"state":"active","ping":77},{"user_id":519,"name":"DespawnedDiamond","steam_id":76561198841944417,"connected_time":177000000000,"state":"active","ping":76},{"user_id":517,"name":"TITUS","steam_id":76561198017404328,"connected_time":264000000000,"state":"active","ping":97},{"user_id":520,"name":"CoreTaviy","steam_id":76561199209053097,"connected_time":78000000000,"state":"active","ping":82},{"user_id":485,"name":"Toxicò","steam_id":76561199031920676,"connected_time":2222000000000,"state":"active","ping":79},{"user_id":496,"name":"Suspicious Viktor","steam_id":76561198136496249,"connected_time":1061000000000,"state":"active","ping":60},{"user_id":513,"name":"Star.","steam_id":76561198046893038,"connected_time":390000000000,"state":"active","ping":63},{"user_id":522,"name":"MorVill","steam_id":76561198809859945,"connected_time":67000000000,"state":"active","ping":68},{"user_id":515,"name":"Datenegassie","steam_id":76561198089417032,"connected_time":350000000000,"state":"active","ping":68},{"user_id":482,"name":"leloraps","steam_id":76561199434036706,"connected_time":2367000000000,"state":"active","ping":135}]},{"server_id":110,"name":"Uncletopia | Frankfurt | 2 | All Maps","name_short":"frk-2","host":"frk-1.de.uncletopia.com","port":27025,"enabled":true,"region":"eu","cc":"de","latitude":50.110924,"longitude":8.682127,"reserved":0,"last_update":"0001-01-01T00:00:00Z","name_a2s":"Uncletopia | Frankfurt | 2 | All Maps","protocol":17,"map":"cp_process_final","folder":"tf","game":"Team Fortress","app_id":440,"player_count":24,"max_players":24,"Bots":0,"server_type":"Dedicated","server_os":"Linux","password":true,"vac":true,"version":"7757534","steam_id":85568392924469990,"keywords":["cp","nocrits","nodmgspread","uncletopia"],"game_id":440,"stv_port":27026,"stv_name":"Uncletopia | Frankfurt | 2 | All Maps | STV","players":[{"user_id":416,"name":"STiNGHAN","steam_id":76561198023989090,"connected_time":1385000000000,"state":"active","ping":82},{"user_id":397,"name":"Fat Pigeon","steam_id":76561198817940142,"connected_time":4749000000000,"state":"active","ping":51},{"user_id":412,"name":"dogs","steam_id":76561198068683174,"connected_time":2728000000000,"state":"active","ping":58},{"user_id":430,"name":"Burger King Dante","steam_id":76561198390314734,"connected_time":642000000000,"state":"active","ping":60},{"user_id":419,"name":"Tohseno","steam_id":76561197995813008,"connected_time":1143000000000,"state":"active","ping":59},{"user_id":408,"name":"увынск","steam_id":76561198172046813,"connected_time":2902000000000,"state":"active","ping":75},{"user_id":417,"name":"rozen","steam_id":76561198119167317,"connected_time":1248000000000,"state":"active","ping":57},{"user_id":410,"name":"Udinese Dion","steam_id":76561198067931573,"connected_time":2889000000000,"state":"active","ping":49},{"user_id":420,"name":"fénix","steam_id":76561198083199151,"connected_time":1117000000000,"state":"active","ping":62},{"user_id":427,"name":"dn4k","steam_id":76561199221755690,"connected_time":829000000000,"state":"active","ping":80},{"user_id":421,"name":"Milosz52","steam_id":76561199060940204,"connected_time":1093000000000,"state":"active","ping":80},{"user_id":422,"name":"fedor alexandrovich","steam_id":76561198057733920,"connected_time":1035000000000,"state":"active","ping":130},{"user_id":431,"name":"Monara12th","steam_id":76561199478607360,"connected_time":555000000000,"state":"active","ping":68},{"user_id":358,"name":"♥ aura ♥","steam_id":76561198066258544,"connected_time":7720000000000,"state":"active","ping":47},{"user_id":423,"name":"Carl Gustav Jung","steam_id":76561198284558039,"connected_time":971000000000,"state":"active","ping":111},{"user_id":425,"name":"『Dorarhim』","steam_id":76561198220232352,"connected_time":852000000000,"state":"active","ping":51},{"user_id":436,"name":"MK-Ultra Violence","steam_id":76561198081328238,"connected_time":128000000000,"state":"active","ping":75},{"user_id":311,"name":"joni110","steam_id":76561198098747929,"connected_time":10361000000000,"state":"active","ping":75},{"user_id":395,"name":"Ohad","steam_id":76561198067989324,"connected_time":5239000000000,"state":"active","ping":115},{"user_id":426,"name":"nicco","steam_id":76561198046217866,"connected_time":838000000000,"state":"active","ping":43},{"user_id":433,"name":"ChPerette","steam_id":76561198060004887,"connected_time":537000000000,"state":"active","ping":45},{"user_id":435,"name":"Uncle Moomin","steam_id":76561198011628656,"connected_time":315000000000,"state":"active","ping":81},{"user_id":344,"name":"Charmedelf","steam_id":76561197993611881,"connected_time":8561000000000,"state":"active","ping":61},{"user_id":434,"name":"hiddo","steam_id":76561198027966721,"connected_time":528000000000,"state":"active","ping":72}]},{"server_id":308,"name":"Uncletopia | Frankfurt | 3 | All Maps","name_short":"frk-3","host":"frk-1.de.uncletopia.com","port":27035,"enabled":true,"region":"eu","cc":"de","latitude":50.110924,"longitude":8.682127,"reserved":0,"last_update":"0001-01-01T00:00:00Z","name_a2s":"Uncletopia | Frankfurt | 3 | All Maps","protocol":17,"map":"koth_cascade","folder":"tf","game":"Team Fortress","app_id":440,"player_count":0,"max_players":24,"Bots":0,"server_type":"Dedicated","server_os":"Linux","password":true,"vac":true,"version":"7757534","steam_id":85568392924504274,"keywords":["cp","nocrits","nodmgspread","uncletopia"],"game_id":440,"stv_port":27036,"stv_name":"Uncletopia | Frankfurt | 3 | All Maps | STV","players":null},{"server_id":309,"name":"Uncletopia | Frankfurt | 4 | All Maps","name_short":"frk-4","host":"frk-1.de.uncletopia.com","port":27045,"enabled":true,"region":"eu","cc":"de","latitude":50.110924,"longitude":8.682127,"reserved":0,"last_update":"0001-01-01T00:00:00Z","name_a2s":"Uncletopia | Frankfurt | 4 | All Maps","protocol":17,"map":"pl_badwater","folder":"tf","game":"Team Fortress","app_id":440,"player_count":24,"max_players":24,"Bots":0,"server_type":"Dedicated","server_os":"Linux","password":true,"vac":true,"version":"7757534","steam_id":85568392924504275,"keywords":["nocrits","nodmgspread","payload","uncletopia"],"game_id":440,"stv_port":27046,"stv_name":"Uncletopia | Frankfurt | 4 | All Maps | STV","players":[{"user_id":486,"name":"Chambersite","steam_id":76561198197022399,"connected_time":936000000000,"state":"active","ping":62},{"user_id":481,"name":"Rask","steam_id":76561198052934944,"connected_time":1131000000000,"state":"active","ping":95},{"user_id":424,"name":"✪ qua ✪","steam_id":76561198066408333,"connected_time":5311000000000,"state":"active","ping":74},{"user_id":487,"name":"Dewotter","steam_id":76561198007653168,"connected_time":904000000000,"state":"active","ping":62},{"user_id":484,"name":"Melonyoshi","steam_id":76561198294182303,"connected_time":975000000000,"state":"active","ping":73},{"user_id":498,"name":"RIFT","steam_id":76561198991622379,"connected_time":48000000000,"state":"active","ping":59},{"user_id":465,"name":"Claw","steam_id":76561198060985181,"connected_time":2178000000000,"state":"active","ping":70},{"user_id":478,"name":"Cornelius Shacklebart","steam_id":76561198000735878,"connected_time":1418000000000,"state":"active","ping":61},{"user_id":499,"name":"icebro","steam_id":76561199123450840,"connected_time":39000000000,"state":"active","ping":61},{"user_id":450,"name":"☯","steam_id":76561198351154533,"connected_time":3713000000000,"state":"active","ping":68},{"user_id":479,"name":"anders McFlanders","steam_id":76561198022811995,"connected_time":1283000000000,"state":"active","ping":66},{"user_id":496,"name":"FizzyPug","steam_id":76561198131449652,"connected_time":92000000000,"state":"active","ping":45},{"user_id":381,"name":"röv","steam_id":76561198170330563,"connected_time":8329000000000,"state":"active","ping":102},{"user_id":472,"name":"gagalak","steam_id":76561198089979108,"connected_time":2026000000000,"state":"active","ping":89},{"user_id":489,"name":"o","steam_id":76561198066799770,"connected_time":877000000000,"state":"active","ping":61},{"user_id":461,"name":"Moe Jama","steam_id":76561198021676997,"connected_time":2429000000000,"state":"active","ping":74},{"user_id":490,"name":"Wranje Rovah","steam_id":76561198089003514,"connected_time":875000000000,"state":"active","ping":45},{"user_id":480,"name":"bonzi","steam_id":76561198086817743,"connected_time":1235000000000,"state":"active","ping":70},{"user_id":454,"name":"Flint","steam_id":76561197995920776,"connected_time":3445000000000,"state":"active","ping":43},{"user_id":421,"name":"Sentry Man","steam_id":76561198088417596,"connected_time":5397000000000,"state":"active","ping":66},{"user_id":491,"name":"lol","steam_id":76561198104438656,"connected_time":871000000000,"state":"active","ping":64},{"user_id":494,"name":"Tesla","steam_id":76561198378649144,"connected_time":668000000000,"state":"active","ping":62},{"user_id":493,"name":"kavun","steam_id":76561198023461869,"connected_time":861000000000,"state":"active","ping":75},{"user_id":476,"name":"JJose","steam_id":76561198167842131,"connected_time":1784000000000,"state":"active","ping":85}]},{"server_id":310,"name":"Uncletopia | Frankfurt | 5 | All Maps","name_short":"frk-5","host":"frk-1.de.uncletopia.com","port":27055,"enabled":true,"region":"eu","cc":"de","latitude":50.110924,"longitude":8.682127,"reserved":0,"last_update":"0001-01-01T00:00:00Z","name_a2s":"Uncletopia | Frankfurt | 5 | All Maps","protocol":17,"map":"koth_lakeside_final","folder":"tf","game":"Team Fortress","app_id":440,"player_count":4,"max_players":24,"Bots":0,"server_type":"Dedicated","server_os":"Linux","password":true,"vac":true,"version":"7757534","steam_id":85568392924504277,"keywords":["cp","nocrits","nodmgspread","uncletopia"],"game_id":440,"stv_port":27056,"stv_name":"Uncletopia | Frankfurt | 5 | All Maps | STV","players":[{"user_id":27,"name":"lollyformolly","steam_id":76561199017868205,"connected_time":617000000000,"state":"active","ping":55},{"user_id":28,"name":"mh","steam_id":76561198442932674,"connected_time":613000000000,"state":"active","ping":61},{"user_id":31,"name":"niallmrl","steam_id":76561198324221284,"connected_time":355000000000,"state":"active","ping":60},{"user_id":32,"name":"abipinch","steam_id":76561199104348040,"connected_time":122000000000,"state":"active","ping":71}]},{"server_id":311,"name":"Uncletopia | Frankfurt | 6 | All Maps","name_short":"frk-6","host":"frk-1.de.uncletopia.com","port":27065,"enabled":true,"region":"eu","cc":"de","latitude":50.110924,"longitude":8.682127,"reserved":0,"last_update":"0001-01-01T00:00:00Z","name_a2s":"Uncletopia | Frankfurt | 6 | All Maps","protocol":17,"map":"cp_steel","folder":"tf","game":"Team Fortress","app_id":440,"player_count":11,"max_players":24,"Bots":0,"server_type":"Dedicated","server_os":"Linux","password":true,"vac":true,"version":"7757534","steam_id":85568392924504278,"keywords":["cp","nocrits","nodmgspread","uncletopia"],"game_id":440,"stv_port":27066,"stv_name":"Uncletopia | Frankfurt | 6 | All Maps | STV","players":[{"user_id":58,"name":"Balls","steam_id":76561198086400484,"connected_time":2523000000000,"state":"active","ping":75},{"user_id":62,"name":"Salih","steam_id":76561198287934839,"connected_time":2302000000000,"state":"active","ping":45},{"user_id":87,"name":"Qwerty","steam_id":76561198023525894,"connected_time":735000000000,"state":"active","ping":72},{"user_id":88,"name":"Kjat","steam_id":76561198839433592,"connected_time":695000000000,"state":"active","ping":47},{"user_id":77,"name":"☆MiNTERRRRR☆","steam_id":76561198799866156,"connected_time":1482000000000,"state":"active","ping":98},{"user_id":54,"name":"rmz.ssj","steam_id":76561198329613930,"connected_time":2655000000000,"state":"active","ping":60},{"user_id":90,"name":"Whisper","steam_id":76561197990890595,"connected_time":673000000000,"state":"active","ping":69},{"user_id":67,"name":"Jesse Fatcoc","steam_id":76561199004942770,"connected_time":1915000000000,"state":"active","ping":49},{"user_id":68,"name":"casual tf2 player (STS)","steam_id":76561199304129838,"connected_time":1858000000000,"state":"active","ping":139},{"user_id":92,"name":"SteaL","steam_id":76561198016020144,"connected_time":558000000000,"state":"active","ping":45},{"user_id":74,"name":"Doctor Rudy G. Numpad","steam_id":76561198440881106,"connected_time":1709000000000,"state":"active","ping":70}]},{"server_id":23,"name":"Uncletopia | Frankfurt | 7 | Stopwatch Beta","name_short":"frk-7","host":"frk-1.de.uncletopia.com","port":27075,"enabled":true,"region":"eu","cc":"de","latitude":50.110924,"longitude":8.682127,"reserved":0,"last_update":"0001-01-01T00:00:00Z","name_a2s":"Uncletopia | Frankfurt | 7 | Stopwatch Beta","protocol":17,"map":"pl_upward","folder":"tf","game":"Team Fortress","app_id":440,"player_count":0,"max_players":24,"Bots":0,"server_type":"Dedicated","server_os":"Linux","password":true,"vac":true,"version":"7757534","steam_id":85568392924742827,"keywords":["nocrits","nodmgspread","payload","uncletopia"],"game_id":440,"stv_port":27076,"stv_name":"Uncletopia | Frankfurt | 7 | Stopwatch Beta | STV","players":null},{"server_id":24,"name":"Uncletopia | Frankfurt | 8 | Community","name_short":"frk-8","host":"frk-1.de.uncletopia.com","port":27085,"enabled":true,"region":"eu","cc":"de","latitude":50.110924,"longitude":8.682127,"reserved":0,"last_update":"0001-01-01T00:00:00Z","name_a2s":"Uncletopia | Frankfurt | 8 | Community","protocol":17,"map":"workshop/koth_ashville_final.ugc2130459942","folder":"tf","game":"Team Fortress","app_id":440,"player_count":0,"max_players":24,"Bots":0,"server_type":"Dedicated","server_os":"Linux","password":true,"vac":true,"version":"7757534","steam_id":85568392924742828,"keywords":["cp","nocrits","nodmgspread","uncletopia"],"game_id":440,"stv_port":27086,"stv_name":"Uncletopia | Frankfurt | 8 | Community | STV","players":null},{"server_id":202,"name":"Uncletopia | Hong Kong | 1 | All Maps","name_short":"hgk-1","host":"hgk-1.hk.uncletopia.com","port":27015,"enabled":true,"region":"asia","cc":"hk","latitude":22.302711,"longitude":114.177216,"reserved":0,"last_update":"0001-01-01T00:00:00Z","name_a2s":"Uncletopia | Hong Kong | 1 | All Maps","protocol":17,"map":"koth_lakeside_final","folder":"tf","game":"Team Fortress","app_id":440,"player_count":0,"max_players":24,"Bots":0,"server_type":"Dedicated","server_os":"Linux","password":true,"vac":true,"version":"7757534","steam_id":85568392924494504,"keywords":["cp","nocrits","nodmgspread","uncletopia"],"game_id":440,"stv_port":27016,"stv_name":"Uncletopia | Hong Kong | 1 | All Maps | STV","players":null},{"server_id":1,"name":"Uncletopia | Los Angeles | 1 | All Maps","name_short":"lax-1","host":"lax-1.us.uncletopia.com","port":27015,"enabled":true,"region":"us-west","cc":"us","latitude":33.94279,"longitude":-118.41004,"reserved":0,"last_update":"0001-01-01T00:00:00Z","name_a2s":"Uncletopia | Los Angeles | 1 | All Maps","protocol":17,"map":"pl_snowycoast","folder":"tf","game":"Team Fortress","app_id":440,"player_count":24,"max_players":24,"Bots":0,"server_type":"Dedicated","server_os":"Linux","password":true,"vac":true,"version":"7757534","steam_id":85568392924469991,"keywords":["nocrits","nodmgspread","payload","uncletopia"],"game_id":440,"stv_port":27016,"stv_name":"Uncletopia | Los Angeles | 1 | All Maps | STV","players":[{"user_id":68,"name":"voidpuppy","steam_id":76561198799922000,"connected_time":1675000000000,"state":"active","ping":48},{"user_id":45,"name":"Ren","steam_id":76561198148190211,"connected_time":3319000000000,"state":"active","ping":49},{"user_id":23,"name":"roach","steam_id":76561198354811369,"connected_time":6226000000000,"state":"active","ping":47},{"user_id":54,"name":"vanillain","steam_id":76561198058617608,"connected_time":3046000000000,"state":"active","ping":51},{"user_id":84,"name":"soltuno","steam_id":76561198074430565,"connected_time":59000000000,"state":"active","ping":64},{"user_id":83,"name":"Thunder","steam_id":76561198097721532,"connected_time":97000000000,"state":"active","ping":45},{"user_id":53,"name":"riSygneD","steam_id":76561198331618687,"connected_time":3124000000000,"state":"active","ping":36},{"user_id":70,"name":"UUUURT","steam_id":76561198047468140,"connected_time":1516000000000,"state":"active","ping":153},{"user_id":58,"name":"Cherry Bomb!","steam_id":76561198017947020,"connected_time":2856000000000,"state":"active","ping":91},{"user_id":31,"name":"TheOshawott64","steam_id":76561198126361408,"connected_time":4631000000000,"state":"active","ping":85},{"user_id":79,"name":"AskSoldier","steam_id":76561198152176454,"connected_time":534000000000,"state":"active","ping":91},{"user_id":78,"name":"Go! Go! Zeppeli","steam_id":76561198040689813,"connected_time":543000000000,"state":"active","ping":89},{"user_id":38,"name":"boi (not real)","steam_id":76561199213975119,"connected_time":4283000000000,"state":"active","ping":59},{"user_id":71,"name":"Frank Ugly","steam_id":76561198247002810,"connected_time":1345000000000,"state":"active","ping":69},{"user_id":61,"name":"Ostrich","steam_id":76561198068553779,"connected_time":2725000000000,"state":"active","ping":102},{"user_id":59,"name":"Kasodani Kyouko","steam_id":76561198023178589,"connected_time":2853000000000,"state":"active","ping":134},{"user_id":77,"name":"UnPocket","steam_id":76561199095310302,"connected_time":657000000000,"state":"active","ping":113},{"user_id":76,"name":"twink sniper zaddY","steam_id":76561198283687382,"connected_time":682000000000,"state":"active","ping":100},{"user_id":82,"name":"Evenaris","steam_id":76561198087544319,"connected_time":251000000000,"state":"active","ping":46},{"user_id":65,"name":"Atlas","steam_id":76561198127975050,"connected_time":2650000000000,"state":"active","ping":110},{"user_id":48,"name":"Uluyo","steam_id":76561198065857148,"connected_time":3236000000000,"state":"active","ping":67},{"user_id":63,"name":"Ernbergler","steam_id":76561198042583426,"connected_time":2711000000000,"state":"active","ping":72},{"user_id":64,"name":"The Professor","steam_id":76561198046165617,"connected_time":2706000000000,"state":"active","ping":94},{"user_id":80,"name":"peter griffindor","steam_id":76561198007867721,"connected_time":500000000000,"state":"active","ping":51}]},{"server_id":112,"name":"Uncletopia | Los Angeles | 2 | All Maps","name_short":"lax-2","host":"lax-1.us.uncletopia.com","port":27025,"enabled":true,"region":"us-west","cc":"us","latitude":33.94279,"longitude":-118.41004,"reserved":0,"last_update":"0001-01-01T00:00:00Z","name_a2s":"Uncletopia | Los Angeles | 2 | All Maps","protocol":17,"map":"cp_freight_final1","folder":"tf","game":"Team Fortress","app_id":440,"player_count":2,"max_players":24,"Bots":0,"server_type":"Dedicated","server_os":"Linux","password":true,"vac":true,"version":"7757534","steam_id":85568392924469992,"keywords":["cp","nocrits","nodmgspread","uncletopia"],"game_id":440,"stv_port":27026,"stv_name":"Uncletopia | Los Angeles | 2 | All Maps | STV","players":[{"user_id":9,"name":"Charcoal","steam_id":76561198268638706,"connected_time":732000000000,"state":"active","ping":59},{"user_id":10,"name":"a cat plushie","steam_id":76561198080046542,"connected_time":532000000000,"state":"active","ping":68}]},{"server_id":324,"name":"Uncletopia | Los Angeles | 3 | All Maps","name_short":"lax-3","host":"lax-1.us.uncletopia.com","port":27035,"enabled":true,"region":"us-west","cc":"us","latitude":33.94279,"longitude":-118.41004,"reserved":0,"last_update":"0001-01-01T00:00:00Z","name_a2s":"Uncletopia | Los Angeles | 3 | All Maps","protocol":17,"map":"cp_snakewater_final1","folder":"tf","game":"Team Fortress","app_id":440,"player_count":0,"max_players":24,"Bots":0,"server_type":"Dedicated","server_os":"Linux","password":true,"vac":true,"version":"7757534","steam_id":85568392924510198,"keywords":["cp","nocrits","nodmgspread","uncletopia"],"game_id":440,"stv_port":27036,"stv_name":"Uncletopia | Los Angeles | 3 | All Maps | STV","players":null},{"server_id":25,"name":"Uncletopia | Los Angeles | 4 | Stopwatch Beta","name_short":"lax-4","host":"lax-1.us.uncletopia.com","port":27045,"enabled":true,"region":"us-west","cc":"us","latitude":33.94279,"longitude":-118.41004,"reserved":0,"last_update":"0001-01-01T00:00:00Z","name_a2s":"Uncletopia | Los Angeles | 4 | Stopwatch Beta","protocol":17,"map":"pl_swiftwater_final1","folder":"tf","game":"Team Fortress","app_id":440,"player_count":0,"max_players":24,"Bots":0,"server_type":"Dedicated","server_os":"Linux","password":true,"vac":true,"version":"7757534","steam_id":85568392924510199,"keywords":["nocrits","nodmgspread","payload","uncletopia"],"game_id":440,"stv_port":27046,"stv_name":"Uncletopia | Los Angeles | 4 | Stopwatch Beta | STV","players":null},{"server_id":11,"name":"Uncletopia | London | 1 | All Maps","name_short":"lon-1","host":"lon-1.uk.uncletopia.com","port":27015,"enabled":true,"region":"eu","cc":"gb","latitude":51.509865,"longitude":-0.118092,"reserved":0,"last_update":"0001-01-01T00:00:00Z","name_a2s":"Uncletopia | London | 1 | All Maps","protocol":17,"map":"pl_upward","folder":"tf","game":"Team Fortress","app_id":440,"player_count":24,"max_players":24,"Bots":0,"server_type":"Dedicated","server_os":"Linux","password":true,"vac":true,"version":"7757534","steam_id":85568392924367362,"keywords":["nocrits","nodmgspread","payload","uncletopia"],"game_id":440,"stv_port":27016,"stv_name":"Uncletopia | London | 1 | All Maps | STV","players":[{"user_id":657,"name":"Son Goku","steam_id":76561199383437138,"connected_time":2761000000000,"state":"active","ping":120},{"user_id":642,"name":"Can I get a Beep Beep","steam_id":76561198010730967,"connected_time":3616000000000,"state":"active","ping":69},{"user_id":660,"name":"gnarly business","steam_id":76561198832688767,"connected_time":2344000000000,"state":"active","ping":47},{"user_id":671,"name":"ciliorkun18","steam_id":76561198228942500,"connected_time":565000000000,"state":"active","ping":91},{"user_id":648,"name":"Rad","steam_id":76561198001101843,"connected_time":3212000000000,"state":"active","ping":64},{"user_id":665,"name":"arcSolver","steam_id":76561198212013944,"connected_time":2142000000000,"state":"active","ping":55},{"user_id":653,"name":"Qpangfire","steam_id":76561198094354139,"connected_time":2972000000000,"state":"active","ping":45},{"user_id":675,"name":"Wedgeridoo","steam_id":76561198082813907,"connected_time":315000000000,"state":"active","ping":143},{"user_id":668,"name":"lowdash","steam_id":76561198327827635,"connected_time":1389000000000,"state":"active","ping":75},{"user_id":655,"name":"jimmy bob","steam_id":76561198319583692,"connected_time":2941000000000,"state":"active","ping":61},{"user_id":651,"name":"SOPHIIEE","steam_id":76561198443798981,"connected_time":3194000000000,"state":"active","ping":58},{"user_id":666,"name":"KnugenIV","steam_id":76561198127091993,"connected_time":2138000000000,"state":"active","ping":70},{"user_id":628,"name":"Tiainen","steam_id":76561199274711504,"connected_time":5143000000000,"state":"active","ping":100},{"user_id":667,"name":"JOHN GAMING (weezer#1fan)","steam_id":76561199085822219,"connected_time":1399000000000,"state":"active","ping":86},{"user_id":674,"name":"cat","steam_id":76561198832231975,"connected_time":388000000000,"state":"active","ping":92},{"user_id":672,"name":"Pestdoktor","steam_id":76561198058159271,"connected_time":539000000000,"state":"active","ping":76},{"user_id":669,"name":"cookie_bucket","steam_id":76561199155374388,"connected_time":1085000000000,"state":"active","ping":93},{"user_id":572,"name":"Jofiah/TTV","steam_id":76561197977233962,"connected_time":8669000000000,"state":"active","ping":39},{"user_id":659,"name":"finbar","steam_id":76561198056812396,"connected_time":2593000000000,"state":"active","ping":80},{"user_id":637,"name":"ayadam","steam_id":76561198161515769,"connected_time":4338000000000,"state":"active","ping":113},{"user_id":646,"name":"dec","steam_id":76561198009660168,"connected_time":3298000000000,"state":"active","ping":57},{"user_id":663,"name":"SPONGE","steam_id":76561198040933472,"connected_time":2235000000000,"state":"active","ping":74},{"user_id":645,"name":"76561198444734173","steam_id":76561198444734173,"connected_time":3310000000000,"state":"active","ping":117},{"user_id":654,"name":"noob_STALIN","steam_id":76561198273030727,"connected_time":2971000000000,"state":"active","ping":47}]},{"server_id":114,"name":"Uncletopia | London | 2 | All Maps","name_short":"lon-2","host":"lon-1.uk.uncletopia.com","port":27025,"enabled":true,"region":"eu","cc":"gb","latitude":51.509865,"longitude":-0.118092,"reserved":0,"last_update":"0001-01-01T00:00:00Z","name_a2s":"Uncletopia | London | 2 | All Maps","protocol":17,"map":"pl_borneo","folder":"tf","game":"Team Fortress","app_id":440,"player_count":24,"max_players":24,"Bots":0,"server_type":"Dedicated","server_os":"Linux","password":true,"vac":true,"version":"7757534","steam_id":85568392924470941,"keywords":["nocrits","nodmgspread","payload","uncletopia"],"game_id":440,"stv_port":27026,"stv_name":"Uncletopia | London | 2 | All Maps | STV","players":[{"user_id":173,"name":"JoltStryke","steam_id":76561198072955299,"connected_time":2332000000000,"state":"active","ping":59},{"user_id":100,"name":"Gnarville","steam_id":76561198006373329,"connected_time":7448000000000,"state":"active","ping":49},{"user_id":185,"name":"dochris.2","steam_id":76561198026478625,"connected_time":1397000000000,"state":"active","ping":46},{"user_id":186,"name":"Toa LightMakuta","steam_id":76561198212178104,"connected_time":1363000000000,"state":"active","ping":53},{"user_id":191,"name":"G6 sherlock","steam_id":76561198802967796,"connected_time":1265000000000,"state":"active","ping":107},{"user_id":153,"name":"LOBZIK","steam_id":76561198114830120,"connected_time":3783000000000,"state":"active","ping":77},{"user_id":192,"name":"Dasher","steam_id":76561198026349229,"connected_time":1188000000000,"state":"active","ping":61},{"user_id":142,"name":"walluu","steam_id":76561198121830870,"connected_time":4564000000000,"state":"active","ping":75},{"user_id":210,"name":"Subterranean","steam_id":76561198106684566,"connected_time":146000000000,"state":"active","ping":75},{"user_id":178,"name":"ducks","steam_id":76561198166148685,"connected_time":1997000000000,"state":"active","ping":30},{"user_id":211,"name":"thespe","steam_id":76561198088225107,"connected_time":145000000000,"state":"active","ping":67},{"user_id":169,"name":"Icedoutskynight","steam_id":76561199203402299,"connected_time":2841000000000,"state":"active","ping":59},{"user_id":213,"name":"HRCR118","steam_id":76561199146388596,"connected_time":138000000000,"state":"active","ping":70},{"user_id":160,"name":"MAKENTAKEN","steam_id":76561199127359587,"connected_time":3173000000000,"state":"active","ping":107},{"user_id":205,"name":"Proto-arc","steam_id":76561198012776747,"connected_time":848000000000,"state":"active","ping":50},{"user_id":208,"name":"Princess Fluffy Butt","steam_id":76561198060033696,"connected_time":729000000000,"state":"active","ping":53},{"user_id":198,"name":"permed ball hair gaming","steam_id":76561198294857933,"connected_time":1127000000000,"state":"active","ping":57},{"user_id":195,"name":"hiihoo","steam_id":76561198872419251,"connected_time":1174000000000,"state":"active","ping":112},{"user_id":203,"name":"Lord of the Cows","steam_id":76561198203140640,"connected_time":1051000000000,"state":"active","ping":73},{"user_id":204,"name":"Piellino","steam_id":76561198156873276,"connected_time":1002000000000,"state":"active","ping":122},{"user_id":180,"name":"sareena","steam_id":76561198810194062,"connected_time":1958000000000,"state":"active","ping":72},{"user_id":214,"name":"cooler bones","steam_id":76561199480942903,"connected_time":133000000000,"state":"active","ping":74},{"user_id":182,"name":"CalzoneCarl456","steam_id":76561198846982793,"connected_time":1540000000000,"state":"active","ping":55},{"user_id":216,"name":"Cookoo","steam_id":76561197999127438,"connected_time":116000000000,"state":"active","ping":59}]},{"server_id":320,"name":"Uncletopia | London | 3 | All Maps","name_short":"lon-3","host":"lon-1.uk.uncletopia.com","port":27035,"enabled":true,"region":"eu","cc":"gb","latitude":51.509865,"longitude":-0.118092,"reserved":0,"last_update":"0001-01-01T00:00:00Z","name_a2s":"Uncletopia | London | 3 | All Maps","protocol":17,"map":"pl_snowycoast","folder":"tf","game":"Team Fortress","app_id":440,"player_count":20,"max_players":24,"Bots":0,"server_type":"Dedicated","server_os":"Linux","password":true,"vac":true,"version":"7757534","steam_id":85568392924510192,"keywords":["nocrits","nodmgspread","payload","uncletopia"],"game_id":440,"stv_port":27036,"stv_name":"Uncletopia | London | 3 | All Maps | STV","players":[{"user_id":398,"name":"ant753","steam_id":76561198103458889,"connected_time":1411000000000,"state":"active","ping":63},{"user_id":411,"name":"Lessoz","steam_id":76561199211572036,"connected_time":433000000000,"state":"active","ping":90},{"user_id":412,"name":"Dr Ludwig","steam_id":76561198426522902,"connected_time":188000000000,"state":"active","ping":54},{"user_id":413,"name":"Bilbo Ballbaggins","steam_id":76561198070593514,"connected_time":147000000000,"state":"active","ping":46},{"user_id":414,"name":"fortnite balls (sussy sussy)","steam_id":76561199042470246,"connected_time":135000000000,"state":"active","ping":56},{"user_id":415,"name":"git bash -er","steam_id":76561198072586494,"connected_time":135000000000,"state":"active","ping":43},{"user_id":388,"name":"Denzonian","steam_id":76561198445738614,"connected_time":1672000000000,"state":"active","ping":59},{"user_id":395,"name":"Labial","steam_id":76561198385163046,"connected_time":1456000000000,"state":"active","ping":38},{"user_id":345,"name":"FoOzTV","steam_id":76561197998636728,"connected_time":4618000000000,"state":"active","ping":63},{"user_id":416,"name":"Juiceydough","steam_id":76561197997323419,"connected_time":84000000000,"state":"active","ping":84},{"user_id":280,"name":"Sebastian","steam_id":76561198199302394,"connected_time":8744000000000,"state":"active","ping":77},{"user_id":417,"name":"Captain123","steam_id":76561198123995666,"connected_time":78000000000,"state":"active","ping":97},{"user_id":418,"name":"TheScallywag","steam_id":76561199116808492,"connected_time":1000000000,"state":"spawning","ping":46},{"user_id":394,"name":"Scottygofast","steam_id":76561199140785887,"connected_time":1487000000000,"state":"active","ping":173},{"user_id":369,"name":"New","steam_id":76561198402195911,"connected_time":2924000000000,"state":"active","ping":115},{"user_id":287,"name":"Max Andrew","steam_id":76561198158955194,"connected_time":8457000000000,"state":"active","ping":56},{"user_id":347,"name":"Heed","steam_id":76561198033605800,"connected_time":4612000000000,"state":"active","ping":89},{"user_id":348,"name":"12⁧⁧⁧⁧Früsteh","steam_id":76561198059177102,"connected_time":4605000000000,"state":"active","ping":59},{"user_id":400,"name":"agony","steam_id":76561199192434258,"connected_time":1268000000000,"state":"active","ping":94},{"user_id":409,"name":"Morpheus","steam_id":76561198208349835,"connected_time":851000000000,"state":"active","ping":73}]},{"server_id":321,"name":"Uncletopia | London | 4 | All Maps","name_short":"lon-4","host":"lon-1.uk.uncletopia.com","port":27045,"enabled":true,"region":"eu","cc":"gb","latitude":51.509865,"longitude":-0.118092,"reserved":0,"last_update":"0001-01-01T00:00:00Z","name_a2s":"Uncletopia | London | 4 | All Maps","protocol":17,"map":"cp_mountainlab","folder":"tf","game":"Team Fortress","app_id":440,"player_count":24,"max_players":24,"Bots":0,"server_type":"Dedicated","server_os":"Linux","password":true,"vac":true,"version":"7757534","steam_id":85568392924510193,"keywords":["cp","nocrits","nodmgspread","uncletopia"],"game_id":440,"stv_port":27046,"stv_name":"Uncletopia | London | 4 | All Maps | STV","players":[{"user_id":599,"name":"89384HDHSJDHU\u0026/","steam_id":76561198057833760,"connected_time":722000000000,"state":"active","ping":77},{"user_id":604,"name":"Baron","steam_id":76561198021901783,"connected_time":649000000000,"state":"active","ping":50},{"user_id":605,"name":"Teecho","steam_id":76561197995269610,"connected_time":633000000000,"state":"active","ping":55},{"user_id":579,"name":"ROX","steam_id":76561198272289320,"connected_time":2245000000000,"state":"active","ping":76},{"user_id":598,"name":"Lubrsi","steam_id":76561198040208195,"connected_time":846000000000,"state":"active","ping":46},{"user_id":601,"name":"Mari Christmas","steam_id":76561197997020707,"connected_time":691000000000,"state":"active","ping":55},{"user_id":564,"name":"Snoucher","steam_id":76561198955323108,"connected_time":2689000000000,"state":"active","ping":86},{"user_id":562,"name":"soup","steam_id":76561198386933065,"connected_time":2770000000000,"state":"active","ping":63},{"user_id":615,"name":"skitarii enjoyer","steam_id":76561198220245604,"connected_time":242000000000,"state":"active","ping":65},{"user_id":585,"name":"quitomax","steam_id":76561197973022623,"connected_time":2044000000000,"state":"active","ping":76},{"user_id":558,"name":"aGryphoN","steam_id":76561198245175308,"connected_time":3102000000000,"state":"active","ping":57},{"user_id":580,"name":":)","steam_id":76561198356023033,"connected_time":2219000000000,"state":"active","ping":67},{"user_id":606,"name":"Petight","steam_id":76561197999438798,"connected_time":615000000000,"state":"active","ping":39},{"user_id":591,"name":"halo 3 rat","steam_id":76561198439007717,"connected_time":1526000000000,"state":"active","ping":64},{"user_id":607,"name":"Nameless","steam_id":76561198084215731,"connected_time":614000000000,"state":"active","ping":38},{"user_id":594,"name":"Katae","steam_id":76561199191465517,"connected_time":1006000000000,"state":"active","ping":86},{"user_id":478,"name":"Smash hit enjoyer","steam_id":76561198311322738,"connected_time":5560000000000,"state":"active","ping":60},{"user_id":617,"name":"NuGs","steam_id":76561198305550934,"connected_time":101000000000,"state":"active","ping":46},{"user_id":583,"name":"Live™","steam_id":76561198037099955,"connected_time":2153000000000,"state":"active","ping":75},{"user_id":609,"name":"Hadmund Gaming","steam_id":76561198119454822,"connected_time":529000000000,"state":"active","ping":71},{"user_id":587,"name":"Mussolini","steam_id":76561198218384865,"connected_time":1989000000000,"state":"active","ping":104},{"user_id":610,"name":"Purps","steam_id":76561198053886680,"connected_time":498000000000,"state":"active","ping":37},{"user_id":614,"name":"swallowed 10 pennies please hel","steam_id":76561198055816412,"connected_time":369000000000,"state":"active","ping":47},{"user_id":612,"name":"L4gman","steam_id":76561198048227040,"connected_time":445000000000,"state":"active","ping":94}]},{"server_id":21,"name":"Uncletopia | London | 5 | All Maps","name_short":"lon-5","host":"lon-1.uk.uncletopia.com","port":27055,"enabled":true,"region":"eu","cc":"gb","latitude":51.509865,"longitude":-0.118092,"reserved":0,"last_update":"0001-01-01T00:00:00Z","name_a2s":"Uncletopia | London | 5 | All Maps","protocol":17,"map":"pl_pier","folder":"tf","game":"Team Fortress","app_id":440,"player_count":21,"max_players":24,"Bots":0,"server_type":"Dedicated","server_os":"Linux","password":true,"vac":true,"version":"7757534","steam_id":85568392924742829,"keywords":["nocrits","nodmgspread","payload","uncletopia"],"game_id":440,"stv_port":27056,"stv_name":"Uncletopia | London | 5 | All Maps | STV","players":[{"user_id":58,"name":"Piña Colada Enjoyer","steam_id":76561198208765015,"connected_time":3389000000000,"state":"active","ping":85},{"user_id":50,"name":"SasaIKudasaI","steam_id":76561198344298588,"connected_time":3616000000000,"state":"active","ping":97},{"user_id":97,"name":"pijacka","steam_id":76561198103899658,"connected_time":558000000000,"state":"active","ping":66},{"user_id":51,"name":"Smelly Balls Heavy","steam_id":76561198914938199,"connected_time":3586000000000,"state":"active","ping":105},{"user_id":109,"name":"inakilbss","steam_id":76561198105613891,"connected_time":5000000000,"state":"spawning","ping":109},{"user_id":41,"name":"Creepy_Cat","steam_id":76561198261967505,"connected_time":3860000000000,"state":"active","ping":99},{"user_id":79,"name":"silliestguy23","steam_id":76561199072186739,"connected_time":1522000000000,"state":"active","ping":56},{"user_id":106,"name":"HugeE*venomxhairs","steam_id":76561198245495152,"connected_time":111000000000,"state":"active","ping":62},{"user_id":104,"name":"Dr.Sees [F2P]","steam_id":76561199219233587,"connected_time":147000000000,"state":"active","ping":78},{"user_id":32,"name":"Envy","steam_id":76561198132723219,"connected_time":4117000000000,"state":"active","ping":110},{"user_id":76,"name":"tralalaOuiOui","steam_id":76561197963471507,"connected_time":1670000000000,"state":"active","ping":49},{"user_id":35,"name":"Saul Goodman","steam_id":76561198346169853,"connected_time":4066000000000,"state":"active","ping":101},{"user_id":102,"name":"snorrbrod","steam_id":76561198142389396,"connected_time":206000000000,"state":"active","ping":73},{"user_id":86,"name":"Darko","steam_id":76561198318825528,"connected_time":1427000000000,"state":"active","ping":68},{"user_id":108,"name":"tube","steam_id":76561198188642265,"connected_time":53000000000,"state":"active","ping":71},{"user_id":71,"name":"slowdown heavy","steam_id":76561198025916703,"connected_time":1790000000000,"state":"active","ping":69},{"user_id":96,"name":"godrez","steam_id":76561198818405505,"connected_time":952000000000,"state":"active","ping":112},{"user_id":94,"name":"Polarity","steam_id":76561198220120544,"connected_time":1045000000000,"state":"active","ping":79},{"user_id":98,"name":"GazerBazer","steam_id":76561198879107565,"connected_time":406000000000,"state":"active","ping":60},{"user_id":57,"name":"Ficko","steam_id":76561198856075685,"connected_time":3455000000000,"state":"active","ping":113},{"user_id":93,"name":"AsuX","steam_id":76561197990333289,"connected_time":1148000000000,"state":"active","ping":59}]},{"server_id":22,"name":"Uncletopia | London | 6 | All Maps","name_short":"lon-6","host":"lon-1.uk.uncletopia.com","port":27065,"enabled":true,"region":"eu","cc":"gb","latitude":51.509865,"longitude":-0.118092,"reserved":0,"last_update":"0001-01-01T00:00:00Z","name_a2s":"Uncletopia | London | 6 | All Maps","protocol":17,"map":"cp_process_final","folder":"tf","game":"Team Fortress","app_id":440,"player_count":0,"max_players":24,"Bots":0,"server_type":"Dedicated","server_os":"Linux","password":true,"vac":true,"version":"7757534","steam_id":85568392924742830,"keywords":["cp","nocrits","nodmgspread","uncletopia"],"game_id":440,"stv_port":27066,"stv_name":"Uncletopia | London | 6 | All Maps | STV","players":null},{"server_id":40,"name":"Uncletopia | London | 7 | No Payload","name_short":"lon-7","host":"lon-1.uk.uncletopia.com","port":27075,"enabled":true,"region":"eu","cc":"gb","latitude":51.509865,"longitude":-0.118092,"reserved":0,"last_update":"0001-01-01T00:00:00Z","name_a2s":"Uncletopia | London | 7 | No Payload","protocol":17,"map":"cp_dustbowl","folder":"tf","game":"Team Fortress","app_id":440,"player_count":6,"max_players":24,"Bots":0,"server_type":"Dedicated","server_os":"Linux","password":true,"vac":true,"version":"7757534","steam_id":85568392924964314,"keywords":["cp","nocrits","nodmgspread","uncletopia"],"game_id":440,"stv_port":27076,"stv_name":"Uncletopia | London | 7 | No Payload | STV","players":[{"user_id":593,"name":"Spliffendor","steam_id":76561198144020209,"connected_time":675000000000,"state":"active","ping":50},{"user_id":594,"name":"stoian_razvan99","steam_id":76561199476875203,"connected_time":191000000000,"state":"active","ping":74},{"user_id":585,"name":"Anoobis","steam_id":76561199419533757,"connected_time":2357000000000,"state":"active","ping":79},{"user_id":534,"name":"Neco-Arc!","steam_id":76561199230271711,"connected_time":5390000000000,"state":"active","ping":105},{"user_id":538,"name":"Big Al","steam_id":76561198079585198,"connected_time":5275000000000,"state":"active","ping":55},{"user_id":539,"name":"gabagool","steam_id":76561198307111838,"connected_time":5259000000000,"state":"active","ping":36}]},{"server_id":41,"name":"Uncletopia | London | 8 | Community","name_short":"lon-8","host":"lon-1.uk.uncletopia.com","port":27085,"enabled":true,"region":"eu","cc":"gb","latitude":51.509865,"longitude":-0.118092,"reserved":0,"last_update":"0001-01-01T00:00:00Z","name_a2s":"Uncletopia | London | 8 | Community","protocol":17,"map":"workshop/pl_highwood_b13.ugc1769496557","folder":"tf","game":"Team Fortress","app_id":440,"player_count":0,"max_players":24,"Bots":0,"server_type":"Dedicated","server_os":"Linux","password":true,"vac":true,"version":"7757534","steam_id":85568392924964315,"keywords":["nocrits","nodmgspread","payload","uncletopia"],"game_id":440,"stv_port":27086,"stv_name":"Uncletopia | London | 8 | Community | STV","players":null},{"server_id":300,"name":"Uncletopia | Montréal | 1 | All Maps","name_short":"mtl-1","host":"mtl-1.ca.uncletopia.com","port":27015,"enabled":true,"region":"us-east","cc":"ca","latitude":45.50889,"longitude":-73.56167,"reserved":0,"last_update":"0001-01-01T00:00:00Z","name_a2s":"Uncletopia | Montréal | 1 | All Maps","protocol":17,"map":"koth_lakeside_final","folder":"tf","game":"Team Fortress","app_id":440,"player_count":0,"max_players":24,"Bots":0,"server_type":"Dedicated","server_os":"Linux","password":true,"vac":true,"version":"7757534","steam_id":85568392924500087,"keywords":["cp","nocrits","nodmgspread","uncletopia"],"game_id":440,"stv_port":27016,"stv_name":"Uncletopia | Montréal | 1 | All Maps | STV","players":null},{"server_id":301,"name":"Uncletopia | Montréal | 2 | All Maps","name_short":"mtl-2","host":"mtl-1.ca.uncletopia.com","port":27025,"enabled":true,"region":"us-east","cc":"ca","latitude":45.50889,"longitude":-73.56167,"reserved":0,"last_update":"0001-01-01T00:00:00Z","name_a2s":"Uncletopia | Montréal | 2 | All Maps","protocol":17,"map":"pl_pier","folder":"tf","game":"Team Fortress","app_id":440,"player_count":0,"max_players":24,"Bots":0,"server_type":"Dedicated","server_os":"Linux","password":true,"vac":true,"version":"7757534","steam_id":85568392924500088,"keywords":["nocrits","nodmgspread","payload","uncletopia"],"game_id":440,"stv_port":27026,"stv_name":"Uncletopia | Montréal | 2 | All Maps | STV","players":null},{"server_id":302,"name":"Uncletopia | Montréal | 3 | All Maps","name_short":"mtl-3","host":"mtl-1.ca.uncletopia.com","port":27035,"enabled":true,"region":"us-east","cc":"ca","latitude":45.50889,"longitude":-73.56167,"reserved":0,"last_update":"0001-01-01T00:00:00Z","name_a2s":"Uncletopia | Montréal | 3 | All Maps","protocol":17,"map":"cp_snakewater_final1","folder":"tf","game":"Team Fortress","app_id":440,"player_count":0,"max_players":24,"Bots":0,"server_type":"Dedicated","server_os":"Linux","password":true,"vac":true,"version":"7757534","steam_id":85568392924500089,"keywords":["cp","nocrits","nodmgspread","uncletopia"],"game_id":440,"stv_port":27036,"stv_name":"Uncletopia | Montréal | 3 | All Maps | STV","players":null},{"server_id":303,"name":"Uncletopia | Montréal | 4 | No Payload","name_short":"mtl-4","host":"mtl-1.ca.uncletopia.com","port":27045,"enabled":true,"region":"us-east","cc":"ca","latitude":45.50889,"longitude":-73.56167,"reserved":0,"last_update":"0001-01-01T00:00:00Z","name_a2s":"Uncletopia | Montréal | 4 | No Payload","protocol":17,"map":"cp_metalworks","folder":"tf","game":"Team Fortress","app_id":440,"player_count":0,"max_players":24,"Bots":0,"server_type":"Dedicated","server_os":"Linux","password":true,"vac":true,"version":"7757534","steam_id":85568392924500090,"keywords":["cp","nocrits","nodmgspread","uncletopia"],"game_id":440,"stv_port":27046,"stv_name":"Uncletopia | Montréal | 4 | No Payload | STV","players":null},{"server_id":13,"name":"Uncletopia | New York City | 1 | All Maps","name_short":"nyc-1","host":"nyc-1.us.uncletopia.com","port":27015,"enabled":true,"region":"us-east","cc":"us","latitude":40.73061,"longitude":-73.93524,"reserved":0,"last_update":"0001-01-01T00:00:00Z","name_a2s":"Uncletopia | New York City | 1 | All Maps","protocol":17,"map":"pl_upward","folder":"tf","game":"Team Fortress","app_id":440,"player_count":24,"max_players":24,"Bots":0,"server_type":"Dedicated","server_os":"Linux","password":true,"vac":true,"version":"7757534","steam_id":85568392924469993,"keywords":["nocrits","nodmgspread","payload","uncletopia"],"game_id":440,"stv_port":27016,"stv_name":"Uncletopia | New York City | 1 | All Maps | STV","players":[{"user_id":365,"name":"Dungeon Keeper","steam_id":76561199475507686,"connected_time":1283000000000,"state":"active","ping":73},{"user_id":366,"name":"God","steam_id":76561198076460851,"connected_time":1248000000000,"state":"active","ping":69},{"user_id":332,"name":"FLORAL COMPUTING","steam_id":76561199056492130,"connected_time":3985000000000,"state":"active","ping":57},{"user_id":363,"name":"Bushkey1","steam_id":76561198105672913,"connected_time":1519000000000,"state":"active","ping":59},{"user_id":327,"name":"Sorbet Shark Cookie","steam_id":76561198133082665,"connected_time":4150000000000,"state":"active","ping":48},{"user_id":354,"name":"McSweaney","steam_id":76561198071975692,"connected_time":2361000000000,"state":"active","ping":101},{"user_id":375,"name":"vandeer","steam_id":76561198120124007,"connected_time":864000000000,"state":"active","ping":90},{"user_id":273,"name":"LegendaryMister151","steam_id":76561198064890524,"connected_time":9215000000000,"state":"active","ping":85},{"user_id":319,"name":"𝙴 𝚡 𝚌 𝚎 𝚕 𝚕 \ufffd","steam_id":76561198011887958,"connected_time":5134000000000,"state":"active","ping":57},{"user_id":367,"name":"bomb","steam_id":76561198359135819,"connected_time":1242000000000,"state":"active","ping":81},{"user_id":376,"name":"reanimator","steam_id":76561198085830470,"connected_time":719000000000,"state":"active","ping":46},{"user_id":264,"name":"ThatGamingKiwi","steam_id":76561199170522237,"connected_time":10278000000000,"state":"active","ping":82},{"user_id":371,"name":"srmoore 103","steam_id":76561198300291415,"connected_time":1132000000000,"state":"active","ping":108},{"user_id":328,"name":"Dr. drippenstein","steam_id":76561198209380493,"connected_time":4144000000000,"state":"active","ping":44},{"user_id":377,"name":"Mr. Rogers","steam_id":76561198296190438,"connected_time":651000000000,"state":"active","ping":46},{"user_id":358,"name":"DuckKey","steam_id":76561198904477889,"connected_time":2165000000000,"state":"active","ping":43},{"user_id":378,"name":"PinkLemonade","steam_id":76561198799286228,"connected_time":367000000000,"state":"active","ping":56},{"user_id":369,"name":"Moffein","steam_id":76561198016739296,"connected_time":1183000000000,"state":"active","ping":112},{"user_id":313,"name":"dmdr1969","steam_id":76561198080469611,"connected_time":5627000000000,"state":"active","ping":76},{"user_id":370,"name":"Mystery","steam_id":76561199385233153,"connected_time":1181000000000,"state":"active","ping":44},{"user_id":372,"name":"Jaydyn","steam_id":76561198140326797,"connected_time":1117000000000,"state":"active","ping":63},{"user_id":290,"name":"wiiblob","steam_id":76561198109106242,"connected_time":7776000000000,"state":"active","ping":130},{"user_id":353,"name":"Engiqueer","steam_id":76561198214080773,"connected_time":2384000000000,"state":"active","ping":66},{"user_id":362,"name":"Chicken Joe","steam_id":76561198077799885,"connected_time":1723000000000,"state":"active","ping":66}]},{"server_id":14,"name":"Uncletopia | New York City | 2 | All Maps","name_short":"nyc-2","host":"nyc-1.us.uncletopia.com","port":27025,"enabled":true,"region":"us-east","cc":"us","latitude":40.73061,"longitude":-73.93524,"reserved":0,"last_update":"0001-01-01T00:00:00Z","name_a2s":"Uncletopia | New York City | 2 | All Maps","protocol":17,"map":"koth_sawmill","folder":"tf","game":"Team Fortress","app_id":440,"player_count":22,"max_players":24,"Bots":0,"server_type":"Dedicated","server_os":"Linux","password":true,"vac":true,"version":"7757534","steam_id":85568392924469994,"keywords":["cp","nocrits","nodmgspread","uncletopia"],"game_id":440,"stv_port":27026,"stv_name":"Uncletopia | New York City | 2 | All Maps | STV","players":[{"user_id":293,"name":"Your Wurst Nightmare","steam_id":76561198874531590,"connected_time":928000000000,"state":"active","ping":59},{"user_id":235,"name":"JustLooking","steam_id":76561198207877387,"connected_time":5438000000000,"state":"active","ping":42},{"user_id":268,"name":"Javaris Jamar Javarison-Lamar","steam_id":76561198146951387,"connected_time":3248000000000,"state":"active","ping":57},{"user_id":279,"name":"kitchen crusader","steam_id":76561199217620385,"connected_time":1998000000000,"state":"active","ping":58},{"user_id":260,"name":"acronym","steam_id":76561199043048553,"connected_time":3495000000000,"state":"active","ping":82},{"user_id":287,"name":"Pourpel","steam_id":76561198059125470,"connected_time":1082000000000,"state":"active","ping":77},{"user_id":299,"name":"REDACTED.AUDIO.STUDIOS","steam_id":76561198975542044,"connected_time":524000000000,"state":"active","ping":63},{"user_id":273,"name":"Buttfuck Armstrong","steam_id":76561198075547905,"connected_time":3094000000000,"state":"active","ping":43},{"user_id":263,"name":"The Paladin","steam_id":76561199110579692,"connected_time":3392000000000,"state":"active","ping":73},{"user_id":306,"name":"[BBW] Justario","steam_id":76561198016095410,"connected_time":0,"state":"spawning","ping":0},{"user_id":296,"name":"Senpa1","steam_id":76561198140297250,"connected_time":721000000000,"state":"active","ping":44},{"user_id":294,"name":"Illusionism","steam_id":76561198167878499,"connected_time":927000000000,"state":"active","ping":103},{"user_id":302,"name":"sasharudzik","steam_id":76561199126617781,"connected_time":401000000000,"state":"active","ping":75},{"user_id":252,"name":"Tea Enthusiast","steam_id":76561198185583925,"connected_time":4675000000000,"state":"active","ping":30},{"user_id":290,"name":"TheUnholyEmpire","steam_id":76561198089883630,"connected_time":984000000000,"state":"active","ping":49},{"user_id":298,"name":"Swifgz","steam_id":76561198162875756,"connected_time":599000000000,"state":"active","ping":45},{"user_id":291,"name":"Ramblet","steam_id":76561199026783260,"connected_time":940000000000,"state":"active","ping":55},{"user_id":269,"name":"Lovedaddy","steam_id":76561198006569710,"connected_time":3243000000000,"state":"active","ping":71},{"user_id":305,"name":"Snozz Core","steam_id":76561198064520262,"connected_time":6000000000,"state":"spawning","ping":63},{"user_id":276,"name":"Chaotic Rushu","steam_id":76561198170054407,"connected_time":2305000000000,"state":"active","ping":67},{"user_id":292,"name":"Jmciano24","steam_id":76561198050723212,"connected_time":940000000000,"state":"active","ping":50},{"user_id":247,"name":"The Crungo","steam_id":76561199141492981,"connected_time":5131000000000,"state":"active","ping":43}]},{"server_id":15,"name":"Uncletopia | New York City | 3 | Stopwatch Beta","name_short":"nyc-3","host":"nyc-1.us.uncletopia.com","port":27035,"enabled":true,"region":"us-east","cc":"us","latitude":40.73061,"longitude":-73.93524,"reserved":0,"last_update":"0001-01-01T00:00:00Z","name_a2s":"Uncletopia | New York City | 3 | Stopwatch Beta","protocol":17,"map":"pl_upward","folder":"tf","game":"Team Fortress","app_id":440,"player_count":0,"max_players":24,"Bots":0,"server_type":"Dedicated","server_os":"Linux","password":true,"vac":true,"version":"7757534","steam_id":85568392924742820,"keywords":["nocrits","nodmgspread","payload","uncletopia"],"game_id":440,"stv_port":27036,"stv_name":"Uncletopia | New York City | 3 | Stopwatch Beta | STV","players":null},{"server_id":16,"name":"Uncletopia | New York City | 4 | Community","name_short":"nyc-4","host":"nyc-1.us.uncletopia.com","port":27045,"enabled":true,"region":"us-east","cc":"us","latitude":40.73061,"longitude":-73.93524,"reserved":0,"last_update":"0001-01-01T00:00:00Z","name_a2s":"Uncletopia | New York City | 4 | Community","protocol":17,"map":"workshop/cp_sulfur_rc2.ugc619869471","folder":"tf","game":"Team Fortress","app_id":440,"player_count":16,"max_players":24,"Bots":0,"server_type":"Dedicated","server_os":"Linux","password":true,"vac":true,"version":"7757534","steam_id":85568392924742821,"keywords":["cp","nocrits","nodmgspread","uncletopia"],"game_id":440,"stv_port":27046,"stv_name":"Uncletopia | New York City | 4 | Community | STV","players":[{"user_id":6,"name":"ChubbinsMothYT","steam_id":76561198999215730,"connected_time":2953000000000,"state":"active","ping":64},{"user_id":18,"name":"Huey","steam_id":76561198972816386,"connected_time":1052000000000,"state":"active","ping":81},{"user_id":23,"name":"silliest guy","steam_id":76561198066566813,"connected_time":626000000000,"state":"active","ping":155},{"user_id":24,"name":"PEPPINO SPAGHETTI","steam_id":76561198084849541,"connected_time":611000000000,"state":"active","ping":74},{"user_id":21,"name":"Hautboi","steam_id":76561199012329221,"connected_time":806000000000,"state":"active","ping":56},{"user_id":22,"name":"Pluto","steam_id":76561198338593690,"connected_time":787000000000,"state":"active","ping":76},{"user_id":25,"name":"Spur_","steam_id":76561198012083339,"connected_time":535000000000,"state":"active","ping":72},{"user_id":26,"name":"Super D Duper","steam_id":76561198078203677,"connected_time":459000000000,"state":"active","ping":52},{"user_id":27,"name":"Gummy","steam_id":76561198273280386,"connected_time":418000000000,"state":"active","ping":88},{"user_id":29,"name":"Dr. Enforcicle (real)","steam_id":76561198964471859,"connected_time":409000000000,"state":"active","ping":59},{"user_id":30,"name":"I have popcorn","steam_id":76561198433696424,"connected_time":378000000000,"state":"active","ping":49},{"user_id":31,"name":"capeeKo","steam_id":76561197970346623,"connected_time":336000000000,"state":"active","ping":66},{"user_id":32,"name":"HeatedArtist","steam_id":76561198961937603,"connected_time":307000000000,"state":"active","ping":119},{"user_id":33,"name":"Spimtmot733","steam_id":76561199029189825,"connected_time":306000000000,"state":"active","ping":54},{"user_id":34,"name":"Drake the Pixel","steam_id":76561198131824401,"connected_time":215000000000,"state":"active","ping":39},{"user_id":35,"name":"Mercy!Avatar","steam_id":76561199113870006,"connected_time":105000000000,"state":"active","ping":46}]},{"server_id":142,"name":"Uncletopia | São Paulo | 1 | All Maps","name_short":"sao-1","host":"sao-1.br.uncletopia.com","port":27015,"enabled":true,"region":"sa","cc":"br","latitude":-23.533773,"longitude":-46.62529,"reserved":0,"last_update":"0001-01-01T00:00:00Z","name_a2s":"Uncletopia | São Paulo | 1 | All Maps","protocol":17,"map":"cp_dustbowl","folder":"tf","game":"Team Fortress","app_id":440,"player_count":0,"max_players":24,"Bots":0,"server_type":"Dedicated","server_os":"Linux","password":true,"vac":true,"version":"7757534","steam_id":85568392924469996,"keywords":["cp","nocrits","nodmgspread","uncletopia"],"game_id":440,"stv_port":27016,"stv_name":"Uncletopia | São Paulo | 1 | All Maps | STV","players":null},{"server_id":143,"name":"Uncletopia | São Paulo | 2 | All Maps","name_short":"sao-2","host":"sao-2.br.uncletopia.com","port":27015,"enabled":true,"region":"sa","cc":"br","latitude":-23.533773,"longitude":-46.62529,"reserved":0,"last_update":"0001-01-01T00:00:00Z","name_a2s":"Uncletopia | São Paulo | 2 | All Maps","protocol":17,"map":"koth_cascade","folder":"tf","game":"Team Fortress","app_id":440,"player_count":3,"max_players":24,"Bots":0,"server_type":"Dedicated","server_os":"Linux","password":true,"vac":true,"version":"7757534","steam_id":85568392924485349,"keywords":["cp","nocrits","nodmgspread","uncletopia"],"game_id":440,"stv_port":27016,"stv_name":"Uncletopia | São Paulo | 2 | All Maps | STV","players":[{"user_id":13,"name":"guarda-chuva","steam_id":76561198078694330,"connected_time":1653000000000,"state":"active","ping":247},{"user_id":14,"name":"Tert_14","steam_id":76561198185952289,"connected_time":1645000000000,"state":"active","ping":66},{"user_id":16,"name":"Moddii","steam_id":76561198983049342,"connected_time":653000000000,"state":"active","ping":32}]},{"server_id":7,"name":"Uncletopia | Seattle | 1 | All Maps","name_short":"sea-1","host":"sea-1.us.uncletopia.com","port":27015,"enabled":true,"region":"us-west","cc":"us","latitude":47.608013,"longitude":-122.33517,"reserved":0,"last_update":"0001-01-01T00:00:00Z","name_a2s":"Uncletopia | Seattle | 1 | All Maps","protocol":17,"map":"pl_pier","folder":"tf","game":"Team Fortress","app_id":440,"player_count":24,"max_players":24,"Bots":0,"server_type":"Dedicated","server_os":"Linux","password":true,"vac":true,"version":"7757534","steam_id":85568392924469997,"keywords":["nocrits","nodmgspread","payload","uncletopia"],"game_id":440,"stv_port":27016,"stv_name":"Uncletopia | Seattle | 1 | All Maps | STV","players":[{"user_id":312,"name":"Shia Thing","steam_id":76561198271939793,"connected_time":1594000000000,"state":"active","ping":45},{"user_id":302,"name":"♦Benji♦","steam_id":76561198313529973,"connected_time":2182000000000,"state":"active","ping":45},{"user_id":298,"name":"ImChom","steam_id":76561198970425609,"connected_time":2859000000000,"state":"active","ping":57},{"user_id":303,"name":"V∆lume The 1rd","steam_id":76561198133260990,"connected_time":2156000000000,"state":"active","ping":56},{"user_id":256,"name":"Mediarch","steam_id":76561198050765729,"connected_time":6932000000000,"state":"active","ping":60},{"user_id":226,"name":"Bubbamanme","steam_id":76561198119778504,"connected_time":8821000000000,"state":"active","ping":55},{"user_id":324,"name":"Snorgdarf","steam_id":76561198047962582,"connected_time":855000000000,"state":"active","ping":45},{"user_id":313,"name":"ahabcomics","steam_id":76561199048645341,"connected_time":1534000000000,"state":"active","ping":62},{"user_id":275,"name":"BolognaWithOlives","steam_id":76561198101262668,"connected_time":4867000000000,"state":"active","ping":75},{"user_id":327,"name":"North-West-","steam_id":76561198071295860,"connected_time":217000000000,"state":"active","ping":62},{"user_id":245,"name":"AmiableNebula","steam_id":76561198094306627,"connected_time":7649000000000,"state":"active","ping":76},{"user_id":304,"name":"charm quark","steam_id":76561198098770777,"connected_time":2131000000000,"state":"active","ping":58},{"user_id":305,"name":"𝓡𝔂𝓪𝓷","steam_id":76561198067641129,"connected_time":2004000000000,"state":"active","ping":57},{"user_id":330,"name":"Smoky","steam_id":76561198041551259,"connected_time":53000000000,"state":"active","ping":72},{"user_id":328,"name":"Luca","steam_id":76561198125087140,"connected_time":65000000000,"state":"active","ping":46},{"user_id":326,"name":"SibilantSerpent","steam_id":76561198154488754,"connected_time":836000000000,"state":"active","ping":52},{"user_id":325,"name":"GoldFish876","steam_id":76561199012798745,"connected_time":852000000000,"state":"active","ping":51},{"user_id":293,"name":"Larry Laffer","steam_id":76561198171666514,"connected_time":3380000000000,"state":"active","ping":62},{"user_id":295,"name":"forest (girldick)","steam_id":76561198157960257,"connected_time":3295000000000,"state":"active","ping":44},{"user_id":300,"name":"Naffers","steam_id":76561198195957335,"connected_time":2234000000000,"state":"active","ping":45},{"user_id":272,"name":"jayeskae","steam_id":76561198144220801,"connected_time":5362000000000,"state":"active","ping":53},{"user_id":281,"name":"D0VE","steam_id":76561198151618566,"connected_time":4362000000000,"state":"active","ping":55},{"user_id":315,"name":"toes","steam_id":76561198221151676,"connected_time":1341000000000,"state":"active","ping":59},{"user_id":251,"name":"camp3r","steam_id":76561197992870439,"connected_time":7224000000000,"state":"active","ping":43}]},{"server_id":119,"name":"Uncletopia | Seattle | 2 | All Maps","name_short":"sea-2","host":"sea-1.us.uncletopia.com","port":27025,"enabled":true,"region":"us-west","cc":"us","latitude":47.608013,"longitude":-122.33517,"reserved":0,"last_update":"0001-01-01T00:00:00Z","name_a2s":"Uncletopia | Seattle | 2 | All Maps","protocol":17,"map":"cp_mercenarypark","folder":"tf","game":"Team Fortress","app_id":440,"player_count":24,"max_players":24,"Bots":0,"server_type":"Dedicated","server_os":"Linux","password":true,"vac":true,"version":"7757534","steam_id":85568392924469998,"keywords":["cp","nocrits","nodmgspread","uncletopia"],"game_id":440,"stv_port":27026,"stv_name":"Uncletopia | Seattle | 2 | All Maps | STV","players":[{"user_id":187,"name":"aoka","steam_id":76561198838294547,"connected_time":46000000000,"state":"active","ping":54},{"user_id":67,"name":"seasoul","steam_id":76561198883302327,"connected_time":3783000000000,"state":"active","ping":73},{"user_id":179,"name":"Termiite ◄BG-M►","steam_id":76561198052911020,"connected_time":270000000000,"state":"active","ping":89},{"user_id":182,"name":"[Bandit]","steam_id":76561197986919852,"connected_time":194000000000,"state":"active","ping":50},{"user_id":180,"name":"\u003c3Elise\u003c3","steam_id":76561198146435005,"connected_time":206000000000,"state":"active","ping":71},{"user_id":88,"name":"dance moon","steam_id":76561198110152060,"connected_time":2298000000000,"state":"active","ping":43},{"user_id":174,"name":"NEONPANTSGUY1","steam_id":76561198430388883,"connected_time":343000000000,"state":"active","ping":77},{"user_id":85,"name":"Tom","steam_id":76561198070630154,"connected_time":2399000000000,"state":"active","ping":76},{"user_id":181,"name":"KingKata","steam_id":76561198289610011,"connected_time":203000000000,"state":"active","ping":63},{"user_id":184,"name":"Gojilover","steam_id":76561198330994348,"connected_time":138000000000,"state":"active","ping":71},{"user_id":159,"name":"CollDragon","steam_id":76561198067534450,"connected_time":726000000000,"state":"active","ping":118},{"user_id":58,"name":"JawnyMac","steam_id":76561198179529599,"connected_time":4153000000000,"state":"active","ping":74},{"user_id":135,"name":"Mr defrost","steam_id":76561198322125657,"connected_time":1283000000000,"state":"active","ping":65},{"user_id":81,"name":"Viena","steam_id":76561198346193512,"connected_time":2602000000000,"state":"active","ping":34},{"user_id":59,"name":"Shamrock Shake Oct.10.2020 @8pm","steam_id":76561198833313201,"connected_time":4125000000000,"state":"active","ping":79},{"user_id":128,"name":"Alikchi","steam_id":76561197969594220,"connected_time":1460000000000,"state":"active","ping":99},{"user_id":185,"name":"Diesel","steam_id":76561198448815852,"connected_time":126000000000,"state":"active","ping":62},{"user_id":83,"name":"SirParker135","steam_id":76561198450302639,"connected_time":2448000000000,"state":"active","ping":88},{"user_id":120,"name":"corpach","steam_id":76561198150418268,"connected_time":1550000000000,"state":"active","ping":116},{"user_id":96,"name":"Papa Panda","steam_id":76561198159061475,"connected_time":2056000000000,"state":"active","ping":76},{"user_id":186,"name":"BIGhead","steam_id":76561199062498474,"connected_time":118000000000,"state":"active","ping":101},{"user_id":80,"name":"Wormhole","steam_id":76561199008302939,"connected_time":2840000000000,"state":"active","ping":53},{"user_id":173,"name":"Willy Wonker","steam_id":76561198082944789,"connected_time":414000000000,"state":"active","ping":87},{"user_id":123,"name":"Model CHP-3Y","steam_id":76561198107806145,"connected_time":1526000000000,"state":"active","ping":124}]},{"server_id":406,"name":"Uncletopia | Seattle | 3 | Stopwatch Beta","name_short":"sea-3","host":"sea-1.us.uncletopia.com","port":27035,"enabled":true,"region":"us-west","cc":"us","latitude":47.608013,"longitude":-122.33517,"reserved":0,"last_update":"0001-01-01T00:00:00Z","name_a2s":"Uncletopia | Seattle | 3 | Stopwatch Beta","protocol":17,"map":"cp_sunshine","folder":"tf","game":"Team Fortress","app_id":440,"player_count":14,"max_players":24,"Bots":0,"server_type":"Dedicated","server_os":"Linux","password":true,"vac":true,"version":"7757534","steam_id":85568392924515217,"keywords":["cp","nocrits","nodmgspread","uncletopia"],"game_id":440,"stv_port":27036,"stv_name":"Uncletopia | Seattle | 3 | Stopwatch Beta | STV","players":[{"user_id":29,"name":"H00DEDRIOT","steam_id":76561198351880498,"connected_time":585000000000,"state":"connecting","ping":124},{"user_id":8,"name":"nfseskimo","steam_id":76561198078745666,"connected_time":3039000000000,"state":"spawning","ping":43},{"user_id":31,"name":"turkeysarefriendsz","steam_id":76561199074521322,"connected_time":407000000000,"state":"connecting","ping":92},{"user_id":10,"name":"JesterQuinn","steam_id":76561198119790643,"connected_time":1991000000000,"state":"connecting","ping":53},{"user_id":11,"name":"Rokey","steam_id":76561198067224601,"connected_time":1935000000000,"state":"connecting","ping":74},{"user_id":32,"name":"Andy","steam_id":76561198043115724,"connected_time":359000000000,"state":"connecting","ping":98},{"user_id":14,"name":"Grammaring","steam_id":76561198867366139,"connected_time":1769000000000,"state":"connecting","ping":85},{"user_id":21,"name":"Vaudeville Villain","steam_id":76561199212093339,"connected_time":1000000000000,"state":"connecting","ping":113},{"user_id":18,"name":"hntr","steam_id":76561198972789657,"connected_time":1377000000000,"state":"connecting","ping":78},{"user_id":22,"name":"Chin","steam_id":76561198247426906,"connected_time":989000000000,"state":"connecting","ping":180},{"user_id":23,"name":"muffinman12126","steam_id":76561199471924109,"connected_time":979000000000,"state":"connecting","ping":62},{"user_id":33,"name":"Jkbh1","steam_id":76561198093449670,"connected_time":212000000000,"state":"spawning","ping":88},{"user_id":26,"name":"stoned jester","steam_id":76561198079609974,"connected_time":674000000000,"state":"connecting","ping":89},{"user_id":34,"name":"Owlboy | F2P Cant Talk","steam_id":76561198795571941,"connected_time":3000000000,"state":"connecting","ping":447}]},{"server_id":17,"name":"Uncletopia | San Francisco | 1 | All Maps","name_short":"sfo-1","host":"sfo-1.us.uncletopia.com","port":27015,"enabled":true,"region":"us-west","cc":"us","latitude":37.77397,"longitude":-122.4313,"reserved":0,"last_update":"0001-01-01T00:00:00Z","name_a2s":"Uncletopia | San Francisco | 1 | All Maps","protocol":17,"map":"pl_frontier_final","folder":"tf","game":"Team Fortress","app_id":440,"player_count":24,"max_players":24,"Bots":0,"server_type":"Dedicated","server_os":"Linux","password":true,"vac":true,"version":"7757534","steam_id":85568392924469999,"keywords":["nocrits","nodmgspread","payload","uncletopia"],"game_id":440,"stv_port":27016,"stv_name":"Uncletopia | San Francisco | 1 | All Maps | STV","players":[{"user_id":365,"name":"no vc no c","steam_id":76561197989503095,"connected_time":1031000000000,"state":"active","ping":150},{"user_id":335,"name":"OptiCxmShot","steam_id":76561198049019578,"connected_time":3688000000000,"state":"active","ping":94},{"user_id":322,"name":"Buswolley","steam_id":76561197995205571,"connected_time":4369000000000,"state":"active","ping":55},{"user_id":376,"name":"Riven","steam_id":76561198091701349,"connected_time":333000000000,"state":"active","ping":105},{"user_id":366,"name":"Rear Admiral Crunch","steam_id":76561198020007558,"connected_time":1023000000000,"state":"active","ping":71},{"user_id":367,"name":"KingSteve42","steam_id":76561198409455888,"connected_time":1018000000000,"state":"active","ping":99},{"user_id":355,"name":"TheMagicMrWaffle","steam_id":76561198104357256,"connected_time":2321000000000,"state":"active","ping":59},{"user_id":350,"name":"Rasputia","steam_id":76561198132051047,"connected_time":2636000000000,"state":"active","ping":107},{"user_id":351,"name":"Karl","steam_id":76561198115714484,"connected_time":2611000000000,"state":"active","ping":105},{"user_id":368,"name":"bonk schnoffer","steam_id":76561198301598124,"connected_time":1018000000000,"state":"active","ping":81},{"user_id":356,"name":"PBxJAY","steam_id":76561198402471788,"connected_time":2317000000000,"state":"active","ping":83},{"user_id":378,"name":"StarGuyVI","steam_id":76561199366304746,"connected_time":84000000000,"state":"active","ping":118},{"user_id":370,"name":"TOASTER IN A RAIN COAT","steam_id":76561199090392905,"connected_time":1011000000000,"state":"active","ping":97},{"user_id":357,"name":"liftin'","steam_id":76561199089515791,"connected_time":2282000000000,"state":"active","ping":53},{"user_id":379,"name":"The Super Mario Bros. Movie","steam_id":76561198871692156,"connected_time":24000000000,"state":"active","ping":67},{"user_id":374,"name":"SesataPomang","steam_id":76561198145133059,"connected_time":911000000000,"state":"active","ping":107},{"user_id":300,"name":"Clit Yeastwood","steam_id":76561199042672094,"connected_time":6393000000000,"state":"active","ping":80},{"user_id":301,"name":"Anthid","steam_id":76561198074493797,"connected_time":6357000000000,"state":"active","ping":69},{"user_id":359,"name":"Jazpy","steam_id":76561198036872545,"connected_time":2230000000000,"state":"active","ping":89},{"user_id":372,"name":"Toast","steam_id":76561199243331140,"connected_time":999000000000,"state":"active","ping":130},{"user_id":375,"name":"DD_440","steam_id":76561199135978082,"connected_time":610000000000,"state":"active","ping":115},{"user_id":361,"name":"DrDallas","steam_id":76561198267631716,"connected_time":2127000000000,"state":"active","ping":61},{"user_id":380,"name":"Frogzilla","steam_id":76561198077657538,"connected_time":23000000000,"state":"spawning","ping":90},{"user_id":319,"name":"CaptainPikachu","steam_id":76561198075667401,"connected_time":4671000000000,"state":"active","ping":84}]},{"server_id":18,"name":"Uncletopia | San Francisco | 2 | All Maps","name_short":"sfo-2","host":"sfo-1.us.uncletopia.com","port":27025,"enabled":true,"region":"us-west","cc":"us","latitude":37.77397,"longitude":-122.4313,"reserved":0,"last_update":"0001-01-01T00:00:00Z","name_a2s":"Uncletopia | San Francisco | 2 | All Maps","protocol":17,"map":"koth_highpass","folder":"tf","game":"Team Fortress","app_id":440,"player_count":0,"max_players":24,"Bots":0,"server_type":"Dedicated","server_os":"Linux","password":true,"vac":true,"version":"7757534","steam_id":85568392924470000,"keywords":["cp","nocrits","nodmgspread","uncletopia"],"game_id":440,"stv_port":27026,"stv_name":"Uncletopia | San Francisco | 2 | All Maps | STV","players":null},{"server_id":19,"name":"Uncletopia | San Francisco | 3 | Stopwatch Beta","name_short":"sfo-3","host":"sfo-1.us.uncletopia.com","port":27035,"enabled":true,"region":"us-west","cc":"us","latitude":37.77397,"longitude":-122.4313,"reserved":0,"last_update":"0001-01-01T00:00:00Z","name_a2s":"Uncletopia | San Francisco | 3 | Stopwatch Beta","protocol":17,"map":"workshop/pl_badwater_pro_v12.ugc2142942074","folder":"tf","game":"Team Fortress","app_id":440,"player_count":0,"max_players":24,"Bots":0,"server_type":"Dedicated","server_os":"Linux","password":true,"vac":true,"version":"7757534","steam_id":85568392924742824,"keywords":["nocrits","nodmgspread","payload","uncletopia"],"game_id":440,"stv_port":27036,"stv_name":"Uncletopia | San Francisco | 3 | Stopwatch Beta | STV","players":null},{"server_id":20,"name":"Uncletopia | San Francisco | 4 | Community","name_short":"sfo-4","host":"sfo-1.us.uncletopia.com","port":27045,"enabled":true,"region":"us-west","cc":"us","latitude":37.77397,"longitude":-122.4313,"reserved":0,"last_update":"0001-01-01T00:00:00Z","name_a2s":"Uncletopia | San Francisco | 4 | Community","protocol":17,"map":"workshop/pl_fifthcurve_rc1.ugc648227046","folder":"tf","game":"Team Fortress","app_id":440,"player_count":0,"max_players":24,"Bots":0,"server_type":"Dedicated","server_os":"Linux","password":true,"vac":true,"version":"7757534","steam_id":85568392924742826,"keywords":["nocrits","nodmgspread","payload","uncletopia"],"game_id":440,"stv_port":27046,"stv_name":"Uncletopia | San Francisco | 4 | Community | STV","players":null},{"server_id":141,"name":"Uncletopia | Sydney | 1 | All Maps","name_short":"syd-1","host":"syd-1.au.uncletopia.com","port":27015,"enabled":true,"region":"au","cc":"au","latitude":-33.865143,"longitude":151.2099,"reserved":0,"last_update":"0001-01-01T00:00:00Z","name_a2s":"Uncletopia | Sydney | 1 | All Maps","protocol":17,"map":"koth_viaduct","folder":"tf","game":"Team Fortress","app_id":440,"player_count":0,"max_players":24,"Bots":0,"server_type":"Dedicated","server_os":"Linux","password":true,"vac":true,"version":"7757534","steam_id":85568392924470001,"keywords":["cp","nocrits","nodmgspread","uncletopia"],"game_id":440,"stv_port":27016,"stv_name":"Uncletopia | Sydney | 1 | All Maps | STV","players":null},{"server_id":123,"name":"Uncletopia | Sydney | 2 | All Maps","name_short":"syd-2","host":"syd-1.au.uncletopia.com","port":27025,"enabled":true,"region":"au","cc":"au","latitude":-33.865143,"longitude":151.2099,"reserved":0,"last_update":"0001-01-01T00:00:00Z","name_a2s":"Uncletopia | Sydney | 2 | All Maps","protocol":17,"map":"koth_lakeside_final","folder":"tf","game":"Team Fortress","app_id":440,"player_count":0,"max_players":24,"Bots":0,"server_type":"Dedicated","server_os":"Linux","password":true,"vac":true,"version":"7757534","steam_id":85568392924470002,"keywords":["cp","nocrits","nodmgspread","uncletopia"],"game_id":440,"stv_port":27026,"stv_name":"Uncletopia | Sydney | 2 | All Maps | STV","players":null},{"server_id":395,"name":"Uncletopia | Sydney | 3 | All Maps","name_short":"syd-3","host":"syd-1.au.uncletopia.com","port":27035,"enabled":true,"region":"au","cc":"au","latitude":-33.865143,"longitude":151.2099,"reserved":0,"last_update":"0001-01-01T00:00:00Z","name_a2s":"Uncletopia | Sydney | 3 | All Maps","protocol":17,"map":"pl_swiftwater_final1","folder":"tf","game":"Team Fortress","app_id":440,"player_count":0,"max_players":24,"Bots":0,"server_type":"Dedicated","server_os":"Linux","password":true,"vac":true,"version":"7757534","steam_id":85568392925194467,"keywords":["nocrits","nodmgspread","payload","uncletopia"],"game_id":440,"stv_port":27036,"stv_name":"Uncletopia | Sydney | 3 | All Maps | STV","players":null},{"server_id":396,"name":"Uncletopia | Sydney | 4 | All Maps","name_short":"syd-4","host":"syd-1.au.uncletopia.com","port":27045,"enabled":true,"region":"au","cc":"au","latitude":-33.865143,"longitude":151.2099,"reserved":0,"last_update":"0001-01-01T00:00:00Z","name_a2s":"Uncletopia | Sydney | 4 | All Maps","protocol":17,"map":"koth_highpass","folder":"tf","game":"Team Fortress","app_id":440,"player_count":0,"max_players":24,"Bots":0,"server_type":"Dedicated","server_os":"Linux","password":true,"vac":true,"version":"7757534","steam_id":85568392925397958,"keywords":["cp","nocrits","nodmgspread","uncletopia"],"game_id":440,"stv_port":27046,"stv_name":"Uncletopia | Sydney | 4 | All Maps | STV","players":null},{"server_id":58,"name":"Uncletopia | Sydney | 5 | Stopwatch Beta","name_short":"syd-5","host":"syd-1.au.uncletopia.com","port":27055,"enabled":true,"region":"au","cc":"au","latitude":-33.865143,"longitude":151.2099,"reserved":0,"last_update":"0001-01-01T00:00:00Z","name_a2s":"Uncletopia | Sydney | 5 | Stopwatch Beta","protocol":17,"map":"koth_cascade","folder":"tf","game":"Team Fortress","app_id":440,"player_count":0,"max_players":24,"Bots":0,"server_type":"Dedicated","server_os":"Linux","password":true,"vac":true,"version":"7757534","steam_id":85568392925397959,"keywords":["cp","nocrits","nodmgspread","uncletopia"],"game_id":440,"stv_port":27056,"stv_name":"Uncletopia | Sydney | 5 | Stopwatch Beta | STV","players":null},{"server_id":59,"name":"Uncletopia | Sydney | 6 | Community","name_short":"syd-6","host":"syd-1.au.uncletopia.com","port":27065,"enabled":true,"region":"au","cc":"au","latitude":-33.865143,"longitude":151.2099,"reserved":0,"last_update":"0001-01-01T00:00:00Z","name_a2s":"Uncletopia | Sydney | 6 | Community","protocol":17,"map":"cp_snakewater_final1","folder":"tf","game":"Team Fortress","app_id":440,"player_count":0,"max_players":24,"Bots":0,"server_type":"Dedicated","server_os":"Linux","password":true,"vac":true,"version":"7757534","steam_id":85568392925397960,"keywords":["cp","nocrits","nodmgspread","uncletopia"],"game_id":440,"stv_port":27066,"stv_name":"Uncletopia | Sydney | 6 | Community | STV","players":null},{"server_id":49,"name":"Uncletopia | Warsaw | 1 | All Maps","name_short":"waw-1","host":"waw-1.pl.uncletopia.com","port":27015,"enabled":true,"region":"eu","cc":"pl","latitude":52.2297,"longitude":21.017532,"reserved":0,"last_update":"0001-01-01T00:00:00Z","name_a2s":"","protocol":0,"map":"","folder":"","game":"","app_id":0,"player_count":0,"max_players":0,"Bots":0,"server_type":"","server_os":"","password":false,"vac":false,"version":"","steam_id":0,"keywords":null,"game_id":0,"stv_port":0,"stv_name":"","players":null},{"server_id":50,"name":"Uncletopia | Warsaw | 2 | All Maps","name_short":"waw-2","host":"waw-1.pl.uncletopia.com","port":27025,"enabled":true,"region":"eu","cc":"pl","latitude":52.2297,"longitude":21.017532,"reserved":0,"last_update":"0001-01-01T00:00:00Z","name_a2s":"Uncletopia | Warsaw | 2 | All Maps","protocol":17,"map":"koth_highpass","folder":"tf","game":"Team Fortress","app_id":440,"player_count":0,"max_players":24,"Bots":0,"server_type":"Dedicated","server_os":"Linux","password":true,"vac":true,"version":"7757534","steam_id":85568392925397851,"keywords":["cp","nocrits","nodmgspread","uncletopia"],"game_id":440,"stv_port":27026,"stv_name":"Uncletopia | Warsaw | 2 | All Maps | STV","players":null},{"server_id":51,"name":"Uncletopia | Warsaw | 3 | All Maps","name_short":"waw-3","host":"waw-1.pl.uncletopia.com","port":27035,"enabled":true,"region":"eu","cc":"pl","latitude":52.2297,"longitude":21.017532,"reserved":0,"last_update":"0001-01-01T00:00:00Z","name_a2s":"Uncletopia | Warsaw | 3 | All Maps","protocol":17,"map":"pl_borneo","folder":"tf","game":"Team Fortress","app_id":440,"player_count":14,"max_players":24,"Bots":0,"server_type":"Dedicated","server_os":"Linux","password":true,"vac":true,"version":"7757534","steam_id":85568392925397852,"keywords":["nocrits","nodmgspread","payload","uncletopia"],"game_id":440,"stv_port":27036,"stv_name":"Uncletopia | Warsaw | 3 | All Maps | STV","players":[{"user_id":85,"name":"LiterallyRyanGosling","steam_id":76561199017856691,"connected_time":451000000000,"state":"active","ping":78},{"user_id":87,"name":"SynthBox3","steam_id":76561199094075745,"connected_time":75000000000,"state":"active","ping":120},{"user_id":25,"name":"Ember from Hungary","steam_id":76561198269211299,"connected_time":5865000000000,"state":"active","ping":94},{"user_id":68,"name":"Zembis","steam_id":76561198008017918,"connected_time":1838000000000,"state":"active","ping":73},{"user_id":36,"name":"kaa","steam_id":76561198044061430,"connected_time":4456000000000,"state":"active","ping":73},{"user_id":59,"name":"the least schizo med main","steam_id":76561198048530109,"connected_time":2773000000000,"state":"active","ping":78},{"user_id":81,"name":"Beancardo Milos","steam_id":76561198404832366,"connected_time":774000000000,"state":"active","ping":92},{"user_id":64,"name":"Dr House Online Clinic","steam_id":76561198068213670,"connected_time":2143000000000,"state":"active","ping":47},{"user_id":83,"name":"The Original Aboriginal","steam_id":76561198341886313,"connected_time":534000000000,"state":"active","ping":116},{"user_id":70,"name":"Vitun vittu","steam_id":76561198110679463,"connected_time":1735000000000,"state":"active","ping":90},{"user_id":84,"name":"eeeeee","steam_id":76561198017786875,"connected_time":485000000000,"state":"active","ping":69},{"user_id":86,"name":"Carrotcracker","steam_id":76561198034862396,"connected_time":449000000000,"state":"active","ping":84},{"user_id":47,"name":"Tuna","steam_id":76561198006016938,"connected_time":3982000000000,"state":"active","ping":83},{"user_id":50,"name":"idle","steam_id":76561198000305587,"connected_time":3922000000000,"state":"active","ping":83}]},{"server_id":52,"name":"Uncletopia | Warsaw | 4 | All Maps","name_short":"waw-4","host":"waw-1.pl.uncletopia.com","port":27045,"enabled":true,"region":"eu","cc":"pl","latitude":52.2297,"longitude":21.017532,"reserved":0,"last_update":"0001-01-01T00:00:00Z","name_a2s":"Uncletopia | Warsaw | 4 | All Maps","protocol":17,"map":"koth_lakeside_final","folder":"tf","game":"Team Fortress","app_id":440,"player_count":0,"max_players":24,"Bots":0,"server_type":"Dedicated","server_os":"Linux","password":true,"vac":true,"version":"7757534","steam_id":85568392925397853,"keywords":["cp","nocrits","nodmgspread","uncletopia"],"game_id":440,"stv_port":27046,"stv_name":"Uncletopia | Warsaw | 4 | All Maps | STV","players":null},{"server_id":53,"name":"Uncletopia | Warsaw | 5 | Stopwatch Beta","name_short":"waw-5","host":"waw-1.pl.uncletopia.com","port":27055,"enabled":true,"region":"eu","cc":"pl","latitude":52.2297,"longitude":21.017532,"reserved":0,"last_update":"0001-01-01T00:00:00Z","name_a2s":"Uncletopia | Warsaw | 5 | Stopwatch Beta","protocol":17,"map":"pl_borneo","folder":"tf","game":"Team Fortress","app_id":440,"player_count":0,"max_players":24,"Bots":0,"server_type":"Dedicated","server_os":"Linux","password":true,"vac":true,"version":"7757534","steam_id":85568392925397854,"keywords":["nocrits","nodmgspread","payload","uncletopia"],"game_id":440,"stv_port":27056,"stv_name":"Uncletopia | Warsaw | 5 | Stopwatch Beta | STV","players":null},{"server_id":54,"name":"Uncletopia | Warsaw | 6 | Community","name_short":"waw-6","host":"waw-1.pl.uncletopia.com","port":27065,"enabled":true,"region":"eu","cc":"pl","latitude":52.2297,"longitude":21.017532,"reserved":0,"last_update":"0001-01-01T00:00:00Z","name_a2s":"Uncletopia | Warsaw | 6 | Community","protocol":17,"map":"koth_lakeside_final","folder":"tf","game":"Team Fortress","app_id":440,"player_count":0,"max_players":24,"Bots":0,"server_type":"Dedicated","server_os":"Linux","password":true,"vac":true,"version":"7757534","steam_id":85568392925397856,"keywords":["cp","nocrits","nodmgspread","uncletopia"],"game_id":440,"stv_port":27066,"stv_name":"Uncletopia | Warsaw | 6 | Community | STV","players":null}]}