{"status":true,"message":"","result":[{"server_id":9,"name":"Uncletopia | Atlanta | 1 | All Maps","name_short":"atl-1","host":"atl-1.us.uncletopia.com","port":27015,"enabled":true,"region":"us-east","cc":"us","latitude":33.753746,"longitude":-84.38633,"reserved":0,"last_update":"0001-01-01T00:00:00Z","name_a2s":"Uncletopia | Atlanta | 1 | All Maps","protocol":17,"map":"plr_hightower","folder":"tf","game":"Team Fortress","app_id":440,"player_count":11,"max_players":24,"Bots":0,"server_type":"Dedicated","server_os":"Linux","password":true,"vac":true,"version":"7961495","steam_id":85568392924469982,"keywords":["nocrits","nodmgspread","payload","uncletopia"],"game_id":440,"stv_port":27016,"stv_name":"Uncletopia | Atlanta | 1 | All Maps | STV","players":[{"user_id":531,"name":"Amy Roxwell","steam_id":76561198303391830,"connected_time":2550000000000,"state":"active","ping":95},{"user_id":546,"name":"Eldritch","steam_id":76561199009135766,"connected_time":611000000000,"state":"active","ping":73},{"user_id":548,"name":"FireQuiz","steam_id":76561198107357249,"connected_time":177000000000,"state":"active","ping":116},{"user_id":498,"name":"catgirl giantess in heat","steam_id":76561198439042583,"connected_time":4333000000000,"state":"active","ping":76},{"user_id":499,"name":"+","steam_id":76561198262422184,"connected_time":4220000000000,"state":"active","ping":57},{"user_id":547,"name":"Sullivan_Salt","steam_id":76561198233798536,"connected_time":516000000000,"state":"active","ping":73},{"user_id":500,"name":"PeterChan","steam_id":76561198398192880,"connected_time":4120000000000,"state":"active","ping":65},{"user_id":523,"name":"shaderoses","steam_id":76561198070800500,"connected_time":2658000000000,"state":"active","ping":60},{"user_id":534,"name":"Artixes","steam_id":76561198379574232,"connected_time":2406000000000,"state":"active","ping":40},{"user_id":538,"name":"Broden622","steam_id":76561198256017495,"connected_time":1772000000000,"state":"active","ping":64},{"user_id":463,"name":"Shmoopy","steam_id":76561198030459152,"connected_time":9605000000000,"state":"active","ping":59}]},{"server_id":104,"name":"Uncletopia | Atlanta | 2 | All Maps","name_short":"atl-2","host":"atl-1.us.uncletopia.com","port":27025,"enabled":true,"region":"us-east","cc":"us","latitude":33.753746,"longitude":-84.38633,"reserved":0,"last_update":"0001-01-01T00:00:00Z","name_a2s":"Uncletopia | Atlanta | 2 | All Maps","protocol":17,"map":"koth_viaduct","folder":"tf","game":"Team Fortress","app_id":440,"player_count":0,"max_players":24,"Bots":0,"server_type":"Dedicated","server_os":"Linux","password":true,"vac":true,"version":"7961495","steam_id":85568392924469983,"keywords":["cp","nocrits","nodmgspread","uncletopia"],"game_id":440,"stv_port":27026,"stv_name":"Uncletopia | Atlanta | 2 | All Maps | STV","players":null},{"server_id":400,"name":"Uncletopia | Atlanta | 3 | Stopwatch","name_short":"atl-3","host":"atl-1.us.uncletopia.com","port":27035,"enabled":true,"region":"us-east","cc":"us","latitude":33.753746,"longitude":-84.38633,"reserved":0,"last_update":"0001-01-01T00:00:00Z","name_a2s":"Uncletopia | Atlanta | 3 | Stopwatch","protocol":17,"map":"workshop/pl_badwater_pro_v12.ugc2142942074","folder":"tf","game":"Team Fortress","app_id":440,"player_count":0,"max_players":24,"Bots":0,"server_type":"Dedicated","server_os":"Linux","password":true,"vac":true,"version":"7961495","steam_id":85568392924515187,"keywords":["nocrits","nodmgspread","payload","uncletopia"],"game_id":440,"stv_port":27036,"stv_name":"Uncletopia | Atlanta | 3 | Stopwatch | STV","players":null},{"server_id":401,"name":"Uncletopia | Atlanta | 4 | Community","name_short":"atl-4","host":"atl-1.us.uncletopia.com","port":27045,"enabled":true,"region":"us-east","cc":"us","latitude":33.753746,"longitude":-84.38633,"reserved":0,"last_update":"0001-01-01T00:00:00Z","name_a2s":"Uncletopia | Atlanta | 4 | Community","protocol":17,"map":"workshop/cp_indulge.ugc528106646","folder":"tf","game":"Team Fortress","app_id":440,"player_count":0,"max_players":24,"Bots":0,"server_type":"Dedicated","server_os":"Linux","password":true,"vac":true,"version":"7961495","steam_id":85568392924515188,"keywords":["cp","nocrits","nodmgspread","uncletopia"],"game_id":440,"stv_port":27046,"stv_name":"Uncletopia | Atlanta | 4 | Community | STV","players":null},{"server_id":2,"name":"Uncletopia | Chicago | 1 | All Maps","name_short":"chi-1","host":"chi-1.us.uncletopia.com","port":27015,"enabled":true,"region":"us-central","cc":"us","latitude":41.881832,"longitude":-87.62318,"reserved":0,"last_update":"0001-01-01T00:00:00Z","name_a2s":"Uncletopia | Chicago | 1 | All Maps","protocol":17,"map":"pl_badwater","folder":"tf","game":"Team Fortress","app_id":440,"player_count":24,"max_players":24,"Bots":0,"server_type":"Dedicated","server_os":"Linux","password":true,"vac":true,"version":"7961495","steam_id":85568392924469984,"keywords":["nocrits","nodmgspread","payload","uncletopia"],"game_id":440,"stv_port":27016,"stv_name":"Uncletopia | Chicago | 1 | All Maps | STV","players":[{"user_id":796,"name":"Hey","steam_id":76561198447517893,"connected_time":4581000000000,"state":"active","ping":75},{"user_id":842,"name":"Ms Twig","steam_id":76561198144111736,"connected_time":2308000000000,"state":"active","ping":59},{"user_id":849,"name":"squish","steam_id":76561198186417941,"connected_time":804000000000,"state":"active","ping":90},{"user_id":825,"name":"'mungus","steam_id":76561198022358379,"connected_time":3281000000000,"state":"active","ping":73},{"user_id":821,"name":"sheeesh","steam_id":76561198038080028,"connected_time":3489000000000,"state":"active","ping":60},{"user_id":731,"name":"Anstorner","steam_id":76561198274026015,"connected_time":6875000000000,"state":"active","ping":98},{"user_id":807,"name":"SEGNO","steam_id":76561198102780113,"connected_time":3856000000000,"state":"active","ping":75},{"user_id":828,"name":"Kantamoe","steam_id":76561198046661611,"connected_time":3256000000000,"state":"active","ping":74},{"user_id":852,"name":"Rat God","steam_id":76561198066161598,"connected_time":556000000000,"state":"active","ping":54},{"user_id":846,"name":"Angel","steam_id":76561199068960616,"connected_time":1519000000000,"state":"active","ping":47},{"user_id":811,"name":"Mithrildo","steam_id":76561198000564263,"connected_time":3653000000000,"state":"active","ping":69},{"user_id":840,"name":"Fanatic","steam_id":76561198036960509,"connected_time":2639000000000,"state":"active","ping":63},{"user_id":847,"name":"shannongram influencer","steam_id":76561198143132686,"connected_time":1349000000000,"state":"active","ping":79},{"user_id":841,"name":"java","steam_id":76561198030276792,"connected_time":2618000000000,"state":"active","ping":60},{"user_id":814,"name":"AlecTheNefarious","steam_id":76561198035291230,"connected_time":3644000000000,"state":"active","ping":74},{"user_id":830,"name":"9gon Danmar33","steam_id":76561198056453091,"connected_time":3230000000000,"state":"active","ping":48},{"user_id":836,"name":"y0","steam_id":76561198143894333,"connected_time":2691000000000,"state":"active","ping":47},{"user_id":843,"name":"lanoc","steam_id":76561198055415367,"connected_time":2252000000000,"state":"active","ping":60},{"user_id":845,"name":"frank","steam_id":76561198137777483,"connected_time":1664000000000,"state":"active","ping":74},{"user_id":850,"name":"Spy Gaming","steam_id":76561198453295613,"connected_time":797000000000,"state":"active","ping":114},{"user_id":832,"name":"chunk","steam_id":76561198134775401,"connected_time":3223000000000,"state":"active","ping":68},{"user_id":848,"name":"Orca?","steam_id":76561198164341099,"connected_time":1019000000000,"state":"active","ping":95},{"user_id":851,"name":"playguy carter","steam_id":76561198080679337,"connected_time":797000000000,"state":"active","ping":55},{"user_id":838,"name":"//NC Nika","steam_id":76561198050445395,"connected_time":2683000000000,"state":"active","ping":132}]},{"server_id":106,"name":"Uncletopia | Chicago | 2 | All Maps","name_short":"chi-2","host":"chi-1.us.uncletopia.com","port":27025,"enabled":true,"region":"us-central","cc":"us","latitude":41.881832,"longitude":-87.62318,"reserved":0,"last_update":"0001-01-01T00:00:00Z","name_a2s":"Uncletopia | Chicago | 2 | All Maps","protocol":17,"map":"cp_process_final","folder":"tf","game":"Team Fortress","app_id":440,"player_count":24,"max_players":24,"Bots":0,"server_type":"Dedicated","server_os":"Linux","password":true,"vac":true,"version":"7961495","steam_id":85568392924469985,"keywords":["cp","nocrits","nodmgspread","uncletopia"],"game_id":440,"stv_port":27026,"stv_name":"Uncletopia | Chicago | 2 | All Maps | STV","players":[{"user_id":671,"name":"inshallah","steam_id":76561198165212575,"connected_time":1969000000000,"state":"active","ping":73},{"user_id":613,"name":"Ich Bin Doge","steam_id":76561198880653063,"connected_time":3040000000000,"state":"active","ping":123},{"user_id":615,"name":"Thequirka","steam_id":76561198968058652,"connected_time":2970000000000,"state":"active","ping":102},{"user_id":614,"name":"left 4 dead soker","steam_id":76561198066566813,"connected_time":3027000000000,"state":"active","ping":140},{"user_id":691,"name":"Yon","steam_id":76561198098631397,"connected_time":316000000000,"state":"active","ping":58},{"user_id":690,"name":"BB Lorexav","steam_id":76561198207565988,"connected_time":562000000000,"state":"active","ping":83},{"user_id":685,"name":"garfield","steam_id":76561198114119308,"connected_time":964000000000,"state":"active","ping":60},{"user_id":669,"name":"dunk","steam_id":76561198132476501,"connected_time":2027000000000,"state":"active","ping":76},{"user_id":680,"name":"Flayre","steam_id":76561198803036389,"connected_time":1162000000000,"state":"active","ping":64},{"user_id":668,"name":"hharm_me","steam_id":76561198217882744,"connected_time":2272000000000,"state":"active","ping":120},{"user_id":681,"name":"ìÜèCayenne Pepper ìÜè","steam_id":76561198124881810,"connected_time":1067000000000,"state":"active","ping":101},{"user_id":692,"name":"Bogg","steam_id":76561198111417325,"connected_time":279000000000,"state":"active","ping":60},{"user_id":686,"name":"big tiddy lamia gf","steam_id":76561198378537090,"connected_time":960000000000,"state":"active","ping":80},{"user_id":595,"name":"BiggFoot","steam_id":76561197998605599,"connected_time":5094000000000,"state":"active","ping":74},{"user_id":687,"name":"A Felicidade","steam_id":76561198043360498,"connected_time":931000000000,"state":"active","ping":90},{"user_id":568,"name":"Aldatzailea Egitura","steam_id":76561199240547667,"connected_time":8051000000000,"state":"active","ping":104},{"user_id":673,"name":"cotton candy ghooost","steam_id":76561198058998371,"connected_time":1748000000000,"state":"active","ping":59},{"user_id":693,"name":"Useless","steam_id":76561198116079299,"connected_time":227000000000,"state":"active","ping":104},{"user_id":688,"name":"Stinkly","steam_id":76561198045010846,"connected_time":834000000000,"state":"active","ping":76},{"user_id":689,"name":"Greg","steam_id":76561198037791987,"connected_time":831000000000,"state":"active","ping":87},{"user_id":678,"name":"Soju","steam_id":76561198044130442,"connected_time":1369000000000,"state":"active","ping":79},{"user_id":600,"name":"Triple Lizard","steam_id":76561198188459654,"connected_time":4955000000000,"state":"active","ping":67},{"user_id":644,"name":"lain","steam_id":76561198042168009,"connected_time":2531000000000,"state":"active","ping":122}]},{"server_id":402,"name":"Uncletopia | Chicago | 3 | All Maps","name_short":"chi-3","host":"chi-1.us.uncletopia.com","port":27035,"enabled":true,"region":"us-central","cc":"us","latitude":41.881832,"longitude":-87.62318,"reserved":0,"last_update":"0001-01-01T00:00:00Z","name_a2s":"Uncletopia | Chicago | 3 | All Maps","protocol":17,"map":"pl_pier","folder":"tf","game":"Team Fortress","app_id":440,"player_count":11,"max_players":24,"Bots":0,"server_type":"Dedicated","server_os":"Linux","password":true,"vac":true,"version":"7961495","steam_id":85568392924515191,"keywords":["nocrits","nodmgspread","payload","uncletopia"],"game_id":440,"stv_port":27036,"stv_name":"Uncletopia | Chicago | 3 | All Maps | STV","players":[{"user_id":449,"name":"banjobun","steam_id":76561198116814525,"connected_time":1188000000000,"state":"active","ping":100},{"user_id":450,"name":"Shazzy","steam_id":76561198145460523,"connected_time":1181000000000,"state":"active","ping":90},{"user_id":451,"name":"crouching tiger heavy","steam_id":76561198121767390,"connected_time":1144000000000,"state":"active","ping":60},{"user_id":452,"name":"Hawksgamer","steam_id":76561198152405941,"connected_time":1130000000000,"state":"active","ping":107},{"user_id":453,"name":"Mr8bittripper","steam_id":76561198133894229,"connected_time":1123000000000,"state":"active","ping":92},{"user_id":454,"name":"sleepy‚äπ","steam_id":76561199200969139,"connected_time":1116000000000,"state":"active","ping":101},{"user_id":457,"name":"totoro","steam_id":76561198210420871,"connected_time":804000000000,"state":"active","ping":41},{"user_id":456,"name":"Kamin","steam_id":76561198255299559,"connected_time":982000000000,"state":"active","ping":85},{"user_id":458,"name":"MapleSyrup","steam_id":76561199222442855,"connected_time":766000000000,"state":"active","ping":107},{"user_id":459,"name":"Foloan","steam_id":76561199229528791,"connected_time":175000000000,"state":"active","ping":72},{"user_id":460,"name":"ryqset","steam_id":76561198349299874,"connected_time":31000000000,"state":"active","ping":78}]},{"server_id":403,"name":"Uncletopia | Chicago | 4 | All Maps","name_short":"chi-4","host":"chi-1.us.uncletopia.com","port":27045,"enabled":true,"region":"us-central","cc":"us","latitude":41.881832,"longitude":-87.62318,"reserved":0,"last_update":"0001-01-01T00:00:00Z","name_a2s":"Uncletopia | Chicago | 4 | All Maps","protocol":17,"map":"pl_goldrush","folder":"tf","game":"Team Fortress","app_id":440,"player_count":24,"max_players":24,"Bots":0,"server_type":"Dedicated","server_os":"Linux","password":true,"vac":true,"version":"7961495","steam_id":85568392924515193,"keywords":["nocrits","nodmgspread","payload","uncletopia"],"game_id":440,"stv_port":27046,"stv_name":"Uncletopia | Chicago | 4 | All Maps | STV","players":[{"user_id":302,"name":"alfredodan","steam_id":76561198025011044,"connected_time":1143000000000,"state":"active","ping":83},{"user_id":291,"name":"ultralisk52","steam_id":76561198051666604,"connected_time":1368000000000,"state":"active","ping":60},{"user_id":293,"name":"toasty weber","steam_id":76561198037746805,"connected_time":1351000000000,"state":"active","ping":64},{"user_id":305,"name":"Cruisin'","steam_id":76561199245457119,"connected_time":901000000000,"state":"active","ping":77},{"user_id":277,"name":"sfoster","steam_id":76561197993895857,"connected_time":2713000000000,"state":"active","ping":88},{"user_id":297,"name":"jayyteeAT","steam_id":76561198059575962,"connected_time":1277000000000,"state":"active","ping":55},{"user_id":310,"name":"Ojen","steam_id":76561197998414482,"connected_time":417000000000,"state":"active","ping":61},{"user_id":295,"name":"ninety9dragonfly","steam_id":76561198363406983,"connected_time":1308000000000,"state":"active","ping":127},{"user_id":307,"name":"Nobody","steam_id":76561198160544586,"connected_time":682000000000,"state":"active","ping":67},{"user_id":311,"name":"Kiwis","steam_id":76561198065409844,"connected_time":186000000000,"state":"active","ping":53},{"user_id":194,"name":"NvAka","steam_id":76561199044781490,"connected_time":9411000000000,"state":"active","ping":62},{"user_id":268,"name":"DiamondEpsilon","steam_id":76561198203883311,"connected_time":3533000000000,"state":"active","ping":76},{"user_id":226,"name":"An Erect Penis :)","steam_id":76561198086477485,"connected_time":6099000000000,"state":"active","ping":44},{"user_id":288,"name":"for the king","steam_id":76561197973488858,"connected_time":2021000000000,"state":"active","ping":55},{"user_id":281,"name":"God","steam_id":76561198131089513,"connected_time":2680000000000,"state":"active","ping":59},{"user_id":298,"name":"snail from ear AT(cochlea)","steam_id":76561198184900753,"connected_time":1269000000000,"state":"active","ping":50},{"user_id":299,"name":"paypur -rng","steam_id":76561198214370515,"connected_time":1262000000000,"state":"active","ping":67},{"user_id":283,"name":"KASHI","steam_id":76561198045285049,"connected_time":2665000000000,"state":"active","ping":78},{"user_id":308,"name":"Dominias","steam_id":76561198259120452,"connected_time":647000000000,"state":"active","ping":69},{"user_id":285,"name":"gabe","steam_id":76561198106707955,"connected_time":2636000000000,"state":"active","ping":57},{"user_id":304,"name":"averted","steam_id":76561198067784310,"connected_time":1093000000000,"state":"active","ping":61},{"user_id":301,"name":"LivingRaccoon","steam_id":76561198035425632,"connected_time":1241000000000,"state":"active","ping":111},{"user_id":170,"name":"corntent","steam_id":76561198824847948,"connected_time":11326000000000,"state":"active","ping":66},{"user_id":201,"name":"WillieMakit","steam_id":76561197985391684,"connected_time":8971000000000,"state":"active","ping":120}]},{"server_id":36,"name":"Uncletopia | Chicago | 5 | All Maps","name_short":"chi-5","host":"chi-2.us.uncletopia.com","port":27015,"enabled":true,"region":"us-central","cc":"us","latitude":41.881832,"longitude":-87.62318,"reserved":0,"last_update":"0001-01-01T00:00:00Z","name_a2s":"Uncletopia | Chicago | 5 | All Maps","protocol":17,"map":"pl_badwater","folder":"tf","game":"Team Fortress","app_id":440,"player_count":18,"max_players":24,"Bots":0,"server_type":"Dedicated","server_os":"Linux","password":true,"vac":true,"version":"7961495","steam_id":85568392924866362,"keywords":["nocrits","nodmgspread","payload","uncletopia"],"game_id":440,"stv_port":27016,"stv_name":"Uncletopia | Chicago | 5 | All Maps | STV","players":[{"user_id":315,"name":"Carpet enthusiast","steam_id":76561198024040142,"connected_time":6000000000,"state":"spawning","ping":89},{"user_id":306,"name":"Wiggs is the Shiggs","steam_id":76561198078379719,"connected_time":685000000000,"state":"active","ping":106},{"user_id":282,"name":"Leroy","steam_id":76561199013064727,"connected_time":1788000000000,"state":"active","ping":85},{"user_id":290,"name":"Gram Tokers Count Doinkula","steam_id":76561198112811565,"connected_time":1658000000000,"state":"active","ping":70},{"user_id":314,"name":"Pattar","steam_id":76561198146276146,"connected_time":31000000000,"state":"active","ping":49},{"user_id":291,"name":"Raizen","steam_id":76561199092445367,"connected_time":1603000000000,"state":"active","ping":53},{"user_id":308,"name":"Goredude","steam_id":76561198041048764,"connected_time":622000000000,"state":"active","ping":51},{"user_id":287,"name":"Fightin Cow","steam_id":76561198080941486,"connected_time":1710000000000,"state":"active","ping":82},{"user_id":271,"name":"The Final Terminus","steam_id":76561197964985183,"connected_time":2863000000000,"state":"active","ping":54},{"user_id":300,"name":"non-euclydian swampfest geometr","steam_id":76561198070136627,"connected_time":1086000000000,"state":"active","ping":91},{"user_id":312,"name":"Bag","steam_id":76561198152890989,"connected_time":297000000000,"state":"active","ping":162},{"user_id":279,"name":"CumBoy","steam_id":76561198121411970,"connected_time":2340000000000,"state":"active","ping":66},{"user_id":297,"name":"Mayan","steam_id":76561198087915957,"connected_time":1454000000000,"state":"active","ping":45},{"user_id":303,"name":"TheGerg","steam_id":76561198257099217,"connected_time":957000000000,"state":"active","ping":84},{"user_id":294,"name":"Techne","steam_id":76561198090486583,"connected_time":1525000000000,"state":"active","ping":98},{"user_id":280,"name":"zpalmtree","steam_id":76561198134307620,"connected_time":2320000000000,"state":"active","ping":62},{"user_id":301,"name":"human criminal","steam_id":76561198036753164,"connected_time":1072000000000,"state":"active","ping":60},{"user_id":277,"name":"Mufalito","steam_id":76561198951889482,"connected_time":2501000000000,"state":"active","ping":124}]},{"server_id":37,"name":"Uncletopia | Chicago | 6 | All Maps","name_short":"chi-6","host":"chi-2.us.uncletopia.com","port":27025,"enabled":true,"region":"us-central","cc":"us","latitude":41.881832,"longitude":-87.62318,"reserved":0,"last_update":"0001-01-01T00:00:00Z","name_a2s":"Uncletopia | Chicago | 6 | All Maps","protocol":17,"map":"cp_dustbowl","folder":"tf","game":"Team Fortress","app_id":440,"player_count":18,"max_players":24,"Bots":0,"server_type":"Dedicated","server_os":"Linux","password":true,"vac":true,"version":"7961495","steam_id":85568392924866363,"keywords":["nocrits","nodmgspread","payload","uncletopia"],"game_id":440,"stv_port":27026,"stv_name":"Uncletopia | Chicago | 6 | All Maps | STV","players":[{"user_id":313,"name":"y'all hear sumthin'?","steam_id":76561199012662729,"connected_time":3477000000000,"state":"connecting","ping":101},{"user_id":307,"name":"Shady Businessman","steam_id":76561198143855968,"connected_time":4451000000000,"state":"connecting","ping":89},{"user_id":271,"name":"Kenn","steam_id":76561198061505015,"connected_time":7147000000000,"state":"connecting","ping":96},{"user_id":308,"name":"grey","steam_id":76561198050618142,"connected_time":4084000000000,"state":"connecting","ping":122},{"user_id":288,"name":"Unlimited_Trees","steam_id":76561198299141443,"connected_time":6060000000000,"state":"connecting","ping":163},{"user_id":263,"name":"ashelin praxis nude mod","steam_id":76561198167907089,"connected_time":7676000000000,"state":"connecting","ping":59},{"user_id":340,"name":"AwesomeDavid702","steam_id":76561198880336261,"connected_time":213000000000,"state":"connecting","ping":106},{"user_id":320,"name":"james_bondage","steam_id":76561199476062624,"connected_time":2090000000000,"state":"connecting","ping":97},{"user_id":331,"name":"Mads Mikkelsen","steam_id":76561198083482001,"connected_time":879000000000,"state":"connecting","ping":168},{"user_id":330,"name":"Voodo133","steam_id":76561198042670351,"connected_time":1751000000000,"state":"connecting","ping":88},{"user_id":322,"name":"Nathontin","steam_id":76561198263545504,"connected_time":2077000000000,"state":"connecting","ping":76},{"user_id":334,"name":"Shadow Steak Ramen","steam_id":76561198077838946,"connected_time":625000000000,"state":"connecting","ping":69},{"user_id":335,"name":"Yoyo","steam_id":76561199000583700,"connected_time":498000000000,"state":"connecting","ping":69},{"user_id":338,"name":"cyclops","steam_id":76561197970370198,"connected_time":411000000000,"state":"connecting","ping":61},{"user_id":314,"name":"on that zaza?","steam_id":76561198038713198,"connected_time":3470000000000,"state":"connecting","ping":74},{"user_id":337,"name":"Alshek","steam_id":76561198115594676,"connected_time":463000000000,"state":"connecting","ping":70},{"user_id":309,"name":"SweetPeaches69","steam_id":76561198908187710,"connected_time":3898000000000,"state":"connecting","ping":114},{"user_id":326,"name":"TruthHut","steam_id":76561198093452436,"connected_time":2029000000000,"state":"connecting","ping":93}]},{"server_id":38,"name":"Uncletopia | Chicago | 7 | Stopwatch","name_short":"chi-7","host":"chi-2.us.uncletopia.com","port":27035,"enabled":true,"region":"us-central","cc":"us","latitude":41.881832,"longitude":-87.62318,"reserved":0,"last_update":"0001-01-01T00:00:00Z","name_a2s":"Uncletopia | Chicago | 7 | Stopwatch","protocol":17,"map":"koth_lakeside_final","folder":"tf","game":"Team Fortress","app_id":440,"player_count":0,"max_players":24,"Bots":0,"server_type":"Dedicated","server_os":"Linux","password":true,"vac":true,"version":"7961495","steam_id":85568392924866364,"keywords":["cp","nocrits","nodmgspread","uncletopia"],"game_id":440,"stv_port":27036,"stv_name":"Uncletopia | Chicago | 7 | Stopwatch | STV","players":null},{"server_id":39,"name":"Uncletopia | Chicago | 8 | Community","name_short":"chi-8","host":"chi-2.us.uncletopia.com","port":27045,"enabled":true,"region":"us-central","cc":"us","latitude":41.881832,"longitude":-87.62318,"reserved":0,"last_update":"0001-01-01T00:00:00Z","name_a2s":"Uncletopia | Chicago | 8 | Community","protocol":17,"map":"workshop/pl_fifthcurve_rc1.ugc648227046","folder":"tf","game":"Team Fortress","app_id":440,"player_count":0,"max_players":24,"Bots":0,"server_type":"Dedicated","server_os":"Linux","password":true,"vac":true,"version":"7961495","steam_id":85568392924866365,"keywords":["nocrits","nodmgspread","payload","uncletopia"],"game_id":440,"stv_port":27046,"stv_name":"Uncletopia | Chicago | 8 | Community | STV","players":null},{"server_id":8,"name":"Uncletopia | Dallas | 1 | All Maps","name_short":"dal-1","host":"dal-1.us.uncletopia.com","port":27015,"enabled":true,"region":"us-central","cc":"us","latitude":32.779167,"longitude":-96.80889,"reserved":0,"last_update":"0001-01-01T00:00:00Z","name_a2s":"Uncletopia | Dallas | 1 | All Maps","protocol":17,"map":"pl_snowycoast","folder":"tf","game":"Team Fortress","app_id":440,"player_count":19,"max_players":24,"Bots":0,"server_type":"Dedicated","server_os":"Linux","password":true,"vac":true,"version":"7961495","steam_id":85568392924469986,"keywords":["nocrits","nodmgspread","payload","uncletopia"],"game_id":440,"stv_port":27016,"stv_name":"Uncletopia | Dallas | 1 | All Maps | STV","players":[{"user_id":693,"name":"nugit74","steam_id":76561198325736178,"connected_time":514000000000,"state":"active","ping":59},{"user_id":695,"name":"wugmup","steam_id":76561199096287734,"connected_time":184000000000,"state":"active","ping":101},{"user_id":678,"name":"tek lintowe fan","steam_id":76561198206177593,"connected_time":1580000000000,"state":"active","ping":74},{"user_id":658,"name":"dave","steam_id":76561198135961731,"connected_time":2204000000000,"state":"active","ping":64},{"user_id":674,"name":"whoopdeedoo","steam_id":76561198064874829,"connected_time":1774000000000,"state":"active","ping":57},{"user_id":659,"name":"Gaming","steam_id":76561198107080532,"connected_time":2204000000000,"state":"active","ping":78},{"user_id":694,"name":"owl","steam_id":76561198088403016,"connected_time":268000000000,"state":"active","ping":169},{"user_id":683,"name":"Santamen","steam_id":76561198119478199,"connected_time":1135000000000,"state":"active","ping":65},{"user_id":570,"name":"awawa oyoyo awawa oyoyo","steam_id":76561198062263639,"connected_time":10440000000000,"state":"active","ping":55},{"user_id":679,"name":"banana gaming","steam_id":76561198334907218,"connected_time":1520000000000,"state":"active","ping":55},{"user_id":653,"name":"fruitlogic","steam_id":76561198071251588,"connected_time":2619000000000,"state":"active","ping":87},{"user_id":696,"name":"Tingyun","steam_id":76561198295713840,"connected_time":149000000000,"state":"active","ping":59},{"user_id":692,"name":"rocketspires","steam_id":76561198800386026,"connected_time":598000000000,"state":"active","ping":109},{"user_id":699,"name":"Wilma","steam_id":76561198138420251,"connected_time":18000000000,"state":"spawning","ping":74},{"user_id":697,"name":"frank n furter TF2EASY.COM","steam_id":76561198308883028,"connected_time":140000000000,"state":"active","ping":91},{"user_id":698,"name":"Bimbes McFly","steam_id":76561197993331182,"connected_time":102000000000,"state":"active","ping":51},{"user_id":635,"name":"Locomotive","steam_id":76561199152926930,"connected_time":4508000000000,"state":"active","ping":73},{"user_id":690,"name":"MithStyck","steam_id":76561198071538489,"connected_time":619000000000,"state":"active","ping":53},{"user_id":672,"name":"Dr. House","steam_id":76561198052910702,"connected_time":1883000000000,"state":"active","ping":66}]},{"server_id":108,"name":"Uncletopia | Dallas | 2 | All Maps","name_short":"dal-2","host":"dal-1.us.uncletopia.com","port":27025,"enabled":true,"region":"us-central","cc":"us","latitude":32.779167,"longitude":-96.80889,"reserved":0,"last_update":"0001-01-01T00:00:00Z","name_a2s":"Uncletopia | Dallas | 2 | All Maps","protocol":17,"map":"cp_altitude","folder":"tf","game":"Team Fortress","app_id":440,"player_count":24,"max_players":24,"Bots":0,"server_type":"Dedicated","server_os":"Linux","password":true,"vac":true,"version":"7961495","steam_id":85568392924469988,"keywords":["cp","nocrits","nodmgspread","uncletopia"],"game_id":440,"stv_port":27026,"stv_name":"Uncletopia | Dallas | 2 | All Maps | STV","players":[{"user_id":423,"name":"HalfDead","steam_id":76561198049700226,"connected_time":1094000000000,"state":"active","ping":103},{"user_id":400,"name":"Wizard02","steam_id":76561198178293623,"connected_time":2505000000000,"state":"active","ping":58},{"user_id":401,"name":"cass","steam_id":76561198074502046,"connected_time":2479000000000,"state":"active","ping":97},{"user_id":367,"name":"GLG MUTT","steam_id":76561198147785541,"connected_time":4890000000000,"state":"active","ping":57},{"user_id":419,"name":"PhantomGamerModz","steam_id":76561198425172210,"connected_time":1433000000000,"state":"active","ping":71},{"user_id":431,"name":"Killerfish360","steam_id":76561198115029584,"connected_time":332000000000,"state":"active","ping":75},{"user_id":422,"name":"Fire Wizard","steam_id":76561198972006814,"connected_time":1194000000000,"state":"active","ping":63},{"user_id":424,"name":"Lore","steam_id":76561198098407538,"connected_time":1026000000000,"state":"active","ping":74},{"user_id":436,"name":"ReDiculous22","steam_id":76561198038391383,"connected_time":55000000000,"state":"active","ping":38},{"user_id":403,"name":"gerg","steam_id":76561197997127387,"connected_time":2461000000000,"state":"active","ping":91},{"user_id":412,"name":"Cryo","steam_id":76561198264057688,"connected_time":1820000000000,"state":"active","ping":104},{"user_id":429,"name":"TheMightyGod","steam_id":76561198220055968,"connected_time":554000000000,"state":"active","ping":60},{"user_id":404,"name":"Under an Unquiet Skull","steam_id":76561198164782653,"connected_time":2460000000000,"state":"active","ping":91},{"user_id":377,"name":"Zorlovo","steam_id":76561198006443283,"connected_time":4376000000000,"state":"active","ping":75},{"user_id":405,"name":"social distance warrior","steam_id":76561198128992994,"connected_time":2450000000000,"state":"active","ping":90},{"user_id":430,"name":"jarheaddevildog","steam_id":76561198060492517,"connected_time":492000000000,"state":"active","ping":104},{"user_id":390,"name":"Pixeledfighter2908","steam_id":76561198907503970,"connected_time":3443000000000,"state":"active","ping":86},{"user_id":421,"name":"Muselk","steam_id":76561199289676387,"connected_time":1227000000000,"state":"active","ping":63},{"user_id":433,"name":"Dave1972@yahoo.com","steam_id":76561198154342285,"connected_time":258000000000,"state":"active","ping":94},{"user_id":426,"name":"Deluxe_Taco34","steam_id":76561199037653437,"connected_time":983000000000,"state":"active","ping":123},{"user_id":434,"name":"marsyasthesatyr","steam_id":76561198874713886,"connected_time":230000000000,"state":"active","ping":103},{"user_id":435,"name":"King M8","steam_id":76561198135523559,"connected_time":181000000000,"state":"active","ping":93},{"user_id":355,"name":"Lancerland","steam_id":76561198130497320,"connected_time":5803000000000,"state":"active","ping":87},{"user_id":420,"name":"^;;^","steam_id":76561198164460801,"connected_time":1402000000000,"state":"active","ping":93}]},{"server_id":404,"name":"Uncletopia | Dallas | 3 | All Maps","name_short":"dal-3","host":"dal-1.us.uncletopia.com","port":27035,"enabled":true,"region":"us-central","cc":"us","latitude":32.779167,"longitude":-96.80889,"reserved":0,"last_update":"0001-01-01T00:00:00Z","name_a2s":"Uncletopia | Dallas | 3 | All Maps","protocol":17,"map":"koth_lakeside_final","folder":"tf","game":"Team Fortress","app_id":440,"player_count":22,"max_players":24,"Bots":0,"server_type":"Dedicated","server_os":"Linux","password":true,"vac":true,"version":"7961495","steam_id":85568392924515219,"keywords":["cp","nocrits","nodmgspread","uncletopia"],"game_id":440,"stv_port":27036,"stv_name":"Uncletopia | Dallas | 3 | All Maps | STV","players":[{"user_id":308,"name":"Galactamarx","steam_id":76561198028065755,"connected_time":4693000000000,"state":"active","ping":68},{"user_id":336,"name":"Chica","steam_id":76561198381832158,"connected_time":1953000000000,"state":"active","ping":46},{"user_id":328,"name":"Dongus","steam_id":76561197979056451,"connected_time":2886000000000,"state":"active","ping":97},{"user_id":337,"name":"Lefty [Gentlemen of Leisure]","steam_id":76561197980825914,"connected_time":1825000000000,"state":"active","ping":64},{"user_id":360,"name":"Omegaman","steam_id":76561198034579579,"connected_time":159000000000,"state":"active","ping":87},{"user_id":355,"name":"dash","steam_id":76561198043889548,"connected_time":597000000000,"state":"active","ping":81},{"user_id":352,"name":"RainboomCrash","steam_id":76561198065612273,"connected_time":679000000000,"state":"active","ping":93},{"user_id":353,"name":"Bankito","steam_id":76561198972260865,"connected_time":663000000000,"state":"active","ping":104},{"user_id":358,"name":"woooflet","steam_id":76561199208387179,"connected_time":410000000000,"state":"active","ping":48},{"user_id":321,"name":"Orangejuicehero‚Ñ¢","steam_id":76561198072606052,"connected_time":3794000000000,"state":"active","ping":58},{"user_id":349,"name":"._.","steam_id":76561198300316801,"connected_time":847000000000,"state":"active","ping":87},{"user_id":280,"name":"‚ù§ Ashley ‚ù§","steam_id":76561198056428303,"connected_time":7375000000000,"state":"active","ping":71},{"user_id":322,"name":"Scrum","steam_id":76561198055422081,"connected_time":3785000000000,"state":"active","ping":66},{"user_id":323,"name":"Gwendolyn","steam_id":76561198170458145,"connected_time":3723000000000,"state":"active","ping":98},{"user_id":283,"name":"self sufficient kitten","steam_id":76561197960592612,"connected_time":6994000000000,"state":"active","ping":105},{"user_id":356,"name":"Mustapha Lemieux","steam_id":76561198151666102,"connected_time":583000000000,"state":"active","ping":89},{"user_id":359,"name":"Decapitation Station","steam_id":76561198201796098,"connected_time":230000000000,"state":"active","ping":94},{"user_id":332,"name":"A Mexican Troll","steam_id":76561197989019261,"connected_time":2264000000000,"state":"active","ping":68},{"user_id":357,"name":"9/11 Airlines","steam_id":76561198096306325,"connected_time":441000000000,"state":"active","ping":93},{"user_id":335,"name":"Octo","steam_id":76561198024056355,"connected_time":2107000000000,"state":"active","ping":77},{"user_id":315,"name":"Kenny[Goblin]","steam_id":76561199005805984,"connected_time":4296000000000,"state":"active","ping":46},{"user_id":350,"name":"Rocket Jumper enjoyder","steam_id":76561199132141327,"connected_time":843000000000,"state":"active","ping":123}]},{"server_id":405,"name":"Uncletopia | Dallas | 4 | Community","name_short":"dal-4","host":"dal-1.us.uncletopia.com","port":27045,"enabled":true,"region":"us-central","cc":"us","latitude":32.779167,"longitude":-96.80889,"reserved":0,"last_update":"0001-01-01T00:00:00Z","name_a2s":"Uncletopia | Dallas | 4 | Community","protocol":17,"map":"workshop/pl_cashworks_final1.ugc2904065412","folder":"tf","game":"Team Fortress","app_id":440,"player_count":0,"max_players":24,"Bots":0,"server_type":"Dedicated","server_os":"Linux","password":true,"vac":true,"version":"7961495","steam_id":85568392924515220,"keywords":["nocrits","nodmgspread","payload","uncletopia"],"game_id":440,"stv_port":27046,"stv_name":"Uncletopia | Dallas | 4 | Community | STV","players":null},{"server_id":5,"name":"Uncletopia | Frankfurt | 1 | All Maps","name_short":"frk-1","host":"frk-1.de.uncletopia.com","port":27015,"enabled":true,"region":"eu","cc":"de","latitude":50.110924,"longitude":8.682127,"reserved":0,"last_update":"0001-01-01T00:00:00Z","name_a2s":"Uncletopia | Frankfurt | 1 | All Maps","protocol":17,"map":"koth_highpass","folder":"tf","game":"Team Fortress","app_id":440,"player_count":0,"max_players":24,"Bots":0,"server_type":"Dedicated","server_os":"Linux","password":true,"vac":true,"version":"7961495","steam_id":85568392924469989,"keywords":["cp","nocrits","nodmgspread","uncletopia"],"game_id":440,"stv_port":27016,"stv_name":"Uncletopia | Frankfurt | 1 | All Maps | STV","players":null},{"server_id":110,"name":"Uncletopia | Frankfurt | 2 | All Maps","name_short":"frk-2","host":"frk-1.de.uncletopia.com","port":27025,"enabled":true,"region":"eu","cc":"de","latitude":50.110924,"longitude":8.682127,"reserved":0,"last_update":"0001-01-01T00:00:00Z","name_a2s":"Uncletopia | Frankfurt | 2 | All Maps","protocol":17,"map":"cp_dustbowl","folder":"tf","game":"Team Fortress","app_id":440,"player_count":0,"max_players":24,"Bots":0,"server_type":"Dedicated","server_os":"Linux","password":true,"vac":true,"version":"7961495","steam_id":85568392924469990,"keywords":["cp","nocrits","nodmgspread","uncletopia"],"game_id":440,"stv_port":27026,"stv_name":"Uncletopia | Frankfurt | 2 | All Maps | STV","players":null},{"server_id":308,"name":"Uncletopia | Frankfurt | 3 | All Maps","name_short":"frk-3","host":"frk-1.de.uncletopia.com","port":27035,"enabled":true,"region":"eu","cc":"de","latitude":50.110924,"longitude":8.682127,"reserved":0,"last_update":"0001-01-01T00:00:00Z","name_a2s":"Uncletopia | Frankfurt | 3 | All Maps","protocol":17,"map":"pl_barnblitz","folder":"tf","game":"Team Fortress","app_id":440,"player_count":0,"max_players":24,"Bots":0,"server_type":"Dedicated","server_os":"Linux","password":true,"vac":true,"version":"7961495","steam_id":85568392924504274,"keywords":["nocrits","nodmgspread","payload","uncletopia"],"game_id":440,"stv_port":27036,"stv_name":"Uncletopia | Frankfurt | 3 | All Maps | STV","players":null},{"server_id":309,"name":"Uncletopia | Frankfurt | 4 | All Maps","name_short":"frk-4","host":"frk-1.de.uncletopia.com","port":27045,"enabled":true,"region":"eu","cc":"de","latitude":50.110924,"longitude":8.682127,"reserved":0,"last_update":"0001-01-01T00:00:00Z","name_a2s":"Uncletopia | Frankfurt | 4 | All Maps","protocol":17,"map":"koth_highpass","folder":"tf","game":"Team Fortress","app_id":440,"player_count":0,"max_players":24,"Bots":0,"server_type":"Dedicated","server_os":"Linux","password":true,"vac":true,"version":"7961495","steam_id":85568392924504275,"keywords":["cp","nocrits","nodmgspread","uncletopia"],"game_id":440,"stv_port":27046,"stv_name":"Uncletopia | Frankfurt | 4 | All Maps | STV","players":null},{"server_id":310,"name":"Uncletopia | Frankfurt | 5 | All Maps","name_short":"frk-5","host":"frk-1.de.uncletopia.com","port":27055,"enabled":true,"region":"eu","cc":"de","latitude":50.110924,"longitude":8.682127,"reserved":0,"last_update":"0001-01-01T00:00:00Z","name_a2s":"Uncletopia | Frankfurt | 5 | All Maps","protocol":17,"map":"pl_badwater","folder":"tf","game":"Team Fortress","app_id":440,"player_count":0,"max_players":24,"Bots":0,"server_type":"Dedicated","server_os":"Linux","password":true,"vac":true,"version":"7961495","steam_id":85568392924504277,"keywords":["nocrits","nodmgspread","payload","uncletopia"],"game_id":440,"stv_port":27056,"stv_name":"Uncletopia | Frankfurt | 5 | All Maps | STV","players":null},{"server_id":311,"name":"Uncletopia | Frankfurt | 6 | All Maps","name_short":"frk-6","host":"frk-1.de.uncletopia.com","port":27065,"enabled":true,"region":"eu","cc":"de","latitude":50.110924,"longitude":8.682127,"reserved":0,"last_update":"0001-01-01T00:00:00Z","name_a2s":"Uncletopia | Frankfurt | 6 | All Maps","protocol":17,"map":"cp_altitude","folder":"tf","game":"Team Fortress","app_id":440,"player_count":0,"max_players":24,"Bots":0,"server_type":"Dedicated","server_os":"Linux","password":true,"vac":true,"version":"7961495","steam_id":85568392924504278,"keywords":["cp","nocrits","nodmgspread","uncletopia"],"game_id":440,"stv_port":27066,"stv_name":"Uncletopia | Frankfurt | 6 | All Maps | STV","players":null},{"server_id":23,"name":"Uncletopia | Frankfurt | 7 | Stopwatch","name_short":"frk-7","host":"frk-1.de.uncletopia.com","port":27075,"enabled":true,"region":"eu","cc":"de","latitude":50.110924,"longitude":8.682127,"reserved":0,"last_update":"0001-01-01T00:00:00Z","name_a2s":"Uncletopia | Frankfurt | 7 | Stopwatch","protocol":17,"map":"pl_frontier_final","folder":"tf","game":"Team Fortress","app_id":440,"player_count":0,"max_players":24,"Bots":0,"server_type":"Dedicated","server_os":"Linux","password":true,"vac":true,"version":"7961495","steam_id":85568392924742827,"keywords":["nocrits","nodmgspread","payload","uncletopia"],"game_id":440,"stv_port":27076,"stv_name":"Uncletopia | Frankfurt | 7 | Stopwatch | STV","players":null},{"server_id":24,"name":"Uncletopia | Frankfurt | 8 | Community","name_short":"frk-8","host":"frk-1.de.uncletopia.com","port":27085,"enabled":true,"region":"eu","cc":"de","latitude":50.110924,"longitude":8.682127,"reserved":0,"last_update":"0001-01-01T00:00:00Z","name_a2s":"Uncletopia | Frankfurt | 8 | Community","protocol":17,"map":"cp_mountainlab","folder":"tf","game":"Team Fortress","app_id":440,"player_count":0,"max_players":24,"Bots":0,"server_type":"Dedicated","server_os":"Linux","password":true,"vac":true,"version":"7961495","steam_id":85568392924742828,"keywords":["cp","nocrits","nodmgspread","uncletopia"],"game_id":440,"stv_port":27086,"stv_name":"Uncletopia | Frankfurt | 8 | Community | STV","players":null},{"server_id":202,"name":"Uncletopia | Hong Kong | 1 | All Maps","name_short":"hgk-1","host":"hgk-1.hk.uncletopia.com","port":27015,"enabled":true,"region":"asia","cc":"hk","latitude":22.302711,"longitude":114.177216,"reserved":0,"last_update":"0001-01-01T00:00:00Z","name_a2s":"Uncletopia | Hong Kong | 1 | All Maps","protocol":17,"map":"pl_upward","folder":"tf","game":"Team Fortress","app_id":440,"player_count":25,"max_players":24,"Bots":0,"server_type":"Dedicated","server_os":"Linux","password":true,"vac":true,"version":"7961495","steam_id":85568392924494504,"keywords":["nocrits","nodmgspread","payload","uncletopia"],"game_id":440,"stv_port":27016,"stv_name":"Uncletopia | Hong Kong | 1 | All Maps | STV","players":[{"user_id":91,"name":"Sai","steam_id":76561199069225036,"connected_time":504000000000,"state":"active","ping":35},{"user_id":30,"name":"corpse_cadaver","steam_id":76561199225360457,"connected_time":6199000000000,"state":"active","ping":72},{"user_id":61,"name":"Telekhine","steam_id":76561198387120618,"connected_time":2883000000000,"state":"active","ping":57},{"user_id":83,"name":"[Sicky] I twin-charged your kid","steam_id":76561198228084940,"connected_time":1054000000000,"state":"active","ping":36},{"user_id":75,"name":"veepis","steam_id":76561198965473654,"connected_time":1706000000000,"state":"active","ping":73},{"user_id":81,"name":"Beef Wellington","steam_id":76561197995635241,"connected_time":1116000000000,"state":"active","ping":121},{"user_id":86,"name":"marisaloses","steam_id":76561199033032870,"connected_time":908000000000,"state":"active","ping":116},{"user_id":71,"name":"Creaserg","steam_id":76561198827951097,"connected_time":2025000000000,"state":"active","ping":79},{"user_id":52,"name":"Dr. Gregory House","steam_id":76561198813103989,"connected_time":3457000000000,"state":"active","ping":76},{"user_id":66,"name":"Shades on Goggles","steam_id":76561198406067629,"connected_time":2387000000000,"state":"active","ping":95},{"user_id":40,"name":"e","steam_id":76561199120787394,"connected_time":4296000000000,"state":"active","ping":118},{"user_id":70,"name":"toad„ÉÑ","steam_id":76561198082199290,"connected_time":2065000000000,"state":"active","ping":43},{"user_id":59,"name":"spacerock2014","steam_id":76561199158853202,"connected_time":3178000000000,"state":"active","ping":62},{"user_id":76,"name":"i am a F2P and my aim is shit","steam_id":76561199475974790,"connected_time":1601000000000,"state":"active","ping":82},{"user_id":98,"name":"2746","steam_id":76561199390507975,"connected_time":23000000000,"state":"active","ping":54},{"user_id":80,"name":"Â≠§ÂãáËÄÖ","steam_id":76561198045255591,"connected_time":1164000000000,"state":"active","ping":117},{"user_id":93,"name":"Dits","steam_id":76561198283833960,"connected_time":329000000000,"state":"active","ping":35},{"user_id":74,"name":"PawmKin","steam_id":76561198344175018,"connected_time":1888000000000,"state":"active","ping":117},{"user_id":77,"name":"I Miss Her","steam_id":76561198105600020,"connected_time":1517000000000,"state":"active","ping":104},{"user_id":99,"name":"Jimmy McGill","steam_id":76561199163412176,"connected_time":0,"state":"spawning","ping":73},{"user_id":90,"name":"MS PowerPoint","steam_id":76561198369523192,"connected_time":687000000000,"state":"active","ping":69},{"user_id":87,"name":"PissDrinker196","steam_id":76561198856157761,"connected_time":853000000000,"state":"active","ping":110},{"user_id":88,"name":"The one who shit on piss","steam_id":76561199254649689,"connected_time":842000000000,"state":"active","ping":126},{"user_id":95,"name":"shit eater68","steam_id":76561199164330784,"connected_time":287000000000,"state":"active","ping":122},{"user_id":100,"name":"allMAX","steam_id":76561198270980670,"connected_time":0,"state":"spawning","ping":0}]},{"server_id":1,"name":"Uncletopia | Los Angeles | 1 | All Maps","name_short":"lax-1","host":"lax-1.us.uncletopia.com","port":27015,"enabled":true,"region":"us-west","cc":"us","latitude":33.94279,"longitude":-118.41004,"reserved":0,"last_update":"0001-01-01T00:00:00Z","name_a2s":"Uncletopia | Los Angeles | 1 | All Maps","protocol":17,"map":"pl_barnblitz","folder":"tf","game":"Team Fortress","app_id":440,"player_count":24,"max_players":24,"Bots":0,"server_type":"Dedicated","server_os":"Linux","password":true,"vac":true,"version":"7961495","steam_id":85568392924469991,"keywords":["nocrits","nodmgspread","payload","uncletopia"],"game_id":440,"stv_port":27016,"stv_name":"Uncletopia | Los Angeles | 1 | All Maps | STV","players":[{"user_id":214,"name":"\u003c3","steam_id":76561198196829267,"connected_time":475000000000,"state":"active","ping":50},{"user_id":199,"name":"Mr. Noodle","steam_id":76561198025280658,"connected_time":1640000000000,"state":"active","ping":56},{"user_id":195,"name":"monsterkill4567","steam_id":76561198272986367,"connected_time":1996000000000,"state":"active","ping":56},{"user_id":196,"name":"fertile moist and well drained","steam_id":76561198031409921,"connected_time":1968000000000,"state":"active","ping":54},{"user_id":189,"name":"vynn","steam_id":76561198017218011,"connected_time":2431000000000,"state":"active","ping":99},{"user_id":210,"name":"Syrup","steam_id":76561198055850531,"connected_time":826000000000,"state":"active","ping":51},{"user_id":197,"name":"Schnitz","steam_id":76561198265484253,"connected_time":1964000000000,"state":"active","ping":55},{"user_id":211,"name":"EdxTheFig","steam_id":76561198108650109,"connected_time":798000000000,"state":"active","ping":46},{"user_id":213,"name":"Supersonic","steam_id":76561198042167127,"connected_time":489000000000,"state":"active","ping":82},{"user_id":176,"name":"SamSmelly","steam_id":76561198045152184,"connected_time":2960000000000,"state":"active","ping":50},{"user_id":175,"name":"sobaka","steam_id":76561198116008934,"connected_time":2985000000000,"state":"active","ping":63},{"user_id":177,"name":"soundcloud.com/cremexav","steam_id":76561198134544837,"connected_time":2905000000000,"state":"active","ping":53},{"user_id":172,"name":"Ralph Kramden (Slim Charles)","steam_id":76561197981687895,"connected_time":3721000000000,"state":"active","ping":64},{"user_id":163,"name":"HeroOfTime","steam_id":76561199096218001,"connected_time":4041000000000,"state":"active","ping":52},{"user_id":205,"name":"BigGoose","steam_id":76561198833281392,"connected_time":1495000000000,"state":"active","ping":85},{"user_id":215,"name":"Eye-Emgei","steam_id":76561199114581117,"connected_time":435000000000,"state":"active","ping":74},{"user_id":208,"name":"GLXy","steam_id":76561198207551544,"connected_time":850000000000,"state":"active","ping":72},{"user_id":166,"name":"Pyrotek‚Å¥","steam_id":76561198072747672,"connected_time":4006000000000,"state":"active","ping":46},{"user_id":212,"name":"poggerchamp","steam_id":76561199145124973,"connected_time":794000000000,"state":"active","ping":84},{"user_id":191,"name":"JACK BRUNO","steam_id":76561198027957690,"connected_time":2214000000000,"state":"active","ping":72},{"user_id":183,"name":"dodecadron","steam_id":76561198027397222,"connected_time":2711000000000,"state":"active","ping":93},{"user_id":209,"name":"Looge","steam_id":76561198155483586,"connected_time":848000000000,"state":"active","ping":99},{"user_id":216,"name":"McCrabby","steam_id":76561199501373441,"connected_time":28000000000,"state":"active","ping":53},{"user_id":186,"name":"FROYO b4nny","steam_id":76561197970669109,"connected_time":2601000000000,"state":"active","ping":56}]},{"server_id":112,"name":"Uncletopia | Los Angeles | 2 | All Maps","name_short":"lax-2","host":"lax-1.us.uncletopia.com","port":27025,"enabled":true,"region":"us-west","cc":"us","latitude":33.94279,"longitude":-118.41004,"reserved":0,"last_update":"0001-01-01T00:00:00Z","name_a2s":"Uncletopia | Los Angeles | 2 | All Maps","protocol":17,"map":"cp_egypt_final","folder":"tf","game":"Team Fortress","app_id":440,"player_count":24,"max_players":24,"Bots":0,"server_type":"Dedicated","server_os":"Linux","password":true,"vac":true,"version":"7961495","steam_id":85568392924469992,"keywords":["cp","nocrits","nodmgspread","uncletopia"],"game_id":440,"stv_port":27026,"stv_name":"Uncletopia | Los Angeles | 2 | All Maps | STV","players":[{"user_id":583,"name":"Boombox Bozo","steam_id":76561198327008356,"connected_time":1482000000000,"state":"active","ping":90},{"user_id":594,"name":"Lil_Ghost","steam_id":76561198141892875,"connected_time":1210000000000,"state":"active","ping":113},{"user_id":577,"name":"Linksaver1","steam_id":76561198096312838,"connected_time":1615000000000,"state":"active","ping":55},{"user_id":570,"name":"RagingRoosevelt","steam_id":76561197985483153,"connected_time":2511000000000,"state":"active","ping":72},{"user_id":585,"name":"Cinquefoil","steam_id":76561198166967060,"connected_time":1441000000000,"state":"active","ping":56},{"user_id":595,"name":"hiSockk","steam_id":76561199340001395,"connected_time":1207000000000,"state":"active","ping":59},{"user_id":555,"name":"Be Gay, Do Crimes, Smoke Weed!","steam_id":76561198092419868,"connected_time":4729000000000,"state":"active","ping":94},{"user_id":584,"name":"The_Dominator47","steam_id":76561198170443759,"connected_time":1473000000000,"state":"active","ping":59},{"user_id":546,"name":"Ethanol Buttchugger","steam_id":76561199127590316,"connected_time":5310000000000,"state":"active","ping":61},{"user_id":578,"name":"RoastyToast408","steam_id":76561198273018783,"connected_time":1596000000000,"state":"active","ping":62},{"user_id":604,"name":"Ricochet Pro","steam_id":76561198005328215,"connected_time":1000000000,"state":"spawning","ping":41},{"user_id":597,"name":"BitPieStudios","steam_id":76561198059216393,"connected_time":1067000000000,"state":"active","ping":55},{"user_id":591,"name":"dummy sh#t","steam_id":76561198114603745,"connected_time":1373000000000,"state":"active","ping":62},{"user_id":581,"name":"Mario Barret","steam_id":76561198301353499,"connected_time":1546000000000,"state":"active","ping":51},{"user_id":582,"name":"Schnabel","steam_id":76561198226159564,"connected_time":1546000000000,"state":"active","ping":66},{"user_id":600,"name":"Major_Pippy","steam_id":76561198004482878,"connected_time":1010000000000,"state":"active","ping":76},{"user_id":553,"name":"Drone #0432 (they/it)","steam_id":76561198027321950,"connected_time":4940000000000,"state":"active","ping":96},{"user_id":587,"name":"Error","steam_id":76561199050994293,"connected_time":1423000000000,"state":"active","ping":76},{"user_id":601,"name":"bcizzo","steam_id":76561197994399953,"connected_time":378000000000,"state":"active","ping":65},{"user_id":589,"name":"blozet","steam_id":76561199120161035,"connected_time":1384000000000,"state":"active","ping":125},{"user_id":598,"name":"Type Three Dabeetus","steam_id":76561198062710038,"connected_time":1057000000000,"state":"active","ping":50},{"user_id":592,"name":"Sammich Slinger","steam_id":76561198007644532,"connected_time":1373000000000,"state":"active","ping":102},{"user_id":602,"name":"TheBrocklobster","steam_id":76561198039682984,"connected_time":261000000000,"state":"active","ping":61},{"user_id":599,"name":"Joe From Progressive","steam_id":76561198336597038,"connected_time":1034000000000,"state":"active","ping":54}]},{"server_id":324,"name":"Uncletopia | Los Angeles | 3 | All Maps","name_short":"lax-3","host":"lax-1.us.uncletopia.com","port":27035,"enabled":true,"region":"us-west","cc":"us","latitude":33.94279,"longitude":-118.41004,"reserved":0,"last_update":"0001-01-01T00:00:00Z","name_a2s":"Uncletopia | Los Angeles | 3 | All Maps","protocol":17,"map":"koth_viaduct","folder":"tf","game":"Team Fortress","app_id":440,"player_count":0,"max_players":24,"Bots":0,"server_type":"Dedicated","server_os":"Linux","password":true,"vac":true,"version":"7961495","steam_id":85568392924510198,"keywords":["cp","nocrits","nodmgspread","uncletopia"],"game_id":440,"stv_port":27036,"stv_name":"Uncletopia | Los Angeles | 3 | All Maps | STV","players":null},{"server_id":25,"name":"Uncletopia | Los Angeles | 4 | Stopwatch","name_short":"lax-4","host":"lax-1.us.uncletopia.com","port":27045,"enabled":true,"region":"us-west","cc":"us","latitude":33.94279,"longitude":-118.41004,"reserved":0,"last_update":"0001-01-01T00:00:00Z","name_a2s":"Uncletopia | Los Angeles | 4 | Stopwatch","protocol":17,"map":"workshop/koth_bagel_rc6.ugc2514036946","folder":"tf","game":"Team Fortress","app_id":440,"player_count":0,"max_players":24,"Bots":0,"server_type":"Dedicated","server_os":"Linux","password":true,"vac":true,"version":"7961495","steam_id":85568392924510199,"keywords":["cp","nocrits","nodmgspread","uncletopia"],"game_id":440,"stv_port":27046,"stv_name":"Uncletopia | Los Angeles | 4 | Stopwatch | STV","players":null},{"server_id":11,"name":"Uncletopia | London | 1 | All Maps","name_short":"lon-1","host":"lon-1.uk.uncletopia.com","port":27015,"enabled":true,"region":"eu","cc":"gb","latitude":51.509865,"longitude":-0.118092,"reserved":0,"last_update":"0001-01-01T00:00:00Z","name_a2s":"Uncletopia | London | 1 | All Maps","protocol":17,"map":"pl_upward","folder":"tf","game":"Team Fortress","app_id":440,"player_count":11,"max_players":24,"Bots":0,"server_type":"Dedicated","server_os":"Linux","password":true,"vac":true,"version":"7961495","steam_id":85568392924367362,"keywords":["nocrits","nodmgspread","payload","uncletopia"],"game_id":440,"stv_port":27016,"stv_name":"Uncletopia | London | 1 | All Maps | STV","players":[{"user_id":22,"name":"inteli-keeper","steam_id":76561199011763306,"connected_time":795000000000,"state":"active","ping":92},{"user_id":25,"name":"Dooting","steam_id":76561199069121777,"connected_time":105000000000,"state":"active","ping":85},{"user_id":18,"name":"Edith","steam_id":76561198867635722,"connected_time":1441000000000,"state":"active","ping":140},{"user_id":24,"name":"Lewylow","steam_id":76561198005425686,"connected_time":394000000000,"state":"active","ping":56},{"user_id":27,"name":"Sgorbio09","steam_id":76561199081364164,"connected_time":24000000000,"state":"spawning","ping":81},{"user_id":11,"name":"sheytain01","steam_id":76561198120738825,"connected_time":1777000000000,"state":"active","ping":110},{"user_id":20,"name":"Der Geist des Hans Rosling","steam_id":76561198049231109,"connected_time":1232000000000,"state":"active","ping":69},{"user_id":12,"name":"jjkun786","steam_id":76561199438517484,"connected_time":1772000000000,"state":"active","ping":34},{"user_id":17,"name":"Louna","steam_id":76561198393344301,"connected_time":1537000000000,"state":"active","ping":84},{"user_id":28,"name":"Dani","steam_id":76561198211627920,"connected_time":5000000000,"state":"spawning","ping":127},{"user_id":21,"name":"Terrance The Furry","steam_id":76561199400481314,"connected_time":1044000000000,"state":"active","ping":75}]},{"server_id":114,"name":"Uncletopia | London | 2 | All Maps","name_short":"lon-2","host":"lon-1.uk.uncletopia.com","port":27025,"enabled":true,"region":"eu","cc":"gb","latitude":51.509865,"longitude":-0.118092,"reserved":0,"last_update":"0001-01-01T00:00:00Z","name_a2s":"Uncletopia | London | 2 | All Maps","protocol":17,"map":"koth_lakeside_final","folder":"tf","game":"Team Fortress","app_id":440,"player_count":0,"max_players":24,"Bots":0,"server_type":"Dedicated","server_os":"Linux","password":true,"vac":true,"version":"7961495","steam_id":85568392924470941,"keywords":["cp","nocrits","nodmgspread","uncletopia"],"game_id":440,"stv_port":27026,"stv_name":"Uncletopia | London | 2 | All Maps | STV","players":null},{"server_id":320,"name":"Uncletopia | London | 3 | All Maps","name_short":"lon-3","host":"lon-1.uk.uncletopia.com","port":27035,"enabled":true,"region":"eu","cc":"gb","latitude":51.509865,"longitude":-0.118092,"reserved":0,"last_update":"0001-01-01T00:00:00Z","name_a2s":"Uncletopia | London | 3 | All Maps","protocol":17,"map":"cp_process_final","folder":"tf","game":"Team Fortress","app_id":440,"player_count":0,"max_players":24,"Bots":0,"server_type":"Dedicated","server_os":"Linux","password":true,"vac":true,"version":"7961495","steam_id":85568392924510192,"keywords":["cp","nocrits","nodmgspread","uncletopia"],"game_id":440,"stv_port":27036,"stv_name":"Uncletopia | London | 3 | All Maps | STV","players":null},{"server_id":321,"name":"Uncletopia | London | 4 | All Maps","name_short":"lon-4","host":"lon-1.uk.uncletopia.com","port":27045,"enabled":true,"region":"eu","cc":"gb","latitude":51.509865,"longitude":-0.118092,"reserved":0,"last_update":"0001-01-01T00:00:00Z","name_a2s":"Uncletopia | London | 4 | All Maps","protocol":17,"map":"koth_cascade","folder":"tf","game":"Team Fortress","app_id":440,"player_count":0,"max_players":24,"Bots":0,"server_type":"Dedicated","server_os":"Linux","password":true,"vac":true,"version":"7961495","steam_id":85568392924510193,"keywords":["cp","nocrits","nodmgspread","uncletopia"],"game_id":440,"stv_port":27046,"stv_name":"Uncletopia | London | 4 | All Maps | STV","players":null},{"server_id":21,"name":"Uncletopia | London | 5 | All Maps","name_short":"lon-5","host":"lon-1.uk.uncletopia.com","port":27055,"enabled":true,"region":"eu","cc":"gb","latitude":51.509865,"longitude":-0.118092,"reserved":0,"last_update":"0001-01-01T00:00:00Z","name_a2s":"Uncletopia | London | 5 | All Maps","protocol":17,"map":"koth_lakeside_final","folder":"tf","game":"Team Fortress","app_id":440,"player_count":0,"max_players":24,"Bots":0,"server_type":"Dedicated","server_os":"Linux","password":true,"vac":true,"version":"7961495","steam_id":85568392924742829,"keywords":["cp","nocrits","nodmgspread","uncletopia"],"game_id":440,"stv_port":27056,"stv_name":"Uncletopia | London | 5 | All Maps | STV","players":null},{"server_id":22,"name":"Uncletopia | London | 6 | All Maps","name_short":"lon-6","host":"lon-1.uk.uncletopia.com","port":27065,"enabled":true,"region":"eu","cc":"gb","latitude":51.509865,"longitude":-0.118092,"reserved":0,"last_update":"0001-01-01T00:00:00Z","name_a2s":"Uncletopia | London | 6 | All Maps","protocol":17,"map":"cp_dustbowl","folder":"tf","game":"Team Fortress","app_id":440,"player_count":0,"max_players":24,"Bots":0,"server_type":"Dedicated","server_os":"Linux","password":true,"vac":true,"version":"7961495","steam_id":85568392924742830,"keywords":["cp","nocrits","nodmgspread","uncletopia"],"game_id":440,"stv_port":27066,"stv_name":"Uncletopia | London | 6 | All Maps | STV","players":null},{"server_id":40,"name":"Uncletopia | London | 7 | Stopwatch","name_short":"lon-7","host":"lon-1.uk.uncletopia.com","port":27075,"enabled":true,"region":"eu","cc":"gb","latitude":51.509865,"longitude":-0.118092,"reserved":0,"last_update":"0001-01-01T00:00:00Z","name_a2s":"Uncletopia | London | 7 | Stopwatch","protocol":17,"map":"koth_lakeside_final","folder":"tf","game":"Team Fortress","app_id":440,"player_count":0,"max_players":24,"Bots":0,"server_type":"Dedicated","server_os":"Linux","password":true,"vac":true,"version":"7961495","steam_id":85568392924964314,"keywords":["cp","nocrits","nodmgspread","uncletopia"],"game_id":440,"stv_port":27076,"stv_name":"Uncletopia | London | 7 | Stopwatch | STV","players":null},{"server_id":41,"name":"Uncletopia | London | 8 | Community","name_short":"lon-8","host":"lon-1.uk.uncletopia.com","port":27085,"enabled":true,"region":"eu","cc":"gb","latitude":51.509865,"longitude":-0.118092,"reserved":0,"last_update":"0001-01-01T00:00:00Z","name_a2s":"Uncletopia | London | 8 | Community","protocol":17,"map":"cp_snakewater_final1","folder":"tf","game":"Team Fortress","app_id":440,"player_count":0,"max_players":24,"Bots":0,"server_type":"Dedicated","server_os":"Linux","password":true,"vac":true,"version":"7961495","steam_id":85568392924964315,"keywords":["cp","nocrits","nodmgspread","uncletopia"],"game_id":440,"stv_port":27086,"stv_name":"Uncletopia | London | 8 | Community | STV","players":null},{"server_id":300,"name":"Uncletopia | Montr√©al | 1 | One Thousand Uncles","name_short":"mtl-1","host":"mtl-1.ca.uncletopia.com","port":27015,"enabled":true,"region":"us-east","cc":"ca","latitude":45.50889,"longitude":-73.56167,"reserved":0,"last_update":"0001-01-01T00:00:00Z","name_a2s":"","protocol":0,"map":"","folder":"","game":"","app_id":0,"player_count":0,"max_players":0,"Bots":0,"server_type":"","server_os":"","password":false,"vac":false,"version":"","steam_id":0,"keywords":null,"game_id":0,"stv_port":0,"stv_name":"","players":null},{"server_id":301,"name":"Uncletopia | Montr√©al | 2 | One Thousand Uncles","name_short":"mtl-2","host":"mtl-1.ca.uncletopia.com","port":27025,"enabled":true,"region":"us-east","cc":"ca","latitude":45.50889,"longitude":-73.56167,"reserved":0,"last_update":"0001-01-01T00:00:00Z","name_a2s":"","protocol":0,"map":"","folder":"","game":"","app_id":0,"player_count":0,"max_players":0,"Bots":0,"server_type":"","server_os":"","password":false,"vac":false,"version":"","steam_id":0,"keywords":null,"game_id":0,"stv_port":0,"stv_name":"","players":null},{"server_id":302,"name":"Uncletopia | Montr√©al | 3 | One Thousand Uncles","name_short":"mtl-3","host":"mtl-1.ca.uncletopia.com","port":27035,"enabled":true,"region":"us-east","cc":"ca","latitude":45.50889,"longitude":-73.56167,"reserved":0,"last_update":"0001-01-01T00:00:00Z","name_a2s":"","protocol":0,"map":"","folder":"","game":"","app_id":0,"player_count":0,"max_players":0,"Bots":0,"server_type":"","server_os":"","password":false,"vac":false,"version":"","steam_id":0,"keywords":null,"game_id":0,"stv_port":0,"stv_name":"","players":null},{"server_id":13,"name":"Uncletopia | New York City | 1 | All Maps","name_short":"nyc-1","host":"nyc-1.us.uncletopia.com","port":27015,"enabled":true,"region":"us-east","cc":"us","latitude":40.73061,"longitude":-73.93524,"reserved":0,"last_update":"0001-01-01T00:00:00Z","name_a2s":"Uncletopia | New York City | 1 | All Maps","protocol":17,"map":"koth_suijin","folder":"tf","game":"Team Fortress","app_id":440,"player_count":20,"max_players":24,"Bots":0,"server_type":"Dedicated","server_os":"Linux","password":true,"vac":true,"version":"7961495","steam_id":85568392924469993,"keywords":["cp","nocrits","nodmgspread","uncletopia"],"game_id":440,"stv_port":27016,"stv_name":"Uncletopia | New York City | 1 | All Maps | STV","players":[{"user_id":671,"name":"sloth (be nice im cringe)","steam_id":76561198047098172,"connected_time":2814000000000,"state":"active","ping":60},{"user_id":682,"name":"Buck","steam_id":76561198064244796,"connected_time":1978000000000,"state":"active","ping":46},{"user_id":700,"name":"sonylea10","steam_id":76561198080723679,"connected_time":329000000000,"state":"active","ping":92},{"user_id":658,"name":"Voracious Puma","steam_id":76561197963621649,"connected_time":3607000000000,"state":"active","ping":85},{"user_id":693,"name":"void","steam_id":76561198107501413,"connected_time":930000000000,"state":"active","ping":58},{"user_id":664,"name":"Femboy Medic Main","steam_id":76561198268225109,"connected_time":3069000000000,"state":"active","ping":71},{"user_id":702,"name":"Stunner","steam_id":76561198063197896,"connected_time":94000000000,"state":"active","ping":122},{"user_id":609,"name":"googa","steam_id":76561198133130452,"connected_time":8903000000000,"state":"active","ping":43},{"user_id":695,"name":"leer.","steam_id":76561198864458303,"connected_time":870000000000,"state":"active","ping":51},{"user_id":674,"name":"man","steam_id":76561198003593070,"connected_time":2698000000000,"state":"active","ping":59},{"user_id":585,"name":"ndvr","steam_id":76561199379200102,"connected_time":10715000000000,"state":"active","ping":53},{"user_id":697,"name":"kikikikoboy","steam_id":76561198073380271,"connected_time":645000000000,"state":"active","ping":72},{"user_id":703,"name":".Rakitsune","steam_id":76561199014286847,"connected_time":79000000000,"state":"active","ping":63},{"user_id":701,"name":"forty","steam_id":76561198450876809,"connected_time":180000000000,"state":"active","ping":110},{"user_id":690,"name":"rubn","steam_id":76561198119586410,"connected_time":1254000000000,"state":"active","ping":134},{"user_id":698,"name":"Joker","steam_id":76561198077583446,"connected_time":634000000000,"state":"active","ping":73},{"user_id":677,"name":"KYLE KYLESON","steam_id":76561198021920887,"connected_time":2597000000000,"state":"active","ping":60},{"user_id":678,"name":"üçíbutaüçí","steam_id":76561198135538212,"connected_time":2594000000000,"state":"active","ping":75},{"user_id":660,"name":"Wintery Solstices","steam_id":76561198251108612,"connected_time":3414000000000,"state":"active","ping":65},{"user_id":696,"name":"Warhawk","steam_id":76561198049067108,"connected_time":867000000000,"state":"active","ping":109}]},{"server_id":14,"name":"Uncletopia | New York City | 2 | All Maps","name_short":"nyc-2","host":"nyc-1.us.uncletopia.com","port":27025,"enabled":true,"region":"us-east","cc":"us","latitude":40.73061,"longitude":-73.93524,"reserved":0,"last_update":"0001-01-01T00:00:00Z","name_a2s":"Uncletopia | New York City | 2 | All Maps","protocol":17,"map":"koth_highpass","folder":"tf","game":"Team Fortress","app_id":440,"player_count":0,"max_players":24,"Bots":0,"server_type":"Dedicated","server_os":"Linux","password":true,"vac":true,"version":"7961495","steam_id":85568392924469994,"keywords":["cp","nocrits","nodmgspread","uncletopia"],"game_id":440,"stv_port":27026,"stv_name":"Uncletopia | New York City | 2 | All Maps | STV","players":null},{"server_id":15,"name":"Uncletopia | New York City | 3 | Stopwatch","name_short":"nyc-3","host":"nyc-1.us.uncletopia.com","port":27035,"enabled":true,"region":"us-east","cc":"us","latitude":40.73061,"longitude":-73.93524,"reserved":0,"last_update":"0001-01-01T00:00:00Z","name_a2s":"Uncletopia | New York City | 3 | Stopwatch","protocol":17,"map":"cp_gullywash_final1","folder":"tf","game":"Team Fortress","app_id":440,"player_count":0,"max_players":24,"Bots":0,"server_type":"Dedicated","server_os":"Linux","password":true,"vac":true,"version":"7961495","steam_id":85568392924742820,"keywords":["cp","nocrits","nodmgspread","uncletopia"],"game_id":440,"stv_port":27036,"stv_name":"Uncletopia | New York City | 3 | Stopwatch | STV","players":null},{"server_id":16,"name":"Uncletopia | New York City | 4 | Community","name_short":"nyc-4","host":"nyc-1.us.uncletopia.com","port":27045,"enabled":true,"region":"us-east","cc":"us","latitude":40.73061,"longitude":-73.93524,"reserved":0,"last_update":"0001-01-01T00:00:00Z","name_a2s":"Uncletopia | New York City | 4 | Community","protocol":17,"map":"workshop/pl_boundary_final1.ugc456799153","folder":"tf","game":"Team Fortress","app_id":440,"player_count":0,"max_players":24,"Bots":0,"server_type":"Dedicated","server_os":"Linux","password":true,"vac":true,"version":"7961495","steam_id":85568392924742821,"keywords":["nocrits","nodmgspread","payload","uncletopia"],"game_id":440,"stv_port":27046,"stv_name":"Uncletopia | New York City | 4 | Community | STV","players":null},{"server_id":142,"name":"Uncletopia | S√£o Paulo | 1 | All Maps","name_short":"sao-1","host":"sao-1.br.uncletopia.com","port":27015,"enabled":true,"region":"sa","cc":"br","latitude":-23.533773,"longitude":-46.62529,"reserved":0,"last_update":"0001-01-01T00:00:00Z","name_a2s":"Uncletopia | S√£o Paulo | 1 | All Maps","protocol":17,"map":"koth_viaduct","folder":"tf","game":"Team Fortress","app_id":440,"player_count":0,"max_players":24,"Bots":0,"server_type":"Dedicated","server_os":"Linux","password":true,"vac":true,"version":"7961495","steam_id":85568392924469996,"keywords":["cp","nocrits","nodmgspread","uncletopia"],"game_id":440,"stv_port":27016,"stv_name":"Uncletopia | S√£o Paulo | 1 | All Maps | STV","players":null},{"server_id":143,"name":"Uncletopia | S√£o Paulo | 2 | Community","name_short":"sao-2","host":"sao-2.br.uncletopia.com","port":27015,"enabled":true,"region":"sa","cc":"br","latitude":-23.533773,"longitude":-46.62529,"reserved":0,"last_update":"0001-01-01T00:00:00Z","name_a2s":"Uncletopia | S√£o Paulo | 2 | Community","protocol":17,"map":"workshop/koth_slaughter_rc1.ugc1712845210","folder":"tf","game":"Team Fortress","app_id":440,"player_count":0,"max_players":24,"Bots":0,"server_type":"Dedicated","server_os":"Linux","password":true,"vac":true,"version":"7961495","steam_id":85568392924485349,"keywords":["cp","nocrits","nodmgspread","uncletopia"],"game_id":440,"stv_port":27016,"stv_name":"Uncletopia | S√£o Paulo | 2 | Community | STV","players":null},{"server_id":7,"name":"Uncletopia | Seattle | 1 | All Maps","name_short":"sea-1","host":"sea-1.us.uncletopia.com","port":27015,"enabled":true,"region":"us-west","cc":"us","latitude":47.608013,"longitude":-122.33517,"reserved":0,"last_update":"0001-01-01T00:00:00Z","name_a2s":"Uncletopia | Seattle | 1 | All Maps","protocol":17,"map":"pl_pier","folder":"tf","game":"Team Fortress","app_id":440,"player_count":24,"max_players":24,"Bots":0,"server_type":"Dedicated","server_os":"Linux","password":true,"vac":true,"version":"7961495","steam_id":85568392924469997,"keywords":["nocrits","nodmgspread","payload","uncletopia"],"game_id":440,"stv_port":27016,"stv_name":"Uncletopia | Seattle | 1 | All Maps | STV","players":[{"user_id":562,"name":"toes","steam_id":76561198221151676,"connected_time":3204000000000,"state":"active","ping":58},{"user_id":574,"name":"NAWWWWWWWWWWW","steam_id":76561198878913441,"connected_time":1806000000000,"state":"active","ping":73},{"user_id":578,"name":"NEBULA","steam_id":76561198086878595,"connected_time":1272000000000,"state":"active","ping":74},{"user_id":577,"name":"spenca","steam_id":76561198025371154,"connected_time":1277000000000,"state":"active","ping":74},{"user_id":565,"name":"Ayayayayayahuasca","steam_id":76561199002906056,"connected_time":3155000000000,"state":"active","ping":49},{"user_id":561,"name":"trackpad gaming | f2p","steam_id":76561198840414371,"connected_time":3471000000000,"state":"active","ping":60},{"user_id":504,"name":"Attrition","steam_id":76561197969881916,"connected_time":8505000000000,"state":"active","ping":54},{"user_id":571,"name":"fire","steam_id":76561198044354279,"connected_time":2386000000000,"state":"active","ping":80},{"user_id":545,"name":"ThePriceIsRice","steam_id":76561198079069543,"connected_time":4499000000000,"state":"active","ping":61},{"user_id":544,"name":"Melly","steam_id":76561198045867175,"connected_time":4764000000000,"state":"active","ping":75},{"user_id":585,"name":"collector's pest","steam_id":76561198170402666,"connected_time":1153000000000,"state":"active","ping":71},{"user_id":572,"name":"Latency","steam_id":76561198106690890,"connected_time":2201000000000,"state":"active","ping":69},{"user_id":587,"name":"Skabbety","steam_id":76561198168044257,"connected_time":1034000000000,"state":"active","ping":43},{"user_id":569,"name":"chocky","steam_id":76561198057491296,"connected_time":2504000000000,"state":"active","ping":45},{"user_id":576,"name":"bullet","steam_id":76561198055089667,"connected_time":1407000000000,"state":"active","ping":45},{"user_id":558,"name":"Lily Thorn","steam_id":76561198305488625,"connected_time":3737000000000,"state":"active","ping":50},{"user_id":586,"name":"vulture pupy","steam_id":76561198061963965,"connected_time":1088000000000,"state":"active","ping":61},{"user_id":580,"name":"Exbocks","steam_id":76561198222343492,"connected_time":1231000000000,"state":"active","ping":57},{"user_id":581,"name":"Canuck","steam_id":76561197999152255,"connected_time":1228000000000,"state":"active","ping":52},{"user_id":554,"name":"MyMonkeyBaby","steam_id":76561198046896670,"connected_time":3905000000000,"state":"active","ping":49},{"user_id":573,"name":"Nom Skirrett","steam_id":76561198014600788,"connected_time":2170000000000,"state":"active","ping":72},{"user_id":590,"name":"DragonJimmy","steam_id":76561198272966565,"connected_time":962000000000,"state":"active","ping":90},{"user_id":588,"name":"Username","steam_id":76561198198918781,"connected_time":1016000000000,"state":"active","ping":81},{"user_id":591,"name":"rushy :))","steam_id":76561198065825165,"connected_time":909000000000,"state":"active","ping":98}]},{"server_id":119,"name":"Uncletopia | Seattle | 2 | All Maps","name_short":"sea-2","host":"sea-1.us.uncletopia.com","port":27025,"enabled":true,"region":"us-west","cc":"us","latitude":47.608013,"longitude":-122.33517,"reserved":0,"last_update":"0001-01-01T00:00:00Z","name_a2s":"Uncletopia | Seattle | 2 | All Maps","protocol":17,"map":"cp_egypt_final","folder":"tf","game":"Team Fortress","app_id":440,"player_count":24,"max_players":24,"Bots":0,"server_type":"Dedicated","server_os":"Linux","password":true,"vac":true,"version":"7961495","steam_id":85568392924469998,"keywords":["cp","nocrits","nodmgspread","uncletopia"],"game_id":440,"stv_port":27026,"stv_name":"Uncletopia | Seattle | 2 | All Maps | STV","players":[{"user_id":258,"name":"duddlee","steam_id":76561198030052564,"connected_time":10213000000000,"state":"active","ping":53},{"user_id":364,"name":"Rafl","steam_id":76561198055222756,"connected_time":383000000000,"state":"active","ping":96},{"user_id":363,"name":"Emmy Kat","steam_id":76561198185115417,"connected_time":651000000000,"state":"active","ping":57},{"user_id":313,"name":"Seriously Bruh","steam_id":76561198070408485,"connected_time":5567000000000,"state":"active","ping":46},{"user_id":362,"name":"Bubbles Tubbing","steam_id":76561198014671077,"connected_time":909000000000,"state":"active","ping":65},{"user_id":344,"name":"mafia is mafia","steam_id":76561198042574722,"connected_time":2745000000000,"state":"active","ping":56},{"user_id":330,"name":"‚ô•ur :3 medic gf‚ô• (51ref/hr)","steam_id":76561198816778484,"connected_time":4264000000000,"state":"active","ping":80},{"user_id":354,"name":"wendigo","steam_id":76561197994528974,"connected_time":2017000000000,"state":"active","ping":80},{"user_id":331,"name":"BL√òRG","steam_id":76561198036126673,"connected_time":4200000000000,"state":"active","ping":78},{"user_id":324,"name":"mo wangs","steam_id":76561198045992418,"connected_time":4908000000000,"state":"active","ping":61},{"user_id":365,"name":"piss gaming","steam_id":76561198002280184,"connected_time":379000000000,"state":"active","ping":52},{"user_id":297,"name":"Dank Hill","steam_id":76561198081194839,"connected_time":7044000000000,"state":"active","ping":51},{"user_id":326,"name":"oo","steam_id":76561198119626492,"connected_time":4550000000000,"state":"active","ping":92},{"user_id":357,"name":"NormalManPerson","steam_id":76561198007436312,"connected_time":1698000000000,"state":"active","ping":47},{"user_id":323,"name":"GalaxyDoug32","steam_id":76561197997126305,"connected_time":5017000000000,"state":"active","ping":61},{"user_id":366,"name":"giveit5","steam_id":76561198030815437,"connected_time":368000000000,"state":"active","ping":89},{"user_id":353,"name":"Banette","steam_id":76561198215458333,"connected_time":2042000000000,"state":"active","ping":45},{"user_id":350,"name":"Boogie03","steam_id":76561198995812187,"connected_time":2382000000000,"state":"active","ping":81},{"user_id":332,"name":"PoofBallzZzZ","steam_id":76561197992257816,"connected_time":4140000000000,"state":"active","ping":70},{"user_id":342,"name":"SmallErection","steam_id":76561198071770147,"connected_time":2860000000000,"state":"active","ping":47},{"user_id":361,"name":"californjoe","steam_id":76561197965047795,"connected_time":984000000000,"state":"active","ping":81},{"user_id":259,"name":"roody","steam_id":76561198066260405,"connected_time":9931000000000,"state":"active","ping":45},{"user_id":306,"name":"The Noble Lavender","steam_id":76561198078395639,"connected_time":5696000000000,"state":"active","ping":84},{"user_id":356,"name":"Tinaho","steam_id":76561198815585874,"connected_time":1909000000000,"state":"active","ping":49}]},{"server_id":406,"name":"Uncletopia | Seattle | 3 | Stopwatch","name_short":"sea-3","host":"sea-1.us.uncletopia.com","port":27035,"enabled":true,"region":"us-west","cc":"us","latitude":47.608013,"longitude":-122.33517,"reserved":0,"last_update":"0001-01-01T00:00:00Z","name_a2s":"Uncletopia | Seattle | 3 | Stopwatch","protocol":17,"map":"pl_pier","folder":"tf","game":"Team Fortress","app_id":440,"player_count":0,"max_players":24,"Bots":0,"server_type":"Dedicated","server_os":"Linux","password":true,"vac":true,"version":"7961495","steam_id":85568392924515217,"keywords":["nocrits","nodmgspread","payload","uncletopia"],"game_id":440,"stv_port":27036,"stv_name":"Uncletopia | Seattle | 3 | Stopwatch | STV","players":null},{"server_id":17,"name":"Uncletopia | San Francisco | 1 | All Maps","name_short":"sfo-1","host":"sfo-1.us.uncletopia.com","port":27015,"enabled":true,"region":"us-west","cc":"us","latitude":37.77397,"longitude":-122.4313,"reserved":0,"last_update":"0001-01-01T00:00:00Z","name_a2s":"Uncletopia | San Francisco | 1 | All Maps","protocol":17,"map":"pl_swiftwater_final1","folder":"tf","game":"Team Fortress","app_id":440,"player_count":24,"max_players":24,"Bots":0,"server_type":"Dedicated","server_os":"Linux","password":true,"vac":true,"version":"7961495","steam_id":85568392924469999,"keywords":["nocrits","nodmgspread","payload","uncletopia"],"game_id":440,"stv_port":27016,"stv_name":"Uncletopia | San Francisco | 1 | All Maps | STV","players":[{"user_id":249,"name":"SleepyCanary","steam_id":76561198071770434,"connected_time":3051000000000,"state":"active","ping":73},{"user_id":253,"name":"red","steam_id":76561198325486281,"connected_time":3013000000000,"state":"active","ping":66},{"user_id":271,"name":"Nato #ClashGG","steam_id":76561198161062837,"connected_time":1721000000000,"state":"active","ping":59},{"user_id":272,"name":"K-2","steam_id":76561198322606535,"connected_time":1720000000000,"state":"active","ping":83},{"user_id":290,"name":"wizerd","steam_id":76561198342480009,"connected_time":423000000000,"state":"active","ping":56},{"user_id":263,"name":"Ian","steam_id":76561198159334435,"connected_time":2107000000000,"state":"active","ping":176},{"user_id":289,"name":"netoc6","steam_id":76561199065312168,"connected_time":531000000000,"state":"active","ping":117},{"user_id":274,"name":"Tideflat","steam_id":76561198179850851,"connected_time":1611000000000,"state":"active","ping":82},{"user_id":275,"name":"Ragnalon","steam_id":76561198807377526,"connected_time":1492000000000,"state":"active","ping":58},{"user_id":277,"name":"sincerelymagicmeister","steam_id":76561198393923543,"connected_time":1450000000000,"state":"active","ping":72},{"user_id":257,"name":"Irony is pretty cringy","steam_id":76561198120391460,"connected_time":2814000000000,"state":"active","ping":54},{"user_id":276,"name":"Grim","steam_id":76561198158911860,"connected_time":1463000000000,"state":"active","ping":81},{"user_id":278,"name":"Byte The Protogen","steam_id":76561199229871383,"connected_time":1435000000000,"state":"active","ping":71},{"user_id":248,"name":"Serene Salamander","steam_id":76561198001094770,"connected_time":3063000000000,"state":"active","ping":83},{"user_id":285,"name":"Xexat","steam_id":76561198041668498,"connected_time":1258000000000,"state":"active","ping":68},{"user_id":288,"name":"Villchip","steam_id":76561198198599982,"connected_time":590000000000,"state":"active","ping":69},{"user_id":291,"name":"danEY","steam_id":76561198049857596,"connected_time":419000000000,"state":"active","ping":47},{"user_id":212,"name":"ADMlN!!! he doin it sideways","steam_id":76561198085470745,"connected_time":6117000000000,"state":"active","ping":52},{"user_id":252,"name":"Phoysh","steam_id":76561198137111021,"connected_time":3029000000000,"state":"active","ping":78},{"user_id":287,"name":"Dark Karl","steam_id":76561198115714484,"connected_time":787000000000,"state":"active","ping":87},{"user_id":292,"name":"Perfectly Generic Object","steam_id":76561198992039900,"connected_time":0,"state":"spawning","ping":0},{"user_id":284,"name":"‚õßAlkahestry","steam_id":76561198109641497,"connected_time":1327000000000,"state":"active","ping":55},{"user_id":210,"name":"laughs bigman","steam_id":76561198067714032,"connected_time":6434000000000,"state":"active","ping":59},{"user_id":270,"name":"Smoothpolishness","steam_id":76561198029084002,"connected_time":1757000000000,"state":"active","ping":79}]},{"server_id":18,"name":"Uncletopia | San Francisco | 2 | All Maps","name_short":"sfo-2","host":"sfo-1.us.uncletopia.com","port":27025,"enabled":true,"region":"us-west","cc":"us","latitude":37.77397,"longitude":-122.4313,"reserved":0,"last_update":"0001-01-01T00:00:00Z","name_a2s":"Uncletopia | San Francisco | 2 | All Maps","protocol":17,"map":"pl_barnblitz","folder":"tf","game":"Team Fortress","app_id":440,"player_count":24,"max_players":24,"Bots":0,"server_type":"Dedicated","server_os":"Linux","password":true,"vac":true,"version":"7961495","steam_id":85568392924470000,"keywords":["nocrits","nodmgspread","payload","uncletopia"],"game_id":440,"stv_port":27026,"stv_name":"Uncletopia | San Francisco | 2 | All Maps | STV","players":[{"user_id":68,"name":"GoldtoothFour","steam_id":76561198055529332,"connected_time":3122000000000,"state":"active","ping":103},{"user_id":76,"name":"CHIKN","steam_id":76561198277792665,"connected_time":2971000000000,"state":"active","ping":55},{"user_id":79,"name":"Lucky","steam_id":76561198124910662,"connected_time":2858000000000,"state":"active","ping":63},{"user_id":111,"name":"MayoMateo","steam_id":76561198360809933,"connected_time":259000000000,"state":"active","ping":48},{"user_id":40,"name":"sirFrost","steam_id":76561198072267177,"connected_time":3800000000000,"state":"active","ping":69},{"user_id":97,"name":"the keebler","steam_id":76561199486326945,"connected_time":1073000000000,"state":"active","ping":106},{"user_id":41,"name":"eeellliii1","steam_id":76561198056261636,"connected_time":3773000000000,"state":"active","ping":81},{"user_id":42,"name":"Phrog","steam_id":76561198072975322,"connected_time":3755000000000,"state":"active","ping":78},{"user_id":45,"name":"Vrita","steam_id":76561198059483641,"connected_time":3529000000000,"state":"active","ping":46},{"user_id":98,"name":"UnusualTofu","steam_id":76561198060103750,"connected_time":1065000000000,"state":"active","ping":62},{"user_id":99,"name":"SoldJar","steam_id":76561198364523450,"connected_time":1048000000000,"state":"active","ping":69},{"user_id":113,"name":"[TH] Knight of Darkness","steam_id":76561198449761689,"connected_time":62000000000,"state":"active","ping":279},{"user_id":100,"name":"Escapist Robot","steam_id":76561198121501913,"connected_time":963000000000,"state":"active","ping":57},{"user_id":50,"name":"bobtheninjaman","steam_id":76561198066424544,"connected_time":3333000000000,"state":"active","ping":68},{"user_id":101,"name":"monkey squirts","steam_id":76561197983101644,"connected_time":932000000000,"state":"active","ping":57},{"user_id":105,"name":"Excalibrine","steam_id":76561198129312118,"connected_time":660000000000,"state":"active","ping":60},{"user_id":103,"name":"SHADOW","steam_id":76561198207768148,"connected_time":902000000000,"state":"active","ping":59},{"user_id":90,"name":"Havi","steam_id":76561198197832829,"connected_time":2080000000000,"state":"active","ping":73},{"user_id":110,"name":"cofferhead","steam_id":76561199191108449,"connected_time":294000000000,"state":"active","ping":67},{"user_id":106,"name":"chimplicity","steam_id":76561198012097062,"connected_time":639000000000,"state":"active","ping":85},{"user_id":58,"name":"Livin' Like Larry","steam_id":76561198313360974,"connected_time":3247000000000,"state":"active","ping":38},{"user_id":85,"name":"Sadodere Grimace","steam_id":76561198008332028,"connected_time":2325000000000,"state":"active","ping":74},{"user_id":112,"name":"Bene Tlailax","steam_id":76561198131567365,"connected_time":90000000000,"state":"active","ping":77},{"user_id":109,"name":"My_Movie.mp4","steam_id":76561198047002366,"connected_time":534000000000,"state":"active","ping":61}]},{"server_id":19,"name":"Uncletopia | San Francisco | 3 | Stopwatch","name_short":"sfo-3","host":"sfo-1.us.uncletopia.com","port":27035,"enabled":true,"region":"us-west","cc":"us","latitude":37.77397,"longitude":-122.4313,"reserved":0,"last_update":"0001-01-01T00:00:00Z","name_a2s":"Uncletopia | San Francisco | 3 | Stopwatch","protocol":17,"map":"workshop/koth_ramjam_rc1.ugc459778887","folder":"tf","game":"Team Fortress","app_id":440,"player_count":0,"max_players":24,"Bots":0,"server_type":"Dedicated","server_os":"Linux","password":true,"vac":true,"version":"7961495","steam_id":85568392924742824,"keywords":["cp","nocrits","nodmgspread","uncletopia"],"game_id":440,"stv_port":27036,"stv_name":"Uncletopia | San Francisco | 3 | Stopwatch | STV","players":null},{"server_id":20,"name":"Uncletopia | San Francisco | 4 | Community","name_short":"sfo-4","host":"sfo-1.us.uncletopia.com","port":27045,"enabled":true,"region":"us-west","cc":"us","latitude":37.77397,"longitude":-122.4313,"reserved":0,"last_update":"0001-01-01T00:00:00Z","name_a2s":"Uncletopia | San Francisco | 4 | Community","protocol":17,"map":"workshop/cp_villa_b19.ugc2113052569","folder":"tf","game":"Team Fortress","app_id":440,"player_count":0,"max_players":24,"Bots":0,"server_type":"Dedicated","server_os":"Linux","password":true,"vac":true,"version":"7961495","steam_id":85568392924742826,"keywords":["cp","nocrits","nodmgspread","uncletopia"],"game_id":440,"stv_port":27046,"stv_name":"Uncletopia | San Francisco | 4 | Community | STV","players":null},{"server_id":141,"name":"Uncletopia | Sydney | 1 | All Maps","name_short":"syd-1","host":"syd-1.au.uncletopia.com","port":27015,"enabled":true,"region":"au","cc":"au","latitude":-33.865143,"longitude":151.2099,"reserved":0,"last_update":"0001-01-01T00:00:00Z","name_a2s":"Uncletopia | Sydney | 1 | All Maps","protocol":17,"map":"koth_viaduct","folder":"tf","game":"Team Fortress","app_id":440,"player_count":4,"max_players":24,"Bots":0,"server_type":"Dedicated","server_os":"Linux","password":true,"vac":true,"version":"7961495","steam_id":85568392924470001,"keywords":["cp","nocrits","nodmgspread","uncletopia"],"game_id":440,"stv_port":27016,"stv_name":"Uncletopia | Sydney | 1 | All Maps | STV","players":[{"user_id":15,"name":"Mikey","steam_id":76561198438203131,"connected_time":811000000000,"state":"active","ping":56},{"user_id":16,"name":"Elbox","steam_id":76561198277799857,"connected_time":430000000000,"state":"active","ping":55},{"user_id":17,"name":"AbruptPuppet","steam_id":76561198241538390,"connected_time":419000000000,"state":"active","ping":62},{"user_id":19,"name":"FascismSalad","steam_id":76561198262410973,"connected_time":293000000000,"state":"active","ping":45}]},{"server_id":123,"name":"Uncletopia | Sydney | 2 | All Maps","name_short":"syd-2","host":"syd-1.au.uncletopia.com","port":27025,"enabled":true,"region":"au","cc":"au","latitude":-33.865143,"longitude":151.2099,"reserved":0,"last_update":"0001-01-01T00:00:00Z","name_a2s":"Uncletopia | Sydney | 2 | All Maps","protocol":17,"map":"koth_highpass","folder":"tf","game":"Team Fortress","app_id":440,"player_count":0,"max_players":24,"Bots":0,"server_type":"Dedicated","server_os":"Linux","password":true,"vac":true,"version":"7961495","steam_id":85568392924470002,"keywords":["cp","nocrits","nodmgspread","uncletopia"],"game_id":440,"stv_port":27026,"stv_name":"Uncletopia | Sydney | 2 | All Maps | STV","players":null},{"server_id":395,"name":"Uncletopia | Sydney | 3 | All Maps","name_short":"syd-3","host":"syd-1.au.uncletopia.com","port":27035,"enabled":true,"region":"au","cc":"au","latitude":-33.865143,"longitude":151.2099,"reserved":0,"last_update":"0001-01-01T00:00:00Z","name_a2s":"Uncletopia | Sydney | 3 | All Maps","protocol":17,"map":"pl_frontier_final","folder":"tf","game":"Team Fortress","app_id":440,"player_count":4,"max_players":24,"Bots":0,"server_type":"Dedicated","server_os":"Linux","password":true,"vac":true,"version":"7961495","steam_id":85568392925194467,"keywords":["nocrits","nodmgspread","payload","uncletopia"],"game_id":440,"stv_port":27036,"stv_name":"Uncletopia | Sydney | 3 | All Maps | STV","players":[{"user_id":14,"name":"Ugly","steam_id":76561198177864033,"connected_time":101000000000,"state":"active","ping":43},{"user_id":13,"name":"ANML","steam_id":76561198260039591,"connected_time":533000000000,"state":"active","ping":47},{"user_id":10,"name":"cakey","steam_id":76561198173746761,"connected_time":865000000000,"state":"active","ping":55},{"user_id":12,"name":"pathway","steam_id":76561198346674092,"connected_time":792000000000,"state":"active","ping":81}]},{"server_id":396,"name":"Uncletopia | Sydney | 4 | All Maps","name_short":"syd-4","host":"syd-1.au.uncletopia.com","port":27045,"enabled":true,"region":"au","cc":"au","latitude":-33.865143,"longitude":151.2099,"reserved":0,"last_update":"0001-01-01T00:00:00Z","name_a2s":"Uncletopia | Sydney | 4 | All Maps","protocol":17,"map":"koth_lakeside_final","folder":"tf","game":"Team Fortress","app_id":440,"player_count":0,"max_players":24,"Bots":0,"server_type":"Dedicated","server_os":"Linux","password":true,"vac":true,"version":"7961495","steam_id":85568392925397958,"keywords":["cp","nocrits","nodmgspread","uncletopia"],"game_id":440,"stv_port":27046,"stv_name":"Uncletopia | Sydney | 4 | All Maps | STV","players":null},{"server_id":58,"name":"Uncletopia | Sydney | 5 | Stopwatch","name_short":"syd-5","host":"syd-1.au.uncletopia.com","port":27055,"enabled":true,"region":"au","cc":"au","latitude":-33.865143,"longitude":151.2099,"reserved":0,"last_update":"0001-01-01T00:00:00Z","name_a2s":"Uncletopia | Sydney | 5 | Stopwatch","protocol":17,"map":"pl_frontier_final","folder":"tf","game":"Team Fortress","app_id":440,"player_count":0,"max_players":24,"Bots":0,"server_type":"Dedicated","server_os":"Linux","password":true,"vac":true,"version":"7961495","steam_id":85568392925397959,"keywords":["nocrits","nodmgspread","payload","uncletopia"],"game_id":440,"stv_port":27056,"stv_name":"Uncletopia | Sydney | 5 | Stopwatch | STV","players":null},{"server_id":59,"name":"Uncletopia | Sydney | 6 | Community","name_short":"syd-6","host":"syd-1.au.uncletopia.com","port":27065,"enabled":true,"region":"au","cc":"au","latitude":-33.865143,"longitude":151.2099,"reserved":0,"last_update":"0001-01-01T00:00:00Z","name_a2s":"Uncletopia | Sydney | 6 | Community","protocol":17,"map":"workshop/cp_fulgur_rc2a.ugc2068252300","folder":"tf","game":"Team Fortress","app_id":440,"player_count":0,"max_players":24,"Bots":0,"server_type":"Dedicated","server_os":"Linux","password":true,"vac":true,"version":"7961495","steam_id":85568392925397960,"keywords":["cp","nocrits","nodmgspread","uncletopia"],"game_id":440,"stv_port":27066,"stv_name":"Uncletopia | Sydney | 6 | Community | STV","players":null},{"server_id":49,"name":"Uncletopia | Warsaw | 1 | One Thousand Uncles","name_short":"waw-1","host":"waw-1.pl.uncletopia.com","port":27015,"enabled":true,"region":"eu","cc":"pl","latitude":52.2297,"longitude":21.017532,"reserved":0,"last_update":"0001-01-01T00:00:00Z","name_a2s":"Uncletopia | Warsaw | 1 | One Thousand Uncles","protocol":17,"map":"koth_highpass","folder":"tf","game":"Team Fortress","app_id":440,"player_count":0,"max_players":32,"Bots":0,"server_type":"Dedicated","server_os":"Linux","password":true,"vac":true,"version":"7961495","steam_id":85568392925397850,"keywords":["alltalk","cp","danepve","increased_maxplayers","nocrits","norespawntime","uncletopia"],"game_id":440,"stv_port":0,"stv_name":"","players":null},{"server_id":50,"name":"Uncletopia | Warsaw | 2 | One Thousand Uncles","name_short":"waw-2","host":"waw-1.pl.uncletopia.com","port":27025,"enabled":true,"region":"eu","cc":"pl","latitude":52.2297,"longitude":21.017532,"reserved":0,"last_update":"0001-01-01T00:00:00Z","name_a2s":"Uncletopia | Warsaw | 2 | One Thousand Uncles","protocol":17,"map":"cp_dustbowl","folder":"tf","game":"Team Fortress","app_id":440,"player_count":0,"max_players":32,"Bots":0,"server_type":"Dedicated","server_os":"Linux","password":true,"vac":true,"version":"7961495","steam_id":85568392925397851,"keywords":["alltalk","cp","danepve","increased_maxplayers","nocrits","norespawntime","uncletopia"],"game_id":440,"stv_port":0,"stv_name":"","players":null},{"server_id":51,"name":"Uncletopia | Warsaw | 3 | All Maps","name_short":"waw-3","host":"waw-1.pl.uncletopia.com","port":27035,"enabled":true,"region":"eu","cc":"pl","latitude":52.2297,"longitude":21.017532,"reserved":0,"last_update":"0001-01-01T00:00:00Z","name_a2s":"Uncletopia | Warsaw | 3 | All Maps","protocol":17,"map":"plr_pipeline","folder":"tf","game":"Team Fortress","app_id":440,"player_count":0,"max_players":24,"Bots":0,"server_type":"Dedicated","server_os":"Linux","password":true,"vac":true,"version":"7961495","steam_id":85568392925397852,"keywords":["nocrits","nodmgspread","payload","uncletopia"],"game_id":440,"stv_port":27036,"stv_name":"Uncletopia | Warsaw | 3 | All Maps | STV","players":null},{"server_id":52,"name":"Uncletopia | Warsaw | 4 | All Maps","name_short":"waw-4","host":"waw-1.pl.uncletopia.com","port":27045,"enabled":true,"region":"eu","cc":"pl","latitude":52.2297,"longitude":21.017532,"reserved":0,"last_update":"0001-01-01T00:00:00Z","name_a2s":"Uncletopia | Warsaw | 4 | All Maps","protocol":17,"map":"cp_coldfront","folder":"tf","game":"Team Fortress","app_id":440,"player_count":0,"max_players":24,"Bots":0,"server_type":"Dedicated","server_os":"Linux","password":true,"vac":true,"version":"7961495","steam_id":85568392925397853,"keywords":["cp","nocrits","nodmgspread","uncletopia"],"game_id":440,"stv_port":27046,"stv_name":"Uncletopia | Warsaw | 4 | All Maps | STV","players":null},{"server_id":53,"name":"Uncletopia | Warsaw | 5 | Stopwatch","name_short":"waw-5","host":"waw-1.pl.uncletopia.com","port":27055,"enabled":true,"region":"eu","cc":"pl","latitude":52.2297,"longitude":21.017532,"reserved":0,"last_update":"0001-01-01T00:00:00Z","name_a2s":"Uncletopia | Warsaw | 5 | Stopwatch","protocol":17,"map":"workshop/koth_bagel_rc6.ugc2514036946","folder":"tf","game":"Team Fortress","app_id":440,"player_count":0,"max_players":24,"Bots":0,"server_type":"Dedicated","server_os":"Linux","password":true,"vac":true,"version":"7961495","steam_id":85568392925397854,"keywords":["cp","nocrits","nodmgspread","uncletopia"],"game_id":440,"stv_port":27056,"stv_name":"Uncletopia | Warsaw | 5 | Stopwatch | STV","players":null},{"server_id":54,"name":"Uncletopia | Warsaw | 6 | Community","name_short":"waw-6","host":"waw-1.pl.uncletopia.com","port":27065,"enabled":true,"region":"eu","cc":"pl","latitude":52.2297,"longitude":21.017532,"reserved":0,"last_update":"0001-01-01T00:00:00Z","name_a2s":"Uncletopia | Warsaw | 6 | Community","protocol":17,"map":"workshop/pl_badwater_pro_v12.ugc2142942074","folder":"tf","game":"Team Fortress","app_id":440,"player_count":0,"max_players":24,"Bots":0,"server_type":"Dedicated","server_os":"Linux","password":true,"vac":true,"version":"7961495","steam_id":85568392925397856,"keywords":["nocrits","nodmgspread","payload","uncletopia"],"game_id":440,"stv_port":27066,"stv_name":"Uncletopia | Warsaw | 6 | Community | STV","players":null}]}