{"status":true,"message":"","result":[{"server_id":9,"name":"Uncletopia | Atlanta | 1 | All Maps","name_short":"atl-1","host":"atl-1.us.uncletopia.com","port":27015,"enabled":true,"region":"us-east","cc":"us","latitude":33.753746,"longitude":-84.38633,"reserved":0,"last_update":"0001-01-01T00:00:00Z","name_a2s":"Uncletopia | Atlanta | 1 | All Maps","protocol":17,"map":"pl_borneo","folder":"tf","game":"Team Fortress","app_id":440,"player_count":24,"max_players":24,"Bots":0,"server_type":"Dedicated","server_os":"Linux","password":true,"vac":true,"version":"7757534","steam_id":85568392924469982,"keywords":["nocrits","nodmgspread","payload","uncletopia"],"game_id":440,"stv_port":27016,"stv_name":"Uncletopia | Atlanta | 1 | All Maps | STV","players":[{"user_id":222,"name":"evan_is_sauce","steam_id":76561199086802383,"connected_time":902000000000,"state":"active","ping":99},{"user_id":219,"name":"Ardor.","steam_id":76561198103503066,"connected_time":1029000000000,"state":"active","ping":64},{"user_id":197,"name":"Normalux","steam_id":76561198293891426,"connected_time":3211000000000,"state":"active","ping":95},{"user_id":210,"name":"pdse","steam_id":76561198072897202,"connected_time":2099000000000,"state":"active","ping":80},{"user_id":227,"name":"plushie","steam_id":76561198088103572,"connected_time":529000000000,"state":"active","ping":113},{"user_id":192,"name":"chowder908","steam_id":76561198075858535,"connected_time":3446000000000,"state":"active","ping":66},{"user_id":215,"name":"Jason.","steam_id":76561199172692062,"connected_time":1662000000000,"state":"active","ping":103},{"user_id":232,"name":"Motreir","steam_id":76561198151717946,"connected_time":386000000000,"state":"active","ping":78},{"user_id":212,"name":"dj üÖ±Ô∏èeter greffen","steam_id":76561198079603532,"connected_time":1832000000000,"state":"active","ping":81},{"user_id":220,"name":"mio","steam_id":76561198239286750,"connected_time":972000000000,"state":"active","ping":73},{"user_id":174,"name":"Soul Garg Plushy","steam_id":76561198044480181,"connected_time":4493000000000,"state":"active","ping":71},{"user_id":217,"name":"Miramar","steam_id":76561198022057653,"connected_time":1427000000000,"state":"active","ping":85},{"user_id":181,"name":"Mem","steam_id":76561198170391715,"connected_time":3965000000000,"state":"active","ping":84},{"user_id":224,"name":"JJDrowsy","steam_id":76561198274501963,"connected_time":771000000000,"state":"active","ping":93},{"user_id":223,"name":"Vegerot","steam_id":76561197997843710,"connected_time":899000000000,"state":"active","ping":60},{"user_id":195,"name":"‚òº gamble","steam_id":76561198074180953,"connected_time":3251000000000,"state":"active","ping":68},{"user_id":152,"name":"Scorch","steam_id":76561198167024005,"connected_time":5763000000000,"state":"active","ping":70},{"user_id":228,"name":"RED1 | mayhem","steam_id":76561199246637881,"connected_time":528000000000,"state":"active","ping":57},{"user_id":205,"name":"Wang of Wall St","steam_id":76561198047460598,"connected_time":2674000000000,"state":"active","ping":82},{"user_id":229,"name":"BLU1 | Pango","steam_id":76561198069811545,"connected_time":528000000000,"state":"active","ping":46},{"user_id":218,"name":"FUSION","steam_id":76561197972659738,"connected_time":1426000000000,"state":"active","ping":60},{"user_id":194,"name":"Thotimus Begonimus","steam_id":76561197970275938,"connected_time":3354000000000,"state":"active","ping":46},{"user_id":196,"name":"Magik","steam_id":76561198200169706,"connected_time":3249000000000,"state":"active","ping":53},{"user_id":214,"name":"Motorol¬™","steam_id":76561198358119669,"connected_time":1747000000000,"state":"active","ping":108}]},{"server_id":400,"name":"Uncletopia | Atlanta | 3 | Community","name_short":"atl-3","host":"atl-1.us.uncletopia.com","port":27035,"enabled":true,"region":"us-east","cc":"us","latitude":33.753746,"longitude":-84.38633,"reserved":0,"last_update":"0001-01-01T00:00:00Z","name_a2s":"Uncletopia | Atlanta | 3 | Community","protocol":17,"map":"workshop/koth_ashville_final.ugc2130459942","folder":"tf","game":"Team Fortress","app_id":440,"player_count":0,"max_players":24,"Bots":0,"server_type":"Dedicated","server_os":"Linux","password":true,"vac":true,"version":"7757534","steam_id":85568392924515187,"keywords":["cp","nocrits","nodmgspread","uncletopia"],"game_id":440,"stv_port":27036,"stv_name":"Uncletopia | Atlanta | 3 | Community | STV","players":null},{"server_id":401,"name":"Uncletopia | Atlanta | 4 | No Payload","name_short":"atl-4","host":"atl-1.us.uncletopia.com","port":27045,"enabled":true,"region":"us-east","cc":"us","latitude":33.753746,"longitude":-84.38633,"reserved":0,"last_update":"0001-01-01T00:00:00Z","name_a2s":"","protocol":0,"map":"","folder":"","game":"","app_id":0,"player_count":0,"max_players":0,"Bots":0,"server_type":"","server_os":"","password":false,"vac":false,"version":"","steam_id":0,"keywords":null,"game_id":0,"stv_port":0,"stv_name":"","players":null},{"server_id":2,"name":"Uncletopia | Chicago | 1 | All Maps","name_short":"chi-1","host":"chi-1.us.uncletopia.com","port":27015,"enabled":true,"region":"us-central","cc":"us","latitude":41.881832,"longitude":-87.62318,"reserved":0,"last_update":"0001-01-01T00:00:00Z","name_a2s":"Uncletopia | Chicago | 1 | All Maps","protocol":17,"map":"pl_frontier_final","folder":"tf","game":"Team Fortress","app_id":440,"player_count":24,"max_players":24,"Bots":0,"server_type":"Dedicated","server_os":"Linux","password":true,"vac":true,"version":"7757534","steam_id":85568392924469984,"keywords":["nocrits","nodmgspread","payload","uncletopia"],"game_id":440,"stv_port":27016,"stv_name":"Uncletopia | Chicago | 1 | All Maps | STV","players":[{"user_id":3,"name":"daemon","steam_id":76561198001541433,"connected_time":22428000000000,"state":"active","ping":52},{"user_id":284,"name":"Coupon","steam_id":76561198111947598,"connected_time":2506000000000,"state":"active","ping":86},{"user_id":309,"name":"Dagoth","steam_id":76561198100896443,"connected_time":397000000000,"state":"active","ping":64},{"user_id":294,"name":"Robin","steam_id":76561198121165149,"connected_time":2040000000000,"state":"active","ping":39},{"user_id":313,"name":"Raniel Dicciardo","steam_id":76561198053859538,"connected_time":126000000000,"state":"active","ping":76},{"user_id":290,"name":"Bongo","steam_id":76561198393756793,"connected_time":2242000000000,"state":"active","ping":75},{"user_id":310,"name":"And","steam_id":76561198366997281,"connected_time":361000000000,"state":"active","ping":75},{"user_id":302,"name":"Waddluigi","steam_id":76561198181328519,"connected_time":1166000000000,"state":"active","ping":68},{"user_id":278,"name":"primordialheath","steam_id":76561199386942638,"connected_time":3763000000000,"state":"active","ping":62},{"user_id":286,"name":"Toottoot","steam_id":76561197992404836,"connected_time":2464000000000,"state":"active","ping":47},{"user_id":14,"name":"Dot.","steam_id":76561198149463984,"connected_time":22401000000000,"state":"active","ping":48},{"user_id":219,"name":"blue","steam_id":76561199010765510,"connected_time":8653000000000,"state":"active","ping":61},{"user_id":297,"name":"Adam (Cursed Confetti Creature)","steam_id":76561198317690197,"connected_time":1826000000000,"state":"active","ping":46},{"user_id":271,"name":"richard clock","steam_id":76561198048455671,"connected_time":4114000000000,"state":"active","ping":48},{"user_id":295,"name":"Doinnoid","steam_id":76561198262276139,"connected_time":1952000000000,"state":"active","ping":65},{"user_id":273,"name":"Macko","steam_id":76561198452005461,"connected_time":3877000000000,"state":"active","ping":83},{"user_id":240,"name":"captainspatklz","steam_id":76561198432167270,"connected_time":5541000000000,"state":"active","ping":73},{"user_id":311,"name":"Piss Champion","steam_id":76561198059362878,"connected_time":345000000000,"state":"active","ping":45},{"user_id":292,"name":"kametro4","steam_id":76561198835430429,"connected_time":2075000000000,"state":"active","ping":87},{"user_id":306,"name":"Quansen","steam_id":76561198151594550,"connected_time":610000000000,"state":"active","ping":47},{"user_id":308,"name":"CHIPS","steam_id":76561199085414584,"connected_time":452000000000,"state":"active","ping":77},{"user_id":307,"name":"shokie","steam_id":76561197997961542,"connected_time":515000000000,"state":"active","ping":76},{"user_id":281,"name":"Parker","steam_id":76561198046044893,"connected_time":3728000000000,"state":"active","ping":55},{"user_id":305,"name":"Coinless","steam_id":76561199207586390,"connected_time":891000000000,"state":"active","ping":52}]},{"server_id":106,"name":"Uncletopia | Chicago | 2 | All Maps","name_short":"chi-2","host":"chi-1.us.uncletopia.com","port":27025,"enabled":true,"region":"us-central","cc":"us","latitude":41.881832,"longitude":-87.62318,"reserved":0,"last_update":"0001-01-01T00:00:00Z","name_a2s":"Uncletopia | Chicago | 2 | All Maps","protocol":17,"map":"cp_process_final","folder":"tf","game":"Team Fortress","app_id":440,"player_count":23,"max_players":24,"Bots":0,"server_type":"Dedicated","server_os":"Linux","password":true,"vac":true,"version":"7757534","steam_id":85568392924469985,"keywords":["cp","nocrits","nodmgspread","uncletopia"],"game_id":440,"stv_port":27026,"stv_name":"Uncletopia | Chicago | 2 | All Maps | STV","players":[{"user_id":19,"name":"AwesomeMissB","steam_id":76561199066244584,"connected_time":2296000000000,"state":"active","ping":71},{"user_id":70,"name":"KingToaster","steam_id":76561198007903802,"connected_time":88000000000,"state":"active","ping":75},{"user_id":53,"name":"ooBah!","steam_id":76561198133684216,"connected_time":1087000000000,"state":"active","ping":56},{"user_id":22,"name":"his flatulence","steam_id":76561198799404824,"connected_time":2256000000000,"state":"active","ping":66},{"user_id":25,"name":"Loark","steam_id":76561198069381385,"connected_time":2217000000000,"state":"active","ping":153},{"user_id":27,"name":"h0ly gh0s7","steam_id":76561198082984763,"connected_time":2154000000000,"state":"active","ping":63},{"user_id":62,"name":"ItsBrieDude","steam_id":76561198051971306,"connected_time":371000000000,"state":"active","ping":54},{"user_id":29,"name":"Den Fyren","steam_id":76561198153611019,"connected_time":2137000000000,"state":"active","ping":173},{"user_id":63,"name":"Xraverz","steam_id":76561198008891628,"connected_time":365000000000,"state":"active","ping":82},{"user_id":72,"name":"ARGON Soulidity","steam_id":76561198429603550,"connected_time":10000000000,"state":"spawning","ping":77},{"user_id":64,"name":"poiuytrewqwqwqwqwqwqwqwqwqwqwqw","steam_id":76561199105253001,"connected_time":362000000000,"state":"active","ping":68},{"user_id":39,"name":"TwistedCamel","steam_id":76561198011396500,"connected_time":1899000000000,"state":"active","ping":61},{"user_id":68,"name":"AmazingPlasma","steam_id":76561199005527586,"connected_time":126000000000,"state":"active","ping":85},{"user_id":69,"name":"IPlayGamez","steam_id":76561198041387508,"connected_time":122000000000,"state":"active","ping":62},{"user_id":38,"name":"M@verick","steam_id":76561198006363519,"connected_time":1911000000000,"state":"active","ping":72},{"user_id":59,"name":"Quaker Oats","steam_id":76561197992800293,"connected_time":520000000000,"state":"active","ping":90},{"user_id":65,"name":"Starr","steam_id":76561198372019581,"connected_time":342000000000,"state":"active","ping":54},{"user_id":66,"name":"puffy","steam_id":76561198411347037,"connected_time":306000000000,"state":"active","ping":62},{"user_id":71,"name":"equinox","steam_id":76561198259353885,"connected_time":87000000000,"state":"active","ping":70},{"user_id":46,"name":"Curls","steam_id":76561198079039937,"connected_time":1783000000000,"state":"active","ping":168},{"user_id":47,"name":"breaking the exosphere","steam_id":76561198825658971,"connected_time":1775000000000,"state":"active","ping":89},{"user_id":54,"name":"Project Dusk","steam_id":76561198193521149,"connected_time":1071000000000,"state":"active","ping":88},{"user_id":55,"name":"conscripted monk","steam_id":76561199029246232,"connected_time":1056000000000,"state":"active","ping":69}]},{"server_id":402,"name":"Uncletopia | Chicago | 3 | All Maps","name_short":"chi-3","host":"chi-1.us.uncletopia.com","port":27035,"enabled":true,"region":"us-central","cc":"us","latitude":41.881832,"longitude":-87.62318,"reserved":0,"last_update":"0001-01-01T00:00:00Z","name_a2s":"Uncletopia | Chicago | 3 | All Maps","protocol":17,"map":"koth_lakeside_final","folder":"tf","game":"Team Fortress","app_id":440,"player_count":0,"max_players":24,"Bots":0,"server_type":"Dedicated","server_os":"Linux","password":true,"vac":true,"version":"7757534","steam_id":85568392924515191,"keywords":["cp","nocrits","nodmgspread","uncletopia"],"game_id":440,"stv_port":27036,"stv_name":"Uncletopia | Chicago | 3 | All Maps | STV","players":null},{"server_id":403,"name":"Uncletopia | Chicago | 4 | All Maps","name_short":"chi-4","host":"chi-1.us.uncletopia.com","port":27045,"enabled":true,"region":"us-central","cc":"us","latitude":41.881832,"longitude":-87.62318,"reserved":0,"last_update":"0001-01-01T00:00:00Z","name_a2s":"Uncletopia | Chicago | 4 | All Maps","protocol":17,"map":"pl_hoodoo_final","folder":"tf","game":"Team Fortress","app_id":440,"player_count":24,"max_players":24,"Bots":0,"server_type":"Dedicated","server_os":"Linux","password":true,"vac":true,"version":"7757534","steam_id":85568392924515193,"keywords":["nocrits","nodmgspread","payload","uncletopia"],"game_id":440,"stv_port":27046,"stv_name":"Uncletopia | Chicago | 4 | All Maps | STV","players":[{"user_id":188,"name":"Wafflez","steam_id":76561198081611996,"connected_time":268000000000,"state":"active","ping":63},{"user_id":175,"name":"Swedish Crowbar","steam_id":76561199105488936,"connected_time":1167000000000,"state":"active","ping":153},{"user_id":172,"name":"Buswolley","steam_id":76561197995205571,"connected_time":1203000000000,"state":"active","ping":99},{"user_id":154,"name":"bojack from the show bojack hor","steam_id":76561198053006712,"connected_time":3015000000000,"state":"active","ping":59},{"user_id":167,"name":"IVV4","steam_id":76561198194356583,"connected_time":1289000000000,"state":"active","ping":77},{"user_id":121,"name":"girlboss","steam_id":76561197989019617,"connected_time":5840000000000,"state":"active","ping":46},{"user_id":189,"name":"arinet","steam_id":76561198052572890,"connected_time":256000000000,"state":"active","ping":58},{"user_id":185,"name":"Frenemy \u003e:D","steam_id":76561198011363677,"connected_time":488000000000,"state":"active","ping":51},{"user_id":186,"name":"Wiener Hole Paper Cut","steam_id":76561198000808203,"connected_time":411000000000,"state":"active","ping":72},{"user_id":190,"name":"Unwavering Flavor","steam_id":76561198053306065,"connected_time":236000000000,"state":"active","ping":82},{"user_id":149,"name":"JennaShinx","steam_id":76561198074773762,"connected_time":3342000000000,"state":"active","ping":60},{"user_id":194,"name":"ZOROJURO","steam_id":76561198927057331,"connected_time":111000000000,"state":"active","ping":67},{"user_id":195,"name":"i really like this dog :)","steam_id":76561198882404753,"connected_time":26000000000,"state":"spawning","ping":90},{"user_id":187,"name":"Konrad Vilulf","steam_id":76561198111124481,"connected_time":354000000000,"state":"active","ping":86},{"user_id":181,"name":"judesro","steam_id":76561198352244888,"connected_time":617000000000,"state":"active","ping":65},{"user_id":113,"name":"Glory","steam_id":76561198013975080,"connected_time":6316000000000,"state":"active","ping":70},{"user_id":135,"name":"Gotta get my ammo fix","steam_id":76561198039763676,"connected_time":4527000000000,"state":"active","ping":60},{"user_id":191,"name":"Tyler\u0026Fingers","steam_id":76561198085154485,"connected_time":233000000000,"state":"active","ping":87},{"user_id":158,"name":"Bees make honey","steam_id":76561198086107548,"connected_time":2624000000000,"state":"active","ping":65},{"user_id":177,"name":"xX420SWAG69Xx","steam_id":76561198114345274,"connected_time":872000000000,"state":"active","ping":82},{"user_id":173,"name":"Rornir","steam_id":76561198081829615,"connected_time":1189000000000,"state":"active","ping":38},{"user_id":179,"name":"PeopleOrderOurPatties","steam_id":76561198323144922,"connected_time":738000000000,"state":"active","ping":56},{"user_id":193,"name":"clackybones","steam_id":76561198108137898,"connected_time":220000000000,"state":"active","ping":61},{"user_id":51,"name":"ZombieSkeletor2","steam_id":76561198244937990,"connected_time":10791000000000,"state":"active","ping":84}]},{"server_id":36,"name":"Uncletopia | Chicago | 5 | All Maps","name_short":"chi-5","host":"chi-2.us.uncletopia.com","port":27015,"enabled":true,"region":"us-central","cc":"us","latitude":41.881832,"longitude":-87.62318,"reserved":0,"last_update":"0001-01-01T00:00:00Z","name_a2s":"Uncletopia | Chicago | 5 | All Maps","protocol":17,"map":"ctf_2fort","folder":"tf","game":"Team Fortress","app_id":440,"player_count":14,"max_players":24,"Bots":0,"server_type":"Dedicated","server_os":"Linux","password":true,"vac":true,"version":"7757534","steam_id":85568392924866362,"keywords":["ctf","nocrits","nodmgspread","uncletopia"],"game_id":440,"stv_port":27016,"stv_name":"Uncletopia | Chicago | 5 | All Maps | STV","players":[{"user_id":274,"name":"George","steam_id":76561198020046873,"connected_time":726000000000,"state":"active","ping":58},{"user_id":231,"name":"bash -lc ./asshat.sh","steam_id":76561198004584315,"connected_time":4215000000000,"state":"active","ping":60},{"user_id":219,"name":"CJDGuy","steam_id":76561198213009545,"connected_time":5620000000000,"state":"active","ping":71},{"user_id":277,"name":"$400 Peter Griffin","steam_id":76561198307219602,"connected_time":258000000000,"state":"active","ping":58},{"user_id":232,"name":"threethree","steam_id":76561198177354155,"connected_time":4201000000000,"state":"active","ping":52},{"user_id":276,"name":"OneFestiveCorvid","steam_id":76561199012953221,"connected_time":413000000000,"state":"active","ping":75},{"user_id":280,"name":"Mr. Call You Back","steam_id":76561198025172811,"connected_time":168000000000,"state":"active","ping":53},{"user_id":213,"name":"MaximumAce","steam_id":76561198359596849,"connected_time":6377000000000,"state":"active","ping":71},{"user_id":281,"name":"Liver stealer","steam_id":76561199029954287,"connected_time":126000000000,"state":"active","ping":141},{"user_id":266,"name":"Sunvaar","steam_id":76561198852679851,"connected_time":2227000000000,"state":"active","ping":62},{"user_id":257,"name":"triangleman","steam_id":76561198972733542,"connected_time":2509000000000,"state":"active","ping":66},{"user_id":282,"name":"The CEO of Bedtime","steam_id":76561198214842471,"connected_time":119000000000,"state":"active","ping":62},{"user_id":255,"name":"fallacy","steam_id":76561198057374871,"connected_time":2705000000000,"state":"active","ping":55},{"user_id":243,"name":"SmudgeAlot","steam_id":76561199470365621,"connected_time":3759000000000,"state":"active","ping":89}]},{"server_id":37,"name":"Uncletopia | Chicago | 6 | All Maps","name_short":"chi-6","host":"chi-2.us.uncletopia.com","port":27025,"enabled":true,"region":"us-central","cc":"us","latitude":41.881832,"longitude":-87.62318,"reserved":0,"last_update":"0001-01-01T00:00:00Z","name_a2s":"Uncletopia | Chicago | 6 | All Maps","protocol":17,"map":"koth_cascade","folder":"tf","game":"Team Fortress","app_id":440,"player_count":3,"max_players":24,"Bots":0,"server_type":"Dedicated","server_os":"Linux","password":true,"vac":true,"version":"7757534","steam_id":85568392924866363,"keywords":["cp","nocrits","nodmgspread","uncletopia"],"game_id":440,"stv_port":27026,"stv_name":"Uncletopia | Chicago | 6 | All Maps | STV","players":[{"user_id":9,"name":"Bigfootjinx","steam_id":76561199128050459,"connected_time":462000000000,"state":"active","ping":60},{"user_id":10,"name":"Snipekid","steam_id":76561199385495976,"connected_time":396000000000,"state":"active","ping":113},{"user_id":11,"name":"WildMan","steam_id":76561199134394923,"connected_time":169000000000,"state":"active","ping":98}]},{"server_id":38,"name":"Uncletopia | Chicago | 7 | Stopwatch Beta","name_short":"chi-7","host":"chi-2.us.uncletopia.com","port":27035,"enabled":true,"region":"us-central","cc":"us","latitude":41.881832,"longitude":-87.62318,"reserved":0,"last_update":"0001-01-01T00:00:00Z","name_a2s":"Uncletopia | Chicago | 7 | Stopwatch Beta","protocol":17,"map":"pl_upward","folder":"tf","game":"Team Fortress","app_id":440,"player_count":0,"max_players":24,"Bots":0,"server_type":"Dedicated","server_os":"Linux","password":true,"vac":true,"version":"7757534","steam_id":85568392924866364,"keywords":["nocrits","nodmgspread","payload","uncletopia"],"game_id":440,"stv_port":27036,"stv_name":"Uncletopia | Chicago | 7 | Stopwatch Beta | STV","players":null},{"server_id":39,"name":"Uncletopia | Chicago | 8 | Community","name_short":"chi-8","host":"chi-2.us.uncletopia.com","port":27045,"enabled":true,"region":"us-central","cc":"us","latitude":41.881832,"longitude":-87.62318,"reserved":0,"last_update":"0001-01-01T00:00:00Z","name_a2s":"Uncletopia | Chicago | 8 | Community","protocol":17,"map":"workshop/koth_synthetic_rc6a.ugc1549817316","folder":"tf","game":"Team Fortress","app_id":440,"player_count":16,"max_players":24,"Bots":0,"server_type":"Dedicated","server_os":"Linux","password":true,"vac":true,"version":"7757534","steam_id":85568392924866365,"keywords":["cp","nocrits","nodmgspread","uncletopia"],"game_id":440,"stv_port":27046,"stv_name":"Uncletopia | Chicago | 8 | Community | STV","players":[{"user_id":23,"name":"APOTATO","steam_id":76561198118199858,"connected_time":2035000000000,"state":"active","ping":85},{"user_id":28,"name":"Hitlinemoss","steam_id":76561198155435669,"connected_time":1392000000000,"state":"active","ping":71},{"user_id":25,"name":"Vava","steam_id":76561199061877557,"connected_time":1912000000000,"state":"active","ping":63},{"user_id":30,"name":"Hot Milk + Sweet Delight","steam_id":76561197988989149,"connected_time":960000000000,"state":"active","ping":72},{"user_id":15,"name":"Literally Roxy's Wife Tsuyu","steam_id":76561198175421763,"connected_time":2693000000000,"state":"active","ping":60},{"user_id":35,"name":"Aeris","steam_id":76561198287271028,"connected_time":394000000000,"state":"active","ping":54},{"user_id":33,"name":"Manu","steam_id":76561198145330934,"connected_time":705000000000,"state":"active","ping":123},{"user_id":22,"name":"RayLewis","steam_id":76561199182640861,"connected_time":2196000000000,"state":"active","ping":61},{"user_id":32,"name":"Biffy","steam_id":76561198026335945,"connected_time":806000000000,"state":"active","ping":64},{"user_id":34,"name":"Bendu (more festive than sheep)","steam_id":76561198827777147,"connected_time":625000000000,"state":"active","ping":106},{"user_id":36,"name":"bobbyboy4020","steam_id":76561198055602369,"connected_time":235000000000,"state":"active","ping":55},{"user_id":37,"name":"v‚Åßotlu","steam_id":76561198211993579,"connected_time":234000000000,"state":"active","ping":57},{"user_id":38,"name":"Zenkoyu","steam_id":76561199221554211,"connected_time":177000000000,"state":"active","ping":62},{"user_id":40,"name":"dbeutler08","steam_id":76561199470595691,"connected_time":94000000000,"state":"active","ping":72},{"user_id":41,"name":"Nuggt","steam_id":76561198027585063,"connected_time":92000000000,"state":"active","ping":55},{"user_id":42,"name":"slimjim557","steam_id":76561199094710853,"connected_time":33000000000,"state":"active","ping":54}]},{"server_id":8,"name":"Uncletopia | Dallas | 1 | All Maps","name_short":"dal-1","host":"dal-1.us.uncletopia.com","port":27015,"enabled":true,"region":"us-central","cc":"us","latitude":32.779167,"longitude":-96.80889,"reserved":0,"last_update":"0001-01-01T00:00:00Z","name_a2s":"Uncletopia | Dallas | 1 | All Maps","protocol":17,"map":"cp_altitude","folder":"tf","game":"Team Fortress","app_id":440,"player_count":0,"max_players":24,"Bots":0,"server_type":"Dedicated","server_os":"Linux","password":true,"vac":true,"version":"7757534","steam_id":85568392924469986,"keywords":["cp","nocrits","nodmgspread","uncletopia"],"game_id":440,"stv_port":27016,"stv_name":"Uncletopia | Dallas | 1 | All Maps | STV","players":null},{"server_id":108,"name":"Uncletopia | Dallas | 2 | All Maps","name_short":"dal-2","host":"dal-1.us.uncletopia.com","port":27025,"enabled":true,"region":"us-central","cc":"us","latitude":32.779167,"longitude":-96.80889,"reserved":0,"last_update":"0001-01-01T00:00:00Z","name_a2s":"Uncletopia | Dallas | 2 | All Maps","protocol":17,"map":"pl_upward","folder":"tf","game":"Team Fortress","app_id":440,"player_count":0,"max_players":24,"Bots":0,"server_type":"Dedicated","server_os":"Linux","password":true,"vac":true,"version":"7757534","steam_id":85568392924469988,"keywords":["nocrits","nodmgspread","payload","uncletopia"],"game_id":440,"stv_port":27026,"stv_name":"Uncletopia | Dallas | 2 | All Maps | STV","players":null},{"server_id":5,"name":"Uncletopia | Frankfurt | 1 | All Maps","name_short":"frk-1","host":"frk-1.de.uncletopia.com","port":27015,"enabled":true,"region":"eu","cc":"de","latitude":50.110924,"longitude":8.682127,"reserved":0,"last_update":"0001-01-01T00:00:00Z","name_a2s":"Uncletopia | Frankfurt | 1 | All Maps","protocol":17,"map":"cp_process_final","folder":"tf","game":"Team Fortress","app_id":440,"player_count":22,"max_players":24,"Bots":0,"server_type":"Dedicated","server_os":"Linux","password":true,"vac":true,"version":"7757534","steam_id":85568392924469989,"keywords":["cp","nocrits","nodmgspread","uncletopia"],"game_id":440,"stv_port":27016,"stv_name":"Uncletopia | Frankfurt | 1 | All Maps | STV","players":[{"user_id":255,"name":"Rops","steam_id":76561198031608011,"connected_time":1090000000000,"state":"active","ping":76},{"user_id":214,"name":"aksu","steam_id":76561198083955517,"connected_time":3364000000000,"state":"active","ping":60},{"user_id":215,"name":"Fran","steam_id":76561199070516960,"connected_time":3358000000000,"state":"active","ping":62},{"user_id":262,"name":"Exe_Red","steam_id":76561198154952759,"connected_time":438000000000,"state":"active","ping":87},{"user_id":232,"name":"anairat","steam_id":76561198863788240,"connected_time":2110000000000,"state":"active","ping":79},{"user_id":171,"name":"Rambi","steam_id":76561199058078505,"connected_time":6329000000000,"state":"active","ping":155},{"user_id":256,"name":"Fnutek","steam_id":76561198082168552,"connected_time":830000000000,"state":"active","ping":57},{"user_id":257,"name":"OTP ¬∞Roticher","steam_id":76561198194559879,"connected_time":820000000000,"state":"active","ping":59},{"user_id":231,"name":"hananamanna","steam_id":76561198006570285,"connected_time":2292000000000,"state":"active","ping":110},{"user_id":243,"name":"M.L.JEW","steam_id":76561198997375055,"connected_time":1565000000000,"state":"active","ping":167},{"user_id":261,"name":"Major Tom","steam_id":76561198117525443,"connected_time":448000000000,"state":"active","ping":61},{"user_id":234,"name":"Jonas Destark","steam_id":76561198030327441,"connected_time":1929000000000,"state":"active","ping":69},{"user_id":196,"name":"Anri Okita's Massive Milkers","steam_id":76561199186352720,"connected_time":4834000000000,"state":"active","ping":84},{"user_id":206,"name":"Kiryu Kazuma","steam_id":76561198120390292,"connected_time":4131000000000,"state":"active","ping":83},{"user_id":264,"name":"noobdog","steam_id":76561198036486671,"connected_time":406000000000,"state":"active","ping":60},{"user_id":210,"name":"SocialistBacon","steam_id":76561198055872267,"connected_time":4023000000000,"state":"active","ping":72},{"user_id":265,"name":"Guy with squares as username","steam_id":76561198269524918,"connected_time":304000000000,"state":"active","ping":57},{"user_id":268,"name":"jerf","steam_id":76561199213901239,"connected_time":12000000000,"state":"active","ping":68},{"user_id":244,"name":"OTP DynamoDM","steam_id":76561198150755391,"connected_time":1556000000000,"state":"active","ping":54},{"user_id":186,"name":"Cosmetic brain","steam_id":76561198055936410,"connected_time":5648000000000,"state":"active","ping":89},{"user_id":253,"name":"Dr.Sees [F2P]","steam_id":76561199219233587,"connected_time":1163000000000,"state":"active","ping":104},{"user_id":246,"name":"fnaf 2","steam_id":76561199149307190,"connected_time":1548000000000,"state":"active","ping":83}]},{"server_id":110,"name":"Uncletopia | Frankfurt | 2 | All Maps","name_short":"frk-2","host":"frk-1.de.uncletopia.com","port":27025,"enabled":true,"region":"eu","cc":"de","latitude":50.110924,"longitude":8.682127,"reserved":0,"last_update":"0001-01-01T00:00:00Z","name_a2s":"Uncletopia | Frankfurt | 2 | All Maps","protocol":17,"map":"pl_swiftwater_final1","folder":"tf","game":"Team Fortress","app_id":440,"player_count":0,"max_players":24,"Bots":0,"server_type":"Dedicated","server_os":"Linux","password":true,"vac":true,"version":"7757534","steam_id":85568392924469990,"keywords":["nocrits","nodmgspread","payload","uncletopia"],"game_id":440,"stv_port":27026,"stv_name":"Uncletopia | Frankfurt | 2 | All Maps | STV","players":null},{"server_id":308,"name":"Uncletopia | Frankfurt | 3 | All Maps","name_short":"frk-3","host":"frk-1.de.uncletopia.com","port":27035,"enabled":true,"region":"eu","cc":"de","latitude":50.110924,"longitude":8.682127,"reserved":0,"last_update":"0001-01-01T00:00:00Z","name_a2s":"Uncletopia | Frankfurt | 3 | All Maps","protocol":17,"map":"pl_barnblitz","folder":"tf","game":"Team Fortress","app_id":440,"player_count":2,"max_players":24,"Bots":0,"server_type":"Dedicated","server_os":"Linux","password":true,"vac":true,"version":"7757534","steam_id":85568392924504274,"keywords":["nocrits","nodmgspread","payload","uncletopia"],"game_id":440,"stv_port":27036,"stv_name":"Uncletopia | Frankfurt | 3 | All Maps | STV","players":[{"user_id":277,"name":"nvmHastee","steam_id":76561199371458295,"connected_time":41000000000,"state":"active","ping":75},{"user_id":273,"name":"kfertyo9","steam_id":76561199469142726,"connected_time":777000000000,"state":"active","ping":94}]},{"server_id":309,"name":"Uncletopia | Frankfurt | 4 | All Maps","name_short":"frk-4","host":"frk-1.de.uncletopia.com","port":27045,"enabled":true,"region":"eu","cc":"de","latitude":50.110924,"longitude":8.682127,"reserved":0,"last_update":"0001-01-01T00:00:00Z","name_a2s":"Uncletopia | Frankfurt | 4 | All Maps","protocol":17,"map":"pl_badwater","folder":"tf","game":"Team Fortress","app_id":440,"player_count":24,"max_players":24,"Bots":0,"server_type":"Dedicated","server_os":"Linux","password":true,"vac":true,"version":"7757534","steam_id":85568392924504275,"keywords":["nocrits","nodmgspread","payload","uncletopia"],"game_id":440,"stv_port":27046,"stv_name":"Uncletopia | Frankfurt | 4 | All Maps | STV","players":[{"user_id":84,"name":"radek","steam_id":76561197998883721,"connected_time":2649000000000,"state":"active","ping":71},{"user_id":127,"name":"Tynnyri","steam_id":76561198075516541,"connected_time":583000000000,"state":"active","ping":109},{"user_id":146,"name":"lanzer","steam_id":76561198049983016,"connected_time":60000000000,"state":"active","ping":92},{"user_id":142,"name":"[Erathia]Maksim","steam_id":76561198178921349,"connected_time":172000000000,"state":"active","ping":89},{"user_id":130,"name":"Dolcelatte","steam_id":76561198038501770,"connected_time":552000000000,"state":"active","ping":59},{"user_id":126,"name":"Koalified","steam_id":76561198095350290,"connected_time":598000000000,"state":"active","ping":179},{"user_id":109,"name":"Towercat","steam_id":76561198013141793,"connected_time":977000000000,"state":"active","ping":69},{"user_id":145,"name":"Yoio","steam_id":76561198326661498,"connected_time":134000000000,"state":"active","ping":83},{"user_id":61,"name":"Aspartus","steam_id":76561198101385763,"connected_time":3600000000000,"state":"active","ping":42},{"user_id":128,"name":"scantron","steam_id":76561199103959197,"connected_time":579000000000,"state":"active","ping":87},{"user_id":124,"name":"Ane≈•√°k","steam_id":76561198159294906,"connected_time":681000000000,"state":"active","ping":57},{"user_id":147,"name":"goktwoxd","steam_id":76561198065114415,"connected_time":54000000000,"state":"active","ping":74},{"user_id":136,"name":"Luke","steam_id":76561197993517025,"connected_time":425000000000,"state":"active","ping":60},{"user_id":117,"name":"Average Strawberry","steam_id":76561199440451201,"connected_time":777000000000,"state":"active","ping":77},{"user_id":132,"name":"the rizzard of oz","steam_id":76561198066631833,"connected_time":496000000000,"state":"active","ping":75},{"user_id":119,"name":"Cuthbert","steam_id":76561198204649481,"connected_time":767000000000,"state":"active","ping":102},{"user_id":133,"name":"Chambersite","steam_id":76561198197022399,"connected_time":488000000000,"state":"active","ping":1176},{"user_id":134,"name":"Mr. Data","steam_id":76561198039083551,"connected_time":463000000000,"state":"active","ping":74},{"user_id":140,"name":"KajaStorm","steam_id":76561199215842872,"connected_time":198000000000,"state":"active","ping":183},{"user_id":135,"name":"AsuX","steam_id":76561197990333289,"connected_time":436000000000,"state":"active","ping":60},{"user_id":123,"name":"Doriian","steam_id":76561198071438810,"connected_time":707000000000,"state":"active","ping":75},{"user_id":91,"name":"Fancy","steam_id":76561198350658462,"connected_time":2449000000000,"state":"active","ping":75},{"user_id":139,"name":"{CPBR}ARKHALIS","steam_id":76561198993900003,"connected_time":318000000000,"state":"active","ping":74},{"user_id":137,"name":"don¬¥t let your memes be dreams","steam_id":76561198345246748,"connected_time":396000000000,"state":"active","ping":72}]},{"server_id":310,"name":"Uncletopia | Frankfurt | 5 | All Maps","name_short":"frk-5","host":"frk-1.de.uncletopia.com","port":27055,"enabled":true,"region":"eu","cc":"de","latitude":50.110924,"longitude":8.682127,"reserved":0,"last_update":"0001-01-01T00:00:00Z","name_a2s":"Uncletopia | Frankfurt | 5 | All Maps","protocol":17,"map":"cp_powerhouse","folder":"tf","game":"Team Fortress","app_id":440,"player_count":24,"max_players":24,"Bots":0,"server_type":"Dedicated","server_os":"Linux","password":true,"vac":true,"version":"7757534","steam_id":85568392924504277,"keywords":["cp","nocrits","nodmgspread","uncletopia"],"game_id":440,"stv_port":27056,"stv_name":"Uncletopia | Frankfurt | 5 | All Maps | STV","players":[{"user_id":406,"name":"Nugget","steam_id":76561198338916407,"connected_time":1893000000000,"state":"active","ping":75},{"user_id":431,"name":"–°–ê–ù–Ø –í–û–î–Ü–õ–ê","steam_id":76561198343380238,"connected_time":280000000000,"state":"active","ping":74},{"user_id":348,"name":"Philip","steam_id":76561198420288961,"connected_time":4501000000000,"state":"active","ping":58},{"user_id":280,"name":"Cumbustible Punda #SaveTF2","steam_id":76561197974274677,"connected_time":8750000000000,"state":"active","ping":55},{"user_id":430,"name":"gaming","steam_id":76561199015038728,"connected_time":618000000000,"state":"active","ping":77},{"user_id":367,"name":"king251311","steam_id":76561199063310889,"connected_time":3496000000000,"state":"active","ping":76},{"user_id":401,"name":"Noob_with_source","steam_id":76561198870362103,"connected_time":2067000000000,"state":"active","ping":61},{"user_id":402,"name":"Aregularhuman","steam_id":76561198343319848,"connected_time":2053000000000,"state":"active","ping":40},{"user_id":404,"name":"Sch","steam_id":76561198071341689,"connected_time":1973000000000,"state":"active","ping":58},{"user_id":366,"name":"niaerniopawrjnko","steam_id":76561198030408772,"connected_time":3671000000000,"state":"active","ping":54},{"user_id":413,"name":"JJaworek","steam_id":76561198044021610,"connected_time":1220000000000,"state":"active","ping":60},{"user_id":426,"name":"Bonca","steam_id":76561198137503531,"connected_time":733000000000,"state":"active","ping":79},{"user_id":410,"name":"Toasty5050","steam_id":76561198073540881,"connected_time":1344000000000,"state":"active","ping":46},{"user_id":408,"name":"juupel","steam_id":76561198000562317,"connected_time":1541000000000,"state":"active","ping":75},{"user_id":414,"name":"MatesThePlayer","steam_id":76561198066156449,"connected_time":1207000000000,"state":"active","ping":59},{"user_id":415,"name":"happy","steam_id":76561198053141766,"connected_time":1204000000000,"state":"active","ping":98},{"user_id":416,"name":"St√ºmpy","steam_id":76561198255904077,"connected_time":1199000000000,"state":"active","ping":67},{"user_id":344,"name":"Autumnsky","steam_id":76561198055161203,"connected_time":5155000000000,"state":"active","ping":59},{"user_id":386,"name":"HimpoX","steam_id":76561198043946778,"connected_time":2969000000000,"state":"active","ping":101},{"user_id":429,"name":"Michael","steam_id":76561198106684566,"connected_time":636000000000,"state":"active","ping":82},{"user_id":424,"name":"citronous","steam_id":76561198093290934,"connected_time":831000000000,"state":"active","ping":58},{"user_id":422,"name":"Superiumentarius","steam_id":76561198081642249,"connected_time":1051000000000,"state":"active","ping":57},{"user_id":425,"name":"night.s","steam_id":76561198326287823,"connected_time":759000000000,"state":"active","ping":86},{"user_id":409,"name":"Rimx","steam_id":76561198053034840,"connected_time":1502000000000,"state":"active","ping":99}]},{"server_id":311,"name":"Uncletopia | Frankfurt | 6 | All Maps","name_short":"frk-6","host":"frk-1.de.uncletopia.com","port":27065,"enabled":true,"region":"eu","cc":"de","latitude":50.110924,"longitude":8.682127,"reserved":0,"last_update":"0001-01-01T00:00:00Z","name_a2s":"Uncletopia | Frankfurt | 6 | All Maps","protocol":17,"map":"pl_badwater","folder":"tf","game":"Team Fortress","app_id":440,"player_count":20,"max_players":24,"Bots":0,"server_type":"Dedicated","server_os":"Linux","password":true,"vac":true,"version":"7757534","steam_id":85568392924504278,"keywords":["nocrits","nodmgspread","payload","uncletopia"],"game_id":440,"stv_port":27066,"stv_name":"Uncletopia | Frankfurt | 6 | All Maps | STV","players":[{"user_id":165,"name":"Din Javel","steam_id":76561198043018352,"connected_time":837000000000,"state":"active","ping":69},{"user_id":160,"name":"a fresh pan of lemon squares","steam_id":76561197984071376,"connected_time":1207000000000,"state":"active","ping":70},{"user_id":166,"name":"petrutrares1991","steam_id":76561199228732234,"connected_time":535000000000,"state":"active","ping":97},{"user_id":150,"name":"Nuclear Lunar","steam_id":76561198878380463,"connected_time":2281000000000,"state":"active","ping":62},{"user_id":155,"name":"Dr. Cox","steam_id":76561198246629218,"connected_time":1744000000000,"state":"active","ping":101},{"user_id":167,"name":"–í–û–ô–¢–ê","steam_id":76561198375100393,"connected_time":337000000000,"state":"active","ping":56},{"user_id":157,"name":"ChrisMightShootYou (f2p)","steam_id":76561199002764196,"connected_time":1587000000000,"state":"active","ping":84},{"user_id":168,"name":"public agent","steam_id":76561199067841257,"connected_time":325000000000,"state":"active","ping":74},{"user_id":169,"name":"Grumpy","steam_id":76561198331087679,"connected_time":308000000000,"state":"active","ping":72},{"user_id":162,"name":"Egg Guzzler","steam_id":76561199109194893,"connected_time":1076000000000,"state":"active","ping":225},{"user_id":170,"name":"K√°men","steam_id":76561199167174993,"connected_time":301000000000,"state":"active","ping":71},{"user_id":171,"name":"adam","steam_id":76561199024816404,"connected_time":270000000000,"state":"active","ping":77},{"user_id":172,"name":"JoueurFran√ßais","steam_id":76561198108081068,"connected_time":237000000000,"state":"active","ping":72},{"user_id":173,"name":"goo","steam_id":76561198992256662,"connected_time":191000000000,"state":"active","ping":87},{"user_id":176,"name":"Denialman (Muted)","steam_id":76561198309182092,"connected_time":110000000000,"state":"active","ping":59},{"user_id":175,"name":"yikes","steam_id":76561198426759902,"connected_time":154000000000,"state":"active","ping":60},{"user_id":177,"name":"Jiant","steam_id":76561198374998274,"connected_time":106000000000,"state":"active","ping":88},{"user_id":178,"name":"teddyswk","steam_id":76561198404939571,"connected_time":96000000000,"state":"active","ping":84},{"user_id":179,"name":"mismatch","steam_id":76561198041993514,"connected_time":69000000000,"state":"active","ping":59},{"user_id":180,"name":"KittyKate ‚ù§","steam_id":76561198116340817,"connected_time":16000000000,"state":"active","ping":68}]},{"server_id":23,"name":"Uncletopia | Frankfurt | 7 | Stopwatch Beta","name_short":"frk-7","host":"frk-1.de.uncletopia.com","port":27075,"enabled":true,"region":"eu","cc":"de","latitude":50.110924,"longitude":8.682127,"reserved":0,"last_update":"0001-01-01T00:00:00Z","name_a2s":"Uncletopia | Frankfurt | 7 | Stopwatch Beta","protocol":17,"map":"pl_frontier_final","folder":"tf","game":"Team Fortress","app_id":440,"player_count":0,"max_players":24,"Bots":0,"server_type":"Dedicated","server_os":"Linux","password":true,"vac":true,"version":"7757534","steam_id":85568392924742827,"keywords":["nocrits","nodmgspread","payload","uncletopia"],"game_id":440,"stv_port":27076,"stv_name":"Uncletopia | Frankfurt | 7 | Stopwatch Beta | STV","players":null},{"server_id":24,"name":"Uncletopia | Frankfurt | 8 | Community","name_short":"frk-8","host":"frk-1.de.uncletopia.com","port":27085,"enabled":true,"region":"eu","cc":"de","latitude":50.110924,"longitude":8.682127,"reserved":0,"last_update":"0001-01-01T00:00:00Z","name_a2s":"Uncletopia | Frankfurt | 8 | Community","protocol":17,"map":"workshop/pl_shoreleave_rc1.ugc1238849347","folder":"tf","game":"Team Fortress","app_id":440,"player_count":4,"max_players":24,"Bots":0,"server_type":"Dedicated","server_os":"Linux","password":true,"vac":true,"version":"7757534","steam_id":85568392924742828,"keywords":["nocrits","nodmgspread","payload","uncletopia"],"game_id":440,"stv_port":27086,"stv_name":"Uncletopia | Frankfurt | 8 | Community | STV","players":[{"user_id":34,"name":"B R O W N","steam_id":76561198160830606,"connected_time":957000000000,"state":"spawning","ping":211},{"user_id":38,"name":"Krea_tor","steam_id":76561199049663197,"connected_time":283000000000,"state":"spawning","ping":162},{"user_id":28,"name":"MoeKawaiiSugoiDesuHentaiEcchi39","steam_id":76561198069448495,"connected_time":2673000000000,"state":"spawning","ping":170},{"user_id":39,"name":"Radegast the Brown","steam_id":76561198075489505,"connected_time":14000000000,"state":"spawning","ping":262}]},{"server_id":202,"name":"Uncletopia | Hong Kong | 1 | All Maps","name_short":"hgk-1","host":"hgk-1.hk.uncletopia.com","port":27015,"enabled":true,"region":"asia","cc":"hk","latitude":22.302711,"longitude":114.177216,"reserved":0,"last_update":"0001-01-01T00:00:00Z","name_a2s":"Uncletopia | Hong Kong | 1 | All Maps","protocol":17,"map":"koth_harvest_final","folder":"tf","game":"Team Fortress","app_id":440,"player_count":0,"max_players":24,"Bots":0,"server_type":"Dedicated","server_os":"Linux","password":true,"vac":true,"version":"7757534","steam_id":85568392924494504,"keywords":["cp","nocrits","nodmgspread","uncletopia"],"game_id":440,"stv_port":27016,"stv_name":"Uncletopia | Hong Kong | 1 | All Maps | STV","players":null},{"server_id":1,"name":"Uncletopia | Los Angeles | 1 | All Maps","name_short":"lax-1","host":"lax-1.us.uncletopia.com","port":27015,"enabled":true,"region":"us-west","cc":"us","latitude":33.94279,"longitude":-118.41004,"reserved":0,"last_update":"0001-01-01T00:00:00Z","name_a2s":"Uncletopia | Los Angeles | 1 | All Maps","protocol":17,"map":"cp_dustbowl","folder":"tf","game":"Team Fortress","app_id":440,"player_count":0,"max_players":24,"Bots":0,"server_type":"Dedicated","server_os":"Linux","password":true,"vac":true,"version":"7757534","steam_id":85568392924469991,"keywords":["cp","nocrits","nodmgspread","uncletopia"],"game_id":440,"stv_port":27016,"stv_name":"Uncletopia | Los Angeles | 1 | All Maps | STV","players":null},{"server_id":112,"name":"Uncletopia | Los Angeles | 2 | All Maps","name_short":"lax-2","host":"lax-1.us.uncletopia.com","port":27025,"enabled":true,"region":"us-west","cc":"us","latitude":33.94279,"longitude":-118.41004,"reserved":0,"last_update":"0001-01-01T00:00:00Z","name_a2s":"Uncletopia | Los Angeles | 2 | All Maps","protocol":17,"map":"koth_cascade","folder":"tf","game":"Team Fortress","app_id":440,"player_count":0,"max_players":24,"Bots":0,"server_type":"Dedicated","server_os":"Linux","password":true,"vac":true,"version":"7757534","steam_id":85568392924469992,"keywords":["cp","nocrits","nodmgspread","uncletopia"],"game_id":440,"stv_port":27026,"stv_name":"Uncletopia | Los Angeles | 2 | All Maps | STV","players":null},{"server_id":324,"name":"Uncletopia | Los Angeles | 3 | All Maps","name_short":"lax-3","host":"lax-1.us.uncletopia.com","port":27035,"enabled":true,"region":"us-west","cc":"us","latitude":33.94279,"longitude":-118.41004,"reserved":0,"last_update":"0001-01-01T00:00:00Z","name_a2s":"Uncletopia | Los Angeles | 3 | All Maps","protocol":17,"map":"koth_cascade","folder":"tf","game":"Team Fortress","app_id":440,"player_count":0,"max_players":24,"Bots":0,"server_type":"Dedicated","server_os":"Linux","password":true,"vac":true,"version":"7757534","steam_id":85568392924510198,"keywords":["cp","nocrits","nodmgspread","uncletopia"],"game_id":440,"stv_port":27036,"stv_name":"Uncletopia | Los Angeles | 3 | All Maps | STV","players":null},{"server_id":25,"name":"Uncletopia | Los Angeles | 4 | Stopwatch Beta","name_short":"lax-4","host":"lax-1.us.uncletopia.com","port":27045,"enabled":true,"region":"us-west","cc":"us","latitude":33.94279,"longitude":-118.41004,"reserved":0,"last_update":"0001-01-01T00:00:00Z","name_a2s":"Uncletopia | Los Angeles | 4 | Stopwatch Beta","protocol":17,"map":"pl_frontier_final","folder":"tf","game":"Team Fortress","app_id":440,"player_count":0,"max_players":24,"Bots":0,"server_type":"Dedicated","server_os":"Linux","password":true,"vac":true,"version":"7757534","steam_id":85568392924510199,"keywords":["nocrits","nodmgspread","payload","uncletopia"],"game_id":440,"stv_port":27046,"stv_name":"Uncletopia | Los Angeles | 4 | Stopwatch Beta | STV","players":null},{"server_id":11,"name":"Uncletopia | London | 1 | All Maps","name_short":"lon-1","host":"lon-1.uk.uncletopia.com","port":27015,"enabled":true,"region":"eu","cc":"gb","latitude":51.509865,"longitude":-0.118092,"reserved":0,"last_update":"0001-01-01T00:00:00Z","name_a2s":"Uncletopia | London | 1 | All Maps","protocol":17,"map":"pl_pier","folder":"tf","game":"Team Fortress","app_id":440,"player_count":24,"max_players":24,"Bots":0,"server_type":"Dedicated","server_os":"Linux","password":true,"vac":true,"version":"7757534","steam_id":85568392924367362,"keywords":["nocrits","nodmgspread","payload","uncletopia"],"game_id":440,"stv_port":27016,"stv_name":"Uncletopia | London | 1 | All Maps | STV","players":[{"user_id":527,"name":"eoy","steam_id":76561198116511067,"connected_time":1769000000000,"state":"active","ping":92},{"user_id":536,"name":"lvl. 50 honkler","steam_id":76561198061688660,"connected_time":1390000000000,"state":"active","ping":119},{"user_id":528,"name":"üåº HugeE","steam_id":76561198245495152,"connected_time":1687000000000,"state":"active","ping":62},{"user_id":542,"name":"Toofy","steam_id":76561197989727907,"connected_time":354000000000,"state":"active","ping":45},{"user_id":539,"name":"XVoqueX","steam_id":76561198092369739,"connected_time":527000000000,"state":"active","ping":69},{"user_id":505,"name":"Pungkrockaren","steam_id":76561198050214002,"connected_time":2392000000000,"state":"active","ping":62},{"user_id":465,"name":"DoraTheExplora","steam_id":76561198059319529,"connected_time":3599000000000,"state":"active","ping":91},{"user_id":451,"name":"Moja jaja ≈°lajdraju","steam_id":76561198280390098,"connected_time":4204000000000,"state":"active","ping":91},{"user_id":379,"name":"Grillem Dafoe","steam_id":76561198306874574,"connected_time":9916000000000,"state":"active","ping":62},{"user_id":526,"name":"FairlyFatFungus","steam_id":76561199152828854,"connected_time":1771000000000,"state":"active","ping":46},{"user_id":535,"name":"bobek","steam_id":76561198092312720,"connected_time":1515000000000,"state":"active","ping":71},{"user_id":532,"name":"pijuka0620","steam_id":76561198083063005,"connected_time":1587000000000,"state":"active","ping":42},{"user_id":454,"name":"meriones","steam_id":76561198034234373,"connected_time":4155000000000,"state":"active","ping":44},{"user_id":517,"name":"brother tyrannosaurus","steam_id":76561197994758189,"connected_time":2170000000000,"state":"active","ping":48},{"user_id":500,"name":"Bruno","steam_id":76561198011340227,"connected_time":2489000000000,"state":"active","ping":69},{"user_id":522,"name":"LAMC","steam_id":76561199066888917,"connected_time":1850000000000,"state":"active","ping":73},{"user_id":529,"name":"Lucker","steam_id":76561198079469430,"connected_time":1672000000000,"state":"active","ping":69},{"user_id":537,"name":"Sotviing","steam_id":76561198154311159,"connected_time":1071000000000,"state":"active","ping":80},{"user_id":540,"name":"Posho","steam_id":76561198062396436,"connected_time":377000000000,"state":"active","ping":43},{"user_id":538,"name":"Founder","steam_id":76561198193763778,"connected_time":1004000000000,"state":"active","ping":68},{"user_id":541,"name":"lore","steam_id":76561198120984188,"connected_time":377000000000,"state":"active","ping":85},{"user_id":534,"name":"FANTANO MELON HEAD","steam_id":76561198146194820,"connected_time":1542000000000,"state":"active","ping":59},{"user_id":478,"name":"Nobaddy","steam_id":76561198037871007,"connected_time":3109000000000,"state":"active","ping":74},{"user_id":486,"name":"ciliorkun18","steam_id":76561198228942500,"connected_time":2871000000000,"state":"active","ping":99}]},{"server_id":114,"name":"Uncletopia | London | 2 | All Maps","name_short":"lon-2","host":"lon-1.uk.uncletopia.com","port":27025,"enabled":true,"region":"eu","cc":"gb","latitude":51.509865,"longitude":-0.118092,"reserved":0,"last_update":"0001-01-01T00:00:00Z","name_a2s":"Uncletopia | London | 2 | All Maps","protocol":17,"map":"pl_snowycoast","folder":"tf","game":"Team Fortress","app_id":440,"player_count":23,"max_players":24,"Bots":0,"server_type":"Dedicated","server_os":"Linux","password":true,"vac":true,"version":"7757534","steam_id":85568392924470941,"keywords":["nocrits","nodmgspread","payload","uncletopia"],"game_id":440,"stv_port":27026,"stv_name":"Uncletopia | London | 2 | All Maps | STV","players":[{"user_id":476,"name":"leonardini.w #SaveTF2","steam_id":76561199097963071,"connected_time":793000000000,"state":"active","ping":94},{"user_id":467,"name":"KlevukaS‚Ñ¢","steam_id":76561198312867604,"connected_time":1635000000000,"state":"active","ping":94},{"user_id":487,"name":"nik","steam_id":76561198210482280,"connected_time":27000000000,"state":"active","ping":57},{"user_id":453,"name":"hellbound","steam_id":76561198160562773,"connected_time":2649000000000,"state":"active","ping":89},{"user_id":460,"name":"dorthyhy","steam_id":76561198062578399,"connected_time":2276000000000,"state":"active","ping":64},{"user_id":461,"name":"dysesthesia","steam_id":76561198027159018,"connected_time":2274000000000,"state":"active","ping":147},{"user_id":484,"name":"AWJ ÀÜ-ÀÜ","steam_id":76561198053628243,"connected_time":181000000000,"state":"active","ping":44},{"user_id":418,"name":"zek","steam_id":76561198862763731,"connected_time":4626000000000,"state":"active","ping":72},{"user_id":448,"name":"huh","steam_id":76561198079277466,"connected_time":2827000000000,"state":"active","ping":75},{"user_id":442,"name":"AnonTron","steam_id":76561199031895493,"connected_time":3381000000000,"state":"active","ping":170},{"user_id":485,"name":"panakid","steam_id":76561198364121077,"connected_time":176000000000,"state":"active","ping":103},{"user_id":473,"name":"3:17 PM","steam_id":76561198074917015,"connected_time":847000000000,"state":"active","ping":87},{"user_id":486,"name":"Remax5","steam_id":76561198155644993,"connected_time":112000000000,"state":"active","ping":118},{"user_id":468,"name":"dgz","steam_id":76561197979345019,"connected_time":1574000000000,"state":"active","ping":99},{"user_id":477,"name":"Drdarlekzzz","steam_id":76561198160141785,"connected_time":783000000000,"state":"active","ping":42},{"user_id":416,"name":"Night Fury","steam_id":76561197995207032,"connected_time":4917000000000,"state":"active","ping":88},{"user_id":469,"name":"pizza time","steam_id":76561199015899793,"connected_time":1561000000000,"state":"active","ping":50},{"user_id":423,"name":"Mr. Mundy","steam_id":76561198132008918,"connected_time":4314000000000,"state":"active","ping":91},{"user_id":458,"name":"EEEEEH","steam_id":76561198126717413,"connected_time":2464000000000,"state":"active","ping":90},{"user_id":482,"name":"Pablo","steam_id":76561198160394046,"connected_time":346000000000,"state":"active","ping":117},{"user_id":245,"name":"Hexagon","steam_id":76561198151205758,"connected_time":16596000000000,"state":"active","ping":69},{"user_id":438,"name":"Lyra","steam_id":76561198043601838,"connected_time":3698000000000,"state":"active","ping":74},{"user_id":480,"name":"Jeg","steam_id":76561198405291408,"connected_time":558000000000,"state":"active","ping":77}]},{"server_id":320,"name":"Uncletopia | London | 3 | All Maps","name_short":"lon-3","host":"lon-1.uk.uncletopia.com","port":27035,"enabled":true,"region":"eu","cc":"gb","latitude":51.509865,"longitude":-0.118092,"reserved":0,"last_update":"0001-01-01T00:00:00Z","name_a2s":"Uncletopia | London | 3 | All Maps","protocol":17,"map":"pl_borneo","folder":"tf","game":"Team Fortress","app_id":440,"player_count":24,"max_players":24,"Bots":0,"server_type":"Dedicated","server_os":"Linux","password":true,"vac":true,"version":"7757534","steam_id":85568392924510192,"keywords":["nocrits","nodmgspread","payload","uncletopia"],"game_id":440,"stv_port":27036,"stv_name":"Uncletopia | London | 3 | All Maps | STV","players":[{"user_id":538,"name":"Silvan","steam_id":76561198415391988,"connected_time":711000000000,"state":"active","ping":61},{"user_id":567,"name":"Hydro","steam_id":76561199081791855,"connected_time":73000000000,"state":"active","ping":55},{"user_id":484,"name":"rmn","steam_id":76561198182789386,"connected_time":2805000000000,"state":"active","ping":62},{"user_id":568,"name":"Cunk","steam_id":76561198996618201,"connected_time":52000000000,"state":"active","ping":58},{"user_id":537,"name":"otro 0","steam_id":76561199472138537,"connected_time":775000000000,"state":"active","ping":70},{"user_id":528,"name":"The_Jaystone","steam_id":76561198126280691,"connected_time":965000000000,"state":"active","ping":36},{"user_id":547,"name":"my hamster died last week","steam_id":76561198834897089,"connected_time":622000000000,"state":"active","ping":67},{"user_id":540,"name":"Ablativus","steam_id":76561198025698470,"connected_time":675000000000,"state":"active","ping":83},{"user_id":452,"name":"Wario","steam_id":76561198356089255,"connected_time":5792000000000,"state":"active","ping":82},{"user_id":527,"name":"hxcrry","steam_id":76561199452047896,"connected_time":1009000000000,"state":"active","ping":41},{"user_id":526,"name":"Ray","steam_id":76561199471696026,"connected_time":1067000000000,"state":"active","ping":74},{"user_id":569,"name":"Mr Lidl","steam_id":76561198426522902,"connected_time":46000000000,"state":"active","ping":57},{"user_id":570,"name":"G6 sherlock","steam_id":76561198802967796,"connected_time":25000000000,"state":"active","ping":121},{"user_id":542,"name":"zion","steam_id":76561199433913089,"connected_time":670000000000,"state":"active","ping":90},{"user_id":534,"name":"Swayer","steam_id":76561198056192460,"connected_time":823000000000,"state":"active","ping":66},{"user_id":531,"name":"The Lobotomite","steam_id":76561198060638325,"connected_time":932000000000,"state":"active","ping":60},{"user_id":535,"name":"Tesco Clubcard","steam_id":76561197968575924,"connected_time":803000000000,"state":"active","ping":45},{"user_id":548,"name":"Sneaky boi","steam_id":76561199195985387,"connected_time":522000000000,"state":"active","ping":95},{"user_id":560,"name":"Renard pos4","steam_id":76561197998908594,"connected_time":277000000000,"state":"active","ping":66},{"user_id":532,"name":"Milfshake","steam_id":76561198208740557,"connected_time":928000000000,"state":"active","ping":65},{"user_id":507,"name":"ChaosMaster","steam_id":76561198360983155,"connected_time":1773000000000,"state":"active","ping":94},{"user_id":545,"name":"BallinScout","steam_id":76561198152443697,"connected_time":637000000000,"state":"active","ping":52},{"user_id":566,"name":"slnc","steam_id":76561198041151496,"connected_time":91000000000,"state":"active","ping":78},{"user_id":546,"name":"Tomura Shigaraki","steam_id":76561198127465110,"connected_time":633000000000,"state":"active","ping":85}]},{"server_id":321,"name":"Uncletopia | London | 4 | All Maps","name_short":"lon-4","host":"lon-1.uk.uncletopia.com","port":27045,"enabled":true,"region":"eu","cc":"gb","latitude":51.509865,"longitude":-0.118092,"reserved":0,"last_update":"0001-01-01T00:00:00Z","name_a2s":"Uncletopia | London | 4 | All Maps","protocol":17,"map":"pl_frontier_final","folder":"tf","game":"Team Fortress","app_id":440,"player_count":23,"max_players":24,"Bots":0,"server_type":"Dedicated","server_os":"Linux","password":true,"vac":true,"version":"7757534","steam_id":85568392924510193,"keywords":["nocrits","nodmgspread","payload","uncletopia"],"game_id":440,"stv_port":27046,"stv_name":"Uncletopia | London | 4 | All Maps | STV","players":[{"user_id":172,"name":"Uncle Terry","steam_id":76561198396415736,"connected_time":291000000000,"state":"active","ping":55},{"user_id":149,"name":"Uncle Owen","steam_id":76561198157999291,"connected_time":1530000000000,"state":"active","ping":91},{"user_id":163,"name":"Biggest Boss [Knockout]","steam_id":76561198044387120,"connected_time":1209000000000,"state":"active","ping":99},{"user_id":166,"name":"Planet","steam_id":76561198044626616,"connected_time":893000000000,"state":"active","ping":61},{"user_id":147,"name":"‚ôöjar","steam_id":76561198156384007,"connected_time":1688000000000,"state":"active","ping":52},{"user_id":151,"name":"The 4th Doctor","steam_id":76561198191516706,"connected_time":1501000000000,"state":"active","ping":83},{"user_id":136,"name":"chef","steam_id":76561198168641792,"connected_time":2381000000000,"state":"active","ping":42},{"user_id":152,"name":"Refre35","steam_id":76561198971840738,"connected_time":1429000000000,"state":"active","ping":85},{"user_id":160,"name":"Banehallow","steam_id":76561198020385353,"connected_time":1242000000000,"state":"active","ping":73},{"user_id":159,"name":"Craig Crusade","steam_id":76561199225918086,"connected_time":1284000000000,"state":"active","ping":61},{"user_id":130,"name":"Not Friends","steam_id":76561198043775605,"connected_time":2520000000000,"state":"active","ping":100},{"user_id":143,"name":"‚ú™ Danny","steam_id":76561198104483241,"connected_time":1822000000000,"state":"active","ping":48},{"user_id":154,"name":"VibeCheck","steam_id":76561198425961218,"connected_time":1405000000000,"state":"active","ping":112},{"user_id":164,"name":"SilverSV","steam_id":76561198164579830,"connected_time":1183000000000,"state":"active","ping":61},{"user_id":155,"name":"Liten Jaevel","steam_id":76561198215876044,"connected_time":1395000000000,"state":"active","ping":131},{"user_id":170,"name":"zaleek69","steam_id":76561198058877595,"connected_time":609000000000,"state":"active","ping":86},{"user_id":144,"name":"PWizard","steam_id":76561198026458489,"connected_time":1817000000000,"state":"active","ping":70},{"user_id":161,"name":"Rubi","steam_id":76561198139410003,"connected_time":1227000000000,"state":"active","ping":90},{"user_id":90,"name":":)","steam_id":76561198039964082,"connected_time":6362000000000,"state":"active","ping":66},{"user_id":103,"name":"Tort","steam_id":76561198329646769,"connected_time":5255000000000,"state":"active","ping":56},{"user_id":93,"name":"0xDEADBEEF","steam_id":76561199075416111,"connected_time":5883000000000,"state":"active","ping":78},{"user_id":162,"name":"‚ò© Knightz ‚ò©","steam_id":76561198040936414,"connected_time":1223000000000,"state":"active","ping":113},{"user_id":174,"name":"Daemon","steam_id":76561198007015109,"connected_time":200000000000,"state":"active","ping":53}]},{"server_id":21,"name":"Uncletopia | London | 5 | All Maps","name_short":"lon-5","host":"lon-1.uk.uncletopia.com","port":27055,"enabled":true,"region":"eu","cc":"gb","latitude":51.509865,"longitude":-0.118092,"reserved":0,"last_update":"0001-01-01T00:00:00Z","name_a2s":"Uncletopia | London | 5 | All Maps","protocol":17,"map":"koth_lakeside_final","folder":"tf","game":"Team Fortress","app_id":440,"player_count":0,"max_players":24,"Bots":0,"server_type":"Dedicated","server_os":"Linux","password":true,"vac":true,"version":"7757534","steam_id":85568392924742829,"keywords":["cp","nocrits","nodmgspread","uncletopia"],"game_id":440,"stv_port":27056,"stv_name":"Uncletopia | London | 5 | All Maps | STV","players":null},{"server_id":22,"name":"Uncletopia | London | 6 | All Maps","name_short":"lon-6","host":"lon-1.uk.uncletopia.com","port":27065,"enabled":true,"region":"eu","cc":"gb","latitude":51.509865,"longitude":-0.118092,"reserved":0,"last_update":"0001-01-01T00:00:00Z","name_a2s":"Uncletopia | London | 6 | All Maps","protocol":17,"map":"koth_viaduct","folder":"tf","game":"Team Fortress","app_id":440,"player_count":0,"max_players":24,"Bots":0,"server_type":"Dedicated","server_os":"Linux","password":true,"vac":true,"version":"7757534","steam_id":85568392924742830,"keywords":["cp","nocrits","nodmgspread","uncletopia"],"game_id":440,"stv_port":27066,"stv_name":"Uncletopia | London | 6 | All Maps | STV","players":null},{"server_id":40,"name":"Uncletopia | London | 7 | No Payload","name_short":"lon-7","host":"lon-1.uk.uncletopia.com","port":27075,"enabled":true,"region":"eu","cc":"gb","latitude":51.509865,"longitude":-0.118092,"reserved":0,"last_update":"0001-01-01T00:00:00Z","name_a2s":"Uncletopia | London | 7 | No Payload","protocol":17,"map":"cp_5gorge","folder":"tf","game":"Team Fortress","app_id":440,"player_count":16,"max_players":24,"Bots":0,"server_type":"Dedicated","server_os":"Linux","password":true,"vac":true,"version":"7757534","steam_id":85568392924964314,"keywords":["cp","nocrits","nodmgspread","uncletopia"],"game_id":440,"stv_port":27076,"stv_name":"Uncletopia | London | 7 | No Payload | STV","players":[{"user_id":50,"name":"fried","steam_id":76561198307522022,"connected_time":4071000000000,"state":"active","ping":57},{"user_id":52,"name":"justin_ (f2p) (real)","steam_id":76561198839843428,"connected_time":2786000000000,"state":"active","ping":126},{"user_id":61,"name":"Nerfan20 #SaveTF2","steam_id":76561198227391788,"connected_time":1026000000000,"state":"active","ping":90},{"user_id":9,"name":"Joshua","steam_id":76561198159409260,"connected_time":8467000000000,"state":"active","ping":86},{"user_id":62,"name":"Hruon Nordhorn","steam_id":76561198086125014,"connected_time":1001000000000,"state":"active","ping":106},{"user_id":63,"name":"–ü–∞—Å–∫—É–¥–µ—Ä","steam_id":76561199002864030,"connected_time":987000000000,"state":"active","ping":107},{"user_id":64,"name":"–†—ç–ø—Ç–∏–ª–∏—è","steam_id":76561198258401816,"connected_time":967000000000,"state":"active","ping":102},{"user_id":65,"name":"Dr. PeePee","steam_id":76561198024506307,"connected_time":939000000000,"state":"active","ping":101},{"user_id":66,"name":"Minimi","steam_id":76561198873850443,"connected_time":697000000000,"state":"active","ping":44},{"user_id":67,"name":"the real lancer from deltarune","steam_id":76561199078505144,"connected_time":626000000000,"state":"active","ping":91},{"user_id":19,"name":"Cavalier","steam_id":76561198077283980,"connected_time":5892000000000,"state":"active","ping":69},{"user_id":68,"name":"Engineer On Meth","steam_id":76561199181867441,"connected_time":527000000000,"state":"active","ping":56},{"user_id":70,"name":"JohnnyRakieta","steam_id":76561198855789287,"connected_time":284000000000,"state":"active","ping":80},{"user_id":71,"name":"moonsurface","steam_id":76561198370493860,"connected_time":167000000000,"state":"active","ping":105},{"user_id":72,"name":"Adopted?","steam_id":76561198118667043,"connected_time":60000000000,"state":"active","ping":42},{"user_id":73,"name":"The Deadly Doughnut","steam_id":76561198079049349,"connected_time":46000000000,"state":"active","ping":48}]},{"server_id":41,"name":"Uncletopia | London | 8 | Community","name_short":"lon-8","host":"lon-1.uk.uncletopia.com","port":27085,"enabled":true,"region":"eu","cc":"gb","latitude":51.509865,"longitude":-0.118092,"reserved":0,"last_update":"0001-01-01T00:00:00Z","name_a2s":"Uncletopia | London | 8 | Community","protocol":17,"map":"workshop/pl_cashworks_final1.ugc2904065412","folder":"tf","game":"Team Fortress","app_id":440,"player_count":11,"max_players":24,"Bots":0,"server_type":"Dedicated","server_os":"Linux","password":true,"vac":true,"version":"7757534","steam_id":85568392924964315,"keywords":["nocrits","nodmgspread","payload","uncletopia"],"game_id":440,"stv_port":27086,"stv_name":"Uncletopia | London | 8 | Community | STV","players":[{"user_id":261,"name":"P Diddy","steam_id":76561198829344838,"connected_time":2858000000000,"state":"active","ping":57},{"user_id":280,"name":"JeffDrive34","steam_id":76561199044310849,"connected_time":685000000000,"state":"active","ping":78},{"user_id":167,"name":"Sgreff","steam_id":76561198036304365,"connected_time":10327000000000,"state":"active","ping":44},{"user_id":284,"name":"wouris","steam_id":76561198876188003,"connected_time":79000000000,"state":"active","ping":62},{"user_id":276,"name":"average f2p","steam_id":76561199136308055,"connected_time":1194000000000,"state":"active","ping":55},{"user_id":281,"name":"Fus in Boots","steam_id":76561198053897722,"connected_time":587000000000,"state":"active","ping":55},{"user_id":168,"name":"Fat Pigeon","steam_id":76561198817940142,"connected_time":10304000000000,"state":"active","ping":46},{"user_id":283,"name":"b„ãõMb jŒªCK","steam_id":76561197990279891,"connected_time":472000000000,"state":"active","ping":73},{"user_id":275,"name":"Rob_Duxk","steam_id":76561198966203087,"connected_time":1344000000000,"state":"active","ping":102},{"user_id":190,"name":"X-tis","steam_id":76561198043837480,"connected_time":8148000000000,"state":"active","ping":76},{"user_id":170,"name":"Jonathan","steam_id":76561198087988880,"connected_time":10221000000000,"state":"active","ping":67}]},{"server_id":300,"name":"Uncletopia | Montr√©al | 1 | All Maps","name_short":"mtl-1","host":"mtl-1.ca.uncletopia.com","port":27015,"enabled":true,"region":"us-east","cc":"ca","latitude":45.50889,"longitude":-73.56167,"reserved":0,"last_update":"0001-01-01T00:00:00Z","name_a2s":"Uncletopia | Montr√©al | 1 | All Maps","protocol":17,"map":"pl_snowycoast","folder":"tf","game":"Team Fortress","app_id":440,"player_count":0,"max_players":24,"Bots":0,"server_type":"Dedicated","server_os":"Linux","password":true,"vac":true,"version":"7757534","steam_id":85568392924500087,"keywords":["nocrits","nodmgspread","payload","uncletopia"],"game_id":440,"stv_port":27016,"stv_name":"Uncletopia | Montr√©al | 1 | All Maps | STV","players":null},{"server_id":301,"name":"Uncletopia | Montr√©al | 2 | All Maps","name_short":"mtl-2","host":"mtl-1.ca.uncletopia.com","port":27025,"enabled":true,"region":"us-east","cc":"ca","latitude":45.50889,"longitude":-73.56167,"reserved":0,"last_update":"0001-01-01T00:00:00Z","name_a2s":"Uncletopia | Montr√©al | 2 | All Maps","protocol":17,"map":"pl_snowycoast","folder":"tf","game":"Team Fortress","app_id":440,"player_count":0,"max_players":24,"Bots":0,"server_type":"Dedicated","server_os":"Linux","password":true,"vac":true,"version":"7757534","steam_id":85568392924500088,"keywords":["nocrits","nodmgspread","payload","uncletopia"],"game_id":440,"stv_port":27026,"stv_name":"Uncletopia | Montr√©al | 2 | All Maps | STV","players":null},{"server_id":302,"name":"Uncletopia | Montr√©al | 3 | All Maps","name_short":"mtl-3","host":"mtl-1.ca.uncletopia.com","port":27035,"enabled":true,"region":"us-east","cc":"ca","latitude":45.50889,"longitude":-73.56167,"reserved":0,"last_update":"0001-01-01T00:00:00Z","name_a2s":"Uncletopia | Montr√©al | 3 | All Maps","protocol":17,"map":"cp_dustbowl","folder":"tf","game":"Team Fortress","app_id":440,"player_count":0,"max_players":24,"Bots":0,"server_type":"Dedicated","server_os":"Linux","password":true,"vac":true,"version":"7757534","steam_id":85568392924500089,"keywords":["cp","nocrits","nodmgspread","uncletopia"],"game_id":440,"stv_port":27036,"stv_name":"Uncletopia | Montr√©al | 3 | All Maps | STV","players":null},{"server_id":303,"name":"Uncletopia | Montr√©al | 4 | No Payload","name_short":"mtl-4","host":"mtl-1.ca.uncletopia.com","port":27045,"enabled":true,"region":"us-east","cc":"ca","latitude":45.50889,"longitude":-73.56167,"reserved":0,"last_update":"0001-01-01T00:00:00Z","name_a2s":"Uncletopia | Montr√©al | 4 | No Payload","protocol":17,"map":"pl_borneo","folder":"tf","game":"Team Fortress","app_id":440,"player_count":0,"max_players":24,"Bots":0,"server_type":"Dedicated","server_os":"Linux","password":true,"vac":true,"version":"7757534","steam_id":85568392924500090,"keywords":["nocrits","nodmgspread","payload","uncletopia"],"game_id":440,"stv_port":27046,"stv_name":"Uncletopia | Montr√©al | 4 | No Payload | STV","players":null},{"server_id":13,"name":"Uncletopia | New York City | 1 | All Maps","name_short":"nyc-1","host":"nyc-1.us.uncletopia.com","port":27015,"enabled":true,"region":"us-east","cc":"us","latitude":40.73061,"longitude":-73.93524,"reserved":0,"last_update":"0001-01-01T00:00:00Z","name_a2s":"Uncletopia | New York City | 1 | All Maps","protocol":17,"map":"pl_upward","folder":"tf","game":"Team Fortress","app_id":440,"player_count":24,"max_players":24,"Bots":0,"server_type":"Dedicated","server_os":"Linux","password":true,"vac":true,"version":"7757534","steam_id":85568392924469993,"keywords":["nocrits","nodmgspread","payload","uncletopia"],"game_id":440,"stv_port":27016,"stv_name":"Uncletopia | New York City | 1 | All Maps | STV","players":[{"user_id":167,"name":"Frank","steam_id":76561198261851104,"connected_time":664000000000,"state":"active","ping":83},{"user_id":169,"name":"Spirit","steam_id":76561199069322627,"connected_time":648000000000,"state":"active","ping":61},{"user_id":144,"name":"Anyar","steam_id":76561198160174097,"connected_time":2207000000000,"state":"active","ping":80},{"user_id":149,"name":"tatanv0406","steam_id":76561198842954039,"connected_time":2051000000000,"state":"active","ping":106},{"user_id":161,"name":"Pickle Chips","steam_id":76561198271951504,"connected_time":1341000000000,"state":"active","ping":61},{"user_id":170,"name":"Shmish","steam_id":76561197966078491,"connected_time":645000000000,"state":"active","ping":73},{"user_id":166,"name":"uVeins","steam_id":76561198067445528,"connected_time":958000000000,"state":"active","ping":49},{"user_id":171,"name":"t h e n a","steam_id":76561198169736062,"connected_time":628000000000,"state":"active","ping":105},{"user_id":168,"name":"The Funny man","steam_id":76561199053955604,"connected_time":663000000000,"state":"active","ping":57},{"user_id":126,"name":"Nic0","steam_id":76561198305690218,"connected_time":3422000000000,"state":"active","ping":59},{"user_id":123,"name":"Astrocircuit","steam_id":76561198014437544,"connected_time":3902000000000,"state":"active","ping":47},{"user_id":158,"name":"sex","steam_id":76561198198787713,"connected_time":1387000000000,"state":"active","ping":56},{"user_id":146,"name":"Phoelamander","steam_id":76561198001462472,"connected_time":2164000000000,"state":"active","ping":93},{"user_id":148,"name":"AER0.exe","steam_id":76561198062940197,"connected_time":2054000000000,"state":"active","ping":66},{"user_id":162,"name":"Citron","steam_id":76561198278687374,"connected_time":1281000000000,"state":"active","ping":44},{"user_id":151,"name":"beans","steam_id":76561199132406388,"connected_time":1834000000000,"state":"active","ping":139},{"user_id":152,"name":"Professor 'Iggins","steam_id":76561198064448905,"connected_time":1802000000000,"state":"active","ping":78},{"user_id":175,"name":"TheBigCheetoZZ","steam_id":76561198272016035,"connected_time":364000000000,"state":"active","ping":69},{"user_id":99,"name":"FreonAddict9x19","steam_id":76561198060010824,"connected_time":5844000000000,"state":"active","ping":68},{"user_id":164,"name":"Silva Baq","steam_id":76561198025445281,"connected_time":1038000000000,"state":"active","ping":46},{"user_id":177,"name":"Female Gamer","steam_id":76561199366482682,"connected_time":55000000000,"state":"active","ping":123},{"user_id":173,"name":"Jeremy","steam_id":76561198352333793,"connected_time":601000000000,"state":"active","ping":86},{"user_id":156,"name":"MILF Gaming","steam_id":76561198155378170,"connected_time":1555000000000,"state":"active","ping":56},{"user_id":165,"name":"Basil","steam_id":76561198305988335,"connected_time":1010000000000,"state":"active","ping":58}]},{"server_id":14,"name":"Uncletopia | New York City | 2 | All Maps","name_short":"nyc-2","host":"nyc-1.us.uncletopia.com","port":27025,"enabled":true,"region":"us-east","cc":"us","latitude":40.73061,"longitude":-73.93524,"reserved":0,"last_update":"0001-01-01T00:00:00Z","name_a2s":"Uncletopia | New York City | 2 | All Maps","protocol":17,"map":"koth_viaduct","folder":"tf","game":"Team Fortress","app_id":440,"player_count":0,"max_players":24,"Bots":0,"server_type":"Dedicated","server_os":"Linux","password":true,"vac":true,"version":"7757534","steam_id":85568392924469994,"keywords":["cp","nocrits","nodmgspread","uncletopia"],"game_id":440,"stv_port":27026,"stv_name":"Uncletopia | New York City | 2 | All Maps | STV","players":null},{"server_id":15,"name":"Uncletopia | New York City | 3 | Stopwatch Beta","name_short":"nyc-3","host":"nyc-1.us.uncletopia.com","port":27035,"enabled":true,"region":"us-east","cc":"us","latitude":40.73061,"longitude":-73.93524,"reserved":0,"last_update":"0001-01-01T00:00:00Z","name_a2s":"Uncletopia | New York City | 3 | Stopwatch Beta","protocol":17,"map":"cp_mountainlab","folder":"tf","game":"Team Fortress","app_id":440,"player_count":0,"max_players":24,"Bots":0,"server_type":"Dedicated","server_os":"Linux","password":true,"vac":true,"version":"7757534","steam_id":85568392924742820,"keywords":["cp","nocrits","nodmgspread","uncletopia"],"game_id":440,"stv_port":27036,"stv_name":"Uncletopia | New York City | 3 | Stopwatch Beta | STV","players":null},{"server_id":16,"name":"Uncletopia | New York City | 4 | Community","name_short":"nyc-4","host":"nyc-1.us.uncletopia.com","port":27045,"enabled":true,"region":"us-east","cc":"us","latitude":40.73061,"longitude":-73.93524,"reserved":0,"last_update":"0001-01-01T00:00:00Z","name_a2s":"Uncletopia | New York City | 4 | Community","protocol":17,"map":"workshop/cp_logjam_rc12.ugc454812035","folder":"tf","game":"Team Fortress","app_id":440,"player_count":0,"max_players":24,"Bots":0,"server_type":"Dedicated","server_os":"Linux","password":true,"vac":true,"version":"7757534","steam_id":85568392924742821,"keywords":["cp","nocrits","nodmgspread","uncletopia"],"game_id":440,"stv_port":27046,"stv_name":"Uncletopia | New York City | 4 | Community | STV","players":null},{"server_id":142,"name":"Uncletopia | S√£o Paulo | 1 | All Maps","name_short":"sao-1","host":"sao-1.br.uncletopia.com","port":27015,"enabled":true,"region":"sa","cc":"br","latitude":-23.533773,"longitude":-46.62529,"reserved":0,"last_update":"0001-01-01T00:00:00Z","name_a2s":"Uncletopia | S√£o Paulo | 1 | All Maps","protocol":17,"map":"koth_highpass","folder":"tf","game":"Team Fortress","app_id":440,"player_count":0,"max_players":24,"Bots":0,"server_type":"Dedicated","server_os":"Linux","password":true,"vac":true,"version":"7757534","steam_id":85568392924469996,"keywords":["cp","nocrits","nodmgspread","uncletopia"],"game_id":440,"stv_port":27016,"stv_name":"Uncletopia | S√£o Paulo | 1 | All Maps | STV","players":null},{"server_id":143,"name":"Uncletopia | S√£o Paulo | 2 | All Maps","name_short":"sao-2","host":"sao-2.br.uncletopia.com","port":27015,"enabled":true,"region":"sa","cc":"br","latitude":-23.533773,"longitude":-46.62529,"reserved":0,"last_update":"0001-01-01T00:00:00Z","name_a2s":"Uncletopia | S√£o Paulo | 2 | All Maps","protocol":17,"map":"pl_snowycoast","folder":"tf","game":"Team Fortress","app_id":440,"player_count":0,"max_players":24,"Bots":0,"server_type":"Dedicated","server_os":"Linux","password":true,"vac":true,"version":"7757534","steam_id":85568392924485349,"keywords":["nocrits","nodmgspread","payload","uncletopia"],"game_id":440,"stv_port":27016,"stv_name":"Uncletopia | S√£o Paulo | 2 | All Maps | STV","players":null},{"server_id":7,"name":"Uncletopia | Seattle | 1 | All Maps","name_short":"sea-1","host":"sea-1.us.uncletopia.com","port":27015,"enabled":true,"region":"us-west","cc":"us","latitude":47.608013,"longitude":-122.33517,"reserved":0,"last_update":"0001-01-01T00:00:00Z","name_a2s":"Uncletopia | Seattle | 1 | All Maps","protocol":17,"map":"pl_frontier_final","folder":"tf","game":"Team Fortress","app_id":440,"player_count":24,"max_players":24,"Bots":0,"server_type":"Dedicated","server_os":"Linux","password":true,"vac":true,"version":"7757534","steam_id":85568392924469997,"keywords":["nocrits","nodmgspread","payload","uncletopia"],"game_id":440,"stv_port":27016,"stv_name":"Uncletopia | Seattle | 1 | All Maps | STV","players":[{"user_id":152,"name":"„Ä£dust„Ä£ -she/her-","steam_id":76561198045218909,"connected_time":3752000000000,"state":"active","ping":42},{"user_id":154,"name":"Bastee1021","steam_id":76561199456141163,"connected_time":3188000000000,"state":"active","ping":101},{"user_id":198,"name":"8core","steam_id":76561198131163454,"connected_time":293000000000,"state":"active","ping":75},{"user_id":185,"name":"ShiverJay","steam_id":76561198080679495,"connected_time":1381000000000,"state":"active","ping":127},{"user_id":195,"name":"Hobojack","steam_id":76561198016598144,"connected_time":642000000000,"state":"active","ping":41},{"user_id":187,"name":"Obamacare","steam_id":76561198018894553,"connected_time":1181000000000,"state":"active","ping":120},{"user_id":163,"name":"Sykes10","steam_id":76561198279623105,"connected_time":2935000000000,"state":"active","ping":80},{"user_id":196,"name":"Dimple","steam_id":76561198980324190,"connected_time":636000000000,"state":"active","ping":47},{"user_id":197,"name":"[TrC] Dackstrus","steam_id":76561197973518509,"connected_time":326000000000,"state":"active","ping":55},{"user_id":171,"name":"Dad 2","steam_id":76561198138546187,"connected_time":2001000000000,"state":"active","ping":140},{"user_id":128,"name":"hoOmIN","steam_id":76561198334947079,"connected_time":7737000000000,"state":"active","ping":74},{"user_id":191,"name":"Peppy","steam_id":76561198866629645,"connected_time":775000000000,"state":"active","ping":63},{"user_id":190,"name":"Milotic","steam_id":76561198047995713,"connected_time":824000000000,"state":"active","ping":99},{"user_id":200,"name":"Surly Joe","steam_id":76561199150833796,"connected_time":21000000000,"state":"spawning","ping":90},{"user_id":174,"name":"Alpharius","steam_id":76561197996284353,"connected_time":1985000000000,"state":"active","ping":115},{"user_id":153,"name":"The Pepsi¬Æ Superbowl¬Æ!","steam_id":76561198080828981,"connected_time":3503000000000,"state":"active","ping":77},{"user_id":160,"name":"AmiableNebula","steam_id":76561198094306627,"connected_time":3156000000000,"state":"active","ping":77},{"user_id":181,"name":"beanse","steam_id":76561197985113518,"connected_time":1810000000000,"state":"active","ping":73},{"user_id":193,"name":"Backside540","steam_id":76561197960602545,"connected_time":746000000000,"state":"active","ping":100},{"user_id":199,"name":"Robert","steam_id":76561198091171326,"connected_time":138000000000,"state":"active","ping":51},{"user_id":184,"name":"me","steam_id":76561199468285784,"connected_time":1663000000000,"state":"active","ping":56},{"user_id":182,"name":"oo","steam_id":76561198119626492,"connected_time":1765000000000,"state":"active","ping":69},{"user_id":130,"name":"Suu Hung","steam_id":76561198036218766,"connected_time":6828000000000,"state":"active","ping":70},{"user_id":189,"name":"cludkydoyfoydyo","steam_id":76561198313470079,"connected_time":925000000000,"state":"active","ping":58}]},{"server_id":119,"name":"Uncletopia | Seattle | 2 | All Maps","name_short":"sea-2","host":"sea-1.us.uncletopia.com","port":27025,"enabled":true,"region":"us-west","cc":"us","latitude":47.608013,"longitude":-122.33517,"reserved":0,"last_update":"0001-01-01T00:00:00Z","name_a2s":"Uncletopia | Seattle | 2 | All Maps","protocol":17,"map":"pl_badwater","folder":"tf","game":"Team Fortress","app_id":440,"player_count":24,"max_players":24,"Bots":0,"server_type":"Dedicated","server_os":"Linux","password":true,"vac":true,"version":"7757534","steam_id":85568392924469998,"keywords":["nocrits","nodmgspread","payload","uncletopia"],"game_id":440,"stv_port":27026,"stv_name":"Uncletopia | Seattle | 2 | All Maps | STV","players":[{"user_id":12,"name":"BoX_hEaD101","steam_id":76561198200875467,"connected_time":2744000000000,"state":"active","ping":94},{"user_id":23,"name":"‡ºò ‚ãÜÀöüéßCaffeine‚òï*Àñ¬∞","steam_id":76561199259309294,"connected_time":1121000000000,"state":"active","ping":126},{"user_id":24,"name":"KFC‚ò≠","steam_id":76561199206815320,"connected_time":1080000000000,"state":"active","ping":74},{"user_id":47,"name":"leumas","steam_id":76561198240408540,"connected_time":220000000000,"state":"active","ping":124},{"user_id":27,"name":"Gr8butnotreally","steam_id":76561198133924450,"connected_time":867000000000,"state":"active","ping":94},{"user_id":16,"name":"Nibotshooter","steam_id":76561199284825579,"connected_time":2265000000000,"state":"active","ping":91},{"user_id":22,"name":"Belmore","steam_id":76561198009355231,"connected_time":1281000000000,"state":"active","ping":81},{"user_id":25,"name":"ApplesMate","steam_id":76561198832763278,"connected_time":1005000000000,"state":"active","ping":85},{"user_id":26,"name":"zeplos24","steam_id":76561198803486113,"connected_time":962000000000,"state":"active","ping":101},{"user_id":28,"name":"Mengle","steam_id":76561198001953684,"connected_time":734000000000,"state":"active","ping":109},{"user_id":29,"name":"Ser Bong - Gentlemen Bandit","steam_id":76561197967964278,"connected_time":721000000000,"state":"active","ping":131},{"user_id":36,"name":"Andy","steam_id":76561198043115724,"connected_time":603000000000,"state":"active","ping":62},{"user_id":44,"name":"Also UbeR","steam_id":76561198166926843,"connected_time":305000000000,"state":"active","ping":76},{"user_id":33,"name":"Ryld","steam_id":76561198010174380,"connected_time":655000000000,"state":"active","ping":64},{"user_id":50,"name":"Biznickel","steam_id":76561199422511230,"connected_time":204000000000,"state":"active","ping":53},{"user_id":35,"name":"Knocc","steam_id":76561198034659636,"connected_time":642000000000,"state":"active","ping":60},{"user_id":38,"name":"RyInc","steam_id":76561198874261643,"connected_time":528000000000,"state":"active","ping":93},{"user_id":46,"name":"Spooky","steam_id":76561198030817605,"connected_time":286000000000,"state":"active","ping":36},{"user_id":40,"name":"Pixelz","steam_id":76561198192867202,"connected_time":464000000000,"state":"active","ping":114},{"user_id":49,"name":"merge without looking","steam_id":76561198056702628,"connected_time":210000000000,"state":"active","ping":90},{"user_id":43,"name":"Boat","steam_id":76561198319185335,"connected_time":344000000000,"state":"active","ping":95},{"user_id":51,"name":"parrot1002924","steam_id":76561199443882275,"connected_time":202000000000,"state":"active","ping":77},{"user_id":52,"name":"trobin120","steam_id":76561199122420273,"connected_time":201000000000,"state":"active","ping":124},{"user_id":54,"name":"predinator850","steam_id":76561199392085652,"connected_time":126000000000,"state":"active","ping":190}]},{"server_id":406,"name":"Uncletopia | Seattle | 3 | Stopwatch Beta","name_short":"sea-3","host":"sea-1.us.uncletopia.com","port":27035,"enabled":true,"region":"us-west","cc":"us","latitude":47.608013,"longitude":-122.33517,"reserved":0,"last_update":"0001-01-01T00:00:00Z","name_a2s":"Uncletopia | Seattle | 3 | Stopwatch Beta","protocol":17,"map":"pl_barnblitz","folder":"tf","game":"Team Fortress","app_id":440,"player_count":0,"max_players":24,"Bots":0,"server_type":"Dedicated","server_os":"Linux","password":true,"vac":true,"version":"7757534","steam_id":85568392924515217,"keywords":["nocrits","nodmgspread","payload","uncletopia"],"game_id":440,"stv_port":27036,"stv_name":"Uncletopia | Seattle | 3 | Stopwatch Beta | STV","players":null},{"server_id":17,"name":"Uncletopia | San Francisco | 1 | All Maps","name_short":"sfo-1","host":"sfo-1.us.uncletopia.com","port":27015,"enabled":true,"region":"us-west","cc":"us","latitude":37.77397,"longitude":-122.4313,"reserved":0,"last_update":"0001-01-01T00:00:00Z","name_a2s":"Uncletopia | San Francisco | 1 | All Maps","protocol":17,"map":"pl_snowycoast","folder":"tf","game":"Team Fortress","app_id":440,"player_count":0,"max_players":24,"Bots":0,"server_type":"Dedicated","server_os":"Linux","password":true,"vac":true,"version":"7757534","steam_id":85568392924469999,"keywords":["nocrits","nodmgspread","payload","uncletopia"],"game_id":440,"stv_port":27016,"stv_name":"Uncletopia | San Francisco | 1 | All Maps | STV","players":null},{"server_id":18,"name":"Uncletopia | San Francisco | 2 | All Maps","name_short":"sfo-2","host":"sfo-1.us.uncletopia.com","port":27025,"enabled":true,"region":"us-west","cc":"us","latitude":37.77397,"longitude":-122.4313,"reserved":0,"last_update":"0001-01-01T00:00:00Z","name_a2s":"Uncletopia | San Francisco | 2 | All Maps","protocol":17,"map":"koth_highpass","folder":"tf","game":"Team Fortress","app_id":440,"player_count":0,"max_players":24,"Bots":0,"server_type":"Dedicated","server_os":"Linux","password":true,"vac":true,"version":"7757534","steam_id":85568392924470000,"keywords":["cp","nocrits","nodmgspread","uncletopia"],"game_id":440,"stv_port":27026,"stv_name":"Uncletopia | San Francisco | 2 | All Maps | STV","players":null},{"server_id":19,"name":"Uncletopia | San Francisco | 3 | Stopwatch Beta","name_short":"sfo-3","host":"sfo-1.us.uncletopia.com","port":27035,"enabled":true,"region":"us-west","cc":"us","latitude":37.77397,"longitude":-122.4313,"reserved":0,"last_update":"0001-01-01T00:00:00Z","name_a2s":"Uncletopia | San Francisco | 3 | Stopwatch Beta","protocol":17,"map":"pl_borneo","folder":"tf","game":"Team Fortress","app_id":440,"player_count":0,"max_players":24,"Bots":0,"server_type":"Dedicated","server_os":"Linux","password":true,"vac":true,"version":"7757534","steam_id":85568392924742824,"keywords":["nocrits","nodmgspread","payload","uncletopia"],"game_id":440,"stv_port":27036,"stv_name":"Uncletopia | San Francisco | 3 | Stopwatch Beta | STV","players":null},{"server_id":20,"name":"Uncletopia | San Francisco | 4 | Community","name_short":"sfo-4","host":"sfo-1.us.uncletopia.com","port":27045,"enabled":true,"region":"us-west","cc":"us","latitude":37.77397,"longitude":-122.4313,"reserved":0,"last_update":"0001-01-01T00:00:00Z","name_a2s":"Uncletopia | San Francisco | 4 | Community","protocol":17,"map":"koth_highpass","folder":"tf","game":"Team Fortress","app_id":440,"player_count":0,"max_players":24,"Bots":0,"server_type":"Dedicated","server_os":"Linux","password":true,"vac":true,"version":"7757534","steam_id":85568392924742826,"keywords":["cp","nocrits","nodmgspread","uncletopia"],"game_id":440,"stv_port":27046,"stv_name":"Uncletopia | San Francisco | 4 | Community | STV","players":null},{"server_id":141,"name":"Uncletopia | Sydney | 1 | All Maps","name_short":"syd-1","host":"syd-1.au.uncletopia.com","port":27015,"enabled":true,"region":"au","cc":"au","latitude":-33.865143,"longitude":151.2099,"reserved":0,"last_update":"0001-01-01T00:00:00Z","name_a2s":"Uncletopia | Sydney | 1 | All Maps","protocol":17,"map":"pl_borneo","folder":"tf","game":"Team Fortress","app_id":440,"player_count":0,"max_players":24,"Bots":0,"server_type":"Dedicated","server_os":"Linux","password":true,"vac":true,"version":"7757534","steam_id":85568392924470001,"keywords":["nocrits","nodmgspread","payload","uncletopia"],"game_id":440,"stv_port":27016,"stv_name":"Uncletopia | Sydney | 1 | All Maps | STV","players":null},{"server_id":123,"name":"Uncletopia | Sydney | 2 | All Maps","name_short":"syd-2","host":"syd-1.au.uncletopia.com","port":27025,"enabled":true,"region":"au","cc":"au","latitude":-33.865143,"longitude":151.2099,"reserved":0,"last_update":"0001-01-01T00:00:00Z","name_a2s":"Uncletopia | Sydney | 2 | All Maps","protocol":17,"map":"cp_altitude","folder":"tf","game":"Team Fortress","app_id":440,"player_count":0,"max_players":24,"Bots":0,"server_type":"Dedicated","server_os":"Linux","password":true,"vac":true,"version":"7757534","steam_id":85568392924470002,"keywords":["cp","nocrits","nodmgspread","uncletopia"],"game_id":440,"stv_port":27026,"stv_name":"Uncletopia | Sydney | 2 | All Maps | STV","players":null},{"server_id":395,"name":"Uncletopia | Sydney | 3 | All Maps","name_short":"syd-3","host":"syd-1.au.uncletopia.com","port":27035,"enabled":true,"region":"au","cc":"au","latitude":-33.865143,"longitude":151.2099,"reserved":0,"last_update":"0001-01-01T00:00:00Z","name_a2s":"Uncletopia | Sydney | 3 | All Maps","protocol":17,"map":"koth_cascade","folder":"tf","game":"Team Fortress","app_id":440,"player_count":0,"max_players":24,"Bots":0,"server_type":"Dedicated","server_os":"Linux","password":true,"vac":true,"version":"7757534","steam_id":85568392925194467,"keywords":["cp","nocrits","nodmgspread","uncletopia"],"game_id":440,"stv_port":27036,"stv_name":"Uncletopia | Sydney | 3 | All Maps | STV","players":null},{"server_id":396,"name":"Uncletopia | Sydney | 4 | All Maps","name_short":"syd-4","host":"syd-1.au.uncletopia.com","port":27045,"enabled":true,"region":"au","cc":"au","latitude":-33.865143,"longitude":151.2099,"reserved":0,"last_update":"0001-01-01T00:00:00Z","name_a2s":"Uncletopia | Sydney | 4 | All Maps","protocol":17,"map":"pl_frontier_final","folder":"tf","game":"Team Fortress","app_id":440,"player_count":0,"max_players":24,"Bots":0,"server_type":"Dedicated","server_os":"Linux","password":true,"vac":true,"version":"7757534","steam_id":85568392925397958,"keywords":["nocrits","nodmgspread","payload","uncletopia"],"game_id":440,"stv_port":27046,"stv_name":"Uncletopia | Sydney | 4 | All Maps | STV","players":null},{"server_id":58,"name":"Uncletopia | Sydney | 5 | Stopwatch Beta","name_short":"syd-5","host":"syd-1.au.uncletopia.com","port":27055,"enabled":true,"region":"au","cc":"au","latitude":-33.865143,"longitude":151.2099,"reserved":0,"last_update":"0001-01-01T00:00:00Z","name_a2s":"Uncletopia | Sydney | 5 | Stopwatch Beta","protocol":17,"map":"koth_lakeside_final","folder":"tf","game":"Team Fortress","app_id":440,"player_count":0,"max_players":24,"Bots":0,"server_type":"Dedicated","server_os":"Linux","password":true,"vac":true,"version":"7757534","steam_id":85568392925397959,"keywords":["cp","nocrits","nodmgspread","uncletopia"],"game_id":440,"stv_port":27056,"stv_name":"Uncletopia | Sydney | 5 | Stopwatch Beta | STV","players":null},{"server_id":59,"name":"Uncletopia | Sydney | 6 | Community","name_short":"syd-6","host":"syd-1.au.uncletopia.com","port":27065,"enabled":true,"region":"au","cc":"au","latitude":-33.865143,"longitude":151.2099,"reserved":0,"last_update":"0001-01-01T00:00:00Z","name_a2s":"Uncletopia | Sydney | 6 | Community","protocol":17,"map":"workshop/koth_slaughter_rc1.ugc1712845210","folder":"tf","game":"Team Fortress","app_id":440,"player_count":0,"max_players":24,"Bots":0,"server_type":"Dedicated","server_os":"Linux","password":true,"vac":true,"version":"7757534","steam_id":85568392925397960,"keywords":["cp","nocrits","nodmgspread","uncletopia"],"game_id":440,"stv_port":27066,"stv_name":"Uncletopia | Sydney | 6 | Community | STV","players":null},{"server_id":49,"name":"Uncletopia | Warsaw | 1 | All Maps","name_short":"waw-1","host":"waw-1.pl.uncletopia.com","port":27015,"enabled":true,"region":"eu","cc":"pl","latitude":52.2297,"longitude":21.017532,"reserved":0,"last_update":"0001-01-01T00:00:00Z","name_a2s":"","protocol":0,"map":"","folder":"","game":"","app_id":0,"player_count":0,"max_players":0,"Bots":0,"server_type":"","server_os":"","password":false,"vac":false,"version":"","steam_id":0,"keywords":null,"game_id":0,"stv_port":0,"stv_name":"","players":null},{"server_id":50,"name":"Uncletopia | Warsaw | 2 | All Maps","name_short":"waw-2","host":"waw-1.pl.uncletopia.com","port":27025,"enabled":true,"region":"eu","cc":"pl","latitude":52.2297,"longitude":21.017532,"reserved":0,"last_update":"0001-01-01T00:00:00Z","name_a2s":"Uncletopia | Warsaw | 2 | All Maps","protocol":17,"map":"koth_lakeside_final","folder":"tf","game":"Team Fortress","app_id":440,"player_count":0,"max_players":24,"Bots":0,"server_type":"Dedicated","server_os":"Linux","password":true,"vac":true,"version":"7757534","steam_id":85568392925397851,"keywords":["cp","nocrits","nodmgspread","uncletopia"],"game_id":440,"stv_port":27026,"stv_name":"Uncletopia | Warsaw | 2 | All Maps | STV","players":null},{"server_id":51,"name":"Uncletopia | Warsaw | 3 | All Maps","name_short":"waw-3","host":"waw-1.pl.uncletopia.com","port":27035,"enabled":true,"region":"eu","cc":"pl","latitude":52.2297,"longitude":21.017532,"reserved":0,"last_update":"0001-01-01T00:00:00Z","name_a2s":"Uncletopia | Warsaw | 3 | All Maps","protocol":17,"map":"koth_highpass","folder":"tf","game":"Team Fortress","app_id":440,"player_count":0,"max_players":24,"Bots":0,"server_type":"Dedicated","server_os":"Linux","password":true,"vac":true,"version":"7757534","steam_id":85568392925397852,"keywords":["cp","nocrits","nodmgspread","uncletopia"],"game_id":440,"stv_port":27036,"stv_name":"Uncletopia | Warsaw | 3 | All Maps | STV","players":null},{"server_id":52,"name":"Uncletopia | Warsaw | 4 | All Maps","name_short":"waw-4","host":"waw-1.pl.uncletopia.com","port":27045,"enabled":true,"region":"eu","cc":"pl","latitude":52.2297,"longitude":21.017532,"reserved":0,"last_update":"0001-01-01T00:00:00Z","name_a2s":"Uncletopia | Warsaw | 4 | All Maps","protocol":17,"map":"cp_sunshine","folder":"tf","game":"Team Fortress","app_id":440,"player_count":0,"max_players":24,"Bots":0,"server_type":"Dedicated","server_os":"Linux","password":true,"vac":true,"version":"7757534","steam_id":85568392925397853,"keywords":["cp","nocrits","nodmgspread","uncletopia"],"game_id":440,"stv_port":27046,"stv_name":"Uncletopia | Warsaw | 4 | All Maps | STV","players":null},{"server_id":53,"name":"Uncletopia | Warsaw | 5 | Stopwatch Beta","name_short":"waw-5","host":"waw-1.pl.uncletopia.com","port":27055,"enabled":true,"region":"eu","cc":"pl","latitude":52.2297,"longitude":21.017532,"reserved":0,"last_update":"0001-01-01T00:00:00Z","name_a2s":"Uncletopia | Warsaw | 5 | Stopwatch Beta","protocol":17,"map":"pl_barnblitz","folder":"tf","game":"Team Fortress","app_id":440,"player_count":0,"max_players":24,"Bots":0,"server_type":"Dedicated","server_os":"Linux","password":true,"vac":true,"version":"7757534","steam_id":85568392925397854,"keywords":["nocrits","nodmgspread","payload","uncletopia"],"game_id":440,"stv_port":27056,"stv_name":"Uncletopia | Warsaw | 5 | Stopwatch Beta | STV","players":null},{"server_id":54,"name":"Uncletopia | Warsaw | 6 | Community","name_short":"waw-6","host":"waw-1.pl.uncletopia.com","port":27065,"enabled":true,"region":"eu","cc":"pl","latitude":52.2297,"longitude":21.017532,"reserved":0,"last_update":"0001-01-01T00:00:00Z","name_a2s":"Uncletopia | Warsaw | 6 | Community","protocol":17,"map":"pl_swiftwater_final1","folder":"tf","game":"Team Fortress","app_id":440,"player_count":0,"max_players":24,"Bots":0,"server_type":"Dedicated","server_os":"Linux","password":true,"vac":true,"version":"7757534","steam_id":85568392925397856,"keywords":["nocrits","nodmgspread","payload","uncletopia"],"game_id":440,"stv_port":27066,"stv_name":"Uncletopia | Warsaw | 6 | Community | STV","players":null}]}