{"status":true,"message":"","result":[{"server_id":9,"name":"Uncletopia | Atlanta | 1 | All Maps","name_short":"atl-1","host":"atl-1.us.uncletopia.com","port":27015,"enabled":true,"region":"us-east","cc":"us","latitude":33.753746,"longitude":-84.38633,"reserved":0,"last_update":"0001-01-01T00:00:00Z","name_a2s":"Uncletopia | Atlanta | 1 | All Maps","protocol":17,"map":"cp_snakewater_final1","folder":"tf","game":"Team Fortress","app_id":440,"player_count":0,"max_players":24,"Bots":0,"server_type":"Dedicated","server_os":"Linux","password":false,"vac":true,"version":"7961495","steam_id":85568392924469982,"keywords":["cp","nocrits","nodmgspread","uncletopia"],"game_id":440,"stv_port":27016,"stv_name":"Uncletopia | Atlanta | 1 | All Maps | STV","players":null},{"server_id":104,"name":"Uncletopia | Atlanta | 2 | All Maps","name_short":"atl-2","host":"atl-1.us.uncletopia.com","port":27025,"enabled":true,"region":"us-east","cc":"us","latitude":33.753746,"longitude":-84.38633,"reserved":0,"last_update":"0001-01-01T00:00:00Z","name_a2s":"Uncletopia | Atlanta | 2 | All Maps","protocol":17,"map":"cp_mountainlab","folder":"tf","game":"Team Fortress","app_id":440,"player_count":0,"max_players":24,"Bots":0,"server_type":"Dedicated","server_os":"Linux","password":false,"vac":true,"version":"7961495","steam_id":85568392924469983,"keywords":["cp","nocrits","nodmgspread","uncletopia"],"game_id":440,"stv_port":27026,"stv_name":"Uncletopia | Atlanta | 2 | All Maps | STV","players":null},{"server_id":400,"name":"Uncletopia | Atlanta | 3 | All Maps","name_short":"atl-3","host":"atl-1.us.uncletopia.com","port":27035,"enabled":true,"region":"us-east","cc":"us","latitude":33.753746,"longitude":-84.38633,"reserved":0,"last_update":"0001-01-01T00:00:00Z","name_a2s":"Uncletopia | Atlanta | 3 | All Maps","protocol":17,"map":"cp_process_final","folder":"tf","game":"Team Fortress","app_id":440,"player_count":0,"max_players":24,"Bots":0,"server_type":"Dedicated","server_os":"Linux","password":false,"vac":true,"version":"7961495","steam_id":85568392924515187,"keywords":["cp","nocrits","nodmgspread","uncletopia"],"game_id":440,"stv_port":27036,"stv_name":"Uncletopia | Atlanta | 3 | All Maps | STV","players":null},{"server_id":401,"name":"Uncletopia | Atlanta | 4 | Community","name_short":"atl-4","host":"atl-1.us.uncletopia.com","port":27045,"enabled":true,"region":"us-east","cc":"us","latitude":33.753746,"longitude":-84.38633,"reserved":0,"last_update":"0001-01-01T00:00:00Z","name_a2s":"Uncletopia | Atlanta | 4 | Community","protocol":17,"map":"koth_lakeside_final","folder":"tf","game":"Team Fortress","app_id":440,"player_count":0,"max_players":24,"Bots":0,"server_type":"Dedicated","server_os":"Linux","password":false,"vac":true,"version":"7961495","steam_id":85568392924515188,"keywords":["cp","nocrits","nodmgspread","uncletopia"],"game_id":440,"stv_port":27046,"stv_name":"Uncletopia | Atlanta | 4 | Community | STV","players":null},{"server_id":2,"name":"Uncletopia | Chicago | 1 | All Maps","name_short":"chi-1","host":"chi-1.us.uncletopia.com","port":27015,"enabled":true,"region":"us-central","cc":"us","latitude":41.881832,"longitude":-87.62318,"reserved":0,"last_update":"0001-01-01T00:00:00Z","name_a2s":"Uncletopia | Chicago | 1 | All Maps","protocol":17,"map":"cp_sunshine","folder":"tf","game":"Team Fortress","app_id":440,"player_count":24,"max_players":24,"Bots":0,"server_type":"Dedicated","server_os":"Linux","password":true,"vac":true,"version":"7961495","steam_id":85568392924469984,"keywords":["cp","nocrits","nodmgspread","uncletopia"],"game_id":440,"stv_port":27016,"stv_name":"Uncletopia | Chicago | 1 | All Maps | STV","players":[{"user_id":192,"name":"Mimiu the Mimiga","steam_id":76561197976714577,"connected_time":1815000000000,"state":"active","ping":64},{"user_id":169,"name":"Person","steam_id":76561198093244204,"connected_time":3945000000000,"state":"active","ping":75},{"user_id":193,"name":"?","steam_id":76561198153511890,"connected_time":1742000000000,"state":"active","ping":72},{"user_id":200,"name":"blob","steam_id":76561198122375328,"connected_time":819000000000,"state":"active","ping":57},{"user_id":170,"name":"Manfred von Richthofen","steam_id":76561198881106202,"connected_time":3711000000000,"state":"active","ping":104},{"user_id":205,"name":"4 life","steam_id":76561198175961598,"connected_time":105000000000,"state":"active","ping":105},{"user_id":188,"name":"Bodhi (she/they)","steam_id":76561198103230995,"connected_time":2058000000000,"state":"active","ping":78},{"user_id":197,"name":"Mindset","steam_id":76561198107074449,"connected_time":929000000000,"state":"active","ping":48},{"user_id":202,"name":"the rizzler","steam_id":76561198012917426,"connected_time":262000000000,"state":"active","ping":71},{"user_id":194,"name":"gunther","steam_id":76561198118755292,"connected_time":1742000000000,"state":"active","ping":66},{"user_id":203,"name":"177013","steam_id":76561198072303290,"connected_time":217000000000,"state":"active","ping":60},{"user_id":154,"name":"stiGGy","steam_id":76561198049311931,"connected_time":5039000000000,"state":"active","ping":89},{"user_id":204,"name":"tortoise poacher2001","steam_id":76561199239168878,"connected_time":145000000000,"state":"active","ping":95},{"user_id":138,"name":"JopsyJop","steam_id":76561198165542681,"connected_time":5932000000000,"state":"active","ping":46},{"user_id":174,"name":"IMM0RTAL","steam_id":76561198013747901,"connected_time":3391000000000,"state":"active","ping":74},{"user_id":187,"name":"Intro Bonito","steam_id":76561198119478838,"connected_time":2151000000000,"state":"active","ping":62},{"user_id":177,"name":"IanFishooks","steam_id":76561199403427527,"connected_time":3380000000000,"state":"active","ping":73},{"user_id":156,"name":"BetoelAff es","steam_id":76561198377842585,"connected_time":4924000000000,"state":"active","ping":326},{"user_id":160,"name":"puppy :3","steam_id":76561198011196264,"connected_time":4586000000000,"state":"active","ping":45},{"user_id":189,"name":"Team Magma Grunt","steam_id":76561198341537452,"connected_time":2057000000000,"state":"active","ping":74},{"user_id":196,"name":"subdromeda","steam_id":76561198884351860,"connected_time":1012000000000,"state":"active","ping":60},{"user_id":199,"name":"Rec","steam_id":76561198022813906,"connected_time":911000000000,"state":"active","ping":42},{"user_id":178,"name":"Syvant","steam_id":76561198122436709,"connected_time":3371000000000,"state":"active","ping":60},{"user_id":201,"name":"gary","steam_id":76561198140226890,"connected_time":819000000000,"state":"active","ping":83}]},{"server_id":106,"name":"Uncletopia | Chicago | 2 | All Maps","name_short":"chi-2","host":"chi-1.us.uncletopia.com","port":27025,"enabled":true,"region":"us-central","cc":"us","latitude":41.881832,"longitude":-87.62318,"reserved":0,"last_update":"0001-01-01T00:00:00Z","name_a2s":"Uncletopia | Chicago | 2 | All Maps","protocol":17,"map":"koth_brazil","folder":"tf","game":"Team Fortress","app_id":440,"player_count":24,"max_players":24,"Bots":0,"server_type":"Dedicated","server_os":"Linux","password":true,"vac":true,"version":"7961495","steam_id":85568392924469985,"keywords":["cp","nocrits","nodmgspread","uncletopia"],"game_id":440,"stv_port":27026,"stv_name":"Uncletopia | Chicago | 2 | All Maps | STV","players":[{"user_id":378,"name":"NUt","steam_id":76561198031007966,"connected_time":903000000000,"state":"active","ping":71},{"user_id":343,"name":"Monke","steam_id":76561199096839610,"connected_time":2872000000000,"state":"active","ping":58},{"user_id":384,"name":"buma","steam_id":76561198856016840,"connected_time":234000000000,"state":"active","ping":68},{"user_id":369,"name":"Lovedaddy","steam_id":76561198006569710,"connected_time":965000000000,"state":"active","ping":84},{"user_id":373,"name":"BigBubble42","steam_id":76561198136286123,"connected_time":927000000000,"state":"active","ping":53},{"user_id":370,"name":"Flores","steam_id":76561198106938500,"connected_time":958000000000,"state":"active","ping":104},{"user_id":382,"name":"Elevator","steam_id":76561198974286387,"connected_time":465000000000,"state":"active","ping":65},{"user_id":273,"name":"Aimless S. (Caberace \u003e:3ing)","steam_id":76561198058382041,"connected_time":9243000000000,"state":"active","ping":88},{"user_id":385,"name":"dunk","steam_id":76561198132476501,"connected_time":122000000000,"state":"active","ping":48},{"user_id":338,"name":"Robin Suarez","steam_id":76561198014698593,"connected_time":3001000000000,"state":"active","ping":107},{"user_id":374,"name":"HalfGuest","steam_id":76561199045682328,"connected_time":922000000000,"state":"active","ping":126},{"user_id":266,"name":"CeLeb144","steam_id":76561199089907740,"connected_time":9731000000000,"state":"active","ping":81},{"user_id":380,"name":"mountain goat","steam_id":76561198326628884,"connected_time":759000000000,"state":"active","ping":74},{"user_id":367,"name":"Crunchy","steam_id":76561198060342804,"connected_time":999000000000,"state":"active","ping":70},{"user_id":349,"name":"box","steam_id":76561198049531483,"connected_time":2701000000000,"state":"active","ping":57},{"user_id":341,"name":"Sesni","steam_id":76561198041999812,"connected_time":2950000000000,"state":"active","ping":72},{"user_id":345,"name":"SnakeBrine","steam_id":76561198162007787,"connected_time":2804000000000,"state":"active","ping":79},{"user_id":376,"name":"berry delight","steam_id":76561198115254326,"connected_time":905000000000,"state":"active","ping":50},{"user_id":381,"name":"aspiring lot lizard","steam_id":76561198081220016,"connected_time":676000000000,"state":"active","ping":54},{"user_id":377,"name":"not a good idea","steam_id":76561198032259680,"connected_time":904000000000,"state":"active","ping":77},{"user_id":355,"name":"Sir Lattè of the coffee table","steam_id":76561198272403814,"connected_time":2185000000000,"state":"active","ping":90},{"user_id":362,"name":"i beat portal 2","steam_id":76561198087092961,"connected_time":1388000000000,"state":"active","ping":73},{"user_id":386,"name":"CUBENSiS","steam_id":76561199138699358,"connected_time":107000000000,"state":"active","ping":75},{"user_id":314,"name":"hammy","steam_id":76561198035751911,"connected_time":4839000000000,"state":"active","ping":70}]},{"server_id":402,"name":"Uncletopia | Chicago | 3 | All Maps","name_short":"chi-3","host":"chi-1.us.uncletopia.com","port":27035,"enabled":true,"region":"us-central","cc":"us","latitude":41.881832,"longitude":-87.62318,"reserved":0,"last_update":"0001-01-01T00:00:00Z","name_a2s":"Uncletopia | Chicago | 3 | All Maps","protocol":17,"map":"pl_borneo","folder":"tf","game":"Team Fortress","app_id":440,"player_count":24,"max_players":24,"Bots":0,"server_type":"Dedicated","server_os":"Linux","password":true,"vac":true,"version":"7961495","steam_id":85568392924515191,"keywords":["nocrits","nodmgspread","payload","uncletopia"],"game_id":440,"stv_port":27036,"stv_name":"Uncletopia | Chicago | 3 | All Maps | STV","players":[{"user_id":140,"name":"Robin","steam_id":76561198121165149,"connected_time":508000000000,"state":"active","ping":41},{"user_id":128,"name":"Soldier","steam_id":76561199078537280,"connected_time":1694000000000,"state":"active","ping":62},{"user_id":126,"name":"Riff III","steam_id":76561198066921423,"connected_time":1709000000000,"state":"active","ping":71},{"user_id":101,"name":"Irritated Duck","steam_id":76561198247792076,"connected_time":2935000000000,"state":"active","ping":132},{"user_id":91,"name":"Rose","steam_id":76561198955581861,"connected_time":3313000000000,"state":"active","ping":92},{"user_id":129,"name":"Magma","steam_id":76561198108261173,"connected_time":1662000000000,"state":"active","ping":46},{"user_id":130,"name":"Barbershop Quartet At Denny's","steam_id":76561198036591882,"connected_time":1662000000000,"state":"active","ping":87},{"user_id":147,"name":"Bamo Comics","steam_id":76561198092498764,"connected_time":286000000000,"state":"active","ping":51},{"user_id":120,"name":"Graybreevee","steam_id":76561198015467611,"connected_time":2062000000000,"state":"active","ping":57},{"user_id":139,"name":"dr peppah chug!","steam_id":76561198068835693,"connected_time":1283000000000,"state":"active","ping":88},{"user_id":148,"name":"OhFuckOhGodFuckFuckFuck","steam_id":76561198114934927,"connected_time":186000000000,"state":"active","ping":83},{"user_id":143,"name":"Bubz","steam_id":76561199013499631,"connected_time":468000000000,"state":"active","ping":90},{"user_id":127,"name":"Horrizan","steam_id":76561197965028480,"connected_time":1708000000000,"state":"active","ping":73},{"user_id":144,"name":"tesagi","steam_id":76561198026664629,"connected_time":441000000000,"state":"active","ping":50},{"user_id":131,"name":"J21","steam_id":76561198066590783,"connected_time":1655000000000,"state":"active","ping":71},{"user_id":138,"name":"Space Lizard","steam_id":76561198056798193,"connected_time":1341000000000,"state":"active","ping":81},{"user_id":108,"name":"󠁳 ⁧Argo","steam_id":76561198353725622,"connected_time":2691000000000,"state":"active","ping":75},{"user_id":141,"name":"MacchuPeachu","steam_id":76561199093242587,"connected_time":483000000000,"state":"active","ping":76},{"user_id":135,"name":"MEDIO METRO","steam_id":76561198424030927,"connected_time":1531000000000,"state":"active","ping":99},{"user_id":110,"name":"Viennetta","steam_id":76561198044088335,"connected_time":2683000000000,"state":"active","ping":62},{"user_id":145,"name":"chikin.sauce","steam_id":76561198042464635,"connected_time":359000000000,"state":"active","ping":80},{"user_id":123,"name":"Major Depression","steam_id":76561198018103878,"connected_time":2027000000000,"state":"active","ping":72},{"user_id":111,"name":"thai","steam_id":76561198052462287,"connected_time":2680000000000,"state":"active","ping":79},{"user_id":146,"name":"LazySushi","steam_id":76561198043802202,"connected_time":355000000000,"state":"active","ping":67}]},{"server_id":403,"name":"Uncletopia | Chicago | 4 | All Maps","name_short":"chi-4","host":"chi-1.us.uncletopia.com","port":27045,"enabled":true,"region":"us-central","cc":"us","latitude":41.881832,"longitude":-87.62318,"reserved":0,"last_update":"0001-01-01T00:00:00Z","name_a2s":"Uncletopia | Chicago | 4 | All Maps","protocol":17,"map":"pl_borneo","folder":"tf","game":"Team Fortress","app_id":440,"player_count":24,"max_players":24,"Bots":0,"server_type":"Dedicated","server_os":"Linux","password":true,"vac":true,"version":"7961495","steam_id":85568392924515193,"keywords":["nocrits","nodmgspread","payload","uncletopia"],"game_id":440,"stv_port":27046,"stv_name":"Uncletopia | Chicago | 4 | All Maps | STV","players":[{"user_id":297,"name":"asbestos","steam_id":76561198079178866,"connected_time":2640000000000,"state":"active","ping":70},{"user_id":338,"name":"Pal","steam_id":76561198079657093,"connected_time":468000000000,"state":"active","ping":64},{"user_id":302,"name":"steakfarmasian","steam_id":76561198212754036,"connected_time":2476000000000,"state":"active","ping":53},{"user_id":337,"name":"Urbanzpinapple","steam_id":76561198115426938,"connected_time":578000000000,"state":"active","ping":87},{"user_id":313,"name":"NikoOS (NO SOUND)","steam_id":76561198180020521,"connected_time":1697000000000,"state":"active","ping":109},{"user_id":307,"name":"dodecadron","steam_id":76561198027397222,"connected_time":2243000000000,"state":"active","ping":116},{"user_id":303,"name":"Sunflower","steam_id":76561198081223793,"connected_time":2458000000000,"state":"active","ping":55},{"user_id":343,"name":"Charlie","steam_id":76561198798127908,"connected_time":42000000000,"state":"spawning","ping":55},{"user_id":294,"name":"mega knight","steam_id":76561199176211866,"connected_time":2885000000000,"state":"active","ping":85},{"user_id":314,"name":"M Knighton","steam_id":76561199187764012,"connected_time":1692000000000,"state":"active","ping":60},{"user_id":330,"name":"GrumpyGrampaKoala","steam_id":76561198020441036,"connected_time":750000000000,"state":"active","ping":78},{"user_id":329,"name":"dope","steam_id":76561198126699550,"connected_time":921000000000,"state":"active","ping":101},{"user_id":320,"name":"ODs","steam_id":76561198113096772,"connected_time":1526000000000,"state":"active","ping":117},{"user_id":333,"name":"ShpookaDooka","steam_id":76561198126837126,"connected_time":701000000000,"state":"active","ping":90},{"user_id":325,"name":"88","steam_id":76561198165212575,"connected_time":1334000000000,"state":"active","ping":74},{"user_id":332,"name":"♕_GibusCop_♕","steam_id":76561199052300534,"connected_time":718000000000,"state":"active","ping":182},{"user_id":339,"name":"MY LOVE DRIPS IN RED","steam_id":76561198072179483,"connected_time":444000000000,"state":"active","ping":90},{"user_id":275,"name":"Punsequence64","steam_id":76561199201885917,"connected_time":3893000000000,"state":"active","ping":70},{"user_id":341,"name":"the epiccgaemar","steam_id":76561198804408996,"connected_time":352000000000,"state":"active","ping":125},{"user_id":342,"name":"Hertz","steam_id":76561198245322982,"connected_time":271000000000,"state":"active","ping":59},{"user_id":290,"name":"det lft","steam_id":76561198170859755,"connected_time":3403000000000,"state":"active","ping":45},{"user_id":293,"name":"capetanunito","steam_id":76561199364524852,"connected_time":3229000000000,"state":"active","ping":180},{"user_id":318,"name":"unicornCatOwO","steam_id":76561199391478575,"connected_time":1604000000000,"state":"active","ping":109},{"user_id":336,"name":"mytoyo2k2","steam_id":76561199486326945,"connected_time":662000000000,"state":"active","ping":79}]},{"server_id":36,"name":"Uncletopia | Chicago | 5 | All Maps","name_short":"chi-5","host":"chi-2.us.uncletopia.com","port":27015,"enabled":true,"region":"us-central","cc":"us","latitude":41.881832,"longitude":-87.62318,"reserved":0,"last_update":"0001-01-01T00:00:00Z","name_a2s":"Uncletopia | Chicago | 5 | All Maps","protocol":17,"map":"pl_borneo","folder":"tf","game":"Team Fortress","app_id":440,"player_count":6,"max_players":24,"Bots":0,"server_type":"Dedicated","server_os":"Linux","password":true,"vac":true,"version":"7961495","steam_id":85568392924866362,"keywords":["nocrits","nodmgspread","payload","uncletopia"],"game_id":440,"stv_port":27016,"stv_name":"Uncletopia | Chicago | 5 | All Maps | STV","players":[{"user_id":11,"name":"Stick","steam_id":76561198001509374,"connected_time":961000000000,"state":"active","ping":72},{"user_id":12,"name":"mepng","steam_id":76561199018758598,"connected_time":922000000000,"state":"active","ping":86},{"user_id":26,"name":"Bucket","steam_id":76561198816448398,"connected_time":214000000000,"state":"active","ping":70},{"user_id":27,"name":"MF SHROOM","steam_id":76561199051344147,"connected_time":185000000000,"state":"active","ping":91},{"user_id":15,"name":"Pie™","steam_id":76561198158312625,"connected_time":823000000000,"state":"active","ping":115},{"user_id":28,"name":"BugsAreMyWorstEnemy","steam_id":76561199440395505,"connected_time":85000000000,"state":"active","ping":72}]},{"server_id":37,"name":"Uncletopia | Chicago | 6 | All Maps","name_short":"chi-6","host":"chi-2.us.uncletopia.com","port":27025,"enabled":true,"region":"us-central","cc":"us","latitude":41.881832,"longitude":-87.62318,"reserved":0,"last_update":"0001-01-01T00:00:00Z","name_a2s":"Uncletopia | Chicago | 6 | All Maps","protocol":17,"map":"pl_upward","folder":"tf","game":"Team Fortress","app_id":440,"player_count":0,"max_players":24,"Bots":0,"server_type":"Dedicated","server_os":"Linux","password":true,"vac":true,"version":"7961495","steam_id":85568392924866363,"keywords":["nocrits","nodmgspread","payload","uncletopia"],"game_id":440,"stv_port":27026,"stv_name":"Uncletopia | Chicago | 6 | All Maps | STV","players":null},{"server_id":38,"name":"Uncletopia | Chicago | 7 | Stopwatch Beta","name_short":"chi-7","host":"chi-2.us.uncletopia.com","port":27035,"enabled":true,"region":"us-central","cc":"us","latitude":41.881832,"longitude":-87.62318,"reserved":0,"last_update":"0001-01-01T00:00:00Z","name_a2s":"Uncletopia | Chicago | 7 | Stopwatch Beta","protocol":17,"map":"pl_badwater","folder":"tf","game":"Team Fortress","app_id":440,"player_count":0,"max_players":24,"Bots":0,"server_type":"Dedicated","server_os":"Linux","password":true,"vac":true,"version":"7961495","steam_id":85568392924866364,"keywords":["nocrits","nodmgspread","payload","uncletopia"],"game_id":440,"stv_port":27036,"stv_name":"Uncletopia | Chicago | 7 | Stopwatch Beta | STV","players":null},{"server_id":39,"name":"Uncletopia | Chicago | 8 | Community","name_short":"chi-8","host":"chi-2.us.uncletopia.com","port":27045,"enabled":true,"region":"us-central","cc":"us","latitude":41.881832,"longitude":-87.62318,"reserved":0,"last_update":"0001-01-01T00:00:00Z","name_a2s":"Uncletopia | Chicago | 8 | Community","protocol":17,"map":"koth_cascade","folder":"tf","game":"Team Fortress","app_id":440,"player_count":0,"max_players":24,"Bots":0,"server_type":"Dedicated","server_os":"Linux","password":true,"vac":true,"version":"7961495","steam_id":85568392924866365,"keywords":["cp","nocrits","nodmgspread","uncletopia"],"game_id":440,"stv_port":27046,"stv_name":"Uncletopia | Chicago | 8 | Community | STV","players":null},{"server_id":8,"name":"Uncletopia | Dallas | 1 | All Maps","name_short":"dal-1","host":"dal-1.us.uncletopia.com","port":27015,"enabled":true,"region":"us-central","cc":"us","latitude":32.779167,"longitude":-96.80889,"reserved":0,"last_update":"0001-01-01T00:00:00Z","name_a2s":"Uncletopia | Dallas | 1 | All Maps","protocol":17,"map":"ctf_doublecross","folder":"tf","game":"Team Fortress","app_id":440,"player_count":22,"max_players":24,"Bots":0,"server_type":"Dedicated","server_os":"Linux","password":true,"vac":true,"version":"7961495","steam_id":85568392924469986,"keywords":["ctf","nocrits","nodmgspread","uncletopia"],"game_id":440,"stv_port":27016,"stv_name":"Uncletopia | Dallas | 1 | All Maps | STV","players":[{"user_id":118,"name":"GX thedittoguy (lfp)","steam_id":76561199013129784,"connected_time":346000000000,"state":"active","ping":46},{"user_id":29,"name":"pepe warlord","steam_id":76561198080819197,"connected_time":7203000000000,"state":"active","ping":84},{"user_id":68,"name":"ooidial","steam_id":76561199086221916,"connected_time":4357000000000,"state":"active","ping":106},{"user_id":123,"name":"Rich Melanin","steam_id":76561198053160625,"connected_time":176000000000,"state":"active","ping":105},{"user_id":104,"name":"Gearbie","steam_id":76561198296243464,"connected_time":1387000000000,"state":"active","ping":49},{"user_id":30,"name":"thighmeat","steam_id":76561198971285292,"connected_time":7153000000000,"state":"active","ping":63},{"user_id":69,"name":"m1 garand gaming","steam_id":76561199026721822,"connected_time":4357000000000,"state":"active","ping":85},{"user_id":63,"name":"Rob","steam_id":76561199187786660,"connected_time":4874000000000,"state":"active","ping":48},{"user_id":65,"name":"Boomer Gaming","steam_id":76561198037803087,"connected_time":4847000000000,"state":"active","ping":64},{"user_id":114,"name":"Godchama","steam_id":76561198184393819,"connected_time":633000000000,"state":"active","ping":105},{"user_id":124,"name":"Deaddropping","steam_id":76561198043711366,"connected_time":169000000000,"state":"active","ping":75},{"user_id":129,"name":"bones?!?!","steam_id":76561198084646266,"connected_time":96000000000,"state":"active","ping":102},{"user_id":119,"name":"Bree-chan","steam_id":76561198025193389,"connected_time":227000000000,"state":"active","ping":119},{"user_id":121,"name":"Spy on cart","steam_id":76561198025466913,"connected_time":220000000000,"state":"active","ping":72},{"user_id":122,"name":"Solomon Gumball","steam_id":76561198072070843,"connected_time":217000000000,"state":"active","ping":75},{"user_id":106,"name":"Post-It Paige","steam_id":76561198294059159,"connected_time":1376000000000,"state":"active","ping":85},{"user_id":116,"name":"Lord Garrard","steam_id":76561198212184303,"connected_time":464000000000,"state":"active","ping":51},{"user_id":113,"name":"dell conagher (evil)","steam_id":76561198066566813,"connected_time":661000000000,"state":"active","ping":107},{"user_id":126,"name":"Mellou","steam_id":76561198212048740,"connected_time":143000000000,"state":"active","ping":48},{"user_id":58,"name":"Yummy Kabobz","steam_id":76561198067661705,"connected_time":5854000000000,"state":"active","ping":72},{"user_id":130,"name":"im not gonna sugarcoat it","steam_id":76561198252328518,"connected_time":11000000000,"state":"active","ping":83},{"user_id":50,"name":"Biden Blast","steam_id":76561198366729030,"connected_time":6562000000000,"state":"active","ping":73}]},{"server_id":108,"name":"Uncletopia | Dallas | 2 | All Maps","name_short":"dal-2","host":"dal-1.us.uncletopia.com","port":27025,"enabled":true,"region":"us-central","cc":"us","latitude":32.779167,"longitude":-96.80889,"reserved":0,"last_update":"0001-01-01T00:00:00Z","name_a2s":"Uncletopia | Dallas | 2 | All Maps","protocol":17,"map":"pl_upward","folder":"tf","game":"Team Fortress","app_id":440,"player_count":24,"max_players":24,"Bots":0,"server_type":"Dedicated","server_os":"Linux","password":true,"vac":true,"version":"7961495","steam_id":85568392924469988,"keywords":["nocrits","nodmgspread","payload","uncletopia"],"game_id":440,"stv_port":27026,"stv_name":"Uncletopia | Dallas | 2 | All Maps | STV","players":[{"user_id":44,"name":"princess tart.","steam_id":76561198076598729,"connected_time":1016000000000,"state":"active","ping":86},{"user_id":7,"name":"Sussy","steam_id":76561198412836049,"connected_time":3792000000000,"state":"active","ping":105},{"user_id":43,"name":"Gamer Princess","steam_id":76561198048205270,"connected_time":1029000000000,"state":"active","ping":113},{"user_id":52,"name":"shield","steam_id":76561198976876859,"connected_time":391000000000,"state":"active","ping":83},{"user_id":55,"name":"Wahaha hee","steam_id":76561198098017157,"connected_time":224000000000,"state":"active","ping":72},{"user_id":13,"name":"deathbringer22","steam_id":76561198318466600,"connected_time":2596000000000,"state":"active","ping":72},{"user_id":56,"name":"No Automated Auctions","steam_id":76561199132141327,"connected_time":217000000000,"state":"active","ping":71},{"user_id":22,"name":"fasterbum","steam_id":76561198142577444,"connected_time":1975000000000,"state":"active","ping":75},{"user_id":57,"name":"hforce11","steam_id":76561198087647130,"connected_time":53000000000,"state":"active","ping":63},{"user_id":45,"name":"❤[S'more]❤","steam_id":76561198817361963,"connected_time":1010000000000,"state":"active","ping":110},{"user_id":58,"name":"b","steam_id":76561198118211523,"connected_time":38000000000,"state":"active","ping":81},{"user_id":46,"name":"herb","steam_id":76561198185980055,"connected_time":1007000000000,"state":"active","ping":71},{"user_id":25,"name":"webaline :3","steam_id":76561199052450127,"connected_time":1801000000000,"state":"active","ping":85},{"user_id":26,"name":"Quinton Beef","steam_id":76561198117825609,"connected_time":1800000000000,"state":"active","ping":108},{"user_id":48,"name":"Mario","steam_id":76561198995177194,"connected_time":808000000000,"state":"active","ping":66},{"user_id":34,"name":"Shalom","steam_id":76561198410005222,"connected_time":1435000000000,"state":"active","ping":59},{"user_id":51,"name":"Remy the rat","steam_id":76561198080519558,"connected_time":420000000000,"state":"active","ping":54},{"user_id":32,"name":"penguinever0","steam_id":76561198882179246,"connected_time":1511000000000,"state":"active","ping":54},{"user_id":50,"name":"Bobby Dazzler 魔鐘","steam_id":76561198007405067,"connected_time":621000000000,"state":"active","ping":57},{"user_id":35,"name":"Shwal","steam_id":76561198138840448,"connected_time":1350000000000,"state":"active","ping":83},{"user_id":36,"name":"leumas","steam_id":76561198240408540,"connected_time":1345000000000,"state":"active","ping":73},{"user_id":37,"name":"Crustacean Daddy","steam_id":76561198993807061,"connected_time":1343000000000,"state":"active","ping":83},{"user_id":42,"name":"hatchetax","steam_id":76561199013337543,"connected_time":1100000000000,"state":"active","ping":71},{"user_id":39,"name":"Peepster","steam_id":76561198297854733,"connected_time":1339000000000,"state":"active","ping":99}]},{"server_id":404,"name":"Uncletopia | Dallas | 3 | All Maps","name_short":"dal-3","host":"dal-1.us.uncletopia.com","port":27035,"enabled":true,"region":"us-central","cc":"us","latitude":32.779167,"longitude":-96.80889,"reserved":0,"last_update":"0001-01-01T00:00:00Z","name_a2s":"Uncletopia | Dallas | 3 | All Maps","protocol":17,"map":"cp_sunshine","folder":"tf","game":"Team Fortress","app_id":440,"player_count":1,"max_players":24,"Bots":0,"server_type":"Dedicated","server_os":"Linux","password":true,"vac":true,"version":"7961495","steam_id":85568392924515219,"keywords":["cp","nocrits","nodmgspread","uncletopia"],"game_id":440,"stv_port":27036,"stv_name":"Uncletopia | Dallas | 3 | All Maps | STV","players":[{"user_id":7,"name":"ChebJeb","steam_id":76561198981377081,"connected_time":15000000000,"state":"active","ping":90}]},{"server_id":405,"name":"Uncletopia | Dallas | 4 | Community","name_short":"dal-4","host":"dal-1.us.uncletopia.com","port":27045,"enabled":true,"region":"us-central","cc":"us","latitude":32.779167,"longitude":-96.80889,"reserved":0,"last_update":"0001-01-01T00:00:00Z","name_a2s":"Uncletopia | Dallas | 4 | Community","protocol":17,"map":"workshop/pl_boundary_final1.ugc456799153","folder":"tf","game":"Team Fortress","app_id":440,"player_count":0,"max_players":24,"Bots":0,"server_type":"Dedicated","server_os":"Linux","password":true,"vac":true,"version":"7961495","steam_id":85568392924515220,"keywords":["nocrits","nodmgspread","payload","uncletopia"],"game_id":440,"stv_port":27046,"stv_name":"Uncletopia | Dallas | 4 | Community | STV","players":null},{"server_id":5,"name":"Uncletopia | Frankfurt | 1 | All Maps","name_short":"frk-1","host":"frk-1.de.uncletopia.com","port":27015,"enabled":true,"region":"eu","cc":"de","latitude":50.110924,"longitude":8.682127,"reserved":0,"last_update":"0001-01-01T00:00:00Z","name_a2s":"Uncletopia | Frankfurt | 1 | All Maps","protocol":17,"map":"pl_frontier_final","folder":"tf","game":"Team Fortress","app_id":440,"player_count":24,"max_players":24,"Bots":0,"server_type":"Dedicated","server_os":"Linux","password":true,"vac":true,"version":"7961495","steam_id":85568392924469989,"keywords":["nocrits","nodmgspread","payload","uncletopia"],"game_id":440,"stv_port":27016,"stv_name":"Uncletopia | Frankfurt | 1 | All Maps | STV","players":[{"user_id":58,"name":"W1nter","steam_id":76561198925665679,"connected_time":1482000000000,"state":"active","ping":63},{"user_id":4,"name":"i want to kill myself","steam_id":76561198242482338,"connected_time":3538000000000,"state":"active","ping":71},{"user_id":42,"name":"Federal Republic of Yugoslavia","steam_id":76561198883033062,"connected_time":2763000000000,"state":"active","ping":87},{"user_id":6,"name":"blurst of times","steam_id":76561197972325640,"connected_time":3496000000000,"state":"active","ping":53},{"user_id":77,"name":"TidB","steam_id":76561198055342304,"connected_time":457000000000,"state":"active","ping":59},{"user_id":72,"name":"DaBigRat","steam_id":76561199169877252,"connected_time":1037000000000,"state":"active","ping":58},{"user_id":61,"name":"badrobot","steam_id":76561198322878356,"connected_time":1459000000000,"state":"active","ping":100},{"user_id":80,"name":"Ceiling fan enthusiast","steam_id":76561197989214268,"connected_time":263000000000,"state":"active","ping":69},{"user_id":62,"name":"hardway","steam_id":76561198272529254,"connected_time":1451000000000,"state":"active","ping":60},{"user_id":63,"name":"invis","steam_id":76561198120668070,"connected_time":1450000000000,"state":"active","ping":60},{"user_id":64,"name":"♂ Animan ♂ Studios ♂","steam_id":76561198308302932,"connected_time":1429000000000,"state":"active","ping":94},{"user_id":71,"name":"Dark","steam_id":76561198209594571,"connected_time":1090000000000,"state":"active","ping":66},{"user_id":16,"name":"Solid","steam_id":76561198357049292,"connected_time":3368000000000,"state":"active","ping":81},{"user_id":55,"name":"FNF","steam_id":76561199151422826,"connected_time":1930000000000,"state":"active","ping":120},{"user_id":79,"name":"MargoulGetron","steam_id":76561198020551698,"connected_time":278000000000,"state":"active","ping":60},{"user_id":66,"name":"Labracababrador","steam_id":76561198255280285,"connected_time":1386000000000,"state":"active","ping":87},{"user_id":81,"name":"flr","steam_id":76561198249327786,"connected_time":250000000000,"state":"active","ping":75},{"user_id":70,"name":"BELADIT","steam_id":76561198011911501,"connected_time":1209000000000,"state":"active","ping":66},{"user_id":56,"name":"kgf","steam_id":76561198181442259,"connected_time":1884000000000,"state":"active","ping":47},{"user_id":48,"name":"Ducky[WADZ]","steam_id":76561198060341245,"connected_time":2357000000000,"state":"active","ping":57},{"user_id":73,"name":"large scout","steam_id":76561198143918309,"connected_time":998000000000,"state":"active","ping":70},{"user_id":25,"name":"rob","steam_id":76561198122211848,"connected_time":3308000000000,"state":"active","ping":95},{"user_id":78,"name":"A.D.H.|Artem","steam_id":76561198041801369,"connected_time":445000000000,"state":"active","ping":86},{"user_id":83,"name":"tone","steam_id":76561197975301462,"connected_time":88000000000,"state":"active","ping":81}]},{"server_id":110,"name":"Uncletopia | Frankfurt | 2 | All Maps","name_short":"frk-2","host":"frk-1.de.uncletopia.com","port":27025,"enabled":true,"region":"eu","cc":"de","latitude":50.110924,"longitude":8.682127,"reserved":0,"last_update":"0001-01-01T00:00:00Z","name_a2s":"Uncletopia | Frankfurt | 2 | All Maps","protocol":17,"map":"pl_badwater","folder":"tf","game":"Team Fortress","app_id":440,"player_count":24,"max_players":24,"Bots":0,"server_type":"Dedicated","server_os":"Linux","password":true,"vac":true,"version":"7961495","steam_id":85568392924469990,"keywords":["nocrits","nodmgspread","payload","uncletopia"],"game_id":440,"stv_port":27026,"stv_name":"Uncletopia | Frankfurt | 2 | All Maps | STV","players":[{"user_id":11,"name":"Althea","steam_id":76561198284106616,"connected_time":2637000000000,"state":"active","ping":90},{"user_id":48,"name":"Epexegeticus","steam_id":76561198164545360,"connected_time":1440000000000,"state":"active","ping":60},{"user_id":12,"name":"Arc Schwarz","steam_id":76561198097773226,"connected_time":2620000000000,"state":"active","ping":98},{"user_id":13,"name":"Nox_Zephion","steam_id":76561198886608082,"connected_time":2616000000000,"state":"active","ping":84},{"user_id":15,"name":"Mashiro Shiina","steam_id":76561198301932572,"connected_time":2589000000000,"state":"active","ping":87},{"user_id":47,"name":"glyph","steam_id":76561197980736364,"connected_time":1501000000000,"state":"active","ping":75},{"user_id":59,"name":"Dread","steam_id":76561198075420704,"connected_time":259000000000,"state":"active","ping":71},{"user_id":60,"name":"cazador","steam_id":76561198123096922,"connected_time":141000000000,"state":"active","ping":90},{"user_id":21,"name":"Emir","steam_id":76561198113089831,"connected_time":2130000000000,"state":"active","ping":96},{"user_id":51,"name":"hipster_doofus","steam_id":76561197970902697,"connected_time":1182000000000,"state":"active","ping":70},{"user_id":23,"name":"modrako","steam_id":76561198171050526,"connected_time":2085000000000,"state":"active","ping":63},{"user_id":24,"name":"bp","steam_id":76561198353083018,"connected_time":2007000000000,"state":"active","ping":60},{"user_id":50,"name":"YC Lacus","steam_id":76561199107625942,"connected_time":1239000000000,"state":"active","ping":71},{"user_id":55,"name":"Mr. Watch","steam_id":76561198276103501,"connected_time":954000000000,"state":"active","ping":89},{"user_id":27,"name":"zek","steam_id":76561198862763731,"connected_time":1963000000000,"state":"active","ping":57},{"user_id":56,"name":"najed","steam_id":76561198107767664,"connected_time":644000000000,"state":"active","ping":61},{"user_id":53,"name":"quarks and stuff","steam_id":76561198137869662,"connected_time":1115000000000,"state":"active","ping":39},{"user_id":58,"name":"the one who grips","steam_id":76561198381106289,"connected_time":466000000000,"state":"active","ping":74},{"user_id":31,"name":"SpeedY bucuresti.llg.ro","steam_id":76561199238207915,"connected_time":1906000000000,"state":"active","ping":76},{"user_id":33,"name":"FoOzTV","steam_id":76561197998636728,"connected_time":1891000000000,"state":"active","ping":73},{"user_id":36,"name":"Na záchodě","steam_id":76561198383952144,"connected_time":1871000000000,"state":"active","ping":147},{"user_id":37,"name":"Pacyfista Feminista Frutarianin","steam_id":76561198435883762,"connected_time":1870000000000,"state":"active","ping":93},{"user_id":46,"name":"norespectforthedevil","steam_id":76561197998922218,"connected_time":1546000000000,"state":"active","ping":107},{"user_id":49,"name":"cobblestone","steam_id":76561198079123043,"connected_time":1368000000000,"state":"active","ping":72}]},{"server_id":308,"name":"Uncletopia | Frankfurt | 3 | All Maps","name_short":"frk-3","host":"frk-1.de.uncletopia.com","port":27035,"enabled":true,"region":"eu","cc":"de","latitude":50.110924,"longitude":8.682127,"reserved":0,"last_update":"0001-01-01T00:00:00Z","name_a2s":"Uncletopia | Frankfurt | 3 | All Maps","protocol":17,"map":"cp_sunshine","folder":"tf","game":"Team Fortress","app_id":440,"player_count":0,"max_players":24,"Bots":0,"server_type":"Dedicated","server_os":"Linux","password":true,"vac":true,"version":"7961495","steam_id":85568392924504274,"keywords":["cp","nocrits","nodmgspread","uncletopia"],"game_id":440,"stv_port":27036,"stv_name":"Uncletopia | Frankfurt | 3 | All Maps | STV","players":null},{"server_id":309,"name":"Uncletopia | Frankfurt | 4 | All Maps","name_short":"frk-4","host":"frk-1.de.uncletopia.com","port":27045,"enabled":true,"region":"eu","cc":"de","latitude":50.110924,"longitude":8.682127,"reserved":0,"last_update":"0001-01-01T00:00:00Z","name_a2s":"Uncletopia | Frankfurt | 4 | All Maps","protocol":17,"map":"cp_altitude","folder":"tf","game":"Team Fortress","app_id":440,"player_count":0,"max_players":24,"Bots":0,"server_type":"Dedicated","server_os":"Linux","password":true,"vac":true,"version":"7961495","steam_id":85568392924504275,"keywords":["cp","nocrits","nodmgspread","uncletopia"],"game_id":440,"stv_port":27046,"stv_name":"Uncletopia | Frankfurt | 4 | All Maps | STV","players":null},{"server_id":310,"name":"Uncletopia | Frankfurt | 5 | All Maps","name_short":"frk-5","host":"frk-1.de.uncletopia.com","port":27055,"enabled":true,"region":"eu","cc":"de","latitude":50.110924,"longitude":8.682127,"reserved":0,"last_update":"0001-01-01T00:00:00Z","name_a2s":"Uncletopia | Frankfurt | 5 | All Maps","protocol":17,"map":"cp_process_final","folder":"tf","game":"Team Fortress","app_id":440,"player_count":24,"max_players":24,"Bots":0,"server_type":"Dedicated","server_os":"Linux","password":true,"vac":true,"version":"7961495","steam_id":85568392924504277,"keywords":["cp","nocrits","nodmgspread","uncletopia"],"game_id":440,"stv_port":27056,"stv_name":"Uncletopia | Frankfurt | 5 | All Maps | STV","players":[{"user_id":9,"name":"ddchdrn","steam_id":76561198024358566,"connected_time":764000000000,"state":"active","ping":60},{"user_id":10,"name":"Loitsu","steam_id":76561198098177012,"connected_time":757000000000,"state":"active","ping":108},{"user_id":11,"name":"galaxy","steam_id":76561198164819022,"connected_time":653000000000,"state":"active","ping":63},{"user_id":31,"name":"finbar","steam_id":76561198056812396,"connected_time":336000000000,"state":"active","ping":71},{"user_id":22,"name":"Voxiit","steam_id":76561198060319116,"connected_time":504000000000,"state":"active","ping":69},{"user_id":14,"name":"DC26","steam_id":76561198882999146,"connected_time":598000000000,"state":"active","ping":147},{"user_id":15,"name":"Geoff the Oracle","steam_id":76561198053759965,"connected_time":592000000000,"state":"active","ping":88},{"user_id":16,"name":"Thunderstab","steam_id":76561198061779520,"connected_time":587000000000,"state":"active","ping":85},{"user_id":17,"name":"cool evan","steam_id":76561198119515966,"connected_time":560000000000,"state":"active","ping":67},{"user_id":18,"name":"TarekInnit","steam_id":76561198298618127,"connected_time":555000000000,"state":"active","ping":52},{"user_id":19,"name":"Ramming2","steam_id":76561198115928110,"connected_time":543000000000,"state":"active","ping":75},{"user_id":29,"name":"JP","steam_id":76561198044196452,"connected_time":414000000000,"state":"active","ping":77},{"user_id":41,"name":"arsenal","steam_id":76561198081310757,"connected_time":101000000000,"state":"active","ping":60},{"user_id":24,"name":"Bobo","steam_id":76561198052308399,"connected_time":498000000000,"state":"active","ping":64},{"user_id":28,"name":"Magix","steam_id":76561197989567926,"connected_time":457000000000,"state":"active","ping":59},{"user_id":32,"name":"Qdarks","steam_id":76561198013391340,"connected_time":314000000000,"state":"active","ping":144},{"user_id":33,"name":"PapaMaxy","steam_id":76561198256362726,"connected_time":281000000000,"state":"active","ping":61},{"user_id":34,"name":"TrollBaron811","steam_id":76561198087028392,"connected_time":265000000000,"state":"active","ping":69},{"user_id":35,"name":"Cursed","steam_id":76561198381491880,"connected_time":264000000000,"state":"active","ping":94},{"user_id":36,"name":"он","steam_id":76561198172046813,"connected_time":251000000000,"state":"active","ping":69},{"user_id":37,"name":"No0bAce","steam_id":76561198372819576,"connected_time":223000000000,"state":"active","ping":70},{"user_id":38,"name":"COOLGUY007","steam_id":76561199075244155,"connected_time":191000000000,"state":"active","ping":71},{"user_id":39,"name":"NuclearMarmi","steam_id":76561199105766538,"connected_time":165000000000,"state":"active","ping":70},{"user_id":40,"name":"unnam3d","steam_id":76561198286257338,"connected_time":161000000000,"state":"active","ping":57}]},{"server_id":311,"name":"Uncletopia | Frankfurt | 6 | All Maps","name_short":"frk-6","host":"frk-1.de.uncletopia.com","port":27065,"enabled":true,"region":"eu","cc":"de","latitude":50.110924,"longitude":8.682127,"reserved":0,"last_update":"0001-01-01T00:00:00Z","name_a2s":"Uncletopia | Frankfurt | 6 | All Maps","protocol":17,"map":"pl_barnblitz","folder":"tf","game":"Team Fortress","app_id":440,"player_count":0,"max_players":24,"Bots":0,"server_type":"Dedicated","server_os":"Linux","password":true,"vac":true,"version":"7961495","steam_id":85568392924504278,"keywords":["nocrits","nodmgspread","payload","uncletopia"],"game_id":440,"stv_port":27066,"stv_name":"Uncletopia | Frankfurt | 6 | All Maps | STV","players":null},{"server_id":23,"name":"Uncletopia | Frankfurt | 7 | Stopwatch Beta","name_short":"frk-7","host":"frk-1.de.uncletopia.com","port":27075,"enabled":true,"region":"eu","cc":"de","latitude":50.110924,"longitude":8.682127,"reserved":0,"last_update":"0001-01-01T00:00:00Z","name_a2s":"Uncletopia | Frankfurt | 7 | Stopwatch Beta","protocol":17,"map":"koth_cascade","folder":"tf","game":"Team Fortress","app_id":440,"player_count":1,"max_players":24,"Bots":0,"server_type":"Dedicated","server_os":"Linux","password":true,"vac":true,"version":"7961495","steam_id":85568392924742827,"keywords":["cp","nocrits","nodmgspread","uncletopia"],"game_id":440,"stv_port":27076,"stv_name":"Uncletopia | Frankfurt | 7 | Stopwatch Beta | STV","players":[{"user_id":5,"name":"Yoshikage Kira","steam_id":76561199051752886,"connected_time":6000000000,"state":"spawning","ping":51}]},{"server_id":24,"name":"Uncletopia | Frankfurt | 8 | Community","name_short":"frk-8","host":"frk-1.de.uncletopia.com","port":27085,"enabled":true,"region":"eu","cc":"de","latitude":50.110924,"longitude":8.682127,"reserved":0,"last_update":"0001-01-01T00:00:00Z","name_a2s":"Uncletopia | Frankfurt | 8 | Community","protocol":17,"map":"workshop/koth_trenchfoot_b1a.ugc731436616","folder":"tf","game":"Team Fortress","app_id":440,"player_count":0,"max_players":24,"Bots":0,"server_type":"Dedicated","server_os":"Linux","password":true,"vac":true,"version":"7961495","steam_id":85568392924742828,"keywords":["cp","nocrits","nodmgspread","uncletopia"],"game_id":440,"stv_port":27086,"stv_name":"Uncletopia | Frankfurt | 8 | Community | STV","players":null},{"server_id":202,"name":"Uncletopia | Hong Kong | 1 | All Maps","name_short":"hgk-1","host":"hgk-1.hk.uncletopia.com","port":27015,"enabled":true,"region":"asia","cc":"hk","latitude":22.302711,"longitude":114.177216,"reserved":0,"last_update":"0001-01-01T00:00:00Z","name_a2s":"Uncletopia | Hong Kong | 1 | All Maps","protocol":17,"map":"koth_viaduct","folder":"tf","game":"Team Fortress","app_id":440,"player_count":0,"max_players":24,"Bots":0,"server_type":"Dedicated","server_os":"Linux","password":true,"vac":true,"version":"7961495","steam_id":85568392924494504,"keywords":["cp","nocrits","nodmgspread","uncletopia"],"game_id":440,"stv_port":27016,"stv_name":"Uncletopia | Hong Kong | 1 | All Maps | STV","players":null},{"server_id":1,"name":"Uncletopia | Los Angeles | 1 | All Maps","name_short":"lax-1","host":"lax-1.us.uncletopia.com","port":27015,"enabled":true,"region":"us-west","cc":"us","latitude":33.94279,"longitude":-118.41004,"reserved":0,"last_update":"0001-01-01T00:00:00Z","name_a2s":"Uncletopia | Los Angeles | 1 | All Maps","protocol":17,"map":"pl_snowycoast","folder":"tf","game":"Team Fortress","app_id":440,"player_count":22,"max_players":24,"Bots":0,"server_type":"Dedicated","server_os":"Linux","password":true,"vac":true,"version":"7961495","steam_id":85568392924469991,"keywords":["nocrits","nodmgspread","payload","uncletopia"],"game_id":440,"stv_port":27016,"stv_name":"Uncletopia | Los Angeles | 1 | All Maps | STV","players":[{"user_id":224,"name":"BurdBrain","steam_id":76561197962097737,"connected_time":5949000000000,"state":"active","ping":63},{"user_id":313,"name":"FI LO","steam_id":76561198976530881,"connected_time":48000000000,"state":"active","ping":33},{"user_id":240,"name":"Obama","steam_id":76561198194065283,"connected_time":4519000000000,"state":"active","ping":45},{"user_id":274,"name":"Tmiracle","steam_id":76561198052375275,"connected_time":2159000000000,"state":"active","ping":46},{"user_id":303,"name":"Maxmind24","steam_id":76561198859888778,"connected_time":497000000000,"state":"active","ping":92},{"user_id":309,"name":"VerseG","steam_id":76561198059246919,"connected_time":291000000000,"state":"active","ping":69},{"user_id":283,"name":"usedhalfcart","steam_id":76561198072621852,"connected_time":1319000000000,"state":"active","ping":77},{"user_id":273,"name":"Bob","steam_id":76561198238859416,"connected_time":2181000000000,"state":"active","ping":59},{"user_id":315,"name":"bottom pride burger","steam_id":76561198322247602,"connected_time":24000000000,"state":"active","ping":56},{"user_id":189,"name":"reddit moderator (r/feetpics)","steam_id":76561198131567365,"connected_time":9535000000000,"state":"active","ping":56},{"user_id":304,"name":"Chris Hansen, Kell of Kells","steam_id":76561198986775156,"connected_time":493000000000,"state":"active","ping":117},{"user_id":279,"name":"mkl","steam_id":76561197986401685,"connected_time":2017000000000,"state":"active","ping":84},{"user_id":292,"name":"1998 Subaru Forester","steam_id":76561198350491491,"connected_time":738000000000,"state":"active","ping":62},{"user_id":310,"name":"Blitz","steam_id":76561198138737168,"connected_time":275000000000,"state":"active","ping":101},{"user_id":277,"name":"the biggest bird","steam_id":76561198361999761,"connected_time":2113000000000,"state":"active","ping":52},{"user_id":280,"name":"can karson","steam_id":76561199102391736,"connected_time":1981000000000,"state":"active","ping":46},{"user_id":222,"name":"Nibotshooter","steam_id":76561199284825579,"connected_time":6032000000000,"state":"active","ping":79},{"user_id":312,"name":"cat water","steam_id":76561198815737163,"connected_time":77000000000,"state":"active","ping":320},{"user_id":308,"name":"Kopfjager","steam_id":76561198086397482,"connected_time":381000000000,"state":"active","ping":95},{"user_id":307,"name":"Scorpianswag","steam_id":76561198260651036,"connected_time":437000000000,"state":"active","ping":44},{"user_id":270,"name":"drank baby","steam_id":76561199483723843,"connected_time":2289000000000,"state":"active","ping":59},{"user_id":286,"name":"GLXy","steam_id":76561198207551544,"connected_time":938000000000,"state":"active","ping":73}]},{"server_id":112,"name":"Uncletopia | Los Angeles | 2 | All Maps","name_short":"lax-2","host":"lax-1.us.uncletopia.com","port":27025,"enabled":true,"region":"us-west","cc":"us","latitude":33.94279,"longitude":-118.41004,"reserved":0,"last_update":"0001-01-01T00:00:00Z","name_a2s":"Uncletopia | Los Angeles | 2 | All Maps","protocol":17,"map":"pl_borneo","folder":"tf","game":"Team Fortress","app_id":440,"player_count":0,"max_players":24,"Bots":0,"server_type":"Dedicated","server_os":"Linux","password":true,"vac":true,"version":"7961495","steam_id":85568392924469992,"keywords":["nocrits","nodmgspread","payload","uncletopia"],"game_id":440,"stv_port":27026,"stv_name":"Uncletopia | Los Angeles | 2 | All Maps | STV","players":null},{"server_id":324,"name":"Uncletopia | Los Angeles | 3 | All Maps","name_short":"lax-3","host":"lax-1.us.uncletopia.com","port":27035,"enabled":true,"region":"us-west","cc":"us","latitude":33.94279,"longitude":-118.41004,"reserved":0,"last_update":"0001-01-01T00:00:00Z","name_a2s":"Uncletopia | Los Angeles | 3 | All Maps","protocol":17,"map":"koth_harvest_final","folder":"tf","game":"Team Fortress","app_id":440,"player_count":0,"max_players":24,"Bots":0,"server_type":"Dedicated","server_os":"Linux","password":true,"vac":true,"version":"7961495","steam_id":85568392924510198,"keywords":["cp","nocrits","nodmgspread","uncletopia"],"game_id":440,"stv_port":27036,"stv_name":"Uncletopia | Los Angeles | 3 | All Maps | STV","players":null},{"server_id":25,"name":"Uncletopia | Los Angeles | 4 | Stopwatch Beta","name_short":"lax-4","host":"lax-1.us.uncletopia.com","port":27045,"enabled":true,"region":"us-west","cc":"us","latitude":33.94279,"longitude":-118.41004,"reserved":0,"last_update":"0001-01-01T00:00:00Z","name_a2s":"Uncletopia | Los Angeles | 4 | Stopwatch Beta","protocol":17,"map":"pl_upward","folder":"tf","game":"Team Fortress","app_id":440,"player_count":0,"max_players":24,"Bots":0,"server_type":"Dedicated","server_os":"Linux","password":true,"vac":true,"version":"7961495","steam_id":85568392924510199,"keywords":["nocrits","nodmgspread","payload","uncletopia"],"game_id":440,"stv_port":27046,"stv_name":"Uncletopia | Los Angeles | 4 | Stopwatch Beta | STV","players":null},{"server_id":11,"name":"Uncletopia | London | 1 | All Maps","name_short":"lon-1","host":"lon-1.uk.uncletopia.com","port":27015,"enabled":true,"region":"eu","cc":"gb","latitude":51.509865,"longitude":-0.118092,"reserved":0,"last_update":"0001-01-01T00:00:00Z","name_a2s":"Uncletopia | London | 1 | All Maps","protocol":17,"map":"pl_badwater","folder":"tf","game":"Team Fortress","app_id":440,"player_count":24,"max_players":24,"Bots":0,"server_type":"Dedicated","server_os":"Linux","password":true,"vac":true,"version":"7961495","steam_id":85568392924367362,"keywords":["nocrits","nodmgspread","payload","uncletopia"],"game_id":440,"stv_port":27016,"stv_name":"Uncletopia | London | 1 | All Maps | STV","players":[{"user_id":508,"name":"Kahvi","steam_id":76561198723244199,"connected_time":494000000000,"state":"active","ping":78},{"user_id":484,"name":"Bartツ","steam_id":76561198164718893,"connected_time":2269000000000,"state":"active","ping":43},{"user_id":477,"name":"rigel_","steam_id":76561198148640847,"connected_time":2366000000000,"state":"active","ping":90},{"user_id":470,"name":"Milosz52","steam_id":76561199060940204,"connected_time":2832000000000,"state":"active","ping":85},{"user_id":456,"name":"YARrICk.«+»","steam_id":76561197990126485,"connected_time":3664000000000,"state":"active","ping":58},{"user_id":384,"name":"john fortress","steam_id":76561198013237629,"connected_time":9829000000000,"state":"active","ping":94},{"user_id":485,"name":"Aaron","steam_id":76561197990046953,"connected_time":2107000000000,"state":"active","ping":51},{"user_id":473,"name":"_420_StopItDudeCmon","steam_id":76561197997146481,"connected_time":2448000000000,"state":"active","ping":55},{"user_id":480,"name":"Real (Real)","steam_id":76561198323425034,"connected_time":2298000000000,"state":"active","ping":85},{"user_id":495,"name":"ein'd","steam_id":76561198152162834,"connected_time":1203000000000,"state":"active","ping":102},{"user_id":501,"name":"biggo","steam_id":76561198892305234,"connected_time":800000000000,"state":"active","ping":57},{"user_id":503,"name":"trite","steam_id":76561197983765323,"connected_time":789000000000,"state":"active","ping":55},{"user_id":449,"name":"Snake-chan","steam_id":76561199044755854,"connected_time":3776000000000,"state":"active","ping":71},{"user_id":514,"name":"Puss in Boots","steam_id":76561198211599767,"connected_time":121000000000,"state":"active","ping":52},{"user_id":496,"name":"SOPHIIEE","steam_id":76561198443798981,"connected_time":1092000000000,"state":"active","ping":51},{"user_id":511,"name":"dec","steam_id":76561198009660168,"connected_time":255000000000,"state":"active","ping":59},{"user_id":504,"name":"Hexagon","steam_id":76561198151205758,"connected_time":784000000000,"state":"active","ping":60},{"user_id":512,"name":"that fat croc from donkey kong","steam_id":76561198159172495,"connected_time":158000000000,"state":"active","ping":87},{"user_id":494,"name":"CumEater9","steam_id":76561198210682456,"connected_time":1356000000000,"state":"active","ping":63},{"user_id":422,"name":"png.png","steam_id":76561198444446521,"connected_time":6942000000000,"state":"active","ping":106},{"user_id":469,"name":"Tekky☻","steam_id":76561197990987315,"connected_time":2913000000000,"state":"active","ping":40},{"user_id":411,"name":"Lyra","steam_id":76561198043601838,"connected_time":8217000000000,"state":"active","ping":70},{"user_id":476,"name":"Mach","steam_id":76561198952487564,"connected_time":2377000000000,"state":"active","ping":176},{"user_id":498,"name":"Fwebbie","steam_id":76561199006875621,"connected_time":949000000000,"state":"active","ping":65}]},{"server_id":114,"name":"Uncletopia | London | 2 | All Maps","name_short":"lon-2","host":"lon-1.uk.uncletopia.com","port":27025,"enabled":true,"region":"eu","cc":"gb","latitude":51.509865,"longitude":-0.118092,"reserved":0,"last_update":"0001-01-01T00:00:00Z","name_a2s":"Uncletopia | London | 2 | All Maps","protocol":17,"map":"pl_frontier_final","folder":"tf","game":"Team Fortress","app_id":440,"player_count":24,"max_players":24,"Bots":0,"server_type":"Dedicated","server_os":"Linux","password":true,"vac":true,"version":"7961495","steam_id":85568392924470941,"keywords":["nocrits","nodmgspread","payload","uncletopia"],"game_id":440,"stv_port":27026,"stv_name":"Uncletopia | London | 2 | All Maps | STV","players":[{"user_id":373,"name":":pleading_face:","steam_id":76561198311044984,"connected_time":2240000000000,"state":"active","ping":70},{"user_id":349,"name":"dead dreamcast","steam_id":76561198181134706,"connected_time":3573000000000,"state":"active","ping":61},{"user_id":353,"name":"borzoi e-girl","steam_id":76561198239927434,"connected_time":2811000000000,"state":"active","ping":78},{"user_id":354,"name":"Boki","steam_id":76561198044553351,"connected_time":2689000000000,"state":"active","ping":60},{"user_id":379,"name":"Accident","steam_id":76561198115160396,"connected_time":1291000000000,"state":"active","ping":80},{"user_id":312,"name":"Mr_Pulse_","steam_id":76561198095001602,"connected_time":6249000000000,"state":"active","ping":101},{"user_id":386,"name":"aabracadabra","steam_id":76561198061248329,"connected_time":827000000000,"state":"active","ping":62},{"user_id":368,"name":"Luuk","steam_id":76561198088266026,"connected_time":2261000000000,"state":"active","ping":48},{"user_id":363,"name":"mr","steam_id":76561199037541925,"connected_time":2491000000000,"state":"active","ping":73},{"user_id":351,"name":"ashley","steam_id":76561198448551449,"connected_time":3330000000000,"state":"active","ping":43},{"user_id":383,"name":"Ash","steam_id":76561198148738525,"connected_time":1003000000000,"state":"active","ping":101},{"user_id":375,"name":"Alpha","steam_id":76561198133229149,"connected_time":2223000000000,"state":"active","ping":101},{"user_id":338,"name":"hopperthebox","steam_id":76561198053418437,"connected_time":4728000000000,"state":"active","ping":90},{"user_id":381,"name":"Mr.Schnittlauch","steam_id":76561198295868113,"connected_time":1086000000000,"state":"active","ping":67},{"user_id":355,"name":"Ziemniaczki","steam_id":76561198061866742,"connected_time":2676000000000,"state":"active","ping":84},{"user_id":347,"name":"BreadAcres (certified goober)","steam_id":76561198098217082,"connected_time":3622000000000,"state":"active","ping":70},{"user_id":329,"name":"Eterneon","steam_id":76561198354080949,"connected_time":5231000000000,"state":"active","ping":60},{"user_id":371,"name":"o_o","steam_id":76561198113045011,"connected_time":2249000000000,"state":"active","ping":105},{"user_id":372,"name":"katten","steam_id":76561198163615254,"connected_time":2248000000000,"state":"active","ping":65},{"user_id":361,"name":"✪ Danny","steam_id":76561198104483241,"connected_time":2570000000000,"state":"active","ping":54},{"user_id":306,"name":"Valoxi","steam_id":76561197995042938,"connected_time":6684000000000,"state":"active","ping":65},{"user_id":360,"name":"12Adam12","steam_id":76561198037882443,"connected_time":2634000000000,"state":"active","ping":61},{"user_id":376,"name":"Sarah Obama Michella","steam_id":76561198078996559,"connected_time":2222000000000,"state":"active","ping":86},{"user_id":385,"name":"HarryKovaaks2016","steam_id":76561198448050535,"connected_time":951000000000,"state":"active","ping":72}]},{"server_id":320,"name":"Uncletopia | London | 3 | All Maps","name_short":"lon-3","host":"lon-1.uk.uncletopia.com","port":27035,"enabled":true,"region":"eu","cc":"gb","latitude":51.509865,"longitude":-0.118092,"reserved":0,"last_update":"0001-01-01T00:00:00Z","name_a2s":"Uncletopia | London | 3 | All Maps","protocol":17,"map":"pl_barnblitz","folder":"tf","game":"Team Fortress","app_id":440,"player_count":24,"max_players":24,"Bots":0,"server_type":"Dedicated","server_os":"Linux","password":true,"vac":true,"version":"7961495","steam_id":85568392924510192,"keywords":["nocrits","nodmgspread","payload","uncletopia"],"game_id":440,"stv_port":27036,"stv_name":"Uncletopia | London | 3 | All Maps | STV","players":[{"user_id":148,"name":"Certified Hood pybro (ua)","steam_id":76561198970562699,"connected_time":3199000000000,"state":"active","ping":51},{"user_id":170,"name":"Artemis","steam_id":76561198199091801,"connected_time":1715000000000,"state":"active","ping":50},{"user_id":181,"name":"a perfectly fine dog","steam_id":76561198000890796,"connected_time":1067000000000,"state":"active","ping":75},{"user_id":164,"name":"vurtun","steam_id":76561198857395274,"connected_time":2547000000000,"state":"active","ping":63},{"user_id":177,"name":"sowegood","steam_id":76561198850164945,"connected_time":1078000000000,"state":"active","ping":109},{"user_id":187,"name":"Laax","steam_id":76561198938409558,"connected_time":1026000000000,"state":"active","ping":123},{"user_id":189,"name":"armadillo","steam_id":76561198324656652,"connected_time":1019000000000,"state":"active","ping":51},{"user_id":133,"name":"sloppy transgirl toppy","steam_id":76561198057092208,"connected_time":4281000000000,"state":"active","ping":75},{"user_id":157,"name":"Femboy Astaya","steam_id":76561198242931822,"connected_time":2736000000000,"state":"active","ping":157},{"user_id":174,"name":"Soerlssoelssöen","steam_id":76561197993060585,"connected_time":1368000000000,"state":"active","ping":83},{"user_id":152,"name":"yush","steam_id":76561198121688934,"connected_time":2943000000000,"state":"active","ping":77},{"user_id":188,"name":"Gordon","steam_id":76561198303652059,"connected_time":1026000000000,"state":"active","ping":78},{"user_id":160,"name":"oxidius","steam_id":76561198261730746,"connected_time":2604000000000,"state":"active","ping":56},{"user_id":179,"name":"Boomy","steam_id":76561198107864526,"connected_time":1075000000000,"state":"active","ping":72},{"user_id":178,"name":"SovietZombie™","steam_id":76561198140093751,"connected_time":1078000000000,"state":"active","ping":45},{"user_id":192,"name":"omnibombulator","steam_id":76561198025858897,"connected_time":812000000000,"state":"active","ping":51},{"user_id":186,"name":"breakfast bandit","steam_id":76561198013502376,"connected_time":1052000000000,"state":"active","ping":57},{"user_id":47,"name":"Tampon Lollipop","steam_id":76561198042593027,"connected_time":9757000000000,"state":"active","ping":99},{"user_id":171,"name":"Chucko Kokos","steam_id":76561198112553005,"connected_time":1422000000000,"state":"active","ping":76},{"user_id":193,"name":"Dewotter","steam_id":76561198007653168,"connected_time":811000000000,"state":"active","ping":61},{"user_id":194,"name":"_Starlight_","steam_id":76561197993885738,"connected_time":618000000000,"state":"active","ping":86},{"user_id":127,"name":"dumb idiot moron","steam_id":76561198053929269,"connected_time":4919000000000,"state":"active","ping":99},{"user_id":180,"name":"Thors","steam_id":76561197968739075,"connected_time":1075000000000,"state":"active","ping":50}]},{"server_id":321,"name":"Uncletopia | London | 4 | All Maps","name_short":"lon-4","host":"lon-1.uk.uncletopia.com","port":27045,"enabled":true,"region":"eu","cc":"gb","latitude":51.509865,"longitude":-0.118092,"reserved":0,"last_update":"0001-01-01T00:00:00Z","name_a2s":"Uncletopia | London | 4 | All Maps","protocol":17,"map":"cp_sunshine","folder":"tf","game":"Team Fortress","app_id":440,"player_count":24,"max_players":24,"Bots":0,"server_type":"Dedicated","server_os":"Linux","password":true,"vac":true,"version":"7961495","steam_id":85568392924510193,"keywords":["cp","nocrits","nodmgspread","uncletopia"],"game_id":440,"stv_port":27046,"stv_name":"Uncletopia | London | 4 | All Maps | STV","players":[{"user_id":481,"name":"XcrimedevilX","steam_id":76561198107540010,"connected_time":6656000000000,"state":"active","ping":68},{"user_id":480,"name":"Blar","steam_id":76561198042438229,"connected_time":6684000000000,"state":"active","ping":62},{"user_id":554,"name":"give orange me give eat orange","steam_id":76561198049405872,"connected_time":927000000000,"state":"active","ping":53},{"user_id":561,"name":"Xiqui","steam_id":76561198818386611,"connected_time":46000000000,"state":"active","ping":77},{"user_id":507,"name":"Daan77","steam_id":76561198129940468,"connected_time":4539000000000,"state":"active","ping":73},{"user_id":484,"name":"shadow39344","steam_id":76561198090639618,"connected_time":6627000000000,"state":"active","ping":64},{"user_id":485,"name":"RedFog","steam_id":76561198284713081,"connected_time":6609000000000,"state":"active","ping":47},{"user_id":546,"name":"Sidetrap","steam_id":76561198032221882,"connected_time":1319000000000,"state":"active","ping":51},{"user_id":528,"name":"Toxic_Cicity","steam_id":76561198165753440,"connected_time":2494000000000,"state":"active","ping":118},{"user_id":506,"name":"worm with a fat ass","steam_id":76561198170026338,"connected_time":4609000000000,"state":"active","ping":78},{"user_id":547,"name":"SʟɪᴘEɴOʀ","steam_id":76561197967931911,"connected_time":1294000000000,"state":"active","ping":98},{"user_id":543,"name":"king251311","steam_id":76561199063310889,"connected_time":1368000000000,"state":"active","ping":86},{"user_id":553,"name":"Twik","steam_id":76561198023835056,"connected_time":1125000000000,"state":"active","ping":60},{"user_id":401,"name":"Surry Fex","steam_id":76561198090586031,"connected_time":10662000000000,"state":"active","ping":89},{"user_id":489,"name":"David","steam_id":76561198017852330,"connected_time":6409000000000,"state":"active","ping":82},{"user_id":538,"name":"your_local_penguin","steam_id":76561199224954346,"connected_time":1411000000000,"state":"active","ping":129},{"user_id":556,"name":"Lowb","steam_id":76561198137424821,"connected_time":690000000000,"state":"active","ping":62},{"user_id":524,"name":"jimmy kane","steam_id":76561197984425891,"connected_time":2718000000000,"state":"active","ping":50},{"user_id":518,"name":"Orpheus","steam_id":76561198442035906,"connected_time":3513000000000,"state":"active","ping":65},{"user_id":551,"name":"Ironhawk","steam_id":76561198035593896,"connected_time":1245000000000,"state":"active","ping":45},{"user_id":560,"name":"Purps","steam_id":76561198053886680,"connected_time":56000000000,"state":"active","ping":48},{"user_id":558,"name":"Octavia (She/Her)","steam_id":76561198181291454,"connected_time":350000000000,"state":"active","ping":61},{"user_id":512,"name":"Plep","steam_id":76561198840259819,"connected_time":4396000000000,"state":"active","ping":60},{"user_id":552,"name":"Wang of Wall St","steam_id":76561198047460598,"connected_time":1233000000000,"state":"active","ping":130}]},{"server_id":21,"name":"Uncletopia | London | 5 | All Maps","name_short":"lon-5","host":"lon-1.uk.uncletopia.com","port":27055,"enabled":true,"region":"eu","cc":"gb","latitude":51.509865,"longitude":-0.118092,"reserved":0,"last_update":"0001-01-01T00:00:00Z","name_a2s":"Uncletopia | London | 5 | All Maps","protocol":17,"map":"pl_pier","folder":"tf","game":"Team Fortress","app_id":440,"player_count":24,"max_players":24,"Bots":0,"server_type":"Dedicated","server_os":"Linux","password":true,"vac":true,"version":"7961495","steam_id":85568392924742829,"keywords":["nocrits","nodmgspread","payload","uncletopia"],"game_id":440,"stv_port":27056,"stv_name":"Uncletopia | London | 5 | All Maps | STV","players":[{"user_id":139,"name":"quickfast","steam_id":76561199438900919,"connected_time":1881000000000,"state":"active","ping":45},{"user_id":118,"name":"I_Forgot_My_Name","steam_id":76561198173424578,"connected_time":3744000000000,"state":"active","ping":79},{"user_id":151,"name":"Fat Pigeon","steam_id":76561198817940142,"connected_time":1677000000000,"state":"active","ping":42},{"user_id":163,"name":"Chitovka","steam_id":76561198253508638,"connected_time":534000000000,"state":"active","ping":110},{"user_id":116,"name":"hhhhhh","steam_id":76561198031982574,"connected_time":3756000000000,"state":"active","ping":61},{"user_id":137,"name":"jermany","steam_id":76561198126599355,"connected_time":1900000000000,"state":"active","ping":59},{"user_id":157,"name":"SlwoFø","steam_id":76561198049663931,"connected_time":1566000000000,"state":"active","ping":62},{"user_id":120,"name":"tired","steam_id":76561198046838168,"connected_time":3706000000000,"state":"active","ping":60},{"user_id":129,"name":"Tomfool","steam_id":76561197993256481,"connected_time":3072000000000,"state":"active","ping":85},{"user_id":170,"name":"Fill","steam_id":76561198206117503,"connected_time":100000000000,"state":"active","ping":123},{"user_id":167,"name":"Fairy Of Nature","steam_id":76561198274159048,"connected_time":237000000000,"state":"active","ping":85},{"user_id":166,"name":"Tegnerud","steam_id":76561198214185612,"connected_time":489000000000,"state":"active","ping":76},{"user_id":172,"name":"Jahusi!*","steam_id":76561197992445165,"connected_time":18000000000,"state":"spawning","ping":82},{"user_id":145,"name":"X-tis","steam_id":76561198043837480,"connected_time":1752000000000,"state":"active","ping":62},{"user_id":146,"name":"Buddy","steam_id":76561198050185582,"connected_time":1730000000000,"state":"active","ping":57},{"user_id":164,"name":"Urfangonultasadana","steam_id":76561199389286151,"connected_time":515000000000,"state":"active","ping":99},{"user_id":165,"name":"meatsoupcube","steam_id":76561198276802249,"connected_time":508000000000,"state":"active","ping":95},{"user_id":160,"name":"TheEventGuy","steam_id":76561197972797744,"connected_time":1333000000000,"state":"active","ping":74},{"user_id":168,"name":"DeterminedXD[HUN]","steam_id":76561199469006453,"connected_time":182000000000,"state":"active","ping":104},{"user_id":161,"name":"Hercules","steam_id":76561198041164170,"connected_time":546000000000,"state":"active","ping":68},{"user_id":92,"name":"Syd","steam_id":76561198020515027,"connected_time":4827000000000,"state":"active","ping":68},{"user_id":169,"name":"Craig Crusade","steam_id":76561199225918086,"connected_time":163000000000,"state":"active","ping":57},{"user_id":71,"name":"lulu","steam_id":76561199147764133,"connected_time":5792000000000,"state":"active","ping":75},{"user_id":124,"name":"gaming gamer","steam_id":76561198212488780,"connected_time":3690000000000,"state":"active","ping":66}]},{"server_id":22,"name":"Uncletopia | London | 6 | All Maps","name_short":"lon-6","host":"lon-1.uk.uncletopia.com","port":27065,"enabled":true,"region":"eu","cc":"gb","latitude":51.509865,"longitude":-0.118092,"reserved":0,"last_update":"0001-01-01T00:00:00Z","name_a2s":"Uncletopia | London | 6 | All Maps","protocol":17,"map":"pl_snowycoast","folder":"tf","game":"Team Fortress","app_id":440,"player_count":24,"max_players":24,"Bots":0,"server_type":"Dedicated","server_os":"Linux","password":true,"vac":true,"version":"7961495","steam_id":85568392924742830,"keywords":["nocrits","nodmgspread","payload","uncletopia"],"game_id":440,"stv_port":27066,"stv_name":"Uncletopia | London | 6 | All Maps | STV","players":[{"user_id":480,"name":"VK2124 :D","steam_id":76561198111130688,"connected_time":1583000000000,"state":"active","ping":60},{"user_id":494,"name":"heisenberg","steam_id":76561198988867951,"connected_time":389000000000,"state":"active","ping":56},{"user_id":498,"name":"√(-Wolf)","steam_id":76561198024769704,"connected_time":287000000000,"state":"active","ping":100},{"user_id":492,"name":"Podge","steam_id":76561199077425079,"connected_time":631000000000,"state":"active","ping":56},{"user_id":375,"name":"Lux","steam_id":76561198060417740,"connected_time":7803000000000,"state":"active","ping":50},{"user_id":499,"name":"Gogi","steam_id":76561198108470138,"connected_time":284000000000,"state":"active","ping":44},{"user_id":496,"name":"Maks","steam_id":76561198315278876,"connected_time":301000000000,"state":"active","ping":51},{"user_id":474,"name":"Fran","steam_id":76561199070516960,"connected_time":2261000000000,"state":"active","ping":77},{"user_id":500,"name":"kebin","steam_id":76561198313035017,"connected_time":218000000000,"state":"spawning","ping":143},{"user_id":509,"name":"IndigoJones","steam_id":76561198050284262,"connected_time":51000000000,"state":"spawning","ping":44},{"user_id":458,"name":"B@yka","steam_id":76561198986736592,"connected_time":3440000000000,"state":"active","ping":75},{"user_id":497,"name":"WallHitter","steam_id":76561199394273076,"connected_time":299000000000,"state":"active","ping":156},{"user_id":501,"name":"U1F","steam_id":76561198053700703,"connected_time":206000000000,"state":"active","ping":45},{"user_id":452,"name":"temmers","steam_id":76561198354890792,"connected_time":4051000000000,"state":"active","ping":60},{"user_id":502,"name":"Bradders","steam_id":76561198072225758,"connected_time":192000000000,"state":"active","ping":40},{"user_id":485,"name":"󠁳⁧⁧ Kruthal","steam_id":76561198245726582,"connected_time":1555000000000,"state":"active","ping":85},{"user_id":503,"name":"Krzty","steam_id":76561198306160711,"connected_time":159000000000,"state":"active","ping":99},{"user_id":504,"name":"DeleteTrickster","steam_id":76561198397120242,"connected_time":147000000000,"state":"active","ping":89},{"user_id":456,"name":"trans rights","steam_id":76561199305428573,"connected_time":3860000000000,"state":"active","ping":69},{"user_id":506,"name":"◣_◢","steam_id":76561199042470246,"connected_time":144000000000,"state":"active","ping":66},{"user_id":508,"name":"kreeekz","steam_id":76561198014431602,"connected_time":119000000000,"state":"active","ping":75},{"user_id":493,"name":"cister0","steam_id":76561198130195469,"connected_time":535000000000,"state":"active","ping":82},{"user_id":469,"name":"Dr. Funkenstein","steam_id":76561197977816210,"connected_time":2689000000000,"state":"active","ping":71},{"user_id":495,"name":"MatchaPanda","steam_id":76561198027383926,"connected_time":382000000000,"state":"active","ping":44}]},{"server_id":40,"name":"Uncletopia | London | 7 | No Payload","name_short":"lon-7","host":"lon-1.uk.uncletopia.com","port":27075,"enabled":true,"region":"eu","cc":"gb","latitude":51.509865,"longitude":-0.118092,"reserved":0,"last_update":"0001-01-01T00:00:00Z","name_a2s":"Uncletopia | London | 7 | No Payload","protocol":17,"map":"koth_king","folder":"tf","game":"Team Fortress","app_id":440,"player_count":24,"max_players":24,"Bots":0,"server_type":"Dedicated","server_os":"Linux","password":true,"vac":true,"version":"7961495","steam_id":85568392924964314,"keywords":["cp","nocrits","nodmgspread","uncletopia"],"game_id":440,"stv_port":27076,"stv_name":"Uncletopia | London | 7 | No Payload | STV","players":[{"user_id":111,"name":"Birch","steam_id":76561197998712822,"connected_time":841000000000,"state":"active","ping":58},{"user_id":82,"name":"❤G a n K","steam_id":76561199125995565,"connected_time":2819000000000,"state":"active","ping":60},{"user_id":66,"name":"cansado","steam_id":76561198003898089,"connected_time":3395000000000,"state":"active","ping":70},{"user_id":107,"name":"TF2 Goblin","steam_id":76561198922879432,"connected_time":1522000000000,"state":"active","ping":84},{"user_id":97,"name":"Enjoyer","steam_id":76561198147399855,"connected_time":2350000000000,"state":"active","ping":151},{"user_id":45,"name":"sHISSUS","steam_id":76561198211063493,"connected_time":3621000000000,"state":"active","ping":61},{"user_id":113,"name":"SenitorD","steam_id":76561198088916978,"connected_time":812000000000,"state":"active","ping":58},{"user_id":120,"name":"thysponge55","steam_id":76561198042784730,"connected_time":191000000000,"state":"active","ping":52},{"user_id":69,"name":"fartcollector","steam_id":76561198048304703,"connected_time":3269000000000,"state":"active","ping":46},{"user_id":89,"name":"Pls.do.it!","steam_id":76561198211638119,"connected_time":2593000000000,"state":"active","ping":98},{"user_id":117,"name":"Kiers","steam_id":76561198834266801,"connected_time":415000000000,"state":"active","ping":72},{"user_id":121,"name":"AethericRuby","steam_id":76561198066395000,"connected_time":159000000000,"state":"active","ping":49},{"user_id":104,"name":"Der Herr Doktor","steam_id":76561198119476089,"connected_time":1902000000000,"state":"active","ping":65},{"user_id":55,"name":"Rock..","steam_id":76561198004641963,"connected_time":3502000000000,"state":"active","ping":82},{"user_id":110,"name":"Space","steam_id":76561198378357559,"connected_time":1171000000000,"state":"active","ping":44},{"user_id":114,"name":"meriones","steam_id":76561198034234373,"connected_time":721000000000,"state":"active","ping":44},{"user_id":105,"name":"Sirzen","steam_id":76561198170155434,"connected_time":1701000000000,"state":"active","ping":48},{"user_id":123,"name":"SpaceBoxxer","steam_id":76561198798211513,"connected_time":130000000000,"state":"active","ping":72},{"user_id":72,"name":"sneaky snake","steam_id":76561198279965791,"connected_time":3222000000000,"state":"active","ping":94},{"user_id":119,"name":"Soup","steam_id":76561199081651572,"connected_time":306000000000,"state":"active","ping":61},{"user_id":116,"name":"protëin","steam_id":76561197998423616,"connected_time":454000000000,"state":"active","ping":69},{"user_id":95,"name":"chronos","steam_id":76561199077776159,"connected_time":2403000000000,"state":"active","ping":111},{"user_id":115,"name":"joachym","steam_id":76561198428579761,"connected_time":631000000000,"state":"active","ping":72},{"user_id":102,"name":"ROX","steam_id":76561198272289320,"connected_time":1978000000000,"state":"active","ping":68}]},{"server_id":41,"name":"Uncletopia | London | 8 | Community","name_short":"lon-8","host":"lon-1.uk.uncletopia.com","port":27085,"enabled":true,"region":"eu","cc":"gb","latitude":51.509865,"longitude":-0.118092,"reserved":0,"last_update":"0001-01-01T00:00:00Z","name_a2s":"Uncletopia | London | 8 | Community","protocol":17,"map":"workshop/koth_bagel_rc6.ugc2514036946","folder":"tf","game":"Team Fortress","app_id":440,"player_count":0,"max_players":24,"Bots":0,"server_type":"Dedicated","server_os":"Linux","password":true,"vac":true,"version":"7961495","steam_id":85568392924964315,"keywords":["cp","nocrits","nodmgspread","uncletopia"],"game_id":440,"stv_port":27086,"stv_name":"Uncletopia | London | 8 | Community | STV","players":null},{"server_id":300,"name":"Uncletopia | Montréal | 1 | All Maps","name_short":"mtl-1","host":"mtl-1.ca.uncletopia.com","port":27015,"enabled":true,"region":"us-east","cc":"ca","latitude":45.50889,"longitude":-73.56167,"reserved":0,"last_update":"0001-01-01T00:00:00Z","name_a2s":"","protocol":0,"map":"","folder":"","game":"","app_id":0,"player_count":0,"max_players":0,"Bots":0,"server_type":"","server_os":"","password":false,"vac":false,"version":"","steam_id":0,"keywords":null,"game_id":0,"stv_port":0,"stv_name":"","players":null},{"server_id":301,"name":"Uncletopia | Montréal | 2 | All Maps","name_short":"mtl-2","host":"mtl-1.ca.uncletopia.com","port":27025,"enabled":true,"region":"us-east","cc":"ca","latitude":45.50889,"longitude":-73.56167,"reserved":0,"last_update":"0001-01-01T00:00:00Z","name_a2s":"","protocol":0,"map":"","folder":"","game":"","app_id":0,"player_count":0,"max_players":0,"Bots":0,"server_type":"","server_os":"","password":false,"vac":false,"version":"","steam_id":0,"keywords":null,"game_id":0,"stv_port":0,"stv_name":"","players":null},{"server_id":302,"name":"Uncletopia | Montréal | 3 | All Maps","name_short":"mtl-3","host":"mtl-1.ca.uncletopia.com","port":27035,"enabled":true,"region":"us-east","cc":"ca","latitude":45.50889,"longitude":-73.56167,"reserved":0,"last_update":"0001-01-01T00:00:00Z","name_a2s":"","protocol":0,"map":"","folder":"","game":"","app_id":0,"player_count":0,"max_players":0,"Bots":0,"server_type":"","server_os":"","password":false,"vac":false,"version":"","steam_id":0,"keywords":null,"game_id":0,"stv_port":0,"stv_name":"","players":null},{"server_id":303,"name":"Uncletopia | Montréal | 4 | No Payload","name_short":"mtl-4","host":"mtl-1.ca.uncletopia.com","port":27045,"enabled":true,"region":"us-east","cc":"ca","latitude":45.50889,"longitude":-73.56167,"reserved":0,"last_update":"0001-01-01T00:00:00Z","name_a2s":"","protocol":0,"map":"","folder":"","game":"","app_id":0,"player_count":0,"max_players":0,"Bots":0,"server_type":"","server_os":"","password":false,"vac":false,"version":"","steam_id":0,"keywords":null,"game_id":0,"stv_port":0,"stv_name":"","players":null},{"server_id":13,"name":"Uncletopia | New York City | 1 | All Maps","name_short":"nyc-1","host":"nyc-1.us.uncletopia.com","port":27015,"enabled":true,"region":"us-east","cc":"us","latitude":40.73061,"longitude":-73.93524,"reserved":0,"last_update":"0001-01-01T00:00:00Z","name_a2s":"Uncletopia | New York City | 1 | All Maps","protocol":17,"map":"pl_upward","folder":"tf","game":"Team Fortress","app_id":440,"player_count":24,"max_players":24,"Bots":0,"server_type":"Dedicated","server_os":"Linux","password":true,"vac":true,"version":"7961495","steam_id":85568392924469993,"keywords":["nocrits","nodmgspread","payload","uncletopia"],"game_id":440,"stv_port":27016,"stv_name":"Uncletopia | New York City | 1 | All Maps | STV","players":[{"user_id":260,"name":"ATL1 | cola","steam_id":76561198374390458,"connected_time":1497000000000,"state":"active","ping":64},{"user_id":257,"name":"bojack from the show bojack hor","steam_id":76561198053006712,"connected_time":1815000000000,"state":"active","ping":42},{"user_id":274,"name":"ATL 1 | Save your wifi","steam_id":76561198286147372,"connected_time":636000000000,"state":"active","ping":69},{"user_id":248,"name":"Park","steam_id":76561198057222814,"connected_time":2586000000000,"state":"active","ping":46},{"user_id":283,"name":"shmoke","steam_id":76561198056996952,"connected_time":121000000000,"state":"active","ping":58},{"user_id":270,"name":"tools","steam_id":76561199010542612,"connected_time":872000000000,"state":"active","ping":75},{"user_id":256,"name":"Elias","steam_id":76561198106431732,"connected_time":1819000000000,"state":"active","ping":55},{"user_id":280,"name":"wool","steam_id":76561198869689933,"connected_time":412000000000,"state":"active","ping":58},{"user_id":259,"name":"guason loco","steam_id":76561198413270568,"connected_time":1648000000000,"state":"active","ping":137},{"user_id":273,"name":"Mobster Lobster","steam_id":76561198025376883,"connected_time":658000000000,"state":"active","ping":75},{"user_id":284,"name":"plutonium isotope","steam_id":76561198319442494,"connected_time":26000000000,"state":"active","ping":112},{"user_id":252,"name":"Logreir64V","steam_id":76561199076233876,"connected_time":2118000000000,"state":"active","ping":133},{"user_id":241,"name":"Raine","steam_id":76561198055761141,"connected_time":3382000000000,"state":"active","ping":101},{"user_id":225,"name":"eish","steam_id":76561198089463603,"connected_time":4354000000000,"state":"active","ping":136},{"user_id":253,"name":"engineer's fat tits gaming","steam_id":76561198351463588,"connected_time":2097000000000,"state":"active","ping":46},{"user_id":234,"name":"Virtual Zorua","steam_id":76561198196180302,"connected_time":3945000000000,"state":"active","ping":88},{"user_id":249,"name":"THGAwesome","steam_id":76561198162847218,"connected_time":2412000000000,"state":"active","ping":72},{"user_id":264,"name":"pim","steam_id":76561198095163441,"connected_time":1460000000000,"state":"active","ping":91},{"user_id":278,"name":"sansa musa","steam_id":76561198163723555,"connected_time":455000000000,"state":"active","ping":47},{"user_id":235,"name":"Fletcher","steam_id":76561198317846538,"connected_time":3921000000000,"state":"active","ping":55},{"user_id":285,"name":"G6 1920","steam_id":76561198111669774,"connected_time":9000000000,"state":"active","ping":70},{"user_id":255,"name":"kksmrecker","steam_id":76561199122869459,"connected_time":1939000000000,"state":"active","ping":70},{"user_id":212,"name":"Nassu","steam_id":76561198147367577,"connected_time":5131000000000,"state":"active","ping":86},{"user_id":269,"name":"Stonks","steam_id":76561199490085068,"connected_time":1039000000000,"state":"active","ping":67}]},{"server_id":14,"name":"Uncletopia | New York City | 2 | All Maps","name_short":"nyc-2","host":"nyc-1.us.uncletopia.com","port":27025,"enabled":true,"region":"us-east","cc":"us","latitude":40.73061,"longitude":-73.93524,"reserved":0,"last_update":"0001-01-01T00:00:00Z","name_a2s":"Uncletopia | New York City | 2 | All Maps","protocol":17,"map":"pl_borneo","folder":"tf","game":"Team Fortress","app_id":440,"player_count":24,"max_players":24,"Bots":0,"server_type":"Dedicated","server_os":"Linux","password":true,"vac":true,"version":"7961495","steam_id":85568392924469994,"keywords":["nocrits","nodmgspread","payload","uncletopia"],"game_id":440,"stv_port":27026,"stv_name":"Uncletopia | New York City | 2 | All Maps | STV","players":[{"user_id":318,"name":"Bother","steam_id":76561198336750909,"connected_time":975000000000,"state":"active","ping":45},{"user_id":299,"name":"DanikVelocity","steam_id":76561199015911962,"connected_time":2197000000000,"state":"active","ping":71},{"user_id":314,"name":"reis","steam_id":76561199232952016,"connected_time":1335000000000,"state":"active","ping":172},{"user_id":316,"name":"я гомосексуал","steam_id":76561199013466162,"connected_time":1004000000000,"state":"active","ping":97},{"user_id":300,"name":"Toast","steam_id":76561199243331140,"connected_time":2190000000000,"state":"active","ping":95},{"user_id":315,"name":"Cava","steam_id":76561198054840118,"connected_time":1153000000000,"state":"active","ping":146},{"user_id":322,"name":"Spike","steam_id":76561198018743219,"connected_time":472000000000,"state":"active","ping":92},{"user_id":301,"name":"honch","steam_id":76561198832647822,"connected_time":2165000000000,"state":"active","ping":66},{"user_id":302,"name":"lost in spaaaaace","steam_id":76561199085974120,"connected_time":2155000000000,"state":"active","ping":59},{"user_id":312,"name":"Julio Foolio","steam_id":76561198407122992,"connected_time":1463000000000,"state":"active","ping":55},{"user_id":276,"name":"A Puppy","steam_id":76561198828184456,"connected_time":5409000000000,"state":"active","ping":49},{"user_id":317,"name":"{Malik} Lightnin ϟ Phoenix™","steam_id":76561198042509328,"connected_time":990000000000,"state":"active","ping":77},{"user_id":303,"name":"God's Drunkest Driver","steam_id":76561199174579733,"connected_time":2127000000000,"state":"active","ping":65},{"user_id":290,"name":"Oopsie Daisy ❋","steam_id":76561198042144492,"connected_time":3605000000000,"state":"active","ping":81},{"user_id":313,"name":"Norse Code","steam_id":76561198036032168,"connected_time":1421000000000,"state":"active","ping":56},{"user_id":291,"name":"Cloud","steam_id":76561198954987128,"connected_time":2939000000000,"state":"active","ping":70},{"user_id":305,"name":"FOUR08","steam_id":76561199086256675,"connected_time":2067000000000,"state":"active","ping":102},{"user_id":294,"name":"frank \"murder guy\" columbo","steam_id":76561198413125750,"connected_time":2470000000000,"state":"active","ping":49},{"user_id":284,"name":"Snoopy","steam_id":76561198273735974,"connected_time":4821000000000,"state":"active","ping":119},{"user_id":306,"name":"PeachFlavoredBleach","steam_id":76561198116226449,"connected_time":1931000000000,"state":"active","ping":65},{"user_id":307,"name":"bobby159753","steam_id":76561199222116870,"connected_time":1926000000000,"state":"active","ping":156},{"user_id":321,"name":"Pruritus","steam_id":76561197990436505,"connected_time":665000000000,"state":"active","ping":76},{"user_id":309,"name":"Glennithy","steam_id":76561198339332079,"connected_time":1889000000000,"state":"active","ping":75},{"user_id":323,"name":"asfg","steam_id":76561198107931997,"connected_time":468000000000,"state":"active","ping":57}]},{"server_id":15,"name":"Uncletopia | New York City | 3 | Stopwatch Beta","name_short":"nyc-3","host":"nyc-1.us.uncletopia.com","port":27035,"enabled":true,"region":"us-east","cc":"us","latitude":40.73061,"longitude":-73.93524,"reserved":0,"last_update":"0001-01-01T00:00:00Z","name_a2s":"Uncletopia | New York City | 3 | Stopwatch Beta","protocol":17,"map":"workshop/koth_ramjam_rc1.ugc459778887","folder":"tf","game":"Team Fortress","app_id":440,"player_count":0,"max_players":24,"Bots":0,"server_type":"Dedicated","server_os":"Linux","password":true,"vac":true,"version":"7961495","steam_id":85568392924742820,"keywords":["cp","nocrits","nodmgspread","uncletopia"],"game_id":440,"stv_port":27036,"stv_name":"Uncletopia | New York City | 3 | Stopwatch Beta | STV","players":null},{"server_id":16,"name":"Uncletopia | New York City | 4 | Community","name_short":"nyc-4","host":"nyc-1.us.uncletopia.com","port":27045,"enabled":true,"region":"us-east","cc":"us","latitude":40.73061,"longitude":-73.93524,"reserved":0,"last_update":"0001-01-01T00:00:00Z","name_a2s":"Uncletopia | New York City | 4 | Community","protocol":17,"map":"workshop/pl_badwater_pro_v12.ugc2142942074","folder":"tf","game":"Team Fortress","app_id":440,"player_count":24,"max_players":24,"Bots":0,"server_type":"Dedicated","server_os":"Linux","password":true,"vac":true,"version":"7961495","steam_id":85568392924742821,"keywords":["nocrits","nodmgspread","payload","uncletopia"],"game_id":440,"stv_port":27046,"stv_name":"Uncletopia | New York City | 4 | Community | STV","players":[{"user_id":263,"name":"emerge","steam_id":76561198186882891,"connected_time":1150000000000,"state":"active","ping":72},{"user_id":203,"name":"x","steam_id":76561198013735714,"connected_time":4835000000000,"state":"active","ping":64},{"user_id":201,"name":"ADRIEN BRODY","steam_id":76561198009299473,"connected_time":5033000000000,"state":"active","ping":58},{"user_id":274,"name":"seeyouauntie","steam_id":76561198045852999,"connected_time":455000000000,"state":"active","ping":72},{"user_id":266,"name":"Cerabond","steam_id":76561199230915333,"connected_time":858000000000,"state":"active","ping":58},{"user_id":276,"name":"WhazhisfacePC","steam_id":76561198321796408,"connected_time":381000000000,"state":"active","ping":47},{"user_id":259,"name":"superman545454545454545454","steam_id":76561199182863907,"connected_time":1589000000000,"state":"active","ping":64},{"user_id":272,"name":"guac","steam_id":76561198407685013,"connected_time":566000000000,"state":"active","ping":60},{"user_id":238,"name":"Ubuntu Phone","steam_id":76561198008110407,"connected_time":3294000000000,"state":"active","ping":88},{"user_id":256,"name":"Catonator","steam_id":76561198068605459,"connected_time":1631000000000,"state":"active","ping":138},{"user_id":236,"name":"Ferret","steam_id":76561198031639822,"connected_time":3480000000000,"state":"active","ping":59},{"user_id":273,"name":"Airwick♿[QC]","steam_id":76561198815916411,"connected_time":553000000000,"state":"active","ping":57},{"user_id":260,"name":"BillTheBober","steam_id":76561198350152969,"connected_time":1490000000000,"state":"active","ping":65},{"user_id":277,"name":"bakkhertz","steam_id":76561198046745579,"connected_time":163000000000,"state":"active","ping":93},{"user_id":230,"name":"crenellate","steam_id":76561198165582650,"connected_time":3819000000000,"state":"active","ping":70},{"user_id":268,"name":"Mephistopheles","steam_id":76561198253731826,"connected_time":770000000000,"state":"active","ping":108},{"user_id":216,"name":"YINGBING43","steam_id":76561198166141576,"connected_time":4265000000000,"state":"active","ping":75},{"user_id":217,"name":"Reflect","steam_id":76561198058312481,"connected_time":4256000000000,"state":"active","ping":59},{"user_id":255,"name":"pomino","steam_id":76561198071260143,"connected_time":1679000000000,"state":"active","ping":55},{"user_id":269,"name":"euphoricfilth","steam_id":76561198100160865,"connected_time":752000000000,"state":"active","ping":52},{"user_id":261,"name":"The Bucket","steam_id":76561199131973613,"connected_time":1401000000000,"state":"active","ping":179},{"user_id":240,"name":"Chicken Joe","steam_id":76561198278185182,"connected_time":3096000000000,"state":"active","ping":58},{"user_id":275,"name":"msay","steam_id":76561198170888029,"connected_time":425000000000,"state":"active","ping":69},{"user_id":278,"name":"will12","steam_id":76561198880697922,"connected_time":51000000000,"state":"active","ping":46}]},{"server_id":142,"name":"Uncletopia | São Paulo | 1 | All Maps","name_short":"sao-1","host":"sao-1.br.uncletopia.com","port":27015,"enabled":true,"region":"sa","cc":"br","latitude":-23.533773,"longitude":-46.62529,"reserved":0,"last_update":"0001-01-01T00:00:00Z","name_a2s":"Uncletopia | São Paulo | 1 | All Maps","protocol":17,"map":"koth_viaduct","folder":"tf","game":"Team Fortress","app_id":440,"player_count":0,"max_players":24,"Bots":0,"server_type":"Dedicated","server_os":"Linux","password":true,"vac":true,"version":"7961495","steam_id":85568392924469996,"keywords":["cp","nocrits","nodmgspread","uncletopia"],"game_id":440,"stv_port":27016,"stv_name":"Uncletopia | São Paulo | 1 | All Maps | STV","players":null},{"server_id":143,"name":"Uncletopia | São Paulo | 2 | Community","name_short":"sao-2","host":"sao-2.br.uncletopia.com","port":27015,"enabled":true,"region":"sa","cc":"br","latitude":-23.533773,"longitude":-46.62529,"reserved":0,"last_update":"0001-01-01T00:00:00Z","name_a2s":"Uncletopia | São Paulo | 2 | Community","protocol":17,"map":"workshop/cp_caldera_rc2.ugc2834196889","folder":"tf","game":"Team Fortress","app_id":440,"player_count":0,"max_players":24,"Bots":0,"server_type":"Dedicated","server_os":"Linux","password":true,"vac":true,"version":"7961495","steam_id":85568392924485349,"keywords":["cp","nocrits","nodmgspread","uncletopia"],"game_id":440,"stv_port":27016,"stv_name":"Uncletopia | São Paulo | 2 | Community | STV","players":null},{"server_id":7,"name":"Uncletopia | Seattle | 1 | All Maps","name_short":"sea-1","host":"sea-1.us.uncletopia.com","port":27015,"enabled":true,"region":"us-west","cc":"us","latitude":47.608013,"longitude":-122.33517,"reserved":0,"last_update":"0001-01-01T00:00:00Z","name_a2s":"Uncletopia | Seattle | 1 | All Maps","protocol":17,"map":"pl_swiftwater_final1","folder":"tf","game":"Team Fortress","app_id":440,"player_count":23,"max_players":24,"Bots":0,"server_type":"Dedicated","server_os":"Linux","password":true,"vac":true,"version":"7961495","steam_id":85568392924469997,"keywords":["nocrits","nodmgspread","payload","uncletopia"],"game_id":440,"stv_port":27016,"stv_name":"Uncletopia | Seattle | 1 | All Maps | STV","players":[{"user_id":100,"name":"Pneumo.","steam_id":76561197987911883,"connected_time":1466000000000,"state":"active","ping":67},{"user_id":87,"name":"Hyperstition","steam_id":76561198116425414,"connected_time":2156000000000,"state":"active","ping":59},{"user_id":60,"name":"Rally Racer","steam_id":76561198044613715,"connected_time":4041000000000,"state":"active","ping":66},{"user_id":92,"name":"Cardboardcoin","steam_id":76561199421284163,"connected_time":1863000000000,"state":"active","ping":77},{"user_id":58,"name":"Closed.","steam_id":76561198212598967,"connected_time":4134000000000,"state":"active","ping":81},{"user_id":102,"name":"McSpazatron","steam_id":76561198955942148,"connected_time":896000000000,"state":"active","ping":70},{"user_id":62,"name":"master prestige cod gamer","steam_id":76561198152149679,"connected_time":4008000000000,"state":"active","ping":34},{"user_id":86,"name":"slushy :))","steam_id":76561198135281802,"connected_time":2217000000000,"state":"active","ping":50},{"user_id":93,"name":"Vem","steam_id":76561198117273112,"connected_time":1813000000000,"state":"active","ping":118},{"user_id":64,"name":"atlas","steam_id":76561198398383076,"connected_time":3980000000000,"state":"active","ping":92},{"user_id":103,"name":"Fentanyl phyl","steam_id":76561198271995672,"connected_time":889000000000,"state":"active","ping":55},{"user_id":83,"name":"gnoblin","steam_id":76561198210322871,"connected_time":2897000000000,"state":"active","ping":77},{"user_id":65,"name":"ivan","steam_id":76561199017754044,"connected_time":3951000000000,"state":"active","ping":61},{"user_id":85,"name":"Goose","steam_id":76561198036774894,"connected_time":2346000000000,"state":"active","ping":59},{"user_id":94,"name":"yeah right","steam_id":76561198301127098,"connected_time":1800000000000,"state":"active","ping":92},{"user_id":108,"name":"Mint Widget","steam_id":76561198036875245,"connected_time":562000000000,"state":"active","ping":67},{"user_id":96,"name":"Complete Dental Failure","steam_id":76561198083293321,"connected_time":1648000000000,"state":"active","ping":106},{"user_id":66,"name":"jayeskae","steam_id":76561198144220801,"connected_time":3928000000000,"state":"active","ping":46},{"user_id":53,"name":"The Supreme Itch","steam_id":76561198253185600,"connected_time":4791000000000,"state":"active","ping":70},{"user_id":110,"name":"AkimboAoki","steam_id":76561198158323058,"connected_time":22000000000,"state":"spawning","ping":74},{"user_id":101,"name":"Sir Loincloth","steam_id":76561198033073991,"connected_time":948000000000,"state":"active","ping":65},{"user_id":106,"name":"Unknown_subject","steam_id":76561198926253311,"connected_time":692000000000,"state":"active","ping":91},{"user_id":109,"name":"Mii Guest C, From Wii Sports","steam_id":76561198197964803,"connected_time":47000000000,"state":"active","ping":59}]},{"server_id":119,"name":"Uncletopia | Seattle | 2 | All Maps","name_short":"sea-2","host":"sea-1.us.uncletopia.com","port":27025,"enabled":true,"region":"us-west","cc":"us","latitude":47.608013,"longitude":-122.33517,"reserved":0,"last_update":"0001-01-01T00:00:00Z","name_a2s":"Uncletopia | Seattle | 2 | All Maps","protocol":17,"map":"koth_viaduct","folder":"tf","game":"Team Fortress","app_id":440,"player_count":11,"max_players":24,"Bots":0,"server_type":"Dedicated","server_os":"Linux","password":true,"vac":true,"version":"7961495","steam_id":85568392924469998,"keywords":["cp","nocrits","nodmgspread","uncletopia"],"game_id":440,"stv_port":27026,"stv_name":"Uncletopia | Seattle | 2 | All Maps | STV","players":[{"user_id":11,"name":"cool beans","steam_id":76561198045758072,"connected_time":1171000000000,"state":"active","ping":57},{"user_id":8,"name":"Mom","steam_id":76561198207936000,"connected_time":1481000000000,"state":"active","ping":54},{"user_id":10,"name":"An Electric Blue Lobster","steam_id":76561198303125229,"connected_time":1335000000000,"state":"active","ping":97},{"user_id":12,"name":"nfseskimo","steam_id":76561198078745666,"connected_time":984000000000,"state":"active","ping":37},{"user_id":13,"name":"bigman_boi556","steam_id":76561199383012156,"connected_time":744000000000,"state":"active","ping":56},{"user_id":14,"name":"Mengle","steam_id":76561198001953684,"connected_time":637000000000,"state":"active","ping":112},{"user_id":18,"name":"big fish","steam_id":76561198186479818,"connected_time":122000000000,"state":"active","ping":86},{"user_id":17,"name":"Thequirka","steam_id":76561198968058652,"connected_time":236000000000,"state":"active","ping":46},{"user_id":19,"name":"Wheaties","steam_id":76561198060909578,"connected_time":42000000000,"state":"active","ping":58},{"user_id":20,"name":"rivulet","steam_id":76561198165825391,"connected_time":25000000000,"state":"active","ping":100},{"user_id":21,"name":"JamakaJudd","steam_id":76561198045755086,"connected_time":10000000000,"state":"spawning","ping":59}]},{"server_id":406,"name":"Uncletopia | Seattle | 3 | Stopwatch Beta","name_short":"sea-3","host":"sea-1.us.uncletopia.com","port":27035,"enabled":true,"region":"us-west","cc":"us","latitude":47.608013,"longitude":-122.33517,"reserved":0,"last_update":"0001-01-01T00:00:00Z","name_a2s":"Uncletopia | Seattle | 3 | Stopwatch Beta","protocol":17,"map":"cp_gullywash_final1","folder":"tf","game":"Team Fortress","app_id":440,"player_count":0,"max_players":24,"Bots":0,"server_type":"Dedicated","server_os":"Linux","password":true,"vac":true,"version":"7961495","steam_id":85568392924515217,"keywords":["cp","nocrits","nodmgspread","uncletopia"],"game_id":440,"stv_port":27036,"stv_name":"Uncletopia | Seattle | 3 | Stopwatch Beta | STV","players":null},{"server_id":17,"name":"Uncletopia | San Francisco | 1 | All Maps","name_short":"sfo-1","host":"sfo-1.us.uncletopia.com","port":27015,"enabled":true,"region":"us-west","cc":"us","latitude":37.77397,"longitude":-122.4313,"reserved":0,"last_update":"0001-01-01T00:00:00Z","name_a2s":"Uncletopia | San Francisco | 1 | All Maps","protocol":17,"map":"pl_swiftwater_final1","folder":"tf","game":"Team Fortress","app_id":440,"player_count":0,"max_players":24,"Bots":0,"server_type":"Dedicated","server_os":"Linux","password":true,"vac":true,"version":"7961495","steam_id":85568392924469999,"keywords":["nocrits","nodmgspread","payload","uncletopia"],"game_id":440,"stv_port":27016,"stv_name":"Uncletopia | San Francisco | 1 | All Maps | STV","players":null},{"server_id":18,"name":"Uncletopia | San Francisco | 2 | All Maps","name_short":"sfo-2","host":"sfo-1.us.uncletopia.com","port":27025,"enabled":true,"region":"us-west","cc":"us","latitude":37.77397,"longitude":-122.4313,"reserved":0,"last_update":"0001-01-01T00:00:00Z","name_a2s":"Uncletopia | San Francisco | 2 | All Maps","protocol":17,"map":"koth_cascade","folder":"tf","game":"Team Fortress","app_id":440,"player_count":0,"max_players":24,"Bots":0,"server_type":"Dedicated","server_os":"Linux","password":true,"vac":true,"version":"7961495","steam_id":85568392924470000,"keywords":["cp","nocrits","nodmgspread","uncletopia"],"game_id":440,"stv_port":27026,"stv_name":"Uncletopia | San Francisco | 2 | All Maps | STV","players":null},{"server_id":19,"name":"Uncletopia | San Francisco | 3 | Stopwatch Beta","name_short":"sfo-3","host":"sfo-1.us.uncletopia.com","port":27035,"enabled":true,"region":"us-west","cc":"us","latitude":37.77397,"longitude":-122.4313,"reserved":0,"last_update":"0001-01-01T00:00:00Z","name_a2s":"Uncletopia | San Francisco | 3 | Stopwatch Beta","protocol":17,"map":"pl_borneo","folder":"tf","game":"Team Fortress","app_id":440,"player_count":0,"max_players":24,"Bots":0,"server_type":"Dedicated","server_os":"Linux","password":true,"vac":true,"version":"7961495","steam_id":85568392924742824,"keywords":["nocrits","nodmgspread","payload","uncletopia"],"game_id":440,"stv_port":27036,"stv_name":"Uncletopia | San Francisco | 3 | Stopwatch Beta | STV","players":null},{"server_id":20,"name":"Uncletopia | San Francisco | 4 | Community","name_short":"sfo-4","host":"sfo-1.us.uncletopia.com","port":27045,"enabled":true,"region":"us-west","cc":"us","latitude":37.77397,"longitude":-122.4313,"reserved":0,"last_update":"0001-01-01T00:00:00Z","name_a2s":"Uncletopia | San Francisco | 4 | Community","protocol":17,"map":"koth_viaduct","folder":"tf","game":"Team Fortress","app_id":440,"player_count":0,"max_players":24,"Bots":0,"server_type":"Dedicated","server_os":"Linux","password":true,"vac":true,"version":"7961495","steam_id":85568392924742826,"keywords":["cp","nocrits","nodmgspread","uncletopia"],"game_id":440,"stv_port":27046,"stv_name":"Uncletopia | San Francisco | 4 | Community | STV","players":null},{"server_id":141,"name":"Uncletopia | Sydney | 1 | All Maps","name_short":"syd-1","host":"syd-1.au.uncletopia.com","port":27015,"enabled":true,"region":"au","cc":"au","latitude":-33.865143,"longitude":151.2099,"reserved":0,"last_update":"0001-01-01T00:00:00Z","name_a2s":"Uncletopia | Sydney | 1 | All Maps","protocol":17,"map":"koth_lakeside_final","folder":"tf","game":"Team Fortress","app_id":440,"player_count":0,"max_players":24,"Bots":0,"server_type":"Dedicated","server_os":"Linux","password":true,"vac":true,"version":"7961495","steam_id":85568392924470001,"keywords":["cp","nocrits","nodmgspread","uncletopia"],"game_id":440,"stv_port":27016,"stv_name":"Uncletopia | Sydney | 1 | All Maps | STV","players":null},{"server_id":123,"name":"Uncletopia | Sydney | 2 | All Maps","name_short":"syd-2","host":"syd-1.au.uncletopia.com","port":27025,"enabled":true,"region":"au","cc":"au","latitude":-33.865143,"longitude":151.2099,"reserved":0,"last_update":"0001-01-01T00:00:00Z","name_a2s":"Uncletopia | Sydney | 2 | All Maps","protocol":17,"map":"koth_lakeside_final","folder":"tf","game":"Team Fortress","app_id":440,"player_count":0,"max_players":24,"Bots":0,"server_type":"Dedicated","server_os":"Linux","password":true,"vac":true,"version":"7961495","steam_id":85568392924470002,"keywords":["cp","nocrits","nodmgspread","uncletopia"],"game_id":440,"stv_port":27026,"stv_name":"Uncletopia | Sydney | 2 | All Maps | STV","players":null},{"server_id":395,"name":"Uncletopia | Sydney | 3 | All Maps","name_short":"syd-3","host":"syd-1.au.uncletopia.com","port":27035,"enabled":true,"region":"au","cc":"au","latitude":-33.865143,"longitude":151.2099,"reserved":0,"last_update":"0001-01-01T00:00:00Z","name_a2s":"Uncletopia | Sydney | 3 | All Maps","protocol":17,"map":"cp_sunshine","folder":"tf","game":"Team Fortress","app_id":440,"player_count":0,"max_players":24,"Bots":0,"server_type":"Dedicated","server_os":"Linux","password":true,"vac":true,"version":"7961495","steam_id":85568392925194467,"keywords":["cp","nocrits","nodmgspread","uncletopia"],"game_id":440,"stv_port":27036,"stv_name":"Uncletopia | Sydney | 3 | All Maps | STV","players":null},{"server_id":396,"name":"Uncletopia | Sydney | 4 | All Maps","name_short":"syd-4","host":"syd-1.au.uncletopia.com","port":27045,"enabled":true,"region":"au","cc":"au","latitude":-33.865143,"longitude":151.2099,"reserved":0,"last_update":"0001-01-01T00:00:00Z","name_a2s":"Uncletopia | Sydney | 4 | All Maps","protocol":17,"map":"cp_mountainlab","folder":"tf","game":"Team Fortress","app_id":440,"player_count":0,"max_players":24,"Bots":0,"server_type":"Dedicated","server_os":"Linux","password":true,"vac":true,"version":"7961495","steam_id":85568392925397958,"keywords":["cp","nocrits","nodmgspread","uncletopia"],"game_id":440,"stv_port":27046,"stv_name":"Uncletopia | Sydney | 4 | All Maps | STV","players":null},{"server_id":58,"name":"Uncletopia | Sydney | 5 | Stopwatch Beta","name_short":"syd-5","host":"syd-1.au.uncletopia.com","port":27055,"enabled":true,"region":"au","cc":"au","latitude":-33.865143,"longitude":151.2099,"reserved":0,"last_update":"0001-01-01T00:00:00Z","name_a2s":"Uncletopia | Sydney | 5 | Stopwatch Beta","protocol":17,"map":"koth_viaduct","folder":"tf","game":"Team Fortress","app_id":440,"player_count":0,"max_players":24,"Bots":0,"server_type":"Dedicated","server_os":"Linux","password":true,"vac":true,"version":"7961495","steam_id":85568392925397959,"keywords":["cp","nocrits","nodmgspread","uncletopia"],"game_id":440,"stv_port":27056,"stv_name":"Uncletopia | Sydney | 5 | Stopwatch Beta | STV","players":null},{"server_id":59,"name":"Uncletopia | Sydney | 6 | Community","name_short":"syd-6","host":"syd-1.au.uncletopia.com","port":27065,"enabled":true,"region":"au","cc":"au","latitude":-33.865143,"longitude":151.2099,"reserved":0,"last_update":"0001-01-01T00:00:00Z","name_a2s":"Uncletopia | Sydney | 6 | Community","protocol":17,"map":"koth_cascade","folder":"tf","game":"Team Fortress","app_id":440,"player_count":0,"max_players":24,"Bots":0,"server_type":"Dedicated","server_os":"Linux","password":true,"vac":true,"version":"7961495","steam_id":85568392925397960,"keywords":["cp","nocrits","nodmgspread","uncletopia"],"game_id":440,"stv_port":27066,"stv_name":"Uncletopia | Sydney | 6 | Community | STV","players":null},{"server_id":49,"name":"Uncletopia | Warsaw | 1 | All Maps","name_short":"waw-1","host":"waw-1.pl.uncletopia.com","port":27015,"enabled":true,"region":"eu","cc":"pl","latitude":52.2297,"longitude":21.017532,"reserved":0,"last_update":"0001-01-01T00:00:00Z","name_a2s":"Uncletopia | Warsaw | 1 | All Maps","protocol":17,"map":"koth_highpass","folder":"tf","game":"Team Fortress","app_id":440,"player_count":0,"max_players":24,"Bots":0,"server_type":"Dedicated","server_os":"Linux","password":true,"vac":true,"version":"7961495","steam_id":85568392925397850,"keywords":["cp","nocrits","nodmgspread","uncletopia"],"game_id":440,"stv_port":27016,"stv_name":"Uncletopia | Warsaw | 1 | All Maps | STV","players":null},{"server_id":50,"name":"Uncletopia | Warsaw | 2 | All Maps","name_short":"waw-2","host":"waw-1.pl.uncletopia.com","port":27025,"enabled":true,"region":"eu","cc":"pl","latitude":52.2297,"longitude":21.017532,"reserved":0,"last_update":"0001-01-01T00:00:00Z","name_a2s":"Uncletopia | Warsaw | 2 | All Maps","protocol":17,"map":"cp_sunshine","folder":"tf","game":"Team Fortress","app_id":440,"player_count":23,"max_players":24,"Bots":0,"server_type":"Dedicated","server_os":"Linux","password":true,"vac":true,"version":"7961495","steam_id":85568392925397851,"keywords":["cp","nocrits","nodmgspread","uncletopia"],"game_id":440,"stv_port":27026,"stv_name":"Uncletopia | Warsaw | 2 | All Maps | STV","players":[{"user_id":134,"name":"roblan11","steam_id":76561198066839258,"connected_time":122000000000,"state":"active","ping":62},{"user_id":86,"name":"noob_gaming","steam_id":76561199217275620,"connected_time":2460000000000,"state":"active","ping":165},{"user_id":77,"name":"Lorenzo Lovers","steam_id":76561198073973581,"connected_time":2926000000000,"state":"active","ping":100},{"user_id":131,"name":"Hoodley","steam_id":76561198066974902,"connected_time":666000000000,"state":"active","ping":77},{"user_id":87,"name":"noot","steam_id":76561198148074472,"connected_time":2453000000000,"state":"active","ping":59},{"user_id":126,"name":"誰かが見ている","steam_id":76561198834913692,"connected_time":817000000000,"state":"active","ping":58},{"user_id":135,"name":"shix","steam_id":76561198819968777,"connected_time":120000000000,"state":"active","ping":95},{"user_id":108,"name":"Spongejob","steam_id":76561198824965971,"connected_time":1536000000000,"state":"active","ping":57},{"user_id":124,"name":"Siegmeyer","steam_id":76561198328543549,"connected_time":829000000000,"state":"active","ping":63},{"user_id":89,"name":"Osmo","steam_id":76561199286764992,"connected_time":2340000000000,"state":"active","ping":60},{"user_id":80,"name":"Dyld","steam_id":76561197979603871,"connected_time":2699000000000,"state":"active","ping":78},{"user_id":136,"name":"Himalaya","steam_id":76561198016644553,"connected_time":114000000000,"state":"active","ping":82},{"user_id":128,"name":"Shark","steam_id":76561198205226501,"connected_time":772000000000,"state":"active","ping":173},{"user_id":125,"name":"DaGeoKat","steam_id":76561198448542023,"connected_time":817000000000,"state":"active","ping":82},{"user_id":96,"name":"pack of albino rats","steam_id":76561198147277460,"connected_time":2182000000000,"state":"active","ping":76},{"user_id":109,"name":"Dr.Dag","steam_id":76561198301430910,"connected_time":1527000000000,"state":"active","ping":87},{"user_id":127,"name":"DraGOs512","steam_id":76561198438519964,"connected_time":815000000000,"state":"active","ping":98},{"user_id":105,"name":"No, Why?","steam_id":76561198888755969,"connected_time":1907000000000,"state":"active","ping":94},{"user_id":122,"name":"d u k k i","steam_id":76561198071807437,"connected_time":849000000000,"state":"active","ping":59},{"user_id":116,"name":"Ash J. Williams","steam_id":76561198087717456,"connected_time":982000000000,"state":"active","ping":90},{"user_id":98,"name":"the catboy","steam_id":76561198236015506,"connected_time":2134000000000,"state":"active","ping":117},{"user_id":117,"name":"TheVikingTheRed","steam_id":76561199221731253,"connected_time":973000000000,"state":"active","ping":83},{"user_id":119,"name":"69 ME 2NITE","steam_id":76561199124261801,"connected_time":885000000000,"state":"active","ping":99}]},{"server_id":51,"name":"Uncletopia | Warsaw | 3 | All Maps","name_short":"waw-3","host":"waw-1.pl.uncletopia.com","port":27035,"enabled":true,"region":"eu","cc":"pl","latitude":52.2297,"longitude":21.017532,"reserved":0,"last_update":"0001-01-01T00:00:00Z","name_a2s":"Uncletopia | Warsaw | 3 | All Maps","protocol":17,"map":"pl_frontier_final","folder":"tf","game":"Team Fortress","app_id":440,"player_count":19,"max_players":24,"Bots":0,"server_type":"Dedicated","server_os":"Linux","password":true,"vac":true,"version":"7961495","steam_id":85568392925397852,"keywords":["nocrits","nodmgspread","payload","uncletopia"],"game_id":440,"stv_port":27036,"stv_name":"Uncletopia | Warsaw | 3 | All Maps | STV","players":[{"user_id":37,"name":"nemelex","steam_id":76561198958005865,"connected_time":530000000000,"state":"active","ping":75},{"user_id":24,"name":"Primave","steam_id":76561198134289764,"connected_time":1572000000000,"state":"active","ping":49},{"user_id":29,"name":"BonnieDrag","steam_id":76561199149216429,"connected_time":777000000000,"state":"active","ping":100},{"user_id":41,"name":"Annie Meky","steam_id":76561198363740670,"connected_time":342000000000,"state":"active","ping":94},{"user_id":27,"name":"bouncyhousin","steam_id":76561198852902827,"connected_time":1054000000000,"state":"active","ping":164},{"user_id":30,"name":"avocado","steam_id":76561198155567243,"connected_time":776000000000,"state":"active","ping":68},{"user_id":31,"name":"xiiski","steam_id":76561198152387747,"connected_time":754000000000,"state":"active","ping":111},{"user_id":32,"name":"Soverney","steam_id":76561197997961169,"connected_time":708000000000,"state":"active","ping":87},{"user_id":33,"name":"hans","steam_id":76561198288069556,"connected_time":604000000000,"state":"active","ping":114},{"user_id":34,"name":"$teomy :3","steam_id":76561199129423422,"connected_time":595000000000,"state":"active","ping":108},{"user_id":35,"name":"An_Unoriginal_Gamer","steam_id":76561198864060760,"connected_time":593000000000,"state":"active","ping":107},{"user_id":36,"name":"lore","steam_id":76561198120984188,"connected_time":586000000000,"state":"active","ping":84},{"user_id":38,"name":"littlecado","steam_id":76561198144848409,"connected_time":530000000000,"state":"active","ping":50},{"user_id":39,"name":"DOMAIN","steam_id":76561199095640319,"connected_time":505000000000,"state":"active","ping":90},{"user_id":42,"name":"Juliderkek","steam_id":76561198962270674,"connected_time":238000000000,"state":"active","ping":100},{"user_id":43,"name":"Von Leining","steam_id":76561198859983504,"connected_time":196000000000,"state":"active","ping":73},{"user_id":44,"name":"Osek","steam_id":76561197972646003,"connected_time":61000000000,"state":"active","ping":42},{"user_id":45,"name":"TylowStar","steam_id":76561198357107806,"connected_time":56000000000,"state":"active","ping":87},{"user_id":46,"name":"Skatnaset","steam_id":76561198298457353,"connected_time":14000000000,"state":"active","ping":94}]},{"server_id":52,"name":"Uncletopia | Warsaw | 4 | All Maps","name_short":"waw-4","host":"waw-1.pl.uncletopia.com","port":27045,"enabled":true,"region":"eu","cc":"pl","latitude":52.2297,"longitude":21.017532,"reserved":0,"last_update":"0001-01-01T00:00:00Z","name_a2s":"Uncletopia | Warsaw | 4 | All Maps","protocol":17,"map":"koth_lakeside_final","folder":"tf","game":"Team Fortress","app_id":440,"player_count":0,"max_players":24,"Bots":0,"server_type":"Dedicated","server_os":"Linux","password":true,"vac":true,"version":"7961495","steam_id":85568392925397853,"keywords":["cp","nocrits","nodmgspread","uncletopia"],"game_id":440,"stv_port":27046,"stv_name":"Uncletopia | Warsaw | 4 | All Maps | STV","players":null},{"server_id":53,"name":"Uncletopia | Warsaw | 5 | Stopwatch Beta","name_short":"waw-5","host":"waw-1.pl.uncletopia.com","port":27055,"enabled":true,"region":"eu","cc":"pl","latitude":52.2297,"longitude":21.017532,"reserved":0,"last_update":"0001-01-01T00:00:00Z","name_a2s":"Uncletopia | Warsaw | 5 | Stopwatch Beta","protocol":17,"map":"workshop/koth_ashville_final.ugc2130459942","folder":"tf","game":"Team Fortress","app_id":440,"player_count":0,"max_players":24,"Bots":0,"server_type":"Dedicated","server_os":"Linux","password":true,"vac":true,"version":"7961495","steam_id":85568392925397854,"keywords":["cp","nocrits","nodmgspread","uncletopia"],"game_id":440,"stv_port":27056,"stv_name":"Uncletopia | Warsaw | 5 | Stopwatch Beta | STV","players":null},{"server_id":54,"name":"Uncletopia | Warsaw | 6 | Community","name_short":"waw-6","host":"waw-1.pl.uncletopia.com","port":27065,"enabled":true,"region":"eu","cc":"pl","latitude":52.2297,"longitude":21.017532,"reserved":0,"last_update":"0001-01-01T00:00:00Z","name_a2s":"Uncletopia | Warsaw | 6 | Community","protocol":17,"map":"workshop/koth_slaughter_rc1.ugc1712845210","folder":"tf","game":"Team Fortress","app_id":440,"player_count":0,"max_players":24,"Bots":0,"server_type":"Dedicated","server_os":"Linux","password":true,"vac":true,"version":"7961495","steam_id":85568392925397856,"keywords":["cp","nocrits","nodmgspread","uncletopia"],"game_id":440,"stv_port":27066,"stv_name":"Uncletopia | Warsaw | 6 | Community | STV","players":null}]}