{"status":true,"message":"","result":[{"server_id":9,"name":"Uncletopia | Atlanta | 1 | All Maps","name_short":"atl-1","host":"atl-1.us.uncletopia.com","port":27015,"enabled":true,"region":"us-east","cc":"us","latitude":33.753746,"longitude":-84.38633,"reserved":0,"last_update":"0001-01-01T00:00:00Z","name_a2s":"Uncletopia | Atlanta | 1 | All Maps","protocol":17,"map":"cp_mountainlab","folder":"tf","game":"Team Fortress","app_id":440,"player_count":24,"max_players":24,"Bots":0,"server_type":"Dedicated","server_os":"Linux","password":true,"vac":true,"version":"7757534","steam_id":85568392924469982,"keywords":["cp","nocrits","nodmgspread","uncletopia"],"game_id":440,"stv_port":27016,"stv_name":"Uncletopia | Atlanta | 1 | All Maps | STV","players":[{"user_id":277,"name":"Jackleg Joel","steam_id":76561198271636476,"connected_time":6138000000000,"state":"active","ping":137},{"user_id":404,"name":"ATLS1 | Krissy","steam_id":76561197960848174,"connected_time":668000000000,"state":"active","ping":60},{"user_id":405,"name":"Duchamp's Big XL Shitter","steam_id":76561198043988179,"connected_time":588000000000,"state":"active","ping":154},{"user_id":410,"name":"RED1 | Lancer Fan Club","steam_id":76561198355495948,"connected_time":409000000000,"state":"active","ping":67},{"user_id":401,"name":"maxie!","steam_id":76561197962607364,"connected_time":857000000000,"state":"active","ping":60},{"user_id":396,"name":"Daft Punk Playing PlayStation 2","steam_id":76561198128982975,"connected_time":1217000000000,"state":"active","ping":83},{"user_id":413,"name":"Broken Cereal‚àö","steam_id":76561198087489795,"connected_time":147000000000,"state":"active","ping":61},{"user_id":406,"name":"bogginwater","steam_id":76561198155547142,"connected_time":536000000000,"state":"active","ping":61},{"user_id":407,"name":"I Lead MLB In \"Bats Eaten\"","steam_id":76561198034079853,"connected_time":532000000000,"state":"active","ping":69},{"user_id":398,"name":"Yeoman","steam_id":76561198049472346,"connected_time":973000000000,"state":"active","ping":72},{"user_id":291,"name":"G_Bob","steam_id":76561198098133233,"connected_time":4503000000000,"state":"active","ping":57},{"user_id":304,"name":"Kaluka","steam_id":76561198036861445,"connected_time":4020000000000,"state":"active","ping":60},{"user_id":411,"name":"DJ Spit","steam_id":76561198186637025,"connected_time":216000000000,"state":"active","ping":87},{"user_id":300,"name":"ferretgamer","steam_id":76561198880523320,"connected_time":4072000000000,"state":"active","ping":77},{"user_id":336,"name":"lu","steam_id":76561198080731872,"connected_time":2012000000000,"state":"active","ping":79},{"user_id":343,"name":"Kitt(eh) ‚àë:3","steam_id":76561198110858518,"connected_time":1748000000000,"state":"active","ping":75},{"user_id":408,"name":"what the devil","steam_id":76561198326083509,"connected_time":530000000000,"state":"active","ping":76},{"user_id":409,"name":"Yimberly","steam_id":76561199206923109,"connected_time":530000000000,"state":"active","ping":77},{"user_id":307,"name":"TheTruthOfTheCessationOfDukkha","steam_id":76561198214370515,"connected_time":3990000000000,"state":"active","ping":70},{"user_id":399,"name":"ƒ†1 ‚ô¶ Synth","steam_id":76561198058660228,"connected_time":897000000000,"state":"active","ping":43},{"user_id":329,"name":"ash","steam_id":76561198127890645,"connected_time":2724000000000,"state":"active","ping":68},{"user_id":400,"name":"Evil Dwight","steam_id":76561198039152770,"connected_time":891000000000,"state":"active","ping":92},{"user_id":328,"name":"stevie one-million","steam_id":76561198243965308,"connected_time":3067000000000,"state":"active","ping":56},{"user_id":333,"name":"ATL1 | ma0re","steam_id":76561199231971506,"connected_time":2285000000000,"state":"active","ping":63}]},{"server_id":400,"name":"Uncletopia | Atlanta | 3 | Community","name_short":"atl-3","host":"atl-1.us.uncletopia.com","port":27035,"enabled":true,"region":"us-east","cc":"us","latitude":33.753746,"longitude":-84.38633,"reserved":0,"last_update":"0001-01-01T00:00:00Z","name_a2s":"Uncletopia | Atlanta | 3 | Community","protocol":17,"map":"workshop/cp_overgrown_rc7b.ugc503939302","folder":"tf","game":"Team Fortress","app_id":440,"player_count":0,"max_players":32,"Bots":0,"server_type":"Dedicated","server_os":"Linux","password":true,"vac":true,"version":"7757534","steam_id":85568392924515187,"keywords":["cp","increased_maxplayers","nocrits","nodmgspread","uncletopia"],"game_id":440,"stv_port":27036,"stv_name":"Uncletopia | Atlanta | 3 | Community | STV","players":null},{"server_id":401,"name":"Uncletopia | Atlanta | 4 | No Payload","name_short":"atl-4","host":"atl-1.us.uncletopia.com","port":27045,"enabled":true,"region":"us-east","cc":"us","latitude":33.753746,"longitude":-84.38633,"reserved":0,"last_update":"0001-01-01T00:00:00Z","name_a2s":"","protocol":0,"map":"","folder":"","game":"","app_id":0,"player_count":0,"max_players":0,"Bots":0,"server_type":"","server_os":"","password":false,"vac":false,"version":"","steam_id":0,"keywords":null,"game_id":0,"stv_port":0,"stv_name":"","players":null},{"server_id":2,"name":"Uncletopia | Chicago | 1 | All Maps","name_short":"chi-1","host":"chi-1.us.uncletopia.com","port":27015,"enabled":true,"region":"us-central","cc":"us","latitude":41.881832,"longitude":-87.62318,"reserved":0,"last_update":"0001-01-01T00:00:00Z","name_a2s":"Uncletopia | Chicago | 1 | All Maps","protocol":17,"map":"pl_badwater","folder":"tf","game":"Team Fortress","app_id":440,"player_count":24,"max_players":24,"Bots":0,"server_type":"Dedicated","server_os":"Linux","password":true,"vac":true,"version":"7757534","steam_id":85568392924469984,"keywords":["nocrits","nodmgspread","payload","uncletopia"],"game_id":440,"stv_port":27016,"stv_name":"Uncletopia | Chicago | 1 | All Maps | STV","players":[{"user_id":690,"name":"ScoobyBlue","steam_id":76561198054656885,"connected_time":175000000000,"state":"active","ping":75},{"user_id":691,"name":"Peepster","steam_id":76561198297854733,"connected_time":89000000000,"state":"active","ping":68},{"user_id":666,"name":"barker bill","steam_id":76561198018451994,"connected_time":2057000000000,"state":"active","ping":73},{"user_id":680,"name":"HumFreY","steam_id":76561198076639682,"connected_time":613000000000,"state":"active","ping":73},{"user_id":613,"name":"Friendly Scientist","steam_id":76561198158938889,"connected_time":5528000000000,"state":"active","ping":105},{"user_id":693,"name":"FooFLit","steam_id":76561198236967080,"connected_time":60000000000,"state":"active","ping":92},{"user_id":675,"name":"LeTonzy","steam_id":76561198005806699,"connected_time":1379000000000,"state":"active","ping":116},{"user_id":679,"name":"Anthid","steam_id":76561198074493797,"connected_time":826000000000,"state":"active","ping":71},{"user_id":687,"name":"Kapreesi","steam_id":76561198163361200,"connected_time":316000000000,"state":"active","ping":71},{"user_id":669,"name":"trash beast","steam_id":76561198015792736,"connected_time":1928000000000,"state":"active","ping":71},{"user_id":659,"name":"dave strider","steam_id":76561198065112186,"connected_time":2808000000000,"state":"active","ping":75},{"user_id":682,"name":"Censing Auto, The Challenger","steam_id":76561198060926681,"connected_time":507000000000,"state":"active","ping":63},{"user_id":681,"name":"ProtoFeveren","steam_id":76561198096196467,"connected_time":574000000000,"state":"active","ping":62},{"user_id":572,"name":"chloe","steam_id":76561198369849908,"connected_time":9227000000000,"state":"active","ping":83},{"user_id":692,"name":"blob","steam_id":76561198122375328,"connected_time":76000000000,"state":"active","ping":71},{"user_id":664,"name":"Bungalow Bill","steam_id":76561198033536404,"connected_time":2231000000000,"state":"active","ping":66},{"user_id":688,"name":"silentpieceofbacon","steam_id":76561198869323351,"connected_time":313000000000,"state":"active","ping":69},{"user_id":609,"name":"Eden","steam_id":76561198075587475,"connected_time":6558000000000,"state":"active","ping":47},{"user_id":676,"name":"Nephs","steam_id":76561198136763403,"connected_time":1293000000000,"state":"active","ping":73},{"user_id":683,"name":"‚ô• Femboy‚ô•Ventily ‚ô•","steam_id":76561198157260335,"connected_time":406000000000,"state":"active","ping":54},{"user_id":678,"name":"mcdoubble","steam_id":76561198089126832,"connected_time":979000000000,"state":"active","ping":85},{"user_id":689,"name":"reymundo","steam_id":76561197989412830,"connected_time":303000000000,"state":"active","ping":119},{"user_id":674,"name":"erth:)","steam_id":76561198148439635,"connected_time":1456000000000,"state":"active","ping":94},{"user_id":677,"name":"Lia_Rein","steam_id":76561198151569597,"connected_time":1189000000000,"state":"active","ping":137}]},{"server_id":106,"name":"Uncletopia | Chicago | 2 | All Maps","name_short":"chi-2","host":"chi-1.us.uncletopia.com","port":27025,"enabled":true,"region":"us-central","cc":"us","latitude":41.881832,"longitude":-87.62318,"reserved":0,"last_update":"0001-01-01T00:00:00Z","name_a2s":"Uncletopia | Chicago | 2 | All Maps","protocol":17,"map":"cp_dustbowl","folder":"tf","game":"Team Fortress","app_id":440,"player_count":22,"max_players":24,"Bots":0,"server_type":"Dedicated","server_os":"Linux","password":true,"vac":true,"version":"7757534","steam_id":85568392924469985,"keywords":["cp","nocrits","nodmgspread","uncletopia"],"game_id":440,"stv_port":27026,"stv_name":"Uncletopia | Chicago | 2 | All Maps | STV","players":[{"user_id":112,"name":"jrdoran","steam_id":76561197984753094,"connected_time":3354000000000,"state":"active","ping":53},{"user_id":144,"name":"NobodyTheWorst","steam_id":76561198044497547,"connected_time":879000000000,"state":"active","ping":69},{"user_id":123,"name":"jamalsmallzz","steam_id":76561199120206913,"connected_time":2163000000000,"state":"active","ping":64},{"user_id":145,"name":"Antwan","steam_id":76561198246200638,"connected_time":837000000000,"state":"active","ping":70},{"user_id":153,"name":"BookBurner23","steam_id":76561198034771185,"connected_time":423000000000,"state":"active","ping":62},{"user_id":118,"name":"Donkski","steam_id":76561198406895347,"connected_time":2500000000000,"state":"active","ping":70},{"user_id":36,"name":"Medic GF","steam_id":76561198400531556,"connected_time":8100000000000,"state":"active","ping":60},{"user_id":84,"name":"‚ä∞Aero‚ä±","steam_id":76561198084648457,"connected_time":5340000000000,"state":"active","ping":61},{"user_id":38,"name":"RowdyCJ11","steam_id":76561198088929792,"connected_time":8098000000000,"state":"active","ping":46},{"user_id":45,"name":"fallacy","steam_id":76561198057374871,"connected_time":7949000000000,"state":"active","ping":55},{"user_id":128,"name":"admiralmonk","steam_id":76561198845021470,"connected_time":2019000000000,"state":"active","ping":60},{"user_id":146,"name":"Mr.Friendly Reminders","steam_id":76561199067294491,"connected_time":827000000000,"state":"active","ping":50},{"user_id":121,"name":"Bocchi the Rock","steam_id":76561198025668771,"connected_time":2390000000000,"state":"active","ping":127},{"user_id":151,"name":"Reisen","steam_id":76561199174579733,"connected_time":576000000000,"state":"active","ping":68},{"user_id":152,"name":"Kip","steam_id":76561197998180212,"connected_time":498000000000,"state":"active","ping":56},{"user_id":132,"name":"Sad_Pepe","steam_id":76561199014989291,"connected_time":1964000000000,"state":"active","ping":67},{"user_id":67,"name":"StarCopper","steam_id":76561198024890295,"connected_time":6710000000000,"state":"active","ping":87},{"user_id":135,"name":"OBS","steam_id":76561199226941302,"connected_time":1883000000000,"state":"active","ping":110},{"user_id":148,"name":"Randy \"the Man\" Johnson","steam_id":76561198039124445,"connected_time":809000000000,"state":"active","ping":83},{"user_id":149,"name":"Gibby","steam_id":76561199336569123,"connected_time":675000000000,"state":"active","ping":112},{"user_id":111,"name":"Superman123389","steam_id":76561198267472539,"connected_time":3514000000000,"state":"active","ping":86},{"user_id":155,"name":"hatchetax","steam_id":76561199013337543,"connected_time":327000000000,"state":"active","ping":60}]},{"server_id":402,"name":"Uncletopia | Chicago | 3 | All Maps","name_short":"chi-3","host":"chi-1.us.uncletopia.com","port":27035,"enabled":true,"region":"us-central","cc":"us","latitude":41.881832,"longitude":-87.62318,"reserved":0,"last_update":"0001-01-01T00:00:00Z","name_a2s":"Uncletopia | Chicago | 3 | All Maps","protocol":17,"map":"cp_dustbowl","folder":"tf","game":"Team Fortress","app_id":440,"player_count":23,"max_players":24,"Bots":0,"server_type":"Dedicated","server_os":"Linux","password":true,"vac":true,"version":"7757534","steam_id":85568392924515191,"keywords":["cp","nocrits","nodmgspread","uncletopia"],"game_id":440,"stv_port":27036,"stv_name":"Uncletopia | Chicago | 3 | All Maps | STV","players":[{"user_id":141,"name":"old birb man","steam_id":76561199410269097,"connected_time":3250000000000,"state":"active","ping":130},{"user_id":175,"name":"Ineffable","steam_id":76561198968869068,"connected_time":1549000000000,"state":"active","ping":81},{"user_id":174,"name":"Inevitable","steam_id":76561198210050169,"connected_time":1558000000000,"state":"active","ping":64},{"user_id":185,"name":"Andy","steam_id":76561198043115724,"connected_time":1438000000000,"state":"active","ping":76},{"user_id":125,"name":"Universal Knowledge Allah","steam_id":76561198855935442,"connected_time":4777000000000,"state":"active","ping":71},{"user_id":177,"name":"Caerr","steam_id":76561198018698474,"connected_time":1542000000000,"state":"active","ping":127},{"user_id":186,"name":"BORKA","steam_id":76561198135880720,"connected_time":1419000000000,"state":"active","ping":85},{"user_id":151,"name":"Bread Baker","steam_id":76561198185335103,"connected_time":2938000000000,"state":"active","ping":49},{"user_id":196,"name":"ChickenLittle2005","steam_id":76561199455029597,"connected_time":936000000000,"state":"active","ping":81},{"user_id":184,"name":"Zububu","steam_id":76561198024293060,"connected_time":1473000000000,"state":"active","ping":77},{"user_id":162,"name":"Alan","steam_id":76561198281442409,"connected_time":2346000000000,"state":"active","ping":49},{"user_id":188,"name":"RokkitFrog","steam_id":76561198046465850,"connected_time":1379000000000,"state":"active","ping":73},{"user_id":201,"name":"Cactus‚Ñ¢ ‚ô•","steam_id":76561198036441270,"connected_time":254000000000,"state":"active","ping":139},{"user_id":191,"name":"Scott","steam_id":76561198090949228,"connected_time":1357000000000,"state":"active","ping":74},{"user_id":198,"name":"Waluigi","steam_id":76561198891626233,"connected_time":702000000000,"state":"active","ping":61},{"user_id":168,"name":"Rein","steam_id":76561198300340427,"connected_time":2003000000000,"state":"active","ping":61},{"user_id":190,"name":"crabapples","steam_id":76561198075818655,"connected_time":1364000000000,"state":"active","ping":58},{"user_id":192,"name":"Flinko","steam_id":76561198041767012,"connected_time":1322000000000,"state":"active","ping":72},{"user_id":193,"name":"Fart Slave","steam_id":76561198931130520,"connected_time":1317000000000,"state":"active","ping":46},{"user_id":195,"name":"Repo Leak Thread TF2 Board","steam_id":76561198032141246,"connected_time":943000000000,"state":"active","ping":59},{"user_id":199,"name":"gregor samsa","steam_id":76561198066270313,"connected_time":684000000000,"state":"active","ping":91},{"user_id":194,"name":"MemesFor1","steam_id":76561199235615445,"connected_time":1293000000000,"state":"active","ping":63},{"user_id":197,"name":"BingoBingus","steam_id":76561198113401215,"connected_time":907000000000,"state":"active","ping":67}]},{"server_id":403,"name":"Uncletopia | Chicago | 4 | All Maps","name_short":"chi-4","host":"chi-1.us.uncletopia.com","port":27045,"enabled":true,"region":"us-central","cc":"us","latitude":41.881832,"longitude":-87.62318,"reserved":0,"last_update":"0001-01-01T00:00:00Z","name_a2s":"Uncletopia | Chicago | 4 | All Maps","protocol":17,"map":"pl_swiftwater_final1","folder":"tf","game":"Team Fortress","app_id":440,"player_count":24,"max_players":24,"Bots":0,"server_type":"Dedicated","server_os":"Linux","password":true,"vac":true,"version":"7757534","steam_id":85568392924515193,"keywords":["nocrits","nodmgspread","payload","uncletopia"],"game_id":440,"stv_port":27046,"stv_name":"Uncletopia | Chicago | 4 | All Maps | STV","players":[{"user_id":8,"name":"theduckgoesmoo","steam_id":76561198232695752,"connected_time":6092000000000,"state":"active","ping":68},{"user_id":69,"name":"Cheese","steam_id":76561199207081299,"connected_time":1920000000000,"state":"active","ping":127},{"user_id":10,"name":"ZeR01206","steam_id":76561198980510227,"connected_time":6089000000000,"state":"active","ping":63},{"user_id":11,"name":"eX0-kriller","steam_id":76561198141350706,"connected_time":6085000000000,"state":"active","ping":141},{"user_id":12,"name":"Umbrex","steam_id":76561198804359810,"connected_time":6082000000000,"state":"active","ping":89},{"user_id":84,"name":"Mastervandeisel","steam_id":76561198906089530,"connected_time":380000000000,"state":"active","ping":99},{"user_id":14,"name":"Crimson","steam_id":76561198129326627,"connected_time":6067000000000,"state":"active","ping":74},{"user_id":15,"name":"Armoured Bear","steam_id":76561198081552558,"connected_time":6057000000000,"state":"active","ping":174},{"user_id":62,"name":"fortnite slurp juice","steam_id":76561198139091532,"connected_time":2671000000000,"state":"active","ping":73},{"user_id":80,"name":"gock in my rawrie","steam_id":76561198185980055,"connected_time":1016000000000,"state":"active","ping":66},{"user_id":19,"name":"Fun Police","steam_id":76561198267520577,"connected_time":5996000000000,"state":"active","ping":93},{"user_id":20,"name":"Spy TF2","steam_id":76561198824209727,"connected_time":5957000000000,"state":"active","ping":182},{"user_id":73,"name":"ulti_fd","steam_id":76561198050926014,"connected_time":1514000000000,"state":"active","ping":76},{"user_id":82,"name":"just jazz","steam_id":76561198010637797,"connected_time":843000000000,"state":"active","ping":88},{"user_id":66,"name":"Esteban Delsin","steam_id":76561198433519639,"connected_time":2214000000000,"state":"active","ping":103},{"user_id":86,"name":"Tusk","steam_id":76561199066977033,"connected_time":133000000000,"state":"active","ping":72},{"user_id":70,"name":"Jaydyn","steam_id":76561198140326797,"connected_time":1908000000000,"state":"active","ping":80},{"user_id":81,"name":"Cusven","steam_id":76561198319658526,"connected_time":901000000000,"state":"active","ping":56},{"user_id":75,"name":"lukamine","steam_id":76561198166827208,"connected_time":1507000000000,"state":"active","ping":93},{"user_id":85,"name":"i am not rushon","steam_id":76561199208005226,"connected_time":379000000000,"state":"active","ping":73},{"user_id":40,"name":"RyInc","steam_id":76561198874261643,"connected_time":4745000000000,"state":"active","ping":48},{"user_id":49,"name":"Honda CBR1000RR Fireblade SP 1","steam_id":76561198849559239,"connected_time":3408000000000,"state":"active","ping":111},{"user_id":43,"name":"Orange Juice","steam_id":76561198287860804,"connected_time":4361000000000,"state":"active","ping":70},{"user_id":35,"name":"Cherry Juice","steam_id":76561198366570108,"connected_time":5028000000000,"state":"active","ping":65}]},{"server_id":36,"name":"Uncletopia | Chicago | 5 | All Maps","name_short":"chi-5","host":"chi-2.us.uncletopia.com","port":27015,"enabled":true,"region":"us-central","cc":"us","latitude":41.881832,"longitude":-87.62318,"reserved":0,"last_update":"0001-01-01T00:00:00Z","name_a2s":"Uncletopia | Chicago | 5 | All Maps","protocol":17,"map":"pl_badwater","folder":"tf","game":"Team Fortress","app_id":440,"player_count":24,"max_players":24,"Bots":0,"server_type":"Dedicated","server_os":"Linux","password":true,"vac":true,"version":"7757534","steam_id":85568392924866362,"keywords":["nocrits","nodmgspread","payload","uncletopia"],"game_id":440,"stv_port":27016,"stv_name":"Uncletopia | Chicago | 5 | All Maps | STV","players":[{"user_id":225,"name":"Big Boy B-Franks","steam_id":76561198050292373,"connected_time":1327000000000,"state":"active","ping":93},{"user_id":109,"name":"Fresh0c0","steam_id":76561198271933283,"connected_time":7758000000000,"state":"active","ping":55},{"user_id":177,"name":"Petey","steam_id":76561198007339151,"connected_time":3042000000000,"state":"active","ping":91},{"user_id":250,"name":"Pohnut","steam_id":76561198087831690,"connected_time":628000000000,"state":"active","ping":138},{"user_id":251,"name":"Cerabond","steam_id":76561199230915333,"connected_time":611000000000,"state":"active","ping":84},{"user_id":137,"name":"Poison Ivy","steam_id":76561198072384574,"connected_time":6184000000000,"state":"active","ping":51},{"user_id":248,"name":"Blood Goblin","steam_id":76561199079401815,"connected_time":664000000000,"state":"active","ping":68},{"user_id":245,"name":"marilyn","steam_id":76561198096738991,"connected_time":753000000000,"state":"active","ping":93},{"user_id":204,"name":"Mxple.","steam_id":76561199165140868,"connected_time":1880000000000,"state":"active","ping":172},{"user_id":213,"name":"Kraftlos","steam_id":76561198074350350,"connected_time":1720000000000,"state":"active","ping":74},{"user_id":206,"name":"YASAI JUICE","steam_id":76561198131971992,"connected_time":1814000000000,"state":"active","ping":34},{"user_id":192,"name":"puppyonline_","steam_id":76561198253574099,"connected_time":2232000000000,"state":"active","ping":58},{"user_id":257,"name":"pablo","steam_id":76561198395577807,"connected_time":451000000000,"state":"active","ping":53},{"user_id":238,"name":"A Shiny Meat Bicycle","steam_id":76561198358757709,"connected_time":936000000000,"state":"active","ping":104},{"user_id":193,"name":"glacier!!","steam_id":76561198980301310,"connected_time":2218000000000,"state":"active","ping":78},{"user_id":209,"name":"laxnuss","steam_id":76561198998046285,"connected_time":1784000000000,"state":"active","ping":117},{"user_id":239,"name":"Owl Pacino","steam_id":76561197979970666,"connected_time":853000000000,"state":"active","ping":70},{"user_id":215,"name":"Goreguy122","steam_id":76561198063359352,"connected_time":1715000000000,"state":"active","ping":68},{"user_id":211,"name":"TimTam Tom","steam_id":76561198045988062,"connected_time":1779000000000,"state":"active","ping":77},{"user_id":247,"name":"Strangelove","steam_id":76561198353773611,"connected_time":669000000000,"state":"active","ping":97},{"user_id":252,"name":"wahooka","steam_id":76561197981211922,"connected_time":605000000000,"state":"active","ping":88},{"user_id":216,"name":"DJADKING","steam_id":76561198388340539,"connected_time":1681000000000,"state":"active","ping":73},{"user_id":253,"name":"h20verdrive","steam_id":76561198115957085,"connected_time":599000000000,"state":"active","ping":97},{"user_id":255,"name":"Decs","steam_id":76561198825197974,"connected_time":590000000000,"state":"active","ping":130}]},{"server_id":37,"name":"Uncletopia | Chicago | 6 | All Maps","name_short":"chi-6","host":"chi-2.us.uncletopia.com","port":27025,"enabled":true,"region":"us-central","cc":"us","latitude":41.881832,"longitude":-87.62318,"reserved":0,"last_update":"0001-01-01T00:00:00Z","name_a2s":"Uncletopia | Chicago | 6 | All Maps","protocol":17,"map":"koth_viaduct","folder":"tf","game":"Team Fortress","app_id":440,"player_count":22,"max_players":24,"Bots":0,"server_type":"Dedicated","server_os":"Linux","password":true,"vac":true,"version":"7757534","steam_id":85568392924866363,"keywords":["cp","nocrits","nodmgspread","uncletopia"],"game_id":440,"stv_port":27026,"stv_name":"Uncletopia | Chicago | 6 | All Maps | STV","players":[{"user_id":28,"name":"WillW1zard","steam_id":76561198095196189,"connected_time":953000000000,"state":"active","ping":84},{"user_id":29,"name":"Muriyad","steam_id":76561199032155639,"connected_time":946000000000,"state":"active","ping":85},{"user_id":30,"name":"Josh","steam_id":76561198055691099,"connected_time":871000000000,"state":"active","ping":72},{"user_id":38,"name":"Decepticon","steam_id":76561198047168548,"connected_time":299000000000,"state":"active","ping":105},{"user_id":26,"name":"themankeys","steam_id":76561198149339536,"connected_time":1086000000000,"state":"active","ping":69},{"user_id":32,"name":"Mr. BREADLUCK","steam_id":76561199351608381,"connected_time":671000000000,"state":"active","ping":87},{"user_id":31,"name":"MonkeeBoi","steam_id":76561198364886992,"connected_time":841000000000,"state":"active","ping":85},{"user_id":34,"name":"xerae","steam_id":76561198963385745,"connected_time":564000000000,"state":"active","ping":68},{"user_id":35,"name":"two sentient corn cobs kissing","steam_id":76561198238842076,"connected_time":461000000000,"state":"active","ping":82},{"user_id":36,"name":"Johnny Lawrence #JohnnyMaxxing","steam_id":76561199367141671,"connected_time":395000000000,"state":"active","ping":68},{"user_id":37,"name":"Jack The Racc","steam_id":76561198044762365,"connected_time":376000000000,"state":"active","ping":49},{"user_id":39,"name":"Phil Collins","steam_id":76561198068868644,"connected_time":288000000000,"state":"active","ping":106},{"user_id":40,"name":"Mythic","steam_id":76561198028616665,"connected_time":248000000000,"state":"active","ping":56},{"user_id":41,"name":"I DO DRUGS GAMING","steam_id":76561199013414654,"connected_time":223000000000,"state":"active","ping":55},{"user_id":42,"name":"alpharuby","steam_id":76561198051638462,"connected_time":211000000000,"state":"active","ping":93},{"user_id":43,"name":"Hot Boy","steam_id":76561198235994316,"connected_time":205000000000,"state":"active","ping":90},{"user_id":44,"name":"Rock Kickass","steam_id":76561198450510841,"connected_time":175000000000,"state":"active","ping":111},{"user_id":45,"name":"The Jar","steam_id":76561198146013385,"connected_time":161000000000,"state":"active","ping":67},{"user_id":50,"name":"Which One's Pink?","steam_id":76561198017734545,"connected_time":59000000000,"state":"active","ping":70},{"user_id":47,"name":"Friedrich Nietzsche","steam_id":76561199087961952,"connected_time":147000000000,"state":"active","ping":87},{"user_id":48,"name":"√áAFFIEND","steam_id":76561198062993241,"connected_time":138000000000,"state":"active","ping":86},{"user_id":51,"name":"Coolshroomish","steam_id":76561199109440924,"connected_time":38000000000,"state":"active","ping":93}]},{"server_id":38,"name":"Uncletopia | Chicago | 7 | Stopwatch Beta","name_short":"chi-7","host":"chi-2.us.uncletopia.com","port":27035,"enabled":true,"region":"us-central","cc":"us","latitude":41.881832,"longitude":-87.62318,"reserved":0,"last_update":"0001-01-01T00:00:00Z","name_a2s":"Uncletopia | Chicago | 7 | Stopwatch Beta","protocol":17,"map":"pl_upward","folder":"tf","game":"Team Fortress","app_id":440,"player_count":0,"max_players":24,"Bots":0,"server_type":"Dedicated","server_os":"Linux","password":true,"vac":true,"version":"7757534","steam_id":85568392924866364,"keywords":["nocrits","nodmgspread","payload","uncletopia"],"game_id":440,"stv_port":27036,"stv_name":"Uncletopia | Chicago | 7 | Stopwatch Beta | STV","players":null},{"server_id":39,"name":"Uncletopia | Chicago | 8 | Community","name_short":"chi-8","host":"chi-2.us.uncletopia.com","port":27045,"enabled":true,"region":"us-central","cc":"us","latitude":41.881832,"longitude":-87.62318,"reserved":0,"last_update":"0001-01-01T00:00:00Z","name_a2s":"Uncletopia | Chicago | 8 | Community","protocol":17,"map":"pl_barnblitz","folder":"tf","game":"Team Fortress","app_id":440,"player_count":0,"max_players":24,"Bots":0,"server_type":"Dedicated","server_os":"Linux","password":true,"vac":true,"version":"7757534","steam_id":85568392924866365,"keywords":["nocrits","nodmgspread","payload","uncletopia"],"game_id":440,"stv_port":27046,"stv_name":"Uncletopia | Chicago | 8 | Community | STV","players":null},{"server_id":8,"name":"Uncletopia | Dallas | 1 | All Maps","name_short":"dal-1","host":"dal-1.us.uncletopia.com","port":27015,"enabled":true,"region":"us-central","cc":"us","latitude":32.779167,"longitude":-96.80889,"reserved":0,"last_update":"0001-01-01T00:00:00Z","name_a2s":"Uncletopia | Dallas | 1 | All Maps","protocol":17,"map":"koth_highpass","folder":"tf","game":"Team Fortress","app_id":440,"player_count":24,"max_players":24,"Bots":0,"server_type":"Dedicated","server_os":"Linux","password":true,"vac":true,"version":"7757534","steam_id":85568392924469986,"keywords":["cp","nocrits","nodmgspread","uncletopia"],"game_id":440,"stv_port":27016,"stv_name":"Uncletopia | Dallas | 1 | All Maps | STV","players":[{"user_id":293,"name":"Blind_Lark","steam_id":76561198094495235,"connected_time":2548000000000,"state":"active","ping":104},{"user_id":169,"name":"Huell Howser","steam_id":76561198006387337,"connected_time":8757000000000,"state":"active","ping":74},{"user_id":308,"name":"jessicamustdie \u003c3","steam_id":76561198045230921,"connected_time":1710000000000,"state":"active","ping":66},{"user_id":319,"name":"Prof. Eggnog","steam_id":76561198193389166,"connected_time":852000000000,"state":"active","ping":89},{"user_id":333,"name":"1000 Ping","steam_id":76561198098330939,"connected_time":144000000000,"state":"active","ping":108},{"user_id":324,"name":"xthyl","steam_id":76561199361299006,"connected_time":537000000000,"state":"active","ping":78},{"user_id":270,"name":"LeFunnyMan","steam_id":76561199081645289,"connected_time":3599000000000,"state":"active","ping":53},{"user_id":320,"name":"Chimpish","steam_id":76561199263493270,"connected_time":809000000000,"state":"active","ping":102},{"user_id":334,"name":"Mellou","steam_id":76561198212048740,"connected_time":5000000000,"state":"spawning","ping":48},{"user_id":268,"name":"damiankiller1243","steam_id":76561198868885090,"connected_time":3654000000000,"state":"active","ping":68},{"user_id":323,"name":"Miles77","steam_id":76561198310300322,"connected_time":576000000000,"state":"active","ping":91},{"user_id":313,"name":"purply-ghost","steam_id":76561199204779865,"connected_time":1392000000000,"state":"active","ping":37},{"user_id":314,"name":"Moirologist","steam_id":76561199474053926,"connected_time":1321000000000,"state":"active","ping":55},{"user_id":290,"name":"Falleax","steam_id":76561198021154908,"connected_time":2709000000000,"state":"active","ping":55},{"user_id":303,"name":"ballitcher303","steam_id":76561198087092000,"connected_time":2408000000000,"state":"active","ping":87},{"user_id":291,"name":"Shichinitzi","steam_id":76561198003833732,"connected_time":2708000000000,"state":"active","ping":61},{"user_id":311,"name":"Moonflower ‚ú¶","steam_id":76561198191782483,"connected_time":1498000000000,"state":"active","ping":51},{"user_id":326,"name":"barbara","steam_id":76561198072417792,"connected_time":532000000000,"state":"active","ping":65},{"user_id":327,"name":"‚§£RASCAL","steam_id":76561198269038647,"connected_time":473000000000,"state":"active","ping":89},{"user_id":331,"name":"mel","steam_id":76561198097124190,"connected_time":317000000000,"state":"active","ping":48},{"user_id":328,"name":"Jelpo","steam_id":76561198406920072,"connected_time":452000000000,"state":"active","ping":69},{"user_id":288,"name":"Kirbothebrony","steam_id":76561198971911330,"connected_time":2756000000000,"state":"active","ping":65},{"user_id":322,"name":"Complex_Divine","steam_id":76561198812369488,"connected_time":793000000000,"state":"active","ping":64},{"user_id":315,"name":"Boone","steam_id":76561198398931575,"connected_time":1299000000000,"state":"active","ping":98}]},{"server_id":108,"name":"Uncletopia | Dallas | 2 | All Maps","name_short":"dal-2","host":"dal-1.us.uncletopia.com","port":27025,"enabled":true,"region":"us-central","cc":"us","latitude":32.779167,"longitude":-96.80889,"reserved":0,"last_update":"0001-01-01T00:00:00Z","name_a2s":"Uncletopia | Dallas | 2 | All Maps","protocol":17,"map":"koth_lakeside_final","folder":"tf","game":"Team Fortress","app_id":440,"player_count":3,"max_players":24,"Bots":0,"server_type":"Dedicated","server_os":"Linux","password":true,"vac":true,"version":"7757534","steam_id":85568392924469988,"keywords":["cp","nocrits","nodmgspread","uncletopia"],"game_id":440,"stv_port":27026,"stv_name":"Uncletopia | Dallas | 2 | All Maps | STV","players":[{"user_id":89,"name":"ikealuvr","steam_id":76561198998340318,"connected_time":935000000000,"state":"active","ping":136},{"user_id":90,"name":"Granlet","steam_id":76561199244312225,"connected_time":919000000000,"state":"active","ping":88},{"user_id":93,"name":"The Polygoblin","steam_id":76561198409099827,"connected_time":25000000000,"state":"active","ping":63}]},{"server_id":5,"name":"Uncletopia | Frankfurt | 1 | All Maps","name_short":"frk-1","host":"frk-1.de.uncletopia.com","port":27015,"enabled":true,"region":"eu","cc":"de","latitude":50.110924,"longitude":8.682127,"reserved":0,"last_update":"0001-01-01T00:00:00Z","name_a2s":"Uncletopia | Frankfurt | 1 | All Maps","protocol":17,"map":"koth_viaduct","folder":"tf","game":"Team Fortress","app_id":440,"player_count":24,"max_players":24,"Bots":0,"server_type":"Dedicated","server_os":"Linux","password":true,"vac":true,"version":"7757534","steam_id":85568392924469989,"keywords":["cp","nocrits","nodmgspread","uncletopia"],"game_id":440,"stv_port":27016,"stv_name":"Uncletopia | Frankfurt | 1 | All Maps | STV","players":[{"user_id":554,"name":"dirty","steam_id":76561197995572935,"connected_time":1926000000000,"state":"active","ping":80},{"user_id":567,"name":"osama","steam_id":76561199143737200,"connected_time":304000000000,"state":"active","ping":85},{"user_id":552,"name":"Bonca","steam_id":76561198137503531,"connected_time":2274000000000,"state":"active","ping":78},{"user_id":572,"name":"RedFog","steam_id":76561198284713081,"connected_time":105000000000,"state":"active","ping":44},{"user_id":571,"name":"–æ–∫—Å–∏–º–∏—Ä–æ–Ω","steam_id":76561198971389390,"connected_time":238000000000,"state":"active","ping":73},{"user_id":533,"name":"Zogg","steam_id":76561198352683491,"connected_time":4000000000000,"state":"active","ping":51},{"user_id":536,"name":"–ü–µ—Å –ü–∞—Ç—Ä–æ–Ω","steam_id":76561198273199378,"connected_time":3743000000000,"state":"active","ping":65},{"user_id":566,"name":"Superiumentarius","steam_id":76561198081642249,"connected_time":327000000000,"state":"active","ping":45},{"user_id":543,"name":"shed theory","steam_id":76561198308279567,"connected_time":3244000000000,"state":"active","ping":46},{"user_id":430,"name":"Pestdoktor","steam_id":76561198058159271,"connected_time":11568000000000,"state":"active","ping":59},{"user_id":568,"name":"‚±ØN‚±ØÍìµHIÍì§‚±ØW","steam_id":76561198030630432,"connected_time":289000000000,"state":"active","ping":60},{"user_id":562,"name":"Billy Genie","steam_id":76561198061724014,"connected_time":1294000000000,"state":"active","ping":46},{"user_id":561,"name":"Ducky[WADZ]üê§","steam_id":76561198060341245,"connected_time":1338000000000,"state":"active","ping":58},{"user_id":439,"name":"EdSuedi","steam_id":76561199387956486,"connected_time":10630000000000,"state":"active","ping":52},{"user_id":431,"name":"Miss Bari","steam_id":76561198365286092,"connected_time":11538000000000,"state":"active","ping":50},{"user_id":505,"name":"Mach |=|20BB|)","steam_id":76561198952487564,"connected_time":6945000000000,"state":"active","ping":86},{"user_id":550,"name":"Purple Pajamas","steam_id":76561199174310124,"connected_time":2506000000000,"state":"active","ping":144},{"user_id":537,"name":"akela","steam_id":76561198122010232,"connected_time":3694000000000,"state":"active","ping":67},{"user_id":569,"name":"mooncaller.","steam_id":76561198096787344,"connected_time":289000000000,"state":"active","ping":82},{"user_id":573,"name":"Shannon","steam_id":76561198055893746,"connected_time":99000000000,"state":"spawning","ping":63},{"user_id":548,"name":"Ben UFO","steam_id":76561198001648348,"connected_time":2593000000000,"state":"active","ping":63},{"user_id":432,"name":"LarsInABox","steam_id":76561198028329262,"connected_time":11281000000000,"state":"active","ping":74},{"user_id":557,"name":"TidB","steam_id":76561198055342304,"connected_time":1801000000000,"state":"active","ping":54},{"user_id":570,"name":"PIZDAAIMERNUMBERJEDEN","steam_id":76561199062818404,"connected_time":280000000000,"state":"active","ping":62}]},{"server_id":110,"name":"Uncletopia | Frankfurt | 2 | All Maps","name_short":"frk-2","host":"frk-1.de.uncletopia.com","port":27025,"enabled":true,"region":"eu","cc":"de","latitude":50.110924,"longitude":8.682127,"reserved":0,"last_update":"0001-01-01T00:00:00Z","name_a2s":"Uncletopia | Frankfurt | 2 | All Maps","protocol":17,"map":"koth_cascade","folder":"tf","game":"Team Fortress","app_id":440,"player_count":0,"max_players":24,"Bots":0,"server_type":"Dedicated","server_os":"Linux","password":true,"vac":true,"version":"7757534","steam_id":85568392924469990,"keywords":["cp","nocrits","nodmgspread","uncletopia"],"game_id":440,"stv_port":27026,"stv_name":"Uncletopia | Frankfurt | 2 | All Maps | STV","players":null},{"server_id":308,"name":"Uncletopia | Frankfurt | 3 | All Maps","name_short":"frk-3","host":"frk-1.de.uncletopia.com","port":27035,"enabled":true,"region":"eu","cc":"de","latitude":50.110924,"longitude":8.682127,"reserved":0,"last_update":"0001-01-01T00:00:00Z","name_a2s":"Uncletopia | Frankfurt | 3 | All Maps","protocol":17,"map":"koth_cascade","folder":"tf","game":"Team Fortress","app_id":440,"player_count":2,"max_players":24,"Bots":0,"server_type":"Dedicated","server_os":"Linux","password":true,"vac":true,"version":"7757534","steam_id":85568392924504274,"keywords":["cp","nocrits","nodmgspread","uncletopia"],"game_id":440,"stv_port":27036,"stv_name":"Uncletopia | Frankfurt | 3 | All Maps | STV","players":[{"user_id":731,"name":"Mr. Potato the 11th","steam_id":76561198163246758,"connected_time":3912000000000,"state":"active","ping":59},{"user_id":732,"name":"cal1254","steam_id":76561198444669794,"connected_time":3894000000000,"state":"active","ping":46}]},{"server_id":309,"name":"Uncletopia | Frankfurt | 4 | All Maps","name_short":"frk-4","host":"frk-1.de.uncletopia.com","port":27045,"enabled":true,"region":"eu","cc":"de","latitude":50.110924,"longitude":8.682127,"reserved":0,"last_update":"0001-01-01T00:00:00Z","name_a2s":"Uncletopia | Frankfurt | 4 | All Maps","protocol":17,"map":"pl_barnblitz","folder":"tf","game":"Team Fortress","app_id":440,"player_count":24,"max_players":24,"Bots":0,"server_type":"Dedicated","server_os":"Linux","password":true,"vac":true,"version":"7757534","steam_id":85568392924504275,"keywords":["nocrits","nodmgspread","payload","uncletopia"],"game_id":440,"stv_port":27046,"stv_name":"Uncletopia | Frankfurt | 4 | All Maps | STV","players":[{"user_id":568,"name":"Dr.Disrespect","steam_id":76561198043820228,"connected_time":474000000000,"state":"active","ping":46},{"user_id":527,"name":"ChickyCoop","steam_id":76561199072983488,"connected_time":3434000000000,"state":"active","ping":80},{"user_id":561,"name":"peter dangling","steam_id":76561198864327475,"connected_time":824000000000,"state":"active","ping":51},{"user_id":576,"name":"homeinvasion$","steam_id":76561199111905021,"connected_time":318000000000,"state":"active","ping":103},{"user_id":529,"name":"pizzaboob","steam_id":76561198097507847,"connected_time":3304000000000,"state":"active","ping":75},{"user_id":542,"name":"‚ô• TRANS RIGHTS ‚ô•","steam_id":76561198066258544,"connected_time":2765000000000,"state":"active","ping":50},{"user_id":573,"name":"silenk","steam_id":76561198367689055,"connected_time":432000000000,"state":"active","ping":71},{"user_id":528,"name":"Ches subtly into Pizzaboo","steam_id":76561198067204908,"connected_time":3376000000000,"state":"active","ping":65},{"user_id":533,"name":"rat performance","steam_id":76561198065854668,"connected_time":2961000000000,"state":"active","ping":59},{"user_id":534,"name":"joe","steam_id":76561198026484403,"connected_time":2922000000000,"state":"active","ping":76},{"user_id":484,"name":"Welder","steam_id":76561198355300561,"connected_time":6570000000000,"state":"active","ping":71},{"user_id":570,"name":"Malsi","steam_id":76561199061284165,"connected_time":466000000000,"state":"active","ping":86},{"user_id":565,"name":"wasd.","steam_id":76561198072916231,"connected_time":777000000000,"state":"active","ping":90},{"user_id":537,"name":"Noob_with_source","steam_id":76561198870362103,"connected_time":2882000000000,"state":"active","ping":60},{"user_id":554,"name":"iki","steam_id":76561198119607160,"connected_time":1575000000000,"state":"active","ping":68},{"user_id":549,"name":"tonytonytaylatayla","steam_id":76561198232066044,"connected_time":1955000000000,"state":"active","ping":39},{"user_id":569,"name":"stoppen","steam_id":76561197960281482,"connected_time":473000000000,"state":"active","ping":73},{"user_id":578,"name":"Bobo","steam_id":76561198052308399,"connected_time":105000000000,"state":"active","ping":57},{"user_id":574,"name":"aGreedGryphon","steam_id":76561198245175308,"connected_time":410000000000,"state":"active","ping":64},{"user_id":562,"name":"demps","steam_id":76561198049405872,"connected_time":823000000000,"state":"active","ping":42},{"user_id":538,"name":"Femboypawnguy","steam_id":76561198274894771,"connected_time":2880000000000,"state":"active","ping":55},{"user_id":555,"name":"engie?","steam_id":76561198331852832,"connected_time":1560000000000,"state":"active","ping":97},{"user_id":575,"name":"Thibob","steam_id":76561198000541852,"connected_time":394000000000,"state":"active","ping":61},{"user_id":577,"name":"Hyperek","steam_id":76561198130797464,"connected_time":306000000000,"state":"active","ping":68}]},{"server_id":310,"name":"Uncletopia | Frankfurt | 5 | All Maps","name_short":"frk-5","host":"frk-1.de.uncletopia.com","port":27055,"enabled":true,"region":"eu","cc":"de","latitude":50.110924,"longitude":8.682127,"reserved":0,"last_update":"0001-01-01T00:00:00Z","name_a2s":"Uncletopia | Frankfurt | 5 | All Maps","protocol":17,"map":"koth_viaduct","folder":"tf","game":"Team Fortress","app_id":440,"player_count":5,"max_players":24,"Bots":0,"server_type":"Dedicated","server_os":"Linux","password":true,"vac":true,"version":"7757534","steam_id":85568392924504277,"keywords":["cp","nocrits","nodmgspread","uncletopia"],"game_id":440,"stv_port":27056,"stv_name":"Uncletopia | Frankfurt | 5 | All Maps | STV","players":[{"user_id":33,"name":"zabloing","steam_id":76561198339480413,"connected_time":1654000000000,"state":"active","ping":56},{"user_id":34,"name":"Gilbert the Forsaken","steam_id":76561198829927042,"connected_time":1555000000000,"state":"active","ping":153},{"user_id":35,"name":"‚ôÇ Necronomico ‚ôÇ","steam_id":76561198079272212,"connected_time":1237000000000,"state":"active","ping":90},{"user_id":36,"name":"icebro","steam_id":76561199123450840,"connected_time":1130000000000,"state":"active","ping":101},{"user_id":38,"name":"Paxergames","steam_id":76561198977004021,"connected_time":987000000000,"state":"active","ping":57}]},{"server_id":311,"name":"Uncletopia | Frankfurt | 6 | All Maps","name_short":"frk-6","host":"frk-1.de.uncletopia.com","port":27065,"enabled":true,"region":"eu","cc":"de","latitude":50.110924,"longitude":8.682127,"reserved":0,"last_update":"0001-01-01T00:00:00Z","name_a2s":"Uncletopia | Frankfurt | 6 | All Maps","protocol":17,"map":"cp_dustbowl","folder":"tf","game":"Team Fortress","app_id":440,"player_count":0,"max_players":24,"Bots":0,"server_type":"Dedicated","server_os":"Linux","password":true,"vac":true,"version":"7757534","steam_id":85568392924504278,"keywords":["cp","nocrits","nodmgspread","uncletopia"],"game_id":440,"stv_port":27066,"stv_name":"Uncletopia | Frankfurt | 6 | All Maps | STV","players":null},{"server_id":23,"name":"Uncletopia | Frankfurt | 7 | Stopwatch Beta","name_short":"frk-7","host":"frk-1.de.uncletopia.com","port":27075,"enabled":true,"region":"eu","cc":"de","latitude":50.110924,"longitude":8.682127,"reserved":0,"last_update":"0001-01-01T00:00:00Z","name_a2s":"Uncletopia | Frankfurt | 7 | Stopwatch Beta","protocol":17,"map":"pl_frontier_final","folder":"tf","game":"Team Fortress","app_id":440,"player_count":0,"max_players":24,"Bots":0,"server_type":"Dedicated","server_os":"Linux","password":true,"vac":true,"version":"7757534","steam_id":85568392924742827,"keywords":["nocrits","nodmgspread","payload","uncletopia"],"game_id":440,"stv_port":27076,"stv_name":"Uncletopia | Frankfurt | 7 | Stopwatch Beta | STV","players":null},{"server_id":24,"name":"Uncletopia | Frankfurt | 8 | Community","name_short":"frk-8","host":"frk-1.de.uncletopia.com","port":27085,"enabled":true,"region":"eu","cc":"de","latitude":50.110924,"longitude":8.682127,"reserved":0,"last_update":"0001-01-01T00:00:00Z","name_a2s":"Uncletopia | Frankfurt | 8 | Community","protocol":17,"map":"workshop/koth_product_final.ugc454272353","folder":"tf","game":"Team Fortress","app_id":440,"player_count":0,"max_players":24,"Bots":0,"server_type":"Dedicated","server_os":"Linux","password":true,"vac":true,"version":"7757534","steam_id":85568392924742828,"keywords":["cp","nocrits","nodmgspread","uncletopia"],"game_id":440,"stv_port":27086,"stv_name":"Uncletopia | Frankfurt | 8 | Community | STV","players":null},{"server_id":202,"name":"Uncletopia | Hong Kong | 1 | All Maps","name_short":"hgk-1","host":"hgk-1.hk.uncletopia.com","port":27015,"enabled":true,"region":"asia","cc":"hk","latitude":22.302711,"longitude":114.177216,"reserved":0,"last_update":"0001-01-01T00:00:00Z","name_a2s":"Uncletopia | Hong Kong | 1 | All Maps","protocol":17,"map":"cp_dustbowl","folder":"tf","game":"Team Fortress","app_id":440,"player_count":0,"max_players":24,"Bots":0,"server_type":"Dedicated","server_os":"Linux","password":true,"vac":true,"version":"7757534","steam_id":85568392924494504,"keywords":["cp","nocrits","nodmgspread","uncletopia"],"game_id":440,"stv_port":27016,"stv_name":"Uncletopia | Hong Kong | 1 | All Maps | STV","players":null},{"server_id":1,"name":"Uncletopia | Los Angeles | 1 | All Maps","name_short":"lax-1","host":"lax-1.us.uncletopia.com","port":27015,"enabled":true,"region":"us-west","cc":"us","latitude":33.94279,"longitude":-118.41004,"reserved":0,"last_update":"0001-01-01T00:00:00Z","name_a2s":"Uncletopia | Los Angeles | 1 | All Maps","protocol":17,"map":"pl_barnblitz","folder":"tf","game":"Team Fortress","app_id":440,"player_count":12,"max_players":24,"Bots":0,"server_type":"Dedicated","server_os":"Linux","password":true,"vac":true,"version":"7757534","steam_id":85568392924469991,"keywords":["nocrits","nodmgspread","payload","uncletopia"],"game_id":440,"stv_port":27016,"stv_name":"Uncletopia | Los Angeles | 1 | All Maps | STV","players":[{"user_id":195,"name":"Fox","steam_id":76561198063507627,"connected_time":1678000000000,"state":"active","ping":64},{"user_id":209,"name":"moe","steam_id":76561198929586245,"connected_time":496000000000,"state":"active","ping":33},{"user_id":212,"name":"Beastdocter #SaveTF2","steam_id":76561198272351816,"connected_time":190000000000,"state":"active","ping":122},{"user_id":196,"name":"sharia compliant gamer","steam_id":76561198005884261,"connected_time":1630000000000,"state":"active","ping":97},{"user_id":208,"name":"pitbull named princess","steam_id":76561198080114979,"connected_time":643000000000,"state":"active","ping":82},{"user_id":198,"name":"Shamrock Shake Oct.10.2020 @8pm","steam_id":76561198833313201,"connected_time":1570000000000,"state":"active","ping":52},{"user_id":205,"name":"Blades_87","steam_id":76561198150870338,"connected_time":891000000000,"state":"active","ping":108},{"user_id":204,"name":"compulsive","steam_id":76561198212421513,"connected_time":1024000000000,"state":"active","ping":46},{"user_id":158,"name":"Chalupa Jones","steam_id":76561198335855588,"connected_time":4467000000000,"state":"active","ping":45},{"user_id":210,"name":"EveTheNight","steam_id":76561198034483447,"connected_time":416000000000,"state":"active","ping":175},{"user_id":177,"name":"FDR","steam_id":76561198300349976,"connected_time":3292000000000,"state":"active","ping":75},{"user_id":185,"name":"LILIUM","steam_id":76561198086591493,"connected_time":3070000000000,"state":"active","ping":55}]},{"server_id":112,"name":"Uncletopia | Los Angeles | 2 | All Maps","name_short":"lax-2","host":"lax-1.us.uncletopia.com","port":27025,"enabled":true,"region":"us-west","cc":"us","latitude":33.94279,"longitude":-118.41004,"reserved":0,"last_update":"0001-01-01T00:00:00Z","name_a2s":"Uncletopia | Los Angeles | 2 | All Maps","protocol":17,"map":"koth_lakeside_final","folder":"tf","game":"Team Fortress","app_id":440,"player_count":0,"max_players":24,"Bots":0,"server_type":"Dedicated","server_os":"Linux","password":true,"vac":true,"version":"7757534","steam_id":85568392924469992,"keywords":["cp","nocrits","nodmgspread","uncletopia"],"game_id":440,"stv_port":27026,"stv_name":"Uncletopia | Los Angeles | 2 | All Maps | STV","players":null},{"server_id":324,"name":"Uncletopia | Los Angeles | 3 | All Maps","name_short":"lax-3","host":"lax-1.us.uncletopia.com","port":27035,"enabled":true,"region":"us-west","cc":"us","latitude":33.94279,"longitude":-118.41004,"reserved":0,"last_update":"0001-01-01T00:00:00Z","name_a2s":"Uncletopia | Los Angeles | 3 | All Maps","protocol":17,"map":"koth_highpass","folder":"tf","game":"Team Fortress","app_id":440,"player_count":0,"max_players":24,"Bots":0,"server_type":"Dedicated","server_os":"Linux","password":true,"vac":true,"version":"7757534","steam_id":85568392924510198,"keywords":["cp","nocrits","nodmgspread","uncletopia"],"game_id":440,"stv_port":27036,"stv_name":"Uncletopia | Los Angeles | 3 | All Maps | STV","players":null},{"server_id":25,"name":"Uncletopia | Los Angeles | 4 | Stopwatch Beta","name_short":"lax-4","host":"lax-1.us.uncletopia.com","port":27045,"enabled":true,"region":"us-west","cc":"us","latitude":33.94279,"longitude":-118.41004,"reserved":0,"last_update":"0001-01-01T00:00:00Z","name_a2s":"Uncletopia | Los Angeles | 4 | Stopwatch Beta","protocol":17,"map":"pl_frontier_final","folder":"tf","game":"Team Fortress","app_id":440,"player_count":0,"max_players":24,"Bots":0,"server_type":"Dedicated","server_os":"Linux","password":true,"vac":true,"version":"7757534","steam_id":85568392924510199,"keywords":["nocrits","nodmgspread","payload","uncletopia"],"game_id":440,"stv_port":27046,"stv_name":"Uncletopia | Los Angeles | 4 | Stopwatch Beta | STV","players":null},{"server_id":11,"name":"Uncletopia | London | 1 | All Maps","name_short":"lon-1","host":"lon-1.uk.uncletopia.com","port":27015,"enabled":true,"region":"eu","cc":"gb","latitude":51.509865,"longitude":-0.118092,"reserved":0,"last_update":"0001-01-01T00:00:00Z","name_a2s":"Uncletopia | London | 1 | All Maps","protocol":17,"map":"cp_sunshine","folder":"tf","game":"Team Fortress","app_id":440,"player_count":24,"max_players":24,"Bots":0,"server_type":"Dedicated","server_os":"Linux","password":true,"vac":true,"version":"7757534","steam_id":85568392924367362,"keywords":["cp","nocrits","nodmgspread","uncletopia"],"game_id":440,"stv_port":27016,"stv_name":"Uncletopia | London | 1 | All Maps | STV","players":[{"user_id":397,"name":"beebo","steam_id":76561199120277007,"connected_time":5655000000000,"state":"active","ping":53},{"user_id":428,"name":"Volcyy","steam_id":76561198063979124,"connected_time":1391000000000,"state":"active","ping":45},{"user_id":432,"name":"blade","steam_id":76561198235739036,"connected_time":1165000000000,"state":"active","ping":89},{"user_id":421,"name":"dec","steam_id":76561198009660168,"connected_time":2229000000000,"state":"active","ping":54},{"user_id":393,"name":"maxine","steam_id":76561199474081953,"connected_time":5888000000000,"state":"active","ping":118},{"user_id":429,"name":"MrDerp121","steam_id":76561198060827332,"connected_time":1365000000000,"state":"active","ping":40},{"user_id":442,"name":"ignitor \u003c3","steam_id":76561198218996844,"connected_time":285000000000,"state":"active","ping":58},{"user_id":441,"name":"JohnTraveltime","steam_id":76561199244281754,"connected_time":442000000000,"state":"active","ping":80},{"user_id":414,"name":"Videogamer","steam_id":76561198106012909,"connected_time":3057000000000,"state":"active","ping":73},{"user_id":417,"name":"Megamain","steam_id":76561198923772036,"connected_time":2850000000000,"state":"active","ping":61},{"user_id":343,"name":"SOPHIIEE","steam_id":76561198443798981,"connected_time":10956000000000,"state":"active","ping":51},{"user_id":404,"name":"Chip","steam_id":76561198871723933,"connected_time":4179000000000,"state":"active","ping":46},{"user_id":424,"name":"toidi","steam_id":76561198029148234,"connected_time":1822000000000,"state":"active","ping":68},{"user_id":376,"name":"Fat Pigeon","steam_id":76561198817940142,"connected_time":7633000000000,"state":"active","ping":49},{"user_id":426,"name":"Donny","steam_id":76561198257836694,"connected_time":1433000000000,"state":"active","ping":39},{"user_id":440,"name":"Laurie","steam_id":76561198082951750,"connected_time":493000000000,"state":"active","ping":49},{"user_id":438,"name":"Fran","steam_id":76561199070516960,"connected_time":566000000000,"state":"active","ping":75},{"user_id":419,"name":"frosty","steam_id":76561198094560834,"connected_time":2501000000000,"state":"active","ping":46},{"user_id":436,"name":"Zatusrex","steam_id":76561198104147805,"connected_time":999000000000,"state":"active","ping":80},{"user_id":444,"name":"Big Mac Gaming","steam_id":76561198158209651,"connected_time":23000000000,"state":"active","ping":50},{"user_id":401,"name":"Aaron","steam_id":76561197990046953,"connected_time":4238000000000,"state":"active","ping":68},{"user_id":375,"name":"cinny","steam_id":76561198832112629,"connected_time":8467000000000,"state":"active","ping":81},{"user_id":437,"name":"Sippie","steam_id":76561198130393388,"connected_time":874000000000,"state":"active","ping":62},{"user_id":435,"name":"nedilya","steam_id":76561198039692077,"connected_time":1097000000000,"state":"active","ping":68}]},{"server_id":114,"name":"Uncletopia | London | 2 | All Maps","name_short":"lon-2","host":"lon-1.uk.uncletopia.com","port":27025,"enabled":true,"region":"eu","cc":"gb","latitude":51.509865,"longitude":-0.118092,"reserved":0,"last_update":"0001-01-01T00:00:00Z","name_a2s":"Uncletopia | London | 2 | All Maps","protocol":17,"map":"koth_viaduct","folder":"tf","game":"Team Fortress","app_id":440,"player_count":0,"max_players":24,"Bots":0,"server_type":"Dedicated","server_os":"Linux","password":true,"vac":true,"version":"7757534","steam_id":85568392924470941,"keywords":["cp","nocrits","nodmgspread","uncletopia"],"game_id":440,"stv_port":27026,"stv_name":"Uncletopia | London | 2 | All Maps | STV","players":null},{"server_id":320,"name":"Uncletopia | London | 3 | All Maps","name_short":"lon-3","host":"lon-1.uk.uncletopia.com","port":27035,"enabled":true,"region":"eu","cc":"gb","latitude":51.509865,"longitude":-0.118092,"reserved":0,"last_update":"0001-01-01T00:00:00Z","name_a2s":"Uncletopia | London | 3 | All Maps","protocol":17,"map":"pl_frontier_final","folder":"tf","game":"Team Fortress","app_id":440,"player_count":22,"max_players":24,"Bots":0,"server_type":"Dedicated","server_os":"Linux","password":true,"vac":true,"version":"7757534","steam_id":85568392924510192,"keywords":["nocrits","nodmgspread","payload","uncletopia"],"game_id":440,"stv_port":27036,"stv_name":"Uncletopia | London | 3 | All Maps | STV","players":[{"user_id":886,"name":"pezza","steam_id":76561197995173247,"connected_time":4282000000000,"state":"active","ping":58},{"user_id":922,"name":"Braemenator","steam_id":76561198044864657,"connected_time":2007000000000,"state":"active","ping":49},{"user_id":953,"name":"[√âire] Hype!","steam_id":76561198061449287,"connected_time":791000000000,"state":"active","ping":55},{"user_id":932,"name":"ender45","steam_id":76561198840955715,"connected_time":1576000000000,"state":"active","ping":36},{"user_id":960,"name":"Drunk russian with pyromania","steam_id":76561198195527328,"connected_time":376000000000,"state":"active","ping":44},{"user_id":936,"name":"Pancakeman","steam_id":76561198127682294,"connected_time":1542000000000,"state":"active","ping":120},{"user_id":959,"name":"panakid","steam_id":76561198364121077,"connected_time":402000000000,"state":"active","ping":96},{"user_id":883,"name":"Sharp22#SaveTF2","steam_id":76561198861956212,"connected_time":4470000000000,"state":"active","ping":61},{"user_id":935,"name":"sacha","steam_id":76561198098065932,"connected_time":1562000000000,"state":"active","ping":56},{"user_id":937,"name":"Fox","steam_id":76561198052541711,"connected_time":1535000000000,"state":"active","ping":63},{"user_id":923,"name":"Jonas Destark","steam_id":76561198030327441,"connected_time":1984000000000,"state":"active","ping":56},{"user_id":938,"name":"JU","steam_id":76561198095802187,"connected_time":1528000000000,"state":"active","ping":52},{"user_id":939,"name":"Tryrn","steam_id":76561198075487436,"connected_time":1511000000000,"state":"active","ping":83},{"user_id":961,"name":"Carrot Arc","steam_id":76561198164957006,"connected_time":350000000000,"state":"active","ping":85},{"user_id":962,"name":"Lukas","steam_id":76561198009118452,"connected_time":308000000000,"state":"active","ping":69},{"user_id":941,"name":"json","steam_id":76561198378866654,"connected_time":1461000000000,"state":"active","ping":92},{"user_id":963,"name":"silves","steam_id":76561198106407598,"connected_time":306000000000,"state":"active","ping":61},{"user_id":943,"name":"zoinks!","steam_id":76561198068645362,"connected_time":1448000000000,"state":"active","ping":40},{"user_id":965,"name":"git bash -er","steam_id":76561198072586494,"connected_time":224000000000,"state":"active","ping":40},{"user_id":951,"name":"sasha ‚ô•","steam_id":76561198049276592,"connected_time":1078000000000,"state":"active","ping":57},{"user_id":895,"name":"Agnaktor42","steam_id":76561198042977011,"connected_time":3766000000000,"state":"active","ping":61},{"user_id":909,"name":"New","steam_id":76561198402195911,"connected_time":2999000000000,"state":"active","ping":114}]},{"server_id":321,"name":"Uncletopia | London | 4 | All Maps","name_short":"lon-4","host":"lon-1.uk.uncletopia.com","port":27045,"enabled":true,"region":"eu","cc":"gb","latitude":51.509865,"longitude":-0.118092,"reserved":0,"last_update":"0001-01-01T00:00:00Z","name_a2s":"Uncletopia | London | 4 | All Maps","protocol":17,"map":"pl_badwater","folder":"tf","game":"Team Fortress","app_id":440,"player_count":24,"max_players":24,"Bots":0,"server_type":"Dedicated","server_os":"Linux","password":true,"vac":true,"version":"7757534","steam_id":85568392924510193,"keywords":["nocrits","nodmgspread","payload","uncletopia"],"game_id":440,"stv_port":27046,"stv_name":"Uncletopia | London | 4 | All Maps | STV","players":[{"user_id":509,"name":"yominet","steam_id":76561198172050802,"connected_time":1032000000000,"state":"active","ping":105},{"user_id":523,"name":"eple","steam_id":76561198017686306,"connected_time":204000000000,"state":"active","ping":53},{"user_id":524,"name":"Christmas Ham","steam_id":76561198119601623,"connected_time":125000000000,"state":"active","ping":51},{"user_id":525,"name":"Kamanie","steam_id":76561198135448255,"connected_time":122000000000,"state":"active","ping":60},{"user_id":520,"name":"rmz.ssj","steam_id":76561198329613930,"connected_time":600000000000,"state":"active","ping":52},{"user_id":511,"name":"Silverdarlin","steam_id":76561198118540970,"connected_time":1012000000000,"state":"active","ping":58},{"user_id":526,"name":"Bostrash641","steam_id":76561199447225685,"connected_time":107000000000,"state":"active","ping":74},{"user_id":489,"name":"Platy","steam_id":76561198073442109,"connected_time":2567000000000,"state":"active","ping":55},{"user_id":495,"name":"C0d3s","steam_id":76561198093907544,"connected_time":2449000000000,"state":"active","ping":100},{"user_id":448,"name":"Piteras","steam_id":76561198858532207,"connected_time":6495000000000,"state":"active","ping":85},{"user_id":513,"name":"God's Goofiest Goober","steam_id":76561198103175187,"connected_time":1007000000000,"state":"active","ping":73},{"user_id":505,"name":"Denialman (Muted)","steam_id":76561198309182092,"connected_time":1693000000000,"state":"active","ping":63},{"user_id":527,"name":"Stretch","steam_id":76561198200856614,"connected_time":95000000000,"state":"active","ping":160},{"user_id":488,"name":"Big Stupid Ugly Twink","steam_id":76561198156906497,"connected_time":2603000000000,"state":"active","ping":60},{"user_id":514,"name":"MikeyMoo","steam_id":76561198106748328,"connected_time":989000000000,"state":"active","ping":51},{"user_id":528,"name":"jones","steam_id":76561198044434971,"connected_time":86000000000,"state":"active","ping":69},{"user_id":522,"name":"X45Y","steam_id":76561198112534025,"connected_time":322000000000,"state":"active","ping":60},{"user_id":494,"name":"lost","steam_id":76561198068624497,"connected_time":2499000000000,"state":"active","ping":139},{"user_id":496,"name":"boar hammer","steam_id":76561198396168679,"connected_time":2449000000000,"state":"active","ping":176},{"user_id":519,"name":"Grogon","steam_id":76561198203300218,"connected_time":770000000000,"state":"active","ping":68},{"user_id":530,"name":"LErik9858","steam_id":76561198808654852,"connected_time":53000000000,"state":"active","ping":74},{"user_id":499,"name":"SuntanPikachu","steam_id":76561198121242476,"connected_time":2388000000000,"state":"active","ping":72},{"user_id":506,"name":"eduardo","steam_id":76561198014491925,"connected_time":1642000000000,"state":"active","ping":86},{"user_id":531,"name":"W√§in√∂*","steam_id":76561199196680658,"connected_time":48000000000,"state":"active","ping":106}]},{"server_id":21,"name":"Uncletopia | London | 5 | All Maps","name_short":"lon-5","host":"lon-1.uk.uncletopia.com","port":27055,"enabled":true,"region":"eu","cc":"gb","latitude":51.509865,"longitude":-0.118092,"reserved":0,"last_update":"0001-01-01T00:00:00Z","name_a2s":"Uncletopia | London | 5 | All Maps","protocol":17,"map":"cp_mountainlab","folder":"tf","game":"Team Fortress","app_id":440,"player_count":0,"max_players":24,"Bots":0,"server_type":"Dedicated","server_os":"Linux","password":true,"vac":true,"version":"7757534","steam_id":85568392924742829,"keywords":["cp","nocrits","nodmgspread","uncletopia"],"game_id":440,"stv_port":27056,"stv_name":"Uncletopia | London | 5 | All Maps | STV","players":null},{"server_id":22,"name":"Uncletopia | London | 6 | All Maps","name_short":"lon-6","host":"lon-1.uk.uncletopia.com","port":27065,"enabled":true,"region":"eu","cc":"gb","latitude":51.509865,"longitude":-0.118092,"reserved":0,"last_update":"0001-01-01T00:00:00Z","name_a2s":"Uncletopia | London | 6 | All Maps","protocol":17,"map":"koth_lakeside_final","folder":"tf","game":"Team Fortress","app_id":440,"player_count":2,"max_players":24,"Bots":0,"server_type":"Dedicated","server_os":"Linux","password":true,"vac":true,"version":"7757534","steam_id":85568392924742830,"keywords":["cp","nocrits","nodmgspread","uncletopia"],"game_id":440,"stv_port":27066,"stv_name":"Uncletopia | London | 6 | All Maps | STV","players":[{"user_id":479,"name":"anti air turret","steam_id":76561199079513908,"connected_time":342000000000,"state":"active","ping":212},{"user_id":457,"name":"Penis Contortionist","steam_id":76561198073663784,"connected_time":2529000000000,"state":"active","ping":32}]},{"server_id":40,"name":"Uncletopia | London | 7 | No Payload","name_short":"lon-7","host":"lon-1.uk.uncletopia.com","port":27075,"enabled":true,"region":"eu","cc":"gb","latitude":51.509865,"longitude":-0.118092,"reserved":0,"last_update":"0001-01-01T00:00:00Z","name_a2s":"Uncletopia | London | 7 | No Payload","protocol":17,"map":"koth_harvest_final","folder":"tf","game":"Team Fortress","app_id":440,"player_count":0,"max_players":24,"Bots":0,"server_type":"Dedicated","server_os":"Linux","password":true,"vac":true,"version":"7757534","steam_id":85568392924964314,"keywords":["cp","nocrits","nodmgspread","uncletopia"],"game_id":440,"stv_port":27076,"stv_name":"Uncletopia | London | 7 | No Payload | STV","players":null},{"server_id":41,"name":"Uncletopia | London | 8 | Community","name_short":"lon-8","host":"lon-1.uk.uncletopia.com","port":27085,"enabled":true,"region":"eu","cc":"gb","latitude":51.509865,"longitude":-0.118092,"reserved":0,"last_update":"0001-01-01T00:00:00Z","name_a2s":"Uncletopia | London | 8 | Community","protocol":17,"map":"workshop/pl_highwood_b13.ugc1769496557","folder":"tf","game":"Team Fortress","app_id":440,"player_count":0,"max_players":24,"Bots":0,"server_type":"Dedicated","server_os":"Linux","password":true,"vac":true,"version":"7757534","steam_id":85568392924964315,"keywords":["nocrits","nodmgspread","payload","uncletopia"],"game_id":440,"stv_port":27086,"stv_name":"Uncletopia | London | 8 | Community | STV","players":null},{"server_id":300,"name":"Uncletopia | Montr√©al | 1 | All Maps","name_short":"mtl-1","host":"mtl-1.ca.uncletopia.com","port":27015,"enabled":true,"region":"us-east","cc":"ca","latitude":45.50889,"longitude":-73.56167,"reserved":0,"last_update":"0001-01-01T00:00:00Z","name_a2s":"Uncletopia | Montr√©al | 1 | All Maps","protocol":17,"map":"pl_snowycoast","folder":"tf","game":"Team Fortress","app_id":440,"player_count":0,"max_players":24,"Bots":0,"server_type":"Dedicated","server_os":"Linux","password":true,"vac":true,"version":"7757534","steam_id":85568392924500087,"keywords":["nocrits","nodmgspread","payload","uncletopia"],"game_id":440,"stv_port":27016,"stv_name":"Uncletopia | Montr√©al | 1 | All Maps | STV","players":null},{"server_id":301,"name":"Uncletopia | Montr√©al | 2 | All Maps","name_short":"mtl-2","host":"mtl-1.ca.uncletopia.com","port":27025,"enabled":true,"region":"us-east","cc":"ca","latitude":45.50889,"longitude":-73.56167,"reserved":0,"last_update":"0001-01-01T00:00:00Z","name_a2s":"Uncletopia | Montr√©al | 2 | All Maps","protocol":17,"map":"pl_upward","folder":"tf","game":"Team Fortress","app_id":440,"player_count":0,"max_players":24,"Bots":0,"server_type":"Dedicated","server_os":"Linux","password":true,"vac":true,"version":"7757534","steam_id":85568392924500088,"keywords":["nocrits","nodmgspread","payload","uncletopia"],"game_id":440,"stv_port":27026,"stv_name":"Uncletopia | Montr√©al | 2 | All Maps | STV","players":null},{"server_id":302,"name":"Uncletopia | Montr√©al | 3 | All Maps","name_short":"mtl-3","host":"mtl-1.ca.uncletopia.com","port":27035,"enabled":true,"region":"us-east","cc":"ca","latitude":45.50889,"longitude":-73.56167,"reserved":0,"last_update":"0001-01-01T00:00:00Z","name_a2s":"Uncletopia | Montr√©al | 3 | All Maps","protocol":17,"map":"ctf_2fort","folder":"tf","game":"Team Fortress","app_id":440,"player_count":0,"max_players":24,"Bots":0,"server_type":"Dedicated","server_os":"Linux","password":true,"vac":true,"version":"7757534","steam_id":85568392924500089,"keywords":["ctf","nocrits","nodmgspread","uncletopia"],"game_id":440,"stv_port":27036,"stv_name":"Uncletopia | Montr√©al | 3 | All Maps | STV","players":null},{"server_id":303,"name":"Uncletopia | Montr√©al | 4 | No Payload","name_short":"mtl-4","host":"mtl-1.ca.uncletopia.com","port":27045,"enabled":true,"region":"us-east","cc":"ca","latitude":45.50889,"longitude":-73.56167,"reserved":0,"last_update":"0001-01-01T00:00:00Z","name_a2s":"Uncletopia | Montr√©al | 4 | No Payload","protocol":17,"map":"pl_borneo","folder":"tf","game":"Team Fortress","app_id":440,"player_count":0,"max_players":24,"Bots":0,"server_type":"Dedicated","server_os":"Linux","password":true,"vac":true,"version":"7757534","steam_id":85568392924500090,"keywords":["nocrits","nodmgspread","payload","uncletopia"],"game_id":440,"stv_port":27046,"stv_name":"Uncletopia | Montr√©al | 4 | No Payload | STV","players":null},{"server_id":13,"name":"Uncletopia | New York City | 1 | All Maps","name_short":"nyc-1","host":"nyc-1.us.uncletopia.com","port":27015,"enabled":true,"region":"us-east","cc":"us","latitude":40.73061,"longitude":-73.93524,"reserved":0,"last_update":"0001-01-01T00:00:00Z","name_a2s":"Uncletopia | New York City | 1 | All Maps","protocol":17,"map":"pl_badwater","folder":"tf","game":"Team Fortress","app_id":440,"player_count":23,"max_players":24,"Bots":0,"server_type":"Dedicated","server_os":"Linux","password":true,"vac":true,"version":"7757534","steam_id":85568392924469993,"keywords":["nocrits","nodmgspread","payload","uncletopia"],"game_id":440,"stv_port":27016,"stv_name":"Uncletopia | New York City | 1 | All Maps | STV","players":[{"user_id":229,"name":"Super D Duper","steam_id":76561198078203677,"connected_time":649000000000,"state":"active","ping":52},{"user_id":221,"name":"Blitzy","steam_id":76561198149472890,"connected_time":1512000000000,"state":"active","ping":95},{"user_id":219,"name":"Marshall","steam_id":76561198042570322,"connected_time":1727000000000,"state":"active","ping":75},{"user_id":228,"name":"plaiddd","steam_id":76561198353053169,"connected_time":781000000000,"state":"active","ping":67},{"user_id":211,"name":"catrinaisahuman","steam_id":76561198281355729,"connected_time":2145000000000,"state":"active","ping":89},{"user_id":149,"name":"LordOfTheNoobs","steam_id":76561197962697523,"connected_time":7600000000000,"state":"active","ping":65},{"user_id":224,"name":"Bee","steam_id":76561198074681324,"connected_time":1129000000000,"state":"active","ping":46},{"user_id":227,"name":"papa guacamole","steam_id":76561198167665608,"connected_time":954000000000,"state":"active","ping":72},{"user_id":176,"name":"Seven","steam_id":76561198259947055,"connected_time":5580000000000,"state":"active","ping":78},{"user_id":168,"name":"Kattnesta","steam_id":76561198210927551,"connected_time":5958000000000,"state":"active","ping":56},{"user_id":230,"name":"Bulk","steam_id":76561199009814535,"connected_time":392000000000,"state":"active","ping":49},{"user_id":173,"name":"KitKat :)","steam_id":76561198191536489,"connected_time":5742000000000,"state":"active","ping":131},{"user_id":237,"name":"Indigolake","steam_id":76561198202215807,"connected_time":267000000000,"state":"active","ping":72},{"user_id":223,"name":"VioletSpecs","steam_id":76561198089366466,"connected_time":1258000000000,"state":"active","ping":61},{"user_id":231,"name":"Random","steam_id":76561198318879454,"connected_time":349000000000,"state":"active","ping":67},{"user_id":212,"name":"Point then Click","steam_id":76561198076133259,"connected_time":2145000000000,"state":"active","ping":125},{"user_id":225,"name":"Drake the Pixel","steam_id":76561198131824401,"connected_time":1049000000000,"state":"active","ping":38},{"user_id":213,"name":"DEADHORSE","steam_id":76561198066342171,"connected_time":2121000000000,"state":"active","ping":80},{"user_id":238,"name":"Ama","steam_id":76561198077883218,"connected_time":225000000000,"state":"active","ping":60},{"user_id":177,"name":"Baron von Whoopsie","steam_id":76561197996691013,"connected_time":5467000000000,"state":"active","ping":66},{"user_id":207,"name":"Smiles","steam_id":76561198107197973,"connected_time":2494000000000,"state":"active","ping":84},{"user_id":233,"name":"ApertureCity","steam_id":76561198004153607,"connected_time":323000000000,"state":"active","ping":72},{"user_id":216,"name":"creamgravy573","steam_id":76561198093308746,"connected_time":2061000000000,"state":"active","ping":61}]},{"server_id":14,"name":"Uncletopia | New York City | 2 | All Maps","name_short":"nyc-2","host":"nyc-1.us.uncletopia.com","port":27025,"enabled":true,"region":"us-east","cc":"us","latitude":40.73061,"longitude":-73.93524,"reserved":0,"last_update":"0001-01-01T00:00:00Z","name_a2s":"Uncletopia | New York City | 2 | All Maps","protocol":17,"map":"pl_frontier_final","folder":"tf","game":"Team Fortress","app_id":440,"player_count":23,"max_players":24,"Bots":0,"server_type":"Dedicated","server_os":"Linux","password":true,"vac":true,"version":"7757534","steam_id":85568392924469994,"keywords":["nocrits","nodmgspread","payload","uncletopia"],"game_id":440,"stv_port":27026,"stv_name":"Uncletopia | New York City | 2 | All Maps | STV","players":[{"user_id":349,"name":"The Land Admiral","steam_id":76561198159356609,"connected_time":2254000000000,"state":"active","ping":55},{"user_id":376,"name":"Dawnveu","steam_id":76561198041999612,"connected_time":393000000000,"state":"active","ping":74},{"user_id":336,"name":"Zero","steam_id":76561199383267408,"connected_time":2849000000000,"state":"active","ping":95},{"user_id":352,"name":"titan","steam_id":76561198197388678,"connected_time":2015000000000,"state":"active","ping":74},{"user_id":371,"name":"Bannana Man","steam_id":76561199345210632,"connected_time":768000000000,"state":"active","ping":96},{"user_id":353,"name":"Goose Pyro","steam_id":76561198994984332,"connected_time":1997000000000,"state":"active","ping":116},{"user_id":358,"name":"A Very Fast And Sideways Subaru","steam_id":76561198091653708,"connected_time":1639000000000,"state":"active","ping":61},{"user_id":366,"name":"get_owned_f2p_pyro","steam_id":76561198061827771,"connected_time":1189000000000,"state":"active","ping":167},{"user_id":306,"name":"THRILLHO","steam_id":76561198371663047,"connected_time":4926000000000,"state":"active","ping":44},{"user_id":379,"name":"friend me and i will pocket you","steam_id":76561199383789041,"connected_time":26000000000,"state":"active","ping":182},{"user_id":342,"name":"Wahooka","steam_id":76561197962240925,"connected_time":2725000000000,"state":"active","ping":55},{"user_id":341,"name":"A Puppy","steam_id":76561198828184456,"connected_time":2742000000000,"state":"active","ping":48},{"user_id":370,"name":"wake up","steam_id":76561198072179483,"connected_time":789000000000,"state":"active","ping":78},{"user_id":372,"name":"20 miles for a Quaalude","steam_id":76561198042579477,"connected_time":762000000000,"state":"active","ping":60},{"user_id":360,"name":"._.","steam_id":76561198300316801,"connected_time":1512000000000,"state":"active","ping":36},{"user_id":363,"name":"Fredfredfood","steam_id":76561198072824802,"connected_time":1295000000000,"state":"active","ping":80},{"user_id":378,"name":"pnapl","steam_id":76561198065895995,"connected_time":65000000000,"state":"active","ping":74},{"user_id":373,"name":"banana man","steam_id":76561199385170644,"connected_time":615000000000,"state":"active","ping":66},{"user_id":375,"name":"jamzine","steam_id":76561198186168293,"connected_time":534000000000,"state":"active","ping":57},{"user_id":367,"name":"Underscore","steam_id":76561198374209415,"connected_time":1180000000000,"state":"active","ping":89},{"user_id":334,"name":"Gianluigi Buffon","steam_id":76561199302903363,"connected_time":2896000000000,"state":"active","ping":130},{"user_id":359,"name":"Anonymous_Cletus_TTV","steam_id":76561198243740340,"connected_time":1519000000000,"state":"active","ping":87},{"user_id":368,"name":"Dog Deodorant","steam_id":76561199225832228,"connected_time":1174000000000,"state":"active","ping":118}]},{"server_id":15,"name":"Uncletopia | New York City | 3 | Stopwatch Beta","name_short":"nyc-3","host":"nyc-1.us.uncletopia.com","port":27035,"enabled":true,"region":"us-east","cc":"us","latitude":40.73061,"longitude":-73.93524,"reserved":0,"last_update":"0001-01-01T00:00:00Z","name_a2s":"Uncletopia | New York City | 3 | Stopwatch Beta","protocol":17,"map":"koth_lakeside_final","folder":"tf","game":"Team Fortress","app_id":440,"player_count":0,"max_players":24,"Bots":0,"server_type":"Dedicated","server_os":"Linux","password":true,"vac":true,"version":"7757534","steam_id":85568392924742820,"keywords":["cp","nocrits","nodmgspread","uncletopia"],"game_id":440,"stv_port":27036,"stv_name":"Uncletopia | New York City | 3 | Stopwatch Beta | STV","players":null},{"server_id":16,"name":"Uncletopia | New York City | 4 | Community","name_short":"nyc-4","host":"nyc-1.us.uncletopia.com","port":27045,"enabled":true,"region":"us-east","cc":"us","latitude":40.73061,"longitude":-73.93524,"reserved":0,"last_update":"0001-01-01T00:00:00Z","name_a2s":"Uncletopia | New York City | 4 | Community","protocol":17,"map":"workshop/cp_indulge.ugc528106646","folder":"tf","game":"Team Fortress","app_id":440,"player_count":0,"max_players":24,"Bots":0,"server_type":"Dedicated","server_os":"Linux","password":true,"vac":true,"version":"7757534","steam_id":85568392924742821,"keywords":["cp","nocrits","nodmgspread","uncletopia"],"game_id":440,"stv_port":27046,"stv_name":"Uncletopia | New York City | 4 | Community | STV","players":null},{"server_id":142,"name":"Uncletopia | S√£o Paulo | 1 | All Maps","name_short":"sao-1","host":"sao-1.br.uncletopia.com","port":27015,"enabled":true,"region":"sa","cc":"br","latitude":-23.533773,"longitude":-46.62529,"reserved":0,"last_update":"0001-01-01T00:00:00Z","name_a2s":"Uncletopia | S√£o Paulo | 1 | All Maps","protocol":17,"map":"cp_snakewater_final1","folder":"tf","game":"Team Fortress","app_id":440,"player_count":0,"max_players":24,"Bots":0,"server_type":"Dedicated","server_os":"Linux","password":true,"vac":true,"version":"7757534","steam_id":85568392924469996,"keywords":["cp","nocrits","nodmgspread","uncletopia"],"game_id":440,"stv_port":27016,"stv_name":"Uncletopia | S√£o Paulo | 1 | All Maps | STV","players":null},{"server_id":143,"name":"Uncletopia | S√£o Paulo | 2 | All Maps","name_short":"sao-2","host":"sao-2.br.uncletopia.com","port":27015,"enabled":true,"region":"sa","cc":"br","latitude":-23.533773,"longitude":-46.62529,"reserved":0,"last_update":"0001-01-01T00:00:00Z","name_a2s":"Uncletopia | S√£o Paulo | 2 | All Maps","protocol":17,"map":"pl_upward","folder":"tf","game":"Team Fortress","app_id":440,"player_count":0,"max_players":24,"Bots":0,"server_type":"Dedicated","server_os":"Linux","password":true,"vac":true,"version":"7757534","steam_id":85568392924485349,"keywords":["nocrits","nodmgspread","payload","uncletopia"],"game_id":440,"stv_port":27016,"stv_name":"Uncletopia | S√£o Paulo | 2 | All Maps | STV","players":null},{"server_id":7,"name":"Uncletopia | Seattle | 1 | All Maps","name_short":"sea-1","host":"sea-1.us.uncletopia.com","port":27015,"enabled":true,"region":"us-west","cc":"us","latitude":47.608013,"longitude":-122.33517,"reserved":0,"last_update":"0001-01-01T00:00:00Z","name_a2s":"Uncletopia | Seattle | 1 | All Maps","protocol":17,"map":"pl_upward","folder":"tf","game":"Team Fortress","app_id":440,"player_count":23,"max_players":24,"Bots":0,"server_type":"Dedicated","server_os":"Linux","password":true,"vac":true,"version":"7757534","steam_id":85568392924469997,"keywords":["nocrits","nodmgspread","payload","uncletopia"],"game_id":440,"stv_port":27016,"stv_name":"Uncletopia | Seattle | 1 | All Maps | STV","players":[{"user_id":365,"name":"resting neutral face","steam_id":76561197999259502,"connected_time":4406000000000,"state":"active","ping":60},{"user_id":397,"name":"Pine Tree","steam_id":76561198112323877,"connected_time":2411000000000,"state":"active","ping":139},{"user_id":411,"name":"Fh","steam_id":76561198000903511,"connected_time":411000000000,"state":"active","ping":61},{"user_id":401,"name":"rtgod","steam_id":76561198125363469,"connected_time":2303000000000,"state":"active","ping":158},{"user_id":405,"name":"resh","steam_id":76561198239598834,"connected_time":1259000000000,"state":"active","ping":165},{"user_id":406,"name":"Soap","steam_id":76561197994893383,"connected_time":1241000000000,"state":"active","ping":77},{"user_id":358,"name":"Mico (Goblin Mode)","steam_id":76561198125462953,"connected_time":4618000000000,"state":"active","ping":45},{"user_id":399,"name":"arsenic","steam_id":76561198176391550,"connected_time":2380000000000,"state":"active","ping":95},{"user_id":350,"name":"drink my *** u nasty ****","steam_id":76561199100813140,"connected_time":5547000000000,"state":"active","ping":85},{"user_id":339,"name":"[TrC] Nosy","steam_id":76561197978859310,"connected_time":6345000000000,"state":"active","ping":57},{"user_id":403,"name":"GgDionne","steam_id":76561198079684772,"connected_time":1633000000000,"state":"active","ping":51},{"user_id":364,"name":"doomshroom","steam_id":76561198092827250,"connected_time":4452000000000,"state":"active","ping":58},{"user_id":415,"name":"heisenberg","steam_id":76561198170879526,"connected_time":25000000000,"state":"active","ping":83},{"user_id":335,"name":"[TrC] Dackstrus","steam_id":76561197973518509,"connected_time":6434000000000,"state":"active","ping":60},{"user_id":410,"name":"PheebsyDeebsy","steam_id":76561198101509436,"connected_time":591000000000,"state":"active","ping":69},{"user_id":383,"name":"EEBIGAA","steam_id":76561198056535988,"connected_time":3274000000000,"state":"active","ping":72},{"user_id":382,"name":"NEBULA","steam_id":76561198086878595,"connected_time":3318000000000,"state":"active","ping":77},{"user_id":413,"name":"DK360","steam_id":76561198796783094,"connected_time":372000000000,"state":"active","ping":51},{"user_id":400,"name":"BolognaWithOlives","steam_id":76561198101262668,"connected_time":2342000000000,"state":"active","ping":87},{"user_id":386,"name":"Ducks","steam_id":76561198130038345,"connected_time":3081000000000,"state":"active","ping":62},{"user_id":409,"name":"unpoppable","steam_id":76561198240047752,"connected_time":1008000000000,"state":"active","ping":48},{"user_id":402,"name":"Sinn","steam_id":76561199013434543,"connected_time":1850000000000,"state":"active","ping":71},{"user_id":374,"name":"Parakeet","steam_id":76561198271939793,"connected_time":3803000000000,"state":"active","ping":45}]},{"server_id":119,"name":"Uncletopia | Seattle | 2 | All Maps","name_short":"sea-2","host":"sea-1.us.uncletopia.com","port":27025,"enabled":true,"region":"us-west","cc":"us","latitude":47.608013,"longitude":-122.33517,"reserved":0,"last_update":"0001-01-01T00:00:00Z","name_a2s":"Uncletopia | Seattle | 2 | All Maps","protocol":17,"map":"pl_frontier_final","folder":"tf","game":"Team Fortress","app_id":440,"player_count":24,"max_players":24,"Bots":0,"server_type":"Dedicated","server_os":"Linux","password":true,"vac":true,"version":"7757534","steam_id":85568392924469998,"keywords":["nocrits","nodmgspread","payload","uncletopia"],"game_id":440,"stv_port":27026,"stv_name":"Uncletopia | Seattle | 2 | All Maps | STV","players":[{"user_id":488,"name":"hypotenuse","steam_id":76561198062479158,"connected_time":453000000000,"state":"active","ping":57},{"user_id":467,"name":"Keth","steam_id":76561198155903648,"connected_time":1314000000000,"state":"active","ping":56},{"user_id":472,"name":"oil","steam_id":76561198099980149,"connected_time":1074000000000,"state":"active","ping":75},{"user_id":489,"name":"town.midi","steam_id":76561198059041027,"connected_time":353000000000,"state":"active","ping":63},{"user_id":418,"name":"chiswola","steam_id":76561198046920142,"connected_time":6080000000000,"state":"active","ping":129},{"user_id":451,"name":"Dimple #TF2Center","steam_id":76561198980324190,"connected_time":3072000000000,"state":"active","ping":75},{"user_id":408,"name":"Algibruh","steam_id":76561199221599415,"connected_time":7665000000000,"state":"active","ping":44},{"user_id":477,"name":"DJ Absolute Garbage","steam_id":76561198068000747,"connected_time":877000000000,"state":"active","ping":118},{"user_id":478,"name":"Cloud","steam_id":76561198272454184,"connected_time":852000000000,"state":"active","ping":172},{"user_id":487,"name":"Voodo133","steam_id":76561198042670351,"connected_time":485000000000,"state":"active","ping":154},{"user_id":479,"name":"FiddyFoMike","steam_id":76561198057072581,"connected_time":808000000000,"state":"active","ping":72},{"user_id":483,"name":"dougrocks421","steam_id":76561198165063918,"connected_time":566000000000,"state":"active","ping":37},{"user_id":407,"name":"Lil Urge","steam_id":76561198162207470,"connected_time":7670000000000,"state":"active","ping":62},{"user_id":493,"name":"creepe","steam_id":76561198372891738,"connected_time":71000000000,"state":"active","ping":238},{"user_id":459,"name":"picea","steam_id":76561198134664196,"connected_time":1391000000000,"state":"active","ping":63},{"user_id":440,"name":"worker","steam_id":76561198039608940,"connected_time":3917000000000,"state":"active","ping":61},{"user_id":476,"name":"nescoceo","steam_id":76561198040801160,"connected_time":942000000000,"state":"active","ping":79},{"user_id":494,"name":"Boop Oop A Doop","steam_id":76561198036370174,"connected_time":29000000000,"state":"active","ping":89},{"user_id":442,"name":"reiidaya","steam_id":76561198325306660,"connected_time":3837000000000,"state":"active","ping":50},{"user_id":465,"name":"BabyBARKing","steam_id":76561198362318243,"connected_time":1354000000000,"state":"active","ping":66},{"user_id":486,"name":"yuki","steam_id":76561198028645098,"connected_time":498000000000,"state":"active","ping":113},{"user_id":491,"name":"Tybalt","steam_id":76561198142464684,"connected_time":322000000000,"state":"active","ping":91},{"user_id":495,"name":"Benouhe","steam_id":76561198150671298,"connected_time":24000000000,"state":"active","ping":217},{"user_id":457,"name":"Become girl, transition gender","steam_id":76561198200961750,"connected_time":1922000000000,"state":"active","ping":77}]},{"server_id":406,"name":"Uncletopia | Seattle | 3 | Stopwatch Beta","name_short":"sea-3","host":"sea-1.us.uncletopia.com","port":27035,"enabled":true,"region":"us-west","cc":"us","latitude":47.608013,"longitude":-122.33517,"reserved":0,"last_update":"0001-01-01T00:00:00Z","name_a2s":"Uncletopia | Seattle | 3 | Stopwatch Beta","protocol":17,"map":"workshop/pl_barnblitz_pro7.ugc582280235","folder":"tf","game":"Team Fortress","app_id":440,"player_count":0,"max_players":24,"Bots":0,"server_type":"Dedicated","server_os":"Linux","password":true,"vac":true,"version":"7757534","steam_id":85568392924515217,"keywords":["nocrits","nodmgspread","payload","uncletopia"],"game_id":440,"stv_port":27036,"stv_name":"Uncletopia | Seattle | 3 | Stopwatch Beta | STV","players":null},{"server_id":17,"name":"Uncletopia | San Francisco | 1 | All Maps","name_short":"sfo-1","host":"sfo-1.us.uncletopia.com","port":27015,"enabled":true,"region":"us-west","cc":"us","latitude":37.77397,"longitude":-122.4313,"reserved":0,"last_update":"0001-01-01T00:00:00Z","name_a2s":"Uncletopia | San Francisco | 1 | All Maps","protocol":17,"map":"pl_borneo","folder":"tf","game":"Team Fortress","app_id":440,"player_count":24,"max_players":24,"Bots":0,"server_type":"Dedicated","server_os":"Linux","password":true,"vac":true,"version":"7757534","steam_id":85568392924469999,"keywords":["nocrits","nodmgspread","payload","uncletopia"],"game_id":440,"stv_port":27016,"stv_name":"Uncletopia | San Francisco | 1 | All Maps | STV","players":[{"user_id":69,"name":"ForAPessimistImPrettyOptimistic","steam_id":76561198170128009,"connected_time":927000000000,"state":"active","ping":48},{"user_id":72,"name":"CandorDanceFloor","steam_id":76561198062980511,"connected_time":687000000000,"state":"active","ping":116},{"user_id":70,"name":"Killer_Bite_","steam_id":76561198153259922,"connected_time":915000000000,"state":"active","ping":40},{"user_id":14,"name":"bonus ducks","steam_id":76561199133093829,"connected_time":3575000000000,"state":"active","ping":122},{"user_id":31,"name":"Snow","steam_id":76561198151556270,"connected_time":2851000000000,"state":"active","ping":70},{"user_id":32,"name":"Honda Element","steam_id":76561198086907573,"connected_time":2839000000000,"state":"active","ping":90},{"user_id":38,"name":"Oomitch","steam_id":76561198071702759,"connected_time":2777000000000,"state":"active","ping":75},{"user_id":71,"name":"Soap Man","steam_id":76561198000490235,"connected_time":725000000000,"state":"active","ping":93},{"user_id":81,"name":"StarGuyVI","steam_id":76561199366304746,"connected_time":9000000000,"state":"spawning","ping":105},{"user_id":20,"name":"Buswolley","steam_id":76561197995205571,"connected_time":3233000000000,"state":"active","ping":50},{"user_id":73,"name":"FUSION","steam_id":76561197972659738,"connected_time":677000000000,"state":"active","ping":104},{"user_id":63,"name":"grugposter","steam_id":76561198035805348,"connected_time":1741000000000,"state":"active","ping":54},{"user_id":41,"name":"\u003ccolor=#BB33DD\u003egamerH_0ST","steam_id":76561198051191857,"connected_time":2593000000000,"state":"active","ping":106},{"user_id":60,"name":"Defeat","steam_id":76561198065203818,"connected_time":1963000000000,"state":"active","ping":60},{"user_id":64,"name":"Lamy","steam_id":76561198348354629,"connected_time":1740000000000,"state":"active","ping":47},{"user_id":43,"name":"BluBlurToast","steam_id":76561198180918559,"connected_time":2484000000000,"state":"active","ping":101},{"user_id":74,"name":"BasedGod","steam_id":76561198061177973,"connected_time":628000000000,"state":"active","ping":46},{"user_id":68,"name":"squart guy","steam_id":76561199411560141,"connected_time":1342000000000,"state":"active","ping":66},{"user_id":58,"name":"this is my BOOMSTICK","steam_id":76561198392255493,"connected_time":2031000000000,"state":"active","ping":52},{"user_id":80,"name":"mercy","steam_id":76561198971354161,"connected_time":79000000000,"state":"active","ping":100},{"user_id":78,"name":"NARCISSISM IS REAL","steam_id":76561198825658971,"connected_time":332000000000,"state":"active","ping":60},{"user_id":76,"name":"Dietrich","steam_id":76561198028163840,"connected_time":571000000000,"state":"active","ping":65},{"user_id":59,"name":"MORE BOUNCE TO THE OUNCE","steam_id":76561198243399336,"connected_time":1967000000000,"state":"active","ping":63},{"user_id":66,"name":"xerro","steam_id":76561198323340524,"connected_time":1534000000000,"state":"active","ping":103}]},{"server_id":18,"name":"Uncletopia | San Francisco | 2 | All Maps","name_short":"sfo-2","host":"sfo-1.us.uncletopia.com","port":27025,"enabled":true,"region":"us-west","cc":"us","latitude":37.77397,"longitude":-122.4313,"reserved":0,"last_update":"0001-01-01T00:00:00Z","name_a2s":"Uncletopia | San Francisco | 2 | All Maps","protocol":17,"map":"pl_badwater","folder":"tf","game":"Team Fortress","app_id":440,"player_count":0,"max_players":24,"Bots":0,"server_type":"Dedicated","server_os":"Linux","password":true,"vac":true,"version":"7757534","steam_id":85568392924470000,"keywords":["nocrits","nodmgspread","payload","uncletopia"],"game_id":440,"stv_port":27026,"stv_name":"Uncletopia | San Francisco | 2 | All Maps | STV","players":null},{"server_id":19,"name":"Uncletopia | San Francisco | 3 | Stopwatch Beta","name_short":"sfo-3","host":"sfo-1.us.uncletopia.com","port":27035,"enabled":true,"region":"us-west","cc":"us","latitude":37.77397,"longitude":-122.4313,"reserved":0,"last_update":"0001-01-01T00:00:00Z","name_a2s":"Uncletopia | San Francisco | 3 | Stopwatch Beta","protocol":17,"map":"pl_borneo","folder":"tf","game":"Team Fortress","app_id":440,"player_count":0,"max_players":24,"Bots":0,"server_type":"Dedicated","server_os":"Linux","password":true,"vac":true,"version":"7757534","steam_id":85568392924742824,"keywords":["nocrits","nodmgspread","payload","uncletopia"],"game_id":440,"stv_port":27036,"stv_name":"Uncletopia | San Francisco | 3 | Stopwatch Beta | STV","players":null},{"server_id":20,"name":"Uncletopia | San Francisco | 4 | Community","name_short":"sfo-4","host":"sfo-1.us.uncletopia.com","port":27045,"enabled":true,"region":"us-west","cc":"us","latitude":37.77397,"longitude":-122.4313,"reserved":0,"last_update":"0001-01-01T00:00:00Z","name_a2s":"Uncletopia | San Francisco | 4 | Community","protocol":17,"map":"koth_highpass","folder":"tf","game":"Team Fortress","app_id":440,"player_count":0,"max_players":24,"Bots":0,"server_type":"Dedicated","server_os":"Linux","password":true,"vac":true,"version":"7757534","steam_id":85568392924742826,"keywords":["cp","nocrits","nodmgspread","uncletopia"],"game_id":440,"stv_port":27046,"stv_name":"Uncletopia | San Francisco | 4 | Community | STV","players":null},{"server_id":141,"name":"Uncletopia | Sydney | 1 | All Maps","name_short":"syd-1","host":"syd-1.au.uncletopia.com","port":27015,"enabled":true,"region":"au","cc":"au","latitude":-33.865143,"longitude":151.2099,"reserved":0,"last_update":"0001-01-01T00:00:00Z","name_a2s":"Uncletopia | Sydney | 1 | All Maps","protocol":17,"map":"koth_highpass","folder":"tf","game":"Team Fortress","app_id":440,"player_count":0,"max_players":24,"Bots":0,"server_type":"Dedicated","server_os":"Linux","password":true,"vac":true,"version":"7757534","steam_id":85568392924470001,"keywords":["cp","nocrits","nodmgspread","uncletopia"],"game_id":440,"stv_port":27016,"stv_name":"Uncletopia | Sydney | 1 | All Maps | STV","players":null},{"server_id":123,"name":"Uncletopia | Sydney | 2 | All Maps","name_short":"syd-2","host":"syd-1.au.uncletopia.com","port":27025,"enabled":true,"region":"au","cc":"au","latitude":-33.865143,"longitude":151.2099,"reserved":0,"last_update":"0001-01-01T00:00:00Z","name_a2s":"Uncletopia | Sydney | 2 | All Maps","protocol":17,"map":"koth_viaduct","folder":"tf","game":"Team Fortress","app_id":440,"player_count":0,"max_players":24,"Bots":0,"server_type":"Dedicated","server_os":"Linux","password":true,"vac":true,"version":"7757534","steam_id":85568392924470002,"keywords":["cp","nocrits","nodmgspread","uncletopia"],"game_id":440,"stv_port":27026,"stv_name":"Uncletopia | Sydney | 2 | All Maps | STV","players":null},{"server_id":395,"name":"Uncletopia | Sydney | 3 | All Maps","name_short":"syd-3","host":"syd-1.au.uncletopia.com","port":27035,"enabled":true,"region":"au","cc":"au","latitude":-33.865143,"longitude":151.2099,"reserved":0,"last_update":"0001-01-01T00:00:00Z","name_a2s":"Uncletopia | Sydney | 3 | All Maps","protocol":17,"map":"pl_upward","folder":"tf","game":"Team Fortress","app_id":440,"player_count":0,"max_players":24,"Bots":0,"server_type":"Dedicated","server_os":"Linux","password":true,"vac":true,"version":"7757534","steam_id":85568392925194467,"keywords":["nocrits","nodmgspread","payload","uncletopia"],"game_id":440,"stv_port":27036,"stv_name":"Uncletopia | Sydney | 3 | All Maps | STV","players":null},{"server_id":396,"name":"Uncletopia | Sydney | 4 | All Maps","name_short":"syd-4","host":"syd-1.au.uncletopia.com","port":27045,"enabled":true,"region":"au","cc":"au","latitude":-33.865143,"longitude":151.2099,"reserved":0,"last_update":"0001-01-01T00:00:00Z","name_a2s":"Uncletopia | Sydney | 4 | All Maps","protocol":17,"map":"koth_lakeside_final","folder":"tf","game":"Team Fortress","app_id":440,"player_count":0,"max_players":24,"Bots":0,"server_type":"Dedicated","server_os":"Linux","password":true,"vac":true,"version":"7757534","steam_id":85568392925397958,"keywords":["cp","nocrits","nodmgspread","uncletopia"],"game_id":440,"stv_port":27046,"stv_name":"Uncletopia | Sydney | 4 | All Maps | STV","players":null},{"server_id":58,"name":"Uncletopia | Sydney | 5 | Stopwatch Beta","name_short":"syd-5","host":"syd-1.au.uncletopia.com","port":27055,"enabled":true,"region":"au","cc":"au","latitude":-33.865143,"longitude":151.2099,"reserved":0,"last_update":"0001-01-01T00:00:00Z","name_a2s":"Uncletopia | Sydney | 5 | Stopwatch Beta","protocol":17,"map":"koth_highpass","folder":"tf","game":"Team Fortress","app_id":440,"player_count":0,"max_players":24,"Bots":0,"server_type":"Dedicated","server_os":"Linux","password":true,"vac":true,"version":"7757534","steam_id":85568392925397959,"keywords":["cp","nocrits","nodmgspread","uncletopia"],"game_id":440,"stv_port":27056,"stv_name":"Uncletopia | Sydney | 5 | Stopwatch Beta | STV","players":null},{"server_id":59,"name":"Uncletopia | Sydney | 6 | Community","name_short":"syd-6","host":"syd-1.au.uncletopia.com","port":27065,"enabled":true,"region":"au","cc":"au","latitude":-33.865143,"longitude":151.2099,"reserved":0,"last_update":"0001-01-01T00:00:00Z","name_a2s":"Uncletopia | Sydney | 6 | Community","protocol":17,"map":"workshop/cp_sulfur_rc2.ugc619869471","folder":"tf","game":"Team Fortress","app_id":440,"player_count":0,"max_players":24,"Bots":0,"server_type":"Dedicated","server_os":"Linux","password":true,"vac":true,"version":"7757534","steam_id":85568392925397960,"keywords":["cp","nocrits","nodmgspread","uncletopia"],"game_id":440,"stv_port":27066,"stv_name":"Uncletopia | Sydney | 6 | Community | STV","players":null},{"server_id":49,"name":"Uncletopia | Warsaw | 1 | All Maps","name_short":"waw-1","host":"waw-1.pl.uncletopia.com","port":27015,"enabled":true,"region":"eu","cc":"pl","latitude":52.2297,"longitude":21.017532,"reserved":0,"last_update":"0001-01-01T00:00:00Z","name_a2s":"","protocol":0,"map":"","folder":"","game":"","app_id":0,"player_count":0,"max_players":0,"Bots":0,"server_type":"","server_os":"","password":false,"vac":false,"version":"","steam_id":0,"keywords":null,"game_id":0,"stv_port":0,"stv_name":"","players":null},{"server_id":50,"name":"Uncletopia | Warsaw | 2 | All Maps","name_short":"waw-2","host":"waw-1.pl.uncletopia.com","port":27025,"enabled":true,"region":"eu","cc":"pl","latitude":52.2297,"longitude":21.017532,"reserved":0,"last_update":"0001-01-01T00:00:00Z","name_a2s":"Uncletopia | Warsaw | 2 | All Maps","protocol":17,"map":"koth_lakeside_final","folder":"tf","game":"Team Fortress","app_id":440,"player_count":0,"max_players":24,"Bots":0,"server_type":"Dedicated","server_os":"Linux","password":true,"vac":true,"version":"7757534","steam_id":85568392925397851,"keywords":["cp","nocrits","nodmgspread","uncletopia"],"game_id":440,"stv_port":27026,"stv_name":"Uncletopia | Warsaw | 2 | All Maps | STV","players":null},{"server_id":51,"name":"Uncletopia | Warsaw | 3 | All Maps","name_short":"waw-3","host":"waw-1.pl.uncletopia.com","port":27035,"enabled":true,"region":"eu","cc":"pl","latitude":52.2297,"longitude":21.017532,"reserved":0,"last_update":"0001-01-01T00:00:00Z","name_a2s":"Uncletopia | Warsaw | 3 | All Maps","protocol":17,"map":"cp_sunshine","folder":"tf","game":"Team Fortress","app_id":440,"player_count":13,"max_players":24,"Bots":0,"server_type":"Dedicated","server_os":"Linux","password":true,"vac":true,"version":"7757534","steam_id":85568392925397852,"keywords":["cp","nocrits","nodmgspread","uncletopia"],"game_id":440,"stv_port":27036,"stv_name":"Uncletopia | Warsaw | 3 | All Maps | STV","players":[{"user_id":6,"name":"Elora","steam_id":76561198040510572,"connected_time":3132000000000,"state":"active","ping":79},{"user_id":7,"name":"lcqjp","steam_id":76561198062028720,"connected_time":3120000000000,"state":"active","ping":176},{"user_id":8,"name":"OneManEnsemble","steam_id":76561198200890163,"connected_time":3118000000000,"state":"active","ping":159},{"user_id":10,"name":"SuperSonic7CE","steam_id":76561198073856652,"connected_time":3096000000000,"state":"active","ping":173},{"user_id":11,"name":"vampire","steam_id":76561198207073104,"connected_time":3061000000000,"state":"active","ping":195},{"user_id":13,"name":"ARBUZ z murzynem","steam_id":76561198446272479,"connected_time":2685000000000,"state":"active","ping":35},{"user_id":14,"name":"Magnus","steam_id":76561198047390683,"connected_time":2625000000000,"state":"active","ping":188},{"user_id":16,"name":"LadyBonkula","steam_id":76561198065944911,"connected_time":2386000000000,"state":"active","ping":178},{"user_id":17,"name":"General_Douglas","steam_id":76561198215659007,"connected_time":1816000000000,"state":"active","ping":181},{"user_id":21,"name":"Armada","steam_id":76561197995187981,"connected_time":1042000000000,"state":"active","ping":179},{"user_id":19,"name":"Heisenberg","steam_id":76561198842650212,"connected_time":1195000000000,"state":"active","ping":68},{"user_id":22,"name":"Controller Gaming","steam_id":76561198436817109,"connected_time":1018000000000,"state":"active","ping":70},{"user_id":24,"name":"Shoelaces_","steam_id":76561198077697156,"connected_time":60000000000,"state":"active","ping":233}]},{"server_id":52,"name":"Uncletopia | Warsaw | 4 | All Maps","name_short":"waw-4","host":"waw-1.pl.uncletopia.com","port":27045,"enabled":true,"region":"eu","cc":"pl","latitude":52.2297,"longitude":21.017532,"reserved":0,"last_update":"0001-01-01T00:00:00Z","name_a2s":"Uncletopia | Warsaw | 4 | All Maps","protocol":17,"map":"pl_borneo","folder":"tf","game":"Team Fortress","app_id":440,"player_count":0,"max_players":24,"Bots":0,"server_type":"Dedicated","server_os":"Linux","password":true,"vac":true,"version":"7757534","steam_id":85568392925397853,"keywords":["nocrits","nodmgspread","payload","uncletopia"],"game_id":440,"stv_port":27046,"stv_name":"Uncletopia | Warsaw | 4 | All Maps | STV","players":null},{"server_id":53,"name":"Uncletopia | Warsaw | 5 | Stopwatch Beta","name_short":"waw-5","host":"waw-1.pl.uncletopia.com","port":27055,"enabled":true,"region":"eu","cc":"pl","latitude":52.2297,"longitude":21.017532,"reserved":0,"last_update":"0001-01-01T00:00:00Z","name_a2s":"Uncletopia | Warsaw | 5 | Stopwatch Beta","protocol":17,"map":"pl_barnblitz","folder":"tf","game":"Team Fortress","app_id":440,"player_count":0,"max_players":24,"Bots":0,"server_type":"Dedicated","server_os":"Linux","password":true,"vac":true,"version":"7757534","steam_id":85568392925397854,"keywords":["nocrits","nodmgspread","payload","uncletopia"],"game_id":440,"stv_port":27056,"stv_name":"Uncletopia | Warsaw | 5 | Stopwatch Beta | STV","players":null},{"server_id":54,"name":"Uncletopia | Warsaw | 6 | Community","name_short":"waw-6","host":"waw-1.pl.uncletopia.com","port":27065,"enabled":true,"region":"eu","cc":"pl","latitude":52.2297,"longitude":21.017532,"reserved":0,"last_update":"0001-01-01T00:00:00Z","name_a2s":"Uncletopia | Warsaw | 6 | Community","protocol":17,"map":"workshop/koth_trenchfoot_b1a.ugc731436616","folder":"tf","game":"Team Fortress","app_id":440,"player_count":0,"max_players":24,"Bots":0,"server_type":"Dedicated","server_os":"Linux","password":true,"vac":true,"version":"7757534","steam_id":85568392925397856,"keywords":["cp","nocrits","nodmgspread","uncletopia"],"game_id":440,"stv_port":27066,"stv_name":"Uncletopia | Warsaw | 6 | Community | STV","players":null}]}