{"status":true,"message":"","result":[{"server_id":9,"name":"Uncletopia | Atlanta | 1 | All Maps","name_short":"atl-1","host":"atl-1.us.uncletopia.com","port":27015,"enabled":true,"region":"us-east","cc":"us","latitude":33.753746,"longitude":-84.38633,"reserved":0,"last_update":"0001-01-01T00:00:00Z","name_a2s":"Uncletopia | Atlanta | 1 | All Maps","protocol":17,"map":"cp_foundry","folder":"tf","game":"Team Fortress","app_id":440,"player_count":24,"max_players":24,"Bots":0,"server_type":"Dedicated","server_os":"Linux","password":true,"vac":true,"version":"7961495","steam_id":85568392924469982,"keywords":["cp","nocrits","nodmgspread","uncletopia"],"game_id":440,"stv_port":27016,"stv_name":"Uncletopia | Atlanta | 1 | All Maps | STV","players":[{"user_id":308,"name":"Intro Bonito","steam_id":76561198119478838,"connected_time":13611000000000,"state":"active","ping":56},{"user_id":394,"name":"Nyle","steam_id":76561198045652639,"connected_time":2846000000000,"state":"active","ping":115},{"user_id":439,"name":"ATL1 | to4st","steam_id":76561198981009008,"connected_time":938000000000,"state":"active","ping":70},{"user_id":368,"name":"eish","steam_id":76561198089463603,"connected_time":5808000000000,"state":"active","ping":124},{"user_id":328,"name":"ä¹™ä¹™ä¹™ï¼Žï¼Žï¼Ž","steam_id":76561198004144266,"connected_time":9830000000000,"state":"active","ping":150},{"user_id":433,"name":"Toonice","steam_id":76561198402994885,"connected_time":1904000000000,"state":"active","ping":84},{"user_id":443,"name":"dum bnuy","steam_id":76561198170574941,"connected_time":490000000000,"state":"active","ping":65},{"user_id":447,"name":"ðŸŽ„AndreaJinglingðŸŽ„","steam_id":76561198198658783,"connected_time":293000000000,"state":"active","ping":135},{"user_id":434,"name":"HEE HOO DUSTBOWL!","steam_id":76561199389985063,"connected_time":1878000000000,"state":"active","ping":115},{"user_id":398,"name":"baby yoda","steam_id":76561198052588144,"connected_time":2649000000000,"state":"active","ping":75},{"user_id":399,"name":"Hatter","steam_id":76561198010341986,"connected_time":2637000000000,"state":"active","ping":61},{"user_id":370,"name":"joe","steam_id":76561198045781320,"connected_time":5571000000000,"state":"active","ping":67},{"user_id":438,"name":"--_Cook_--","steam_id":76561198080855748,"connected_time":952000000000,"state":"active","ping":49},{"user_id":440,"name":"ash","steam_id":76561198127890645,"connected_time":935000000000,"state":"active","ping":61},{"user_id":346,"name":"lil hog","steam_id":76561199230929836,"connected_time":7881000000000,"state":"active","ping":89},{"user_id":387,"name":"Decolour","steam_id":76561199045608372,"connected_time":4257000000000,"state":"active","ping":71},{"user_id":437,"name":"Chrits","steam_id":76561198072082596,"connected_time":980000000000,"state":"active","ping":90},{"user_id":401,"name":"Isles","steam_id":76561198036162511,"connected_time":2630000000000,"state":"active","ping":66},{"user_id":402,"name":"i love u","steam_id":76561198062768872,"connected_time":2629000000000,"state":"active","ping":105},{"user_id":403,"name":"Plinko","steam_id":76561197968530638,"connected_time":2626000000000,"state":"active","ping":44},{"user_id":442,"name":"Just Frisk808","steam_id":76561198246588288,"connected_time":924000000000,"state":"active","ping":171},{"user_id":391,"name":"Ojen","steam_id":76561197998414482,"connected_time":3594000000000,"state":"active","ping":79},{"user_id":432,"name":"Heathcliff","steam_id":76561198044288534,"connected_time":2080000000000,"state":"active","ping":78},{"user_id":446,"name":"Avo","steam_id":76561197993340494,"connected_time":376000000000,"state":"active","ping":55}]},{"server_id":104,"name":"Uncletopia | Atlanta | 2 | All Maps","name_short":"atl-2","host":"atl-1.us.uncletopia.com","port":27025,"enabled":true,"region":"us-east","cc":"us","latitude":33.753746,"longitude":-84.38633,"reserved":0,"last_update":"0001-01-01T00:00:00Z","name_a2s":"Uncletopia | Atlanta | 2 | All Maps","protocol":17,"map":"pl_borneo","folder":"tf","game":"Team Fortress","app_id":440,"player_count":24,"max_players":24,"Bots":0,"server_type":"Dedicated","server_os":"Linux","password":true,"vac":true,"version":"7961495","steam_id":85568392924469983,"keywords":["nocrits","nodmgspread","payload","uncletopia"],"game_id":440,"stv_port":27026,"stv_name":"Uncletopia | Atlanta | 2 | All Maps | STV","players":[{"user_id":588,"name":"Fried Water?!","steam_id":76561198053164815,"connected_time":6378000000000,"state":"active","ping":66},{"user_id":654,"name":"Rodrick Knee","steam_id":76561198283021062,"connected_time":1003000000000,"state":"active","ping":84},{"user_id":587,"name":"Goldfire","steam_id":76561198061999410,"connected_time":6469000000000,"state":"active","ping":73},{"user_id":574,"name":"Shrebbie","steam_id":76561198875230824,"connected_time":6771000000000,"state":"active","ping":58},{"user_id":660,"name":"FatSweatyBlackMan","steam_id":76561199020244051,"connected_time":52000000000,"state":"active","ping":87},{"user_id":661,"name":"Prsm","steam_id":76561198053344995,"connected_time":37000000000,"state":"active","ping":58},{"user_id":662,"name":"Fever Dreams","steam_id":76561198116614620,"connected_time":12000000000,"state":"active","ping":85},{"user_id":627,"name":"sumerian death metal warrior","steam_id":76561198997380708,"connected_time":2844000000000,"state":"active","ping":106},{"user_id":639,"name":"Tomboy Demon Girl","steam_id":76561198308171954,"connected_time":2290000000000,"state":"active","ping":66},{"user_id":651,"name":"TheAnswer","steam_id":76561198039471743,"connected_time":1248000000000,"state":"active","ping":75},{"user_id":609,"name":"Samrizo el Chorizo","steam_id":76561198009838162,"connected_time":4965000000000,"state":"active","ping":72},{"user_id":648,"name":"D-MROMA","steam_id":76561198837664861,"connected_time":1313000000000,"state":"active","ping":76},{"user_id":581,"name":"Lutz","steam_id":76561198319233787,"connected_time":6643000000000,"state":"active","ping":108},{"user_id":652,"name":"NightSideProductions | AoTR.gg","steam_id":76561198104928747,"connected_time":1231000000000,"state":"active","ping":95},{"user_id":514,"name":"Motreir","steam_id":76561198151717946,"connected_time":9951000000000,"state":"active","ping":75},{"user_id":615,"name":"xFactr","steam_id":76561198129007422,"connected_time":3626000000000,"state":"active","ping":60},{"user_id":630,"name":"Goof!","steam_id":76561198819495430,"connected_time":2684000000000,"state":"active","ping":60},{"user_id":626,"name":"roman","steam_id":76561198170066797,"connected_time":2852000000000,"state":"active","ping":72},{"user_id":655,"name":"alfredodan","steam_id":76561198025011044,"connected_time":926000000000,"state":"active","ping":75},{"user_id":635,"name":"rattlin' bog","steam_id":76561198224551028,"connected_time":2611000000000,"state":"active","ping":77},{"user_id":645,"name":"Hallowedspoon","steam_id":76561199141350399,"connected_time":1690000000000,"state":"active","ping":73},{"user_id":644,"name":"CitationMachine","steam_id":76561199340032458,"connected_time":1765000000000,"state":"active","ping":60},{"user_id":658,"name":"napstagbo","steam_id":76561198119378766,"connected_time":209000000000,"state":"active","ping":147},{"user_id":633,"name":"Fart Huffer","steam_id":76561198094125834,"connected_time":2652000000000,"state":"active","ping":85}]},{"server_id":400,"name":"Uncletopia | Atlanta | 3 | Stopwatch","name_short":"atl-3","host":"atl-1.us.uncletopia.com","port":27035,"enabled":true,"region":"us-east","cc":"us","latitude":33.753746,"longitude":-84.38633,"reserved":0,"last_update":"0001-01-01T00:00:00Z","name_a2s":"Uncletopia | Atlanta | 3 | Stopwatch","protocol":17,"map":"workshop/koth_clearcut_b15.ugc2107050255","folder":"tf","game":"Team Fortress","app_id":440,"player_count":0,"max_players":24,"Bots":0,"server_type":"Dedicated","server_os":"Linux","password":true,"vac":true,"version":"7961495","steam_id":85568392924515187,"keywords":["cp","nocrits","nodmgspread","uncletopia"],"game_id":440,"stv_port":27036,"stv_name":"Uncletopia | Atlanta | 3 | Stopwatch | STV","players":null},{"server_id":401,"name":"Uncletopia | Atlanta | 4 | Community","name_short":"atl-4","host":"atl-1.us.uncletopia.com","port":27045,"enabled":true,"region":"us-east","cc":"us","latitude":33.753746,"longitude":-84.38633,"reserved":0,"last_update":"0001-01-01T00:00:00Z","name_a2s":"Uncletopia | Atlanta | 4 | Community","protocol":17,"map":"workshop/pl_emerge_rc2.ugc888027758","folder":"tf","game":"Team Fortress","app_id":440,"player_count":14,"max_players":24,"Bots":0,"server_type":"Dedicated","server_os":"Linux","password":true,"vac":true,"version":"7961495","steam_id":85568392924515188,"keywords":["nocrits","nodmgspread","payload","uncletopia"],"game_id":440,"stv_port":27046,"stv_name":"Uncletopia | Atlanta | 4 | Community | STV","players":[{"user_id":55,"name":"Fishsick lord","steam_id":76561198887904255,"connected_time":1144000000000,"state":"active","ping":84},{"user_id":56,"name":"GeneralTso","steam_id":76561197976173093,"connected_time":1004000000000,"state":"active","ping":65},{"user_id":68,"name":"nomocantgame","steam_id":76561198865074599,"connected_time":453000000000,"state":"active","ping":145},{"user_id":58,"name":"Dinner","steam_id":76561198067294811,"connected_time":721000000000,"state":"active","ping":58},{"user_id":59,"name":"Greatcascade","steam_id":76561198161218812,"connected_time":675000000000,"state":"active","ping":104},{"user_id":48,"name":"Hipster_Giraffe","steam_id":76561198069701092,"connected_time":1934000000000,"state":"active","ping":86},{"user_id":61,"name":"catrinaisahuman","steam_id":76561198281355729,"connected_time":666000000000,"state":"active","ping":78},{"user_id":71,"name":"The Winter Medic","steam_id":76561198197112922,"connected_time":277000000000,"state":"active","ping":72},{"user_id":74,"name":"gas","steam_id":76561199176290258,"connected_time":40000000000,"state":"spawning","ping":158},{"user_id":62,"name":"buzz","steam_id":76561198107899101,"connected_time":581000000000,"state":"active","ping":76},{"user_id":63,"name":"Froyo Ding Dong","steam_id":76561198379421700,"connected_time":577000000000,"state":"active","ping":75},{"user_id":65,"name":"Chimpo","steam_id":76561198066228209,"connected_time":528000000000,"state":"active","ping":80},{"user_id":66,"name":"speedy756plane","steam_id":76561199010797609,"connected_time":503000000000,"state":"active","ping":69},{"user_id":72,"name":"Silverstar","steam_id":76561198399525329,"connected_time":261000000000,"state":"active","ping":75}]},{"server_id":2,"name":"Uncletopia | Chicago | 1 | All Maps","name_short":"chi-1","host":"chi-1.us.uncletopia.com","port":27015,"enabled":true,"region":"us-central","cc":"us","latitude":41.881832,"longitude":-87.62318,"reserved":0,"last_update":"0001-01-01T00:00:00Z","name_a2s":"Uncletopia | Chicago | 1 | All Maps","protocol":17,"map":"pl_snowycoast","folder":"tf","game":"Team Fortress","app_id":440,"player_count":24,"max_players":24,"Bots":0,"server_type":"Dedicated","server_os":"Linux","password":true,"vac":true,"version":"7961495","steam_id":85568392924469984,"keywords":["nocrits","nodmgspread","payload","uncletopia"],"game_id":440,"stv_port":27016,"stv_name":"Uncletopia | Chicago | 1 | All Maps | STV","players":[{"user_id":633,"name":"Micro","steam_id":76561198319239296,"connected_time":802000000000,"state":"active","ping":132},{"user_id":622,"name":"DragonHaert","steam_id":76561198132516061,"connected_time":2049000000000,"state":"active","ping":65},{"user_id":627,"name":"ankha world","steam_id":76561199080209996,"connected_time":1740000000000,"state":"active","ping":52},{"user_id":637,"name":"Comradical","steam_id":76561197990808285,"connected_time":111000000000,"state":"active","ping":88},{"user_id":626,"name":"Zoot","steam_id":76561198121944243,"connected_time":1755000000000,"state":"active","ping":52},{"user_id":635,"name":"Skip Hop Doo Bop","steam_id":76561199161571849,"connected_time":779000000000,"state":"active","ping":94},{"user_id":636,"name":"Goredude","steam_id":76561198041048764,"connected_time":778000000000,"state":"active","ping":62},{"user_id":592,"name":"MR SKELTAL","steam_id":76561198031089598,"connected_time":3664000000000,"state":"active","ping":74},{"user_id":629,"name":"Duke Skywalker","steam_id":76561199231296521,"connected_time":1700000000000,"state":"active","ping":77},{"user_id":623,"name":"nonagon infinity","steam_id":76561198397662124,"connected_time":2034000000000,"state":"active","ping":91},{"user_id":621,"name":"Lenny Gummy","steam_id":76561198083175190,"connected_time":2138000000000,"state":"active","ping":63},{"user_id":607,"name":"Notsocreative","steam_id":76561198236372202,"connected_time":2992000000000,"state":"active","ping":77},{"user_id":616,"name":"The One True Luke","steam_id":76561198180891187,"connected_time":2187000000000,"state":"active","ping":64},{"user_id":565,"name":".JIFF","steam_id":76561198045181760,"connected_time":6606000000000,"state":"active","ping":62},{"user_id":632,"name":"Irritated Duck","steam_id":76561198247792076,"connected_time":1246000000000,"state":"active","ping":121},{"user_id":630,"name":"Chuggarocks","steam_id":76561198135650120,"connected_time":1699000000000,"state":"active","ping":96},{"user_id":546,"name":"â™¥Bunnyâ™¥Slutâ™¥","steam_id":76561198206376851,"connected_time":9106000000000,"state":"active","ping":90},{"user_id":604,"name":"loscemo","steam_id":76561197994884609,"connected_time":3272000000000,"state":"active","ping":71},{"user_id":619,"name":"Niccole","steam_id":76561198126998695,"connected_time":2166000000000,"state":"active","ping":81},{"user_id":596,"name":"That Guy","steam_id":76561198074138740,"connected_time":3638000000000,"state":"active","ping":85},{"user_id":634,"name":"Coersion","steam_id":76561198242842394,"connected_time":800000000000,"state":"active","ping":75},{"user_id":545,"name":"Ms Twig","steam_id":76561198144111736,"connected_time":9178000000000,"state":"active","ping":50},{"user_id":631,"name":"shaderoses","steam_id":76561198070800500,"connected_time":1265000000000,"state":"active","ping":75},{"user_id":581,"name":"Praise_to_the_Flashlight!","steam_id":76561199001728789,"connected_time":4434000000000,"state":"active","ping":65}]},{"server_id":106,"name":"Uncletopia | Chicago | 2 | All Maps","name_short":"chi-2","host":"chi-1.us.uncletopia.com","port":27025,"enabled":true,"region":"us-central","cc":"us","latitude":41.881832,"longitude":-87.62318,"reserved":0,"last_update":"0001-01-01T00:00:00Z","name_a2s":"Uncletopia | Chicago | 2 | All Maps","protocol":17,"map":"pl_barnblitz","folder":"tf","game":"Team Fortress","app_id":440,"player_count":24,"max_players":24,"Bots":0,"server_type":"Dedicated","server_os":"Linux","password":true,"vac":true,"version":"7961495","steam_id":85568392924469985,"keywords":["nocrits","nodmgspread","payload","uncletopia"],"game_id":440,"stv_port":27026,"stv_name":"Uncletopia | Chicago | 2 | All Maps | STV","players":[{"user_id":655,"name":"Makowako","steam_id":76561199016565502,"connected_time":591000000000,"state":"active","ping":83},{"user_id":632,"name":"skaska4","steam_id":76561198080606141,"connected_time":1288000000000,"state":"active","ping":72},{"user_id":615,"name":"Slime","steam_id":76561198128358144,"connected_time":3283000000000,"state":"active","ping":72},{"user_id":648,"name":"boffo","steam_id":76561198096978718,"connected_time":705000000000,"state":"active","ping":83},{"user_id":649,"name":"ranroll, Ph.D.","steam_id":76561197980733511,"connected_time":685000000000,"state":"active","ping":67},{"user_id":663,"name":"totsnotabot","steam_id":76561198077023364,"connected_time":97000000000,"state":"active","ping":34},{"user_id":660,"name":"Jack \"Hee Ho\" Frost","steam_id":76561198353395198,"connected_time":245000000000,"state":"active","ping":57},{"user_id":629,"name":"loser","steam_id":76561198259380127,"connected_time":1305000000000,"state":"active","ping":60},{"user_id":623,"name":"randomusername","steam_id":76561199078214700,"connected_time":2016000000000,"state":"active","ping":67},{"user_id":637,"name":"[DATSâž¡] Sugar Meowth","steam_id":76561197995251793,"connected_time":1160000000000,"state":"active","ping":90},{"user_id":651,"name":"basilberry","steam_id":76561198145275937,"connected_time":680000000000,"state":"active","ping":112},{"user_id":638,"name":"GarbbCan","steam_id":76561198927509821,"connected_time":1100000000000,"state":"active","ping":129},{"user_id":627,"name":"big steve","steam_id":76561199037050183,"connected_time":1578000000000,"state":"active","ping":83},{"user_id":658,"name":"TheGuyWhoPlays","steam_id":76561198277363002,"connected_time":434000000000,"state":"active","ping":60},{"user_id":616,"name":"Toottoot","steam_id":76561197992404836,"connected_time":2129000000000,"state":"active","ping":46},{"user_id":639,"name":"Misha","steam_id":76561198066174041,"connected_time":1096000000000,"state":"active","ping":67},{"user_id":659,"name":"Wyatt","steam_id":76561199068781227,"connected_time":384000000000,"state":"active","ping":100},{"user_id":654,"name":"august","steam_id":76561198990488551,"connected_time":651000000000,"state":"active","ping":101},{"user_id":656,"name":"MayKaye","steam_id":76561199016092265,"connected_time":581000000000,"state":"active","ping":99},{"user_id":664,"name":"big ol' buford","steam_id":76561198290675957,"connected_time":74000000000,"state":"active","ping":63},{"user_id":645,"name":"chiswola","steam_id":76561198046920142,"connected_time":907000000000,"state":"active","ping":72},{"user_id":646,"name":"ZYNTERLINKED","steam_id":76561198241948526,"connected_time":818000000000,"state":"active","ping":60},{"user_id":610,"name":"cylinder","steam_id":76561197995609787,"connected_time":3838000000000,"state":"active","ping":53},{"user_id":622,"name":"Kick Down Door 6:00AM TUCKâ˜ƒRO","steam_id":76561197976146738,"connected_time":2064000000000,"state":"active","ping":82}]},{"server_id":402,"name":"Uncletopia | Chicago | 3 | All Maps","name_short":"chi-3","host":"chi-1.us.uncletopia.com","port":27035,"enabled":true,"region":"us-central","cc":"us","latitude":41.881832,"longitude":-87.62318,"reserved":0,"last_update":"0001-01-01T00:00:00Z","name_a2s":"Uncletopia | Chicago | 3 | All Maps","protocol":17,"map":"cp_steel","folder":"tf","game":"Team Fortress","app_id":440,"player_count":18,"max_players":24,"Bots":0,"server_type":"Dedicated","server_os":"Linux","password":true,"vac":true,"version":"7961495","steam_id":85568392924515191,"keywords":["cp","nocrits","nodmgspread","uncletopia"],"game_id":440,"stv_port":27036,"stv_name":"Uncletopia | Chicago | 3 | All Maps | STV","players":[{"user_id":672,"name":"custodian","steam_id":76561198058793778,"connected_time":1178000000000,"state":"active","ping":73},{"user_id":693,"name":"Ordinary White Salaryman","steam_id":76561198202589758,"connected_time":118000000000,"state":"active","ping":70},{"user_id":689,"name":"Anderan","steam_id":76561197989776492,"connected_time":303000000000,"state":"active","ping":61},{"user_id":675,"name":"sonikro","steam_id":76561197989428692,"connected_time":1052000000000,"state":"active","ping":52},{"user_id":687,"name":"TheGrassMan (He/Him)","steam_id":76561198118984048,"connected_time":628000000000,"state":"active","ping":64},{"user_id":679,"name":"Colin102004","steam_id":76561198202384334,"connected_time":865000000000,"state":"active","ping":50},{"user_id":694,"name":"Tectonic11","steam_id":76561198061169359,"connected_time":112000000000,"state":"active","ping":59},{"user_id":661,"name":"idk","steam_id":76561199488457138,"connected_time":1530000000000,"state":"active","ping":101},{"user_id":696,"name":"i vape vitamin E","steam_id":76561199047924688,"connected_time":55000000000,"state":"active","ping":59},{"user_id":697,"name":"SpaceLTN","steam_id":76561198027591265,"connected_time":47000000000,"state":"active","ping":83},{"user_id":698,"name":"oppenheimer style","steam_id":76561198026664629,"connected_time":47000000000,"state":"active","ping":49},{"user_id":691,"name":"Marky92","steam_id":76561198044796178,"connected_time":261000000000,"state":"active","ping":65},{"user_id":699,"name":"Ghasifastliest Gibus","steam_id":76561198053935722,"connected_time":45000000000,"state":"active","ping":118},{"user_id":700,"name":"leonardo doujinshi","steam_id":76561198025810326,"connected_time":36000000000,"state":"active","ping":48},{"user_id":701,"name":"Tideflat","steam_id":76561198179850851,"connected_time":24000000000,"state":"active","ping":99},{"user_id":644,"name":"New Moon on Monday","steam_id":76561198007647353,"connected_time":3001000000000,"state":"active","ping":74},{"user_id":653,"name":"Carpet enthusiast","steam_id":76561198024040142,"connected_time":2102000000000,"state":"active","ping":89},{"user_id":654,"name":"ThatOneKnight","steam_id":76561198388583650,"connected_time":2057000000000,"state":"active","ping":54}]},{"server_id":403,"name":"Uncletopia | Chicago | 4 | All Maps","name_short":"chi-4","host":"chi-1.us.uncletopia.com","port":27045,"enabled":true,"region":"us-central","cc":"us","latitude":41.881832,"longitude":-87.62318,"reserved":0,"last_update":"0001-01-01T00:00:00Z","name_a2s":"Uncletopia | Chicago | 4 | All Maps","protocol":17,"map":"pl_badwater","folder":"tf","game":"Team Fortress","app_id":440,"player_count":24,"max_players":24,"Bots":0,"server_type":"Dedicated","server_os":"Linux","password":true,"vac":true,"version":"7961495","steam_id":85568392924515193,"keywords":["nocrits","nodmgspread","payload","uncletopia"],"game_id":440,"stv_port":27046,"stv_name":"Uncletopia | Chicago | 4 | All Maps | STV","players":[{"user_id":616,"name":"Jiggles","steam_id":76561198062014279,"connected_time":1827000000000,"state":"active","ping":53},{"user_id":612,"name":"Diarrhea Daniel","steam_id":76561198930116758,"connected_time":2119000000000,"state":"active","ping":78},{"user_id":626,"name":"dr.sex","steam_id":76561198218497904,"connected_time":487000000000,"state":"active","ping":88},{"user_id":622,"name":"stubbystubby","steam_id":76561198066034868,"connected_time":1459000000000,"state":"active","ping":60},{"user_id":613,"name":"the real liam john","steam_id":76561198170840838,"connected_time":2102000000000,"state":"active","ping":76},{"user_id":623,"name":"Pizza Party","steam_id":76561198165730754,"connected_time":1287000000000,"state":"active","ping":81},{"user_id":557,"name":"liam john","steam_id":76561198243965308,"connected_time":4923000000000,"state":"active","ping":69},{"user_id":610,"name":"Mr.Wiffles","steam_id":76561198065608695,"connected_time":2126000000000,"state":"active","ping":79},{"user_id":558,"name":"sooty","steam_id":76561198830243167,"connected_time":4906000000000,"state":"active","ping":98},{"user_id":601,"name":"SpockASD","steam_id":76561198307516731,"connected_time":3185000000000,"state":"active","ping":85},{"user_id":559,"name":"TheSpy","steam_id":76561198997837361,"connected_time":4898000000000,"state":"active","ping":57},{"user_id":629,"name":"Rat McRattington The 2nd","steam_id":76561198119384188,"connected_time":53000000000,"state":"active","ping":62},{"user_id":602,"name":"Dead Face","steam_id":76561198857643139,"connected_time":3147000000000,"state":"active","ping":56},{"user_id":617,"name":"for the king","steam_id":76561197973488858,"connected_time":1813000000000,"state":"active","ping":60},{"user_id":603,"name":"totally not a pile of beans","steam_id":76561198119851931,"connected_time":3128000000000,"state":"active","ping":85},{"user_id":625,"name":"Hashslinging Slasher","steam_id":76561198099015430,"connected_time":695000000000,"state":"active","ping":126},{"user_id":608,"name":"butterthoughts","steam_id":76561198025120284,"connected_time":2392000000000,"state":"active","ping":76},{"user_id":618,"name":"captainskullet","steam_id":76561198314597170,"connected_time":1804000000000,"state":"active","ping":69},{"user_id":624,"name":"Alice in Rubberland","steam_id":76561198087328346,"connected_time":888000000000,"state":"active","ping":45},{"user_id":563,"name":"Buckler","steam_id":76561197969421355,"connected_time":4102000000000,"state":"active","ping":71},{"user_id":621,"name":"Crisp","steam_id":76561198132644084,"connected_time":1555000000000,"state":"active","ping":70},{"user_id":628,"name":"Charlie","steam_id":76561199098209171,"connected_time":101000000000,"state":"active","ping":76},{"user_id":565,"name":"MedRedâ„¢ #IATAH","steam_id":76561198002962970,"connected_time":3965000000000,"state":"active","ping":95},{"user_id":551,"name":"barnblitz can ChokeMyChucklenut","steam_id":76561198882404753,"connected_time":5165000000000,"state":"active","ping":82}]},{"server_id":36,"name":"Uncletopia | Chicago | 5 | All Maps","name_short":"chi-5","host":"chi-2.us.uncletopia.com","port":27015,"enabled":true,"region":"us-central","cc":"us","latitude":41.881832,"longitude":-87.62318,"reserved":0,"last_update":"0001-01-01T00:00:00Z","name_a2s":"Uncletopia | Chicago | 5 | All Maps","protocol":17,"map":"cp_powerhouse","folder":"tf","game":"Team Fortress","app_id":440,"player_count":24,"max_players":24,"Bots":0,"server_type":"Dedicated","server_os":"Linux","password":true,"vac":true,"version":"7961495","steam_id":85568392924866362,"keywords":["cp","nocrits","nodmgspread","uncletopia"],"game_id":440,"stv_port":27016,"stv_name":"Uncletopia | Chicago | 5 | All Maps | STV","players":[{"user_id":343,"name":"Propaniac Gaming â˜‘","steam_id":76561198133963270,"connected_time":5282000000000,"state":"active","ping":60},{"user_id":398,"name":"Rex","steam_id":76561199202314441,"connected_time":1449000000000,"state":"active","ping":86},{"user_id":411,"name":"OniSlays","steam_id":76561198043875292,"connected_time":538000000000,"state":"active","ping":108},{"user_id":384,"name":"superx","steam_id":76561198044976613,"connected_time":2413000000000,"state":"active","ping":72},{"user_id":413,"name":"BoopBerry","steam_id":76561198871571711,"connected_time":448000000000,"state":"active","ping":63},{"user_id":391,"name":"alphanerd2","steam_id":76561198029109358,"connected_time":1749000000000,"state":"active","ping":72},{"user_id":400,"name":"helikopter","steam_id":76561198881026292,"connected_time":1423000000000,"state":"active","ping":76},{"user_id":425,"name":"CRYPTO SCENT WITH A DANK MUSK","steam_id":76561198238639174,"connected_time":148000000000,"state":"active","ping":98},{"user_id":414,"name":"scrapheap","steam_id":76561198202407087,"connected_time":426000000000,"state":"active","ping":85},{"user_id":408,"name":"Koopinator","steam_id":76561198135747412,"connected_time":1037000000000,"state":"active","ping":67},{"user_id":370,"name":"Person","steam_id":76561198093244204,"connected_time":3225000000000,"state":"active","ping":75},{"user_id":422,"name":"Dieu-Sama","steam_id":76561198002075862,"connected_time":214000000000,"state":"active","ping":91},{"user_id":412,"name":"The Goose","steam_id":76561199006093549,"connected_time":469000000000,"state":"active","ping":72},{"user_id":381,"name":"The Doc K","steam_id":76561198035695029,"connected_time":2693000000000,"state":"active","ping":94},{"user_id":421,"name":"Andy","steam_id":76561198043115724,"connected_time":232000000000,"state":"active","ping":90},{"user_id":396,"name":"Chairman Meow","steam_id":76561198107795169,"connected_time":1519000000000,"state":"active","ping":113},{"user_id":386,"name":"WhoIsFrosty","steam_id":76561198880588117,"connected_time":2392000000000,"state":"active","ping":53},{"user_id":352,"name":"roast pig with apple in mouth","steam_id":76561198051353647,"connected_time":4851000000000,"state":"active","ping":62},{"user_id":423,"name":"stick","steam_id":76561198049489094,"connected_time":210000000000,"state":"active","ping":56},{"user_id":401,"name":"Sleepy","steam_id":76561198979389459,"connected_time":1405000000000,"state":"active","ping":66},{"user_id":375,"name":"Malevo","steam_id":76561198148606522,"connected_time":3173000000000,"state":"active","ping":82},{"user_id":405,"name":"[S]Mr. X [No Monitor]","steam_id":76561197963746035,"connected_time":1252000000000,"state":"active","ping":133},{"user_id":387,"name":"PrivateBattery","steam_id":76561198199124362,"connected_time":2317000000000,"state":"active","ping":89},{"user_id":424,"name":"Ä 1 â™¦ Synth","steam_id":76561198058660228,"connected_time":194000000000,"state":"active","ping":60}]},{"server_id":37,"name":"Uncletopia | Chicago | 6 | All Maps","name_short":"chi-6","host":"chi-2.us.uncletopia.com","port":27025,"enabled":true,"region":"us-central","cc":"us","latitude":41.881832,"longitude":-87.62318,"reserved":0,"last_update":"0001-01-01T00:00:00Z","name_a2s":"Uncletopia | Chicago | 6 | All Maps","protocol":17,"map":"ctf_2fort","folder":"tf","game":"Team Fortress","app_id":440,"player_count":23,"max_players":24,"Bots":0,"server_type":"Dedicated","server_os":"Linux","password":true,"vac":true,"version":"7961495","steam_id":85568392924866363,"keywords":["ctf","nocrits","nodmgspread","uncletopia"],"game_id":440,"stv_port":27026,"stv_name":"Uncletopia | Chicago | 6 | All Maps | STV","players":[{"user_id":681,"name":"ColbertDolbert?","steam_id":76561198299613842,"connected_time":2679000000000,"state":"active","ping":83},{"user_id":709,"name":"Sconedog04","steam_id":76561198410923783,"connected_time":731000000000,"state":"active","ping":66},{"user_id":654,"name":"Jinx728","steam_id":76561198849121429,"connected_time":5448000000000,"state":"active","ping":109},{"user_id":682,"name":"Gunspy","steam_id":76561198857930004,"connected_time":2663000000000,"state":"active","ping":113},{"user_id":712,"name":"620000 ants in a trenchcoat","steam_id":76561198372756992,"connected_time":674000000000,"state":"active","ping":101},{"user_id":622,"name":"King of the Rats?","steam_id":76561199241666347,"connected_time":8218000000000,"state":"active","ping":81},{"user_id":723,"name":"Catdog32","steam_id":76561198113364714,"connected_time":57000000000,"state":"active","ping":60},{"user_id":697,"name":"RiflingShotgun","steam_id":76561198288209651,"connected_time":955000000000,"state":"active","ping":51},{"user_id":631,"name":"DroidFreak36","steam_id":76561198028681032,"connected_time":8127000000000,"state":"active","ping":54},{"user_id":719,"name":"hud_saytext_time 0","steam_id":76561198010327228,"connected_time":203000000000,"state":"active","ping":187},{"user_id":699,"name":"uneducated guess","steam_id":76561198140846580,"connected_time":930000000000,"state":"active","ping":60},{"user_id":713,"name":"Dalburgh","steam_id":76561198044331017,"connected_time":570000000000,"state":"active","ping":71},{"user_id":668,"name":"Glaceon","steam_id":76561199105340087,"connected_time":4634000000000,"state":"active","ping":88},{"user_id":678,"name":"Tauterstar","steam_id":76561198132642840,"connected_time":3459000000000,"state":"active","ping":87},{"user_id":708,"name":"i play random (no audio)","steam_id":76561199468748840,"connected_time":797000000000,"state":"active","ping":76},{"user_id":630,"name":"Spicy Chicken","steam_id":76561198074209737,"connected_time":8138000000000,"state":"active","ping":67},{"user_id":693,"name":"Dirty30Curry","steam_id":76561199071534005,"connected_time":1163000000000,"state":"active","ping":62},{"user_id":716,"name":"Phos","steam_id":76561198122339506,"connected_time":305000000000,"state":"active","ping":73},{"user_id":711,"name":"jordanddean2016","steam_id":76561198323772677,"connected_time":704000000000,"state":"active","ping":103},{"user_id":717,"name":"Data","steam_id":76561197996329548,"connected_time":302000000000,"state":"active","ping":70},{"user_id":721,"name":":)","steam_id":76561198079892116,"connected_time":115000000000,"state":"active","ping":49},{"user_id":722,"name":"orangesuit1","steam_id":76561199020443017,"connected_time":86000000000,"state":"active","ping":117},{"user_id":714,"name":"Alejandro","steam_id":76561197970051493,"connected_time":552000000000,"state":"active","ping":115}]},{"server_id":38,"name":"Uncletopia | Chicago | 7 | Stopwatch","name_short":"chi-7","host":"chi-2.us.uncletopia.com","port":27035,"enabled":true,"region":"us-central","cc":"us","latitude":41.881832,"longitude":-87.62318,"reserved":0,"last_update":"0001-01-01T00:00:00Z","name_a2s":"Uncletopia | Chicago | 7 | Stopwatch","protocol":17,"map":"workshop/koth_product_final.ugc454272353","folder":"tf","game":"Team Fortress","app_id":440,"player_count":24,"max_players":24,"Bots":0,"server_type":"Dedicated","server_os":"Linux","password":true,"vac":true,"version":"7961495","steam_id":85568392924866364,"keywords":["cp","nocrits","nodmgspread","uncletopia"],"game_id":440,"stv_port":27036,"stv_name":"Uncletopia | Chicago | 7 | Stopwatch | STV","players":[{"user_id":321,"name":"Smoky Haus","steam_id":76561199040586542,"connected_time":4401000000000,"state":"active","ping":76},{"user_id":380,"name":"eryn ðŸ—º","steam_id":76561198004433070,"connected_time":197000000000,"state":"active","ping":86},{"user_id":345,"name":"Borken_Amy","steam_id":76561197974515208,"connected_time":2856000000000,"state":"active","ping":65},{"user_id":375,"name":"Eiss","steam_id":76561198343183806,"connected_time":610000000000,"state":"active","ping":74},{"user_id":347,"name":"Sergeant_Umbreon","steam_id":76561198084188758,"connected_time":2757000000000,"state":"active","ping":102},{"user_id":342,"name":"A Good Boy","steam_id":76561198066998594,"connected_time":3052000000000,"state":"active","ping":88},{"user_id":343,"name":"Eustace \"CA$H MONEY\" Bagge","steam_id":76561198154022811,"connected_time":3045000000000,"state":"active","ping":79},{"user_id":286,"name":"Red_Hatkins","steam_id":76561198214004105,"connected_time":5900000000000,"state":"active","ping":87},{"user_id":361,"name":"TheVestige","steam_id":76561198050389803,"connected_time":1420000000000,"state":"active","ping":93},{"user_id":348,"name":"Some_Arse","steam_id":76561198039095394,"connected_time":2741000000000,"state":"active","ping":62},{"user_id":353,"name":"Gibs Degrossi","steam_id":76561198066152609,"connected_time":2622000000000,"state":"active","ping":55},{"user_id":374,"name":"Glover Speedrunner","steam_id":76561198015154311,"connected_time":623000000000,"state":"active","ping":51},{"user_id":358,"name":"spurdala","steam_id":76561198886546942,"connected_time":1524000000000,"state":"active","ping":162},{"user_id":377,"name":"oh god i'm gonna CHUM","steam_id":76561198019210187,"connected_time":485000000000,"state":"active","ping":60},{"user_id":349,"name":"Forty-Bot","steam_id":76561198076693960,"connected_time":2719000000000,"state":"active","ping":60},{"user_id":378,"name":"wise","steam_id":76561198030066204,"connected_time":442000000000,"state":"active","ping":58},{"user_id":370,"name":"Chunky Salmon Bites (Pack of 24","steam_id":76561198123530264,"connected_time":1042000000000,"state":"active","ping":90},{"user_id":379,"name":"MR MODE","steam_id":76561198046775352,"connected_time":389000000000,"state":"active","ping":90},{"user_id":338,"name":"Conrad Murray","steam_id":76561198141682876,"connected_time":3291000000000,"state":"active","ping":86},{"user_id":372,"name":"Little Skull Boi","steam_id":76561198093595888,"connected_time":866000000000,"state":"active","ping":97},{"user_id":373,"name":"Rayleigh Scattering","steam_id":76561198033103202,"connected_time":861000000000,"state":"active","ping":77},{"user_id":381,"name":"Majestic-A","steam_id":76561198988062101,"connected_time":163000000000,"state":"active","ping":88},{"user_id":352,"name":"kritik","steam_id":76561198075216115,"connected_time":2694000000000,"state":"active","ping":157},{"user_id":314,"name":"dyson","steam_id":76561199081837220,"connected_time":4957000000000,"state":"active","ping":77}]},{"server_id":39,"name":"Uncletopia | Chicago | 8 | Community","name_short":"chi-8","host":"chi-2.us.uncletopia.com","port":27045,"enabled":true,"region":"us-central","cc":"us","latitude":41.881832,"longitude":-87.62318,"reserved":0,"last_update":"0001-01-01T00:00:00Z","name_a2s":"Uncletopia | Chicago | 8 | Community","protocol":17,"map":"workshop/koth_kemptown_rc1.ugc767410655","folder":"tf","game":"Team Fortress","app_id":440,"player_count":5,"max_players":24,"Bots":0,"server_type":"Dedicated","server_os":"Linux","password":true,"vac":true,"version":"7961495","steam_id":85568392924866365,"keywords":["cp","nocrits","nodmgspread","uncletopia"],"game_id":440,"stv_port":27046,"stv_name":"Uncletopia | Chicago | 8 | Community | STV","players":[{"user_id":40,"name":"WaldyrH","steam_id":76561199185989504,"connected_time":689000000000,"state":"active","ping":180},{"user_id":28,"name":"TrenchcoatCraig","steam_id":76561198295599533,"connected_time":3123000000000,"state":"active","ping":48},{"user_id":31,"name":"God's Drunkest Driver","steam_id":76561199174579733,"connected_time":1480000000000,"state":"active","ping":71},{"user_id":37,"name":"gideon nav my beloved","steam_id":76561198259092181,"connected_time":916000000000,"state":"active","ping":63},{"user_id":38,"name":"carbuzz","steam_id":76561198129361580,"connected_time":795000000000,"state":"active","ping":183}]},{"server_id":8,"name":"Uncletopia | Dallas | 1 | All Maps","name_short":"dal-1","host":"dal-1.us.uncletopia.com","port":27015,"enabled":true,"region":"us-central","cc":"us","latitude":32.779167,"longitude":-96.80889,"reserved":0,"last_update":"0001-01-01T00:00:00Z","name_a2s":"Uncletopia | Dallas | 1 | All Maps","protocol":17,"map":"pl_borneo","folder":"tf","game":"Team Fortress","app_id":440,"player_count":24,"max_players":24,"Bots":0,"server_type":"Dedicated","server_os":"Linux","password":true,"vac":true,"version":"7961495","steam_id":85568392924469986,"keywords":["nocrits","nodmgspread","payload","uncletopia"],"game_id":440,"stv_port":27016,"stv_name":"Uncletopia | Dallas | 1 | All Maps | STV","players":[{"user_id":503,"name":"Insizhen","steam_id":76561198051352605,"connected_time":4576000000000,"state":"active","ping":57},{"user_id":548,"name":"LampMan","steam_id":76561198079857527,"connected_time":1264000000000,"state":"active","ping":55},{"user_id":555,"name":"Kng","steam_id":76561198993248203,"connected_time":746000000000,"state":"active","ping":76},{"user_id":545,"name":"ninety9dragonfly","steam_id":76561198363406983,"connected_time":1487000000000,"state":"active","ping":96},{"user_id":537,"name":"Justy","steam_id":76561198044014069,"connected_time":2084000000000,"state":"active","ping":62},{"user_id":556,"name":"Bennet","steam_id":76561198194582382,"connected_time":740000000000,"state":"active","ping":73},{"user_id":559,"name":"Woody","steam_id":76561198020308956,"connected_time":450000000000,"state":"active","ping":61},{"user_id":508,"name":"Kenny McCormick Gaming","steam_id":76561199030808544,"connected_time":4169000000000,"state":"active","ping":141},{"user_id":557,"name":"Voodo133","steam_id":76561198042670351,"connected_time":735000000000,"state":"active","ping":101},{"user_id":535,"name":"Baby gaming","steam_id":76561198867319323,"connected_time":2262000000000,"state":"active","ping":87},{"user_id":560,"name":"Bigfoot ate my ass","steam_id":76561198071605190,"connected_time":286000000000,"state":"active","ping":77},{"user_id":558,"name":"CHIKN","steam_id":76561198277792665,"connected_time":723000000000,"state":"active","ping":84},{"user_id":541,"name":"booper_101","steam_id":76561198003712162,"connected_time":1931000000000,"state":"active","ping":99},{"user_id":519,"name":"Who","steam_id":76561198013049671,"connected_time":3668000000000,"state":"active","ping":86},{"user_id":544,"name":"Jamie Hyneman","steam_id":76561199196036481,"connected_time":1823000000000,"state":"active","ping":63},{"user_id":552,"name":"TrueGuardian32.kick","steam_id":76561198149985253,"connected_time":775000000000,"state":"active","ping":50},{"user_id":533,"name":"nugit74","steam_id":76561198325736178,"connected_time":2377000000000,"state":"active","ping":59},{"user_id":513,"name":"RocketRabbit","steam_id":76561198803062131,"connected_time":3763000000000,"state":"active","ping":61},{"user_id":553,"name":"+","steam_id":76561198262422184,"connected_time":768000000000,"state":"active","ping":52},{"user_id":495,"name":"I drop babies on purpose","steam_id":76561199013178464,"connected_time":5524000000000,"state":"active","ping":55},{"user_id":549,"name":"Arthur SSJ2","steam_id":76561198043678479,"connected_time":1250000000000,"state":"active","ping":58},{"user_id":543,"name":"lker","steam_id":76561197976975075,"connected_time":1883000000000,"state":"active","ping":60},{"user_id":478,"name":"Ballista","steam_id":76561197983182562,"connected_time":6810000000000,"state":"active","ping":60},{"user_id":554,"name":"Giselle","steam_id":76561198162593640,"connected_time":768000000000,"state":"active","ping":112}]},{"server_id":108,"name":"Uncletopia | Dallas | 2 | All Maps","name_short":"dal-2","host":"dal-1.us.uncletopia.com","port":27025,"enabled":true,"region":"us-central","cc":"us","latitude":32.779167,"longitude":-96.80889,"reserved":0,"last_update":"0001-01-01T00:00:00Z","name_a2s":"Uncletopia | Dallas | 2 | All Maps","protocol":17,"map":"pl_upward","folder":"tf","game":"Team Fortress","app_id":440,"player_count":24,"max_players":24,"Bots":0,"server_type":"Dedicated","server_os":"Linux","password":true,"vac":true,"version":"7961495","steam_id":85568392924469988,"keywords":["nocrits","nodmgspread","payload","uncletopia"],"game_id":440,"stv_port":27026,"stv_name":"Uncletopia | Dallas | 2 | All Maps | STV","players":[{"user_id":624,"name":"Noisgamer02","steam_id":76561198129665722,"connected_time":2111000000000,"state":"active","ping":54},{"user_id":612,"name":"ThatScarfDude #NekoIsLife","steam_id":76561198140963271,"connected_time":3574000000000,"state":"active","ping":87},{"user_id":602,"name":"Azellea","steam_id":76561198187167935,"connected_time":3858000000000,"state":"active","ping":97},{"user_id":629,"name":"Ayylmao","steam_id":76561198104780147,"connected_time":1882000000000,"state":"active","ping":61},{"user_id":648,"name":"Splash","steam_id":76561198271994269,"connected_time":35000000000,"state":"active","ping":74},{"user_id":627,"name":"Major Woody","steam_id":76561198835541533,"connected_time":2066000000000,"state":"active","ping":59},{"user_id":645,"name":"Poundcake","steam_id":76561198042196918,"connected_time":253000000000,"state":"active","ping":102},{"user_id":649,"name":"Chanchito Perrito","steam_id":76561198076338104,"connected_time":19000000000,"state":"active","ping":83},{"user_id":579,"name":"BOT Orion","steam_id":76561198196185509,"connected_time":5950000000000,"state":"active","ping":56},{"user_id":621,"name":"Angel Dust","steam_id":76561198128155673,"connected_time":2278000000000,"state":"active","ping":62},{"user_id":644,"name":"firefly","steam_id":76561198151308698,"connected_time":423000000000,"state":"active","ping":48},{"user_id":559,"name":"renault twingo","steam_id":76561198004400850,"connected_time":6683000000000,"state":"active","ping":60},{"user_id":643,"name":"SomeScuffedKid","steam_id":76561198086113234,"connected_time":513000000000,"state":"active","ping":88},{"user_id":622,"name":"quite the notorious scoundrel","steam_id":76561198163993775,"connected_time":2268000000000,"state":"active","ping":159},{"user_id":641,"name":"water bottle","steam_id":76561198096860013,"connected_time":875000000000,"state":"active","ping":89},{"user_id":620,"name":"Stick","steam_id":76561198987222560,"connected_time":2389000000000,"state":"active","ping":69},{"user_id":642,"name":"Commodore","steam_id":76561198042112852,"connected_time":590000000000,"state":"active","ping":83},{"user_id":568,"name":"GoldtoothFour","steam_id":76561198055529332,"connected_time":6595000000000,"state":"active","ping":74},{"user_id":647,"name":"moomin","steam_id":76561198336244269,"connected_time":105000000000,"state":"active","ping":100},{"user_id":625,"name":"Get out of here, Stalker.","steam_id":76561198066566813,"connected_time":2108000000000,"state":"active","ping":111},{"user_id":609,"name":"Hunntey","steam_id":76561198093106693,"connected_time":3740000000000,"state":"active","ping":41},{"user_id":601,"name":"Schimzyâ„¢","steam_id":76561198806151423,"connected_time":4088000000000,"state":"active","ping":85},{"user_id":633,"name":"Jeremy","steam_id":76561198283977979,"connected_time":1609000000000,"state":"active","ping":97},{"user_id":628,"name":"gooch_masta","steam_id":76561198151578423,"connected_time":1955000000000,"state":"active","ping":84}]},{"server_id":404,"name":"Uncletopia | Dallas | 3 | All Maps","name_short":"dal-3","host":"dal-1.us.uncletopia.com","port":27035,"enabled":true,"region":"us-central","cc":"us","latitude":32.779167,"longitude":-96.80889,"reserved":0,"last_update":"0001-01-01T00:00:00Z","name_a2s":"Uncletopia | Dallas | 3 | All Maps","protocol":17,"map":"pl_badwater","folder":"tf","game":"Team Fortress","app_id":440,"player_count":24,"max_players":24,"Bots":0,"server_type":"Dedicated","server_os":"Linux","password":true,"vac":true,"version":"7961495","steam_id":85568392924515219,"keywords":["nocrits","nodmgspread","payload","uncletopia"],"game_id":440,"stv_port":27036,"stv_name":"Uncletopia | Dallas | 3 | All Maps | STV","players":[{"user_id":455,"name":"Shitty Pilot","steam_id":76561198042723469,"connected_time":330000000000,"state":"active","ping":59},{"user_id":412,"name":"the keebler","steam_id":76561199486326945,"connected_time":3328000000000,"state":"active","ping":76},{"user_id":453,"name":"TheMightyGod","steam_id":76561198220055968,"connected_time":372000000000,"state":"active","ping":62},{"user_id":391,"name":"cycoone","steam_id":76561198059745285,"connected_time":4941000000000,"state":"active","ping":84},{"user_id":409,"name":"myon","steam_id":76561197992528570,"connected_time":3365000000000,"state":"active","ping":166},{"user_id":368,"name":"f0xh0le 0ne","steam_id":76561199471269566,"connected_time":6760000000000,"state":"active","ping":48},{"user_id":390,"name":"larguu","steam_id":76561197994336210,"connected_time":5192000000000,"state":"active","ping":74},{"user_id":449,"name":"Marc Antony","steam_id":76561198011366517,"connected_time":1078000000000,"state":"active","ping":73},{"user_id":441,"name":"heavy weapons \"guy\"","steam_id":76561198151135298,"connected_time":1278000000000,"state":"active","ping":61},{"user_id":432,"name":"Metbol","steam_id":76561198001362410,"connected_time":1638000000000,"state":"active","ping":63},{"user_id":456,"name":"rAnch","steam_id":76561198024562587,"connected_time":55000000000,"state":"active","ping":39},{"user_id":458,"name":"A Shiny Meat Bicycle","steam_id":76561198358757709,"connected_time":34000000000,"state":"active","ping":91},{"user_id":442,"name":"doughboy","steam_id":76561198219012928,"connected_time":1266000000000,"state":"active","ping":75},{"user_id":447,"name":"uzr","steam_id":76561198799343084,"connected_time":1214000000000,"state":"active","ping":77},{"user_id":459,"name":"â˜¢(XJ)","steam_id":76561198102189618,"connected_time":26000000000,"state":"active","ping":65},{"user_id":460,"name":"jorjor wells","steam_id":76561199073429082,"connected_time":5000000000,"state":"spawning","ping":74},{"user_id":454,"name":"Jennifer Aniston's Nipples","steam_id":76561198086107548,"connected_time":353000000000,"state":"active","ping":45},{"user_id":437,"name":"Train Conductor","steam_id":76561198058605649,"connected_time":1428000000000,"state":"active","ping":47},{"user_id":445,"name":"skellymabob with a knife","steam_id":76561198015526166,"connected_time":1256000000000,"state":"active","ping":84},{"user_id":457,"name":"batheman63","steam_id":76561198881818552,"connected_time":54000000000,"state":"active","ping":105},{"user_id":426,"name":"\"Soldier\"","steam_id":76561199446367874,"connected_time":2400000000000,"state":"active","ping":54},{"user_id":361,"name":"Yongle","steam_id":76561198068591156,"connected_time":7689000000000,"state":"active","ping":76},{"user_id":436,"name":"The_Skull_boy","steam_id":76561198227692664,"connected_time":1597000000000,"state":"active","ping":86},{"user_id":367,"name":"Gaius Octavius","steam_id":76561198040455711,"connected_time":6919000000000,"state":"active","ping":69}]},{"server_id":405,"name":"Uncletopia | Dallas | 4 | Community","name_short":"dal-4","host":"dal-1.us.uncletopia.com","port":27045,"enabled":true,"region":"us-central","cc":"us","latitude":32.779167,"longitude":-96.80889,"reserved":0,"last_update":"0001-01-01T00:00:00Z","name_a2s":"Uncletopia | Dallas | 4 | Community","protocol":17,"map":"workshop/koth_slaughter_rc1.ugc1712845210","folder":"tf","game":"Team Fortress","app_id":440,"player_count":0,"max_players":24,"Bots":0,"server_type":"Dedicated","server_os":"Linux","password":true,"vac":true,"version":"7961495","steam_id":85568392924515220,"keywords":["cp","nocrits","nodmgspread","uncletopia"],"game_id":440,"stv_port":27046,"stv_name":"Uncletopia | Dallas | 4 | Community | STV","players":null},{"server_id":5,"name":"Uncletopia | Frankfurt | 1 | All Maps","name_short":"frk-1","host":"frk-1.de.uncletopia.com","port":27015,"enabled":true,"region":"eu","cc":"de","latitude":50.110924,"longitude":8.682127,"reserved":0,"last_update":"0001-01-01T00:00:00Z","name_a2s":"Uncletopia | Frankfurt | 1 | All Maps","protocol":17,"map":"koth_lakeside_final","folder":"tf","game":"Team Fortress","app_id":440,"player_count":0,"max_players":24,"Bots":0,"server_type":"Dedicated","server_os":"Linux","password":true,"vac":true,"version":"7961495","steam_id":85568392924469989,"keywords":["cp","nocrits","nodmgspread","uncletopia"],"game_id":440,"stv_port":27016,"stv_name":"Uncletopia | Frankfurt | 1 | All Maps | STV","players":null},{"server_id":110,"name":"Uncletopia | Frankfurt | 2 | All Maps","name_short":"frk-2","host":"frk-1.de.uncletopia.com","port":27025,"enabled":true,"region":"eu","cc":"de","latitude":50.110924,"longitude":8.682127,"reserved":0,"last_update":"0001-01-01T00:00:00Z","name_a2s":"Uncletopia | Frankfurt | 2 | All Maps","protocol":17,"map":"cp_mountainlab","folder":"tf","game":"Team Fortress","app_id":440,"player_count":0,"max_players":24,"Bots":0,"server_type":"Dedicated","server_os":"Linux","password":true,"vac":true,"version":"7961495","steam_id":85568392924469990,"keywords":["cp","nocrits","nodmgspread","uncletopia"],"game_id":440,"stv_port":27026,"stv_name":"Uncletopia | Frankfurt | 2 | All Maps | STV","players":null},{"server_id":308,"name":"Uncletopia | Frankfurt | 3 | All Maps","name_short":"frk-3","host":"frk-1.de.uncletopia.com","port":27035,"enabled":true,"region":"eu","cc":"de","latitude":50.110924,"longitude":8.682127,"reserved":0,"last_update":"0001-01-01T00:00:00Z","name_a2s":"Uncletopia | Frankfurt | 3 | All Maps","protocol":17,"map":"cp_dustbowl","folder":"tf","game":"Team Fortress","app_id":440,"player_count":0,"max_players":24,"Bots":0,"server_type":"Dedicated","server_os":"Linux","password":true,"vac":true,"version":"7961495","steam_id":85568392924504274,"keywords":["cp","nocrits","nodmgspread","uncletopia"],"game_id":440,"stv_port":27036,"stv_name":"Uncletopia | Frankfurt | 3 | All Maps | STV","players":null},{"server_id":309,"name":"Uncletopia | Frankfurt | 4 | All Maps","name_short":"frk-4","host":"frk-1.de.uncletopia.com","port":27045,"enabled":true,"region":"eu","cc":"de","latitude":50.110924,"longitude":8.682127,"reserved":0,"last_update":"0001-01-01T00:00:00Z","name_a2s":"Uncletopia | Frankfurt | 4 | All Maps","protocol":17,"map":"koth_viaduct","folder":"tf","game":"Team Fortress","app_id":440,"player_count":0,"max_players":24,"Bots":0,"server_type":"Dedicated","server_os":"Linux","password":true,"vac":true,"version":"7961495","steam_id":85568392924504275,"keywords":["cp","nocrits","nodmgspread","uncletopia"],"game_id":440,"stv_port":27046,"stv_name":"Uncletopia | Frankfurt | 4 | All Maps | STV","players":null},{"server_id":310,"name":"Uncletopia | Frankfurt | 5 | All Maps","name_short":"frk-5","host":"frk-1.de.uncletopia.com","port":27055,"enabled":true,"region":"eu","cc":"de","latitude":50.110924,"longitude":8.682127,"reserved":0,"last_update":"0001-01-01T00:00:00Z","name_a2s":"Uncletopia | Frankfurt | 5 | All Maps","protocol":17,"map":"koth_highpass","folder":"tf","game":"Team Fortress","app_id":440,"player_count":0,"max_players":24,"Bots":0,"server_type":"Dedicated","server_os":"Linux","password":true,"vac":true,"version":"7961495","steam_id":85568392924504277,"keywords":["cp","nocrits","nodmgspread","uncletopia"],"game_id":440,"stv_port":27056,"stv_name":"Uncletopia | Frankfurt | 5 | All Maps | STV","players":null},{"server_id":311,"name":"Uncletopia | Frankfurt | 6 | All Maps","name_short":"frk-6","host":"frk-1.de.uncletopia.com","port":27065,"enabled":true,"region":"eu","cc":"de","latitude":50.110924,"longitude":8.682127,"reserved":0,"last_update":"0001-01-01T00:00:00Z","name_a2s":"Uncletopia | Frankfurt | 6 | All Maps","protocol":17,"map":"koth_highpass","folder":"tf","game":"Team Fortress","app_id":440,"player_count":0,"max_players":24,"Bots":0,"server_type":"Dedicated","server_os":"Linux","password":true,"vac":true,"version":"7961495","steam_id":85568392924504278,"keywords":["cp","nocrits","nodmgspread","uncletopia"],"game_id":440,"stv_port":27066,"stv_name":"Uncletopia | Frankfurt | 6 | All Maps | STV","players":null},{"server_id":23,"name":"Uncletopia | Frankfurt | 7 | Stopwatch","name_short":"frk-7","host":"frk-1.de.uncletopia.com","port":27075,"enabled":true,"region":"eu","cc":"de","latitude":50.110924,"longitude":8.682127,"reserved":0,"last_update":"0001-01-01T00:00:00Z","name_a2s":"Uncletopia | Frankfurt | 7 | Stopwatch","protocol":17,"map":"workshop/koth_bagel_rc6.ugc2514036946","folder":"tf","game":"Team Fortress","app_id":440,"player_count":0,"max_players":24,"Bots":0,"server_type":"Dedicated","server_os":"Linux","password":true,"vac":true,"version":"7961495","steam_id":85568392924742827,"keywords":["cp","nocrits","nodmgspread","uncletopia"],"game_id":440,"stv_port":27076,"stv_name":"Uncletopia | Frankfurt | 7 | Stopwatch | STV","players":null},{"server_id":24,"name":"Uncletopia | Frankfurt | 8 | Community","name_short":"frk-8","host":"frk-1.de.uncletopia.com","port":27085,"enabled":true,"region":"eu","cc":"de","latitude":50.110924,"longitude":8.682127,"reserved":0,"last_update":"0001-01-01T00:00:00Z","name_a2s":"Uncletopia | Frankfurt | 8 | Community","protocol":17,"map":"workshop/koth_ramjam_rc1.ugc459778887","folder":"tf","game":"Team Fortress","app_id":440,"player_count":0,"max_players":24,"Bots":0,"server_type":"Dedicated","server_os":"Linux","password":true,"vac":true,"version":"7961495","steam_id":85568392924742828,"keywords":["cp","nocrits","nodmgspread","uncletopia"],"game_id":440,"stv_port":27086,"stv_name":"Uncletopia | Frankfurt | 8 | Community | STV","players":null},{"server_id":202,"name":"Uncletopia | Hong Kong | 1 | All Maps","name_short":"hgk-1","host":"hgk-1.hk.uncletopia.com","port":27015,"enabled":true,"region":"asia","cc":"hk","latitude":22.302711,"longitude":114.177216,"reserved":0,"last_update":"0001-01-01T00:00:00Z","name_a2s":"Uncletopia | Hong Kong | 1 | All Maps","protocol":17,"map":"pl_borneo","folder":"tf","game":"Team Fortress","app_id":440,"player_count":24,"max_players":24,"Bots":0,"server_type":"Dedicated","server_os":"Linux","password":true,"vac":true,"version":"7961495","steam_id":85568392924494504,"keywords":["nocrits","nodmgspread","payload","uncletopia"],"game_id":440,"stv_port":27016,"stv_name":"Uncletopia | Hong Kong | 1 | All Maps | STV","players":[{"user_id":124,"name":"Darknight","steam_id":76561199090139287,"connected_time":244000000000,"state":"active","ping":83},{"user_id":7,"name":"MS PowerPoint","steam_id":76561198369523192,"connected_time":8534000000000,"state":"active","ping":71},{"user_id":90,"name":"Joilee32","steam_id":76561199226255440,"connected_time":2564000000000,"state":"active","ping":76},{"user_id":101,"name":"Deeznutz69Gamer","steam_id":76561199221531190,"connected_time":1873000000000,"state":"active","ping":102},{"user_id":79,"name":"Lerroy","steam_id":76561199137927625,"connected_time":3123000000000,"state":"active","ping":93},{"user_id":36,"name":"neth","steam_id":76561198217995369,"connected_time":5967000000000,"state":"active","ping":70},{"user_id":30,"name":"bop","steam_id":76561198855391001,"connected_time":6589000000000,"state":"active","ping":87},{"user_id":45,"name":"â¬ž","steam_id":76561199373637717,"connected_time":4998000000000,"state":"active","ping":66},{"user_id":31,"name":"Nephew Nate","steam_id":76561199137872034,"connected_time":6391000000000,"state":"active","ping":74},{"user_id":113,"name":"Joyfuloki","steam_id":76561199499457047,"connected_time":1542000000000,"state":"active","ping":117},{"user_id":125,"name":"DevAllen","steam_id":76561198830629355,"connected_time":240000000000,"state":"active","ping":69},{"user_id":121,"name":"Sover blw.tf","steam_id":76561198136347837,"connected_time":831000000000,"state":"active","ping":82},{"user_id":120,"name":"buy the subaru brz now","steam_id":76561198420018387,"connected_time":1036000000000,"state":"active","ping":35},{"user_id":118,"name":"Hanta","steam_id":76561199031390218,"connected_time":1372000000000,"state":"active","ping":130},{"user_id":126,"name":"ConHoshi","steam_id":76561199387718733,"connected_time":240000000000,"state":"active","ping":84},{"user_id":129,"name":"Edward Firehands","steam_id":76561199174449723,"connected_time":164000000000,"state":"active","ping":122},{"user_id":55,"name":"Hatless Hatman","steam_id":76561198377541105,"connected_time":4171000000000,"state":"active","ping":59},{"user_id":123,"name":"Femboy Consumer","steam_id":76561199471507935,"connected_time":279000000000,"state":"active","ping":362},{"user_id":111,"name":"coming","steam_id":76561198835623050,"connected_time":1606000000000,"state":"active","ping":71},{"user_id":60,"name":"th0masl._","steam_id":76561199088165554,"connected_time":3963000000000,"state":"active","ping":44},{"user_id":83,"name":"water tastes good","steam_id":76561199375947670,"connected_time":2926000000000,"state":"active","ping":65},{"user_id":85,"name":"RAHHHHH!!!!!!!","steam_id":76561198324008555,"connected_time":2805000000000,"state":"active","ping":60},{"user_id":86,"name":"è ¢è„¸éª‘å£«è„¸ä¸è ¢","steam_id":76561198422372840,"connected_time":2764000000000,"state":"active","ping":54},{"user_id":112,"name":"Jimi Hend-Rizz Excrements","steam_id":76561198826565047,"connected_time":1599000000000,"state":"active","ping":98}]},{"server_id":1,"name":"Uncletopia | Los Angeles | 1 | All Maps","name_short":"lax-1","host":"lax-1.us.uncletopia.com","port":27015,"enabled":true,"region":"us-west","cc":"us","latitude":33.94279,"longitude":-118.41004,"reserved":0,"last_update":"0001-01-01T00:00:00Z","name_a2s":"Uncletopia | Los Angeles | 1 | All Maps","protocol":17,"map":"cp_sunshine","folder":"tf","game":"Team Fortress","app_id":440,"player_count":24,"max_players":24,"Bots":0,"server_type":"Dedicated","server_os":"Linux","password":true,"vac":true,"version":"7961495","steam_id":85568392924469991,"keywords":["cp","nocrits","nodmgspread","uncletopia"],"game_id":440,"stv_port":27016,"stv_name":"Uncletopia | Los Angeles | 1 | All Maps | STV","players":[{"user_id":508,"name":"darren","steam_id":76561199050155136,"connected_time":4366000000000,"state":"active","ping":49},{"user_id":538,"name":"exx","steam_id":76561198090552145,"connected_time":416000000000,"state":"active","ping":45},{"user_id":513,"name":"BLÃ˜RG","steam_id":76561198036126673,"connected_time":4075000000000,"state":"active","ping":89},{"user_id":541,"name":"POWER OUTER","steam_id":76561199162166709,"connected_time":209000000000,"state":"active","ping":54},{"user_id":470,"name":"Sterling Nano","steam_id":76561198048580088,"connected_time":6550000000000,"state":"active","ping":71},{"user_id":524,"name":"Grungus","steam_id":76561198047700230,"connected_time":2298000000000,"state":"active","ping":58},{"user_id":514,"name":"Micah","steam_id":76561198006837982,"connected_time":3981000000000,"state":"active","ping":151},{"user_id":534,"name":"tf2bot","steam_id":76561199016742478,"connected_time":1488000000000,"state":"active","ping":68},{"user_id":529,"name":"Smelly","steam_id":76561198380507370,"connected_time":1839000000000,"state":"active","ping":90},{"user_id":477,"name":"TheBrocklobster","steam_id":76561198039682984,"connected_time":6315000000000,"state":"active","ping":62},{"user_id":542,"name":"Bro_Erazu","steam_id":76561198399356137,"connected_time":27000000000,"state":"active","ping":69},{"user_id":498,"name":"FunHaver69","steam_id":76561199086723311,"connected_time":4717000000000,"state":"active","ping":70},{"user_id":478,"name":"Fungal","steam_id":76561198078973439,"connected_time":6309000000000,"state":"active","ping":53},{"user_id":526,"name":"cheifkeef","steam_id":76561199131973200,"connected_time":2280000000000,"state":"active","ping":57},{"user_id":501,"name":"Squidlye","steam_id":76561199015857743,"connected_time":4543000000000,"state":"active","ping":94},{"user_id":341,"name":"K-2","steam_id":76561198322606535,"connected_time":14810000000000,"state":"active","ping":73},{"user_id":521,"name":"yuki no tsuki","steam_id":76561198298645133,"connected_time":2447000000000,"state":"active","ping":66},{"user_id":522,"name":"ImWishin","steam_id":76561198277198222,"connected_time":2440000000000,"state":"active","ping":102},{"user_id":536,"name":"SneekiCheekiQbone","steam_id":76561198045077980,"connected_time":846000000000,"state":"active","ping":46},{"user_id":528,"name":"Jovi Boy","steam_id":76561198046605691,"connected_time":2247000000000,"state":"active","ping":63},{"user_id":505,"name":"Klip","steam_id":76561198316254429,"connected_time":4418000000000,"state":"active","ping":86},{"user_id":532,"name":"Looge","steam_id":76561198155483586,"connected_time":1755000000000,"state":"active","ping":102},{"user_id":523,"name":"window mirage","steam_id":76561199187641532,"connected_time":2440000000000,"state":"active","ping":101},{"user_id":517,"name":"FROYO b4nny","steam_id":76561197970669109,"connected_time":3909000000000,"state":"active","ping":54}]},{"server_id":112,"name":"Uncletopia | Los Angeles | 2 | All Maps","name_short":"lax-2","host":"lax-1.us.uncletopia.com","port":27025,"enabled":true,"region":"us-west","cc":"us","latitude":33.94279,"longitude":-118.41004,"reserved":0,"last_update":"0001-01-01T00:00:00Z","name_a2s":"Uncletopia | Los Angeles | 2 | All Maps","protocol":17,"map":"koth_highpass","folder":"tf","game":"Team Fortress","app_id":440,"player_count":24,"max_players":24,"Bots":0,"server_type":"Dedicated","server_os":"Linux","password":true,"vac":true,"version":"7961495","steam_id":85568392924469992,"keywords":["cp","nocrits","nodmgspread","uncletopia"],"game_id":440,"stv_port":27026,"stv_name":"Uncletopia | Los Angeles | 2 | All Maps | STV","players":[{"user_id":232,"name":"RoastyToast408","steam_id":76561198273018783,"connected_time":852000000000,"state":"active","ping":64},{"user_id":236,"name":"milk then cereal","steam_id":76561198047168548,"connected_time":449000000000,"state":"active","ping":46},{"user_id":227,"name":"duncaidan","steam_id":76561199013510313,"connected_time":1499000000000,"state":"active","ping":51},{"user_id":254,"name":"Kickbuts600","steam_id":76561199123685201,"connected_time":34000000000,"state":"active","ping":66},{"user_id":213,"name":"thedeadlyamoeba","steam_id":76561198040810178,"connected_time":2521000000000,"state":"active","ping":66},{"user_id":185,"name":"Flops","steam_id":76561197961030141,"connected_time":3866000000000,"state":"active","ping":75},{"user_id":247,"name":"stubowden","steam_id":76561198421175184,"connected_time":138000000000,"state":"active","ping":69},{"user_id":238,"name":"Reem0h","steam_id":76561198169848690,"connected_time":425000000000,"state":"active","ping":106},{"user_id":255,"name":"McSpazatron","steam_id":76561198955942148,"connected_time":26000000000,"state":"active","ping":85},{"user_id":246,"name":"Cmoon99999","steam_id":76561198928412604,"connected_time":250000000000,"state":"active","ping":117},{"user_id":248,"name":"Chalky","steam_id":76561199224370873,"connected_time":138000000000,"state":"active","ping":52},{"user_id":241,"name":"ohnocringe","steam_id":76561199381232082,"connected_time":392000000000,"state":"active","ping":88},{"user_id":200,"name":"mrthugpug1732","steam_id":76561198881200768,"connected_time":3670000000000,"state":"active","ping":58},{"user_id":243,"name":"SoCal Kaizer","steam_id":76561198334361081,"connected_time":338000000000,"state":"active","ping":58},{"user_id":244,"name":"Shadoe","steam_id":76561198218577281,"connected_time":294000000000,"state":"active","ping":101},{"user_id":245,"name":"bluefoxx118","steam_id":76561198182884975,"connected_time":282000000000,"state":"active","ping":114},{"user_id":226,"name":"nothowon","steam_id":76561198937601452,"connected_time":1525000000000,"state":"active","ping":102},{"user_id":249,"name":"moosein","steam_id":76561198354272434,"connected_time":111000000000,"state":"active","ping":114},{"user_id":250,"name":"Pathara44","steam_id":76561198048238620,"connected_time":105000000000,"state":"active","ping":104},{"user_id":234,"name":"Dezzithediscoduck","steam_id":76561198037043489,"connected_time":676000000000,"state":"active","ping":60},{"user_id":251,"name":"LIAM","steam_id":76561198324691143,"connected_time":92000000000,"state":"active","ping":78},{"user_id":252,"name":"THE man is EPIC","steam_id":76561198085410777,"connected_time":88000000000,"state":"active","ping":101},{"user_id":203,"name":"BitPieStudios","steam_id":76561198059216393,"connected_time":3608000000000,"state":"active","ping":56},{"user_id":253,"name":"Plant","steam_id":76561199058462259,"connected_time":46000000000,"state":"active","ping":68}]},{"server_id":324,"name":"Uncletopia | Los Angeles | 3 | All Maps","name_short":"lax-3","host":"lax-1.us.uncletopia.com","port":27035,"enabled":true,"region":"us-west","cc":"us","latitude":33.94279,"longitude":-118.41004,"reserved":0,"last_update":"0001-01-01T00:00:00Z","name_a2s":"Uncletopia | Los Angeles | 3 | All Maps","protocol":17,"map":"pl_upward","folder":"tf","game":"Team Fortress","app_id":440,"player_count":24,"max_players":24,"Bots":0,"server_type":"Dedicated","server_os":"Linux","password":true,"vac":true,"version":"7961495","steam_id":85568392924510198,"keywords":["nocrits","nodmgspread","payload","uncletopia"],"game_id":440,"stv_port":27036,"stv_name":"Uncletopia | Los Angeles | 3 | All Maps | STV","players":[{"user_id":362,"name":"DoppelgÃ¤nger","steam_id":76561198036730436,"connected_time":622000000000,"state":"active","ping":85},{"user_id":366,"name":"MaDeuce","steam_id":76561198110732835,"connected_time":305000000000,"state":"active","ping":94},{"user_id":354,"name":"DerpyNate","steam_id":76561198100249037,"connected_time":1662000000000,"state":"active","ping":91},{"user_id":355,"name":"Dongus","steam_id":76561197979056451,"connected_time":1513000000000,"state":"active","ping":71},{"user_id":313,"name":"TheGreythreat","steam_id":76561198021995538,"connected_time":4719000000000,"state":"active","ping":113},{"user_id":330,"name":"Sean","steam_id":76561199367470003,"connected_time":3194000000000,"state":"active","ping":69},{"user_id":367,"name":"nobody","steam_id":76561198294634769,"connected_time":180000000000,"state":"active","ping":55},{"user_id":337,"name":"Soupy Meal","steam_id":76561199056842761,"connected_time":2407000000000,"state":"active","ping":46},{"user_id":349,"name":"Hazeyboi","steam_id":76561198130687838,"connected_time":1860000000000,"state":"active","ping":91},{"user_id":299,"name":"Kamin","steam_id":76561198255299559,"connected_time":5584000000000,"state":"active","ping":105},{"user_id":361,"name":"â›§Alkahestry","steam_id":76561198109641497,"connected_time":640000000000,"state":"active","ping":43},{"user_id":288,"name":"netoc6","steam_id":76561199065312168,"connected_time":6256000000000,"state":"active","ping":120},{"user_id":342,"name":"self sufficient kitten","steam_id":76561197960592612,"connected_time":2308000000000,"state":"active","ping":74},{"user_id":368,"name":"Alice Hiiragi","steam_id":76561198094078478,"connected_time":172000000000,"state":"active","ping":53},{"user_id":369,"name":"Flyawaycheese","steam_id":76561198883837701,"connected_time":37000000000,"state":"spawning","ping":152},{"user_id":357,"name":"Lecko","steam_id":76561199196626333,"connected_time":1074000000000,"state":"active","ping":55},{"user_id":328,"name":"Gnome Observer","steam_id":76561198969136257,"connected_time":3295000000000,"state":"active","ping":47},{"user_id":340,"name":"Texas","steam_id":76561198053276976,"connected_time":2341000000000,"state":"active","ping":62},{"user_id":351,"name":"snail2646","steam_id":76561198061411251,"connected_time":1853000000000,"state":"active","ping":97},{"user_id":352,"name":"â¤ Ashley â¤","steam_id":76561198056428303,"connected_time":1853000000000,"state":"active","ping":47},{"user_id":363,"name":"NeoN","steam_id":76561198117608366,"connected_time":616000000000,"state":"active","ping":118},{"user_id":345,"name":"Spread Joy, Not Hate","steam_id":76561198053117503,"connected_time":2223000000000,"state":"active","ping":98},{"user_id":302,"name":"Overmeme","steam_id":76561199455124144,"connected_time":5411000000000,"state":"active","ping":88},{"user_id":353,"name":"Maximum Flame","steam_id":76561198073682529,"connected_time":1853000000000,"state":"active","ping":90}]},{"server_id":25,"name":"Uncletopia | Los Angeles | 4 | Stopwatch","name_short":"lax-4","host":"lax-1.us.uncletopia.com","port":27045,"enabled":true,"region":"us-west","cc":"us","latitude":33.94279,"longitude":-118.41004,"reserved":0,"last_update":"0001-01-01T00:00:00Z","name_a2s":"Uncletopia | Los Angeles | 4 | Stopwatch","protocol":17,"map":"workshop/pl_summercoast_rc8e.ugc1761528829","folder":"tf","game":"Team Fortress","app_id":440,"player_count":24,"max_players":24,"Bots":0,"server_type":"Dedicated","server_os":"Linux","password":true,"vac":true,"version":"7961495","steam_id":85568392924510199,"keywords":["nocrits","nodmgspread","payload","uncletopia"],"game_id":440,"stv_port":27046,"stv_name":"Uncletopia | Los Angeles | 4 | Stopwatch | STV","players":[{"user_id":60,"name":"Gum Choomer","steam_id":76561198077846788,"connected_time":3927000000000,"state":"active","ping":117},{"user_id":107,"name":"walrooos","steam_id":76561198024521839,"connected_time":379000000000,"state":"active","ping":36},{"user_id":67,"name":"Bcuz","steam_id":76561197981318027,"connected_time":3318000000000,"state":"active","ping":69},{"user_id":32,"name":"ThunderBrand","steam_id":76561198054499446,"connected_time":5656000000000,"state":"active","ping":68},{"user_id":103,"name":"thatfoolralph","steam_id":76561199210333385,"connected_time":537000000000,"state":"active","ping":55},{"user_id":110,"name":"Pyrotekâ´","steam_id":76561198072747672,"connected_time":264000000000,"state":"active","ping":43},{"user_id":93,"name":"{á´„á´‡Ê€á´˜} shullers","steam_id":76561198889997809,"connected_time":1237000000000,"state":"active","ping":83},{"user_id":108,"name":"The Fiend","steam_id":76561198461862257,"connected_time":372000000000,"state":"active","ping":95},{"user_id":86,"name":"arkei-mgtg (Iâ™¥ZONING)","steam_id":76561198013113138,"connected_time":1720000000000,"state":"active","ping":48},{"user_id":91,"name":"cielael","steam_id":76561198043971956,"connected_time":1270000000000,"state":"active","ping":47},{"user_id":31,"name":"Babish Gaming","steam_id":76561198038213022,"connected_time":5790000000000,"state":"active","ping":114},{"user_id":92,"name":"naturia","steam_id":76561198092317849,"connected_time":1254000000000,"state":"active","ping":44},{"user_id":34,"name":"FlashyLily","steam_id":76561198110050476,"connected_time":5630000000000,"state":"active","ping":74},{"user_id":35,"name":"CleverRuse","steam_id":76561197984113729,"connected_time":5616000000000,"state":"active","ping":110},{"user_id":63,"name":"framp down","steam_id":76561198006316527,"connected_time":3640000000000,"state":"active","ping":68},{"user_id":111,"name":"drevott74","steam_id":76561199262592779,"connected_time":260000000000,"state":"active","ping":87},{"user_id":112,"name":"TÃ¼Cold","steam_id":76561198111278197,"connected_time":167000000000,"state":"active","ping":61},{"user_id":42,"name":"Timetronjonsilver531","steam_id":76561198111158966,"connected_time":5323000000000,"state":"active","ping":89},{"user_id":113,"name":"Dendromancy","steam_id":76561198194850754,"connected_time":64000000000,"state":"active","ping":85},{"user_id":109,"name":"Type Three Dabeetus","steam_id":76561198062710038,"connected_time":372000000000,"state":"active","ping":49},{"user_id":97,"name":"â€º We Are You.j2 [NO SOUND]","steam_id":76561197995242200,"connected_time":894000000000,"state":"active","ping":67},{"user_id":70,"name":"CALsHero09","steam_id":76561198155881095,"connected_time":3076000000000,"state":"active","ping":112},{"user_id":80,"name":"Pidud","steam_id":76561198079350325,"connected_time":2143000000000,"state":"active","ping":84},{"user_id":96,"name":"array","steam_id":76561198280409646,"connected_time":1167000000000,"state":"active","ping":44}]},{"server_id":11,"name":"Uncletopia | London | 1 | All Maps","name_short":"lon-1","host":"lon-1.uk.uncletopia.com","port":27015,"enabled":true,"region":"eu","cc":"gb","latitude":51.509865,"longitude":-0.118092,"reserved":0,"last_update":"0001-01-01T00:00:00Z","name_a2s":"Uncletopia | London | 1 | All Maps","protocol":17,"map":"pl_badwater","folder":"tf","game":"Team Fortress","app_id":440,"player_count":9,"max_players":24,"Bots":0,"server_type":"Dedicated","server_os":"Linux","password":true,"vac":true,"version":"7961495","steam_id":85568392924367362,"keywords":["nocrits","nodmgspread","payload","uncletopia"],"game_id":440,"stv_port":27016,"stv_name":"Uncletopia | London | 1 | All Maps | STV","players":[{"user_id":883,"name":"beebo","steam_id":76561199120277007,"connected_time":552000000000,"state":"active","ping":51},{"user_id":884,"name":"SmolJak","steam_id":76561199057045168,"connected_time":494000000000,"state":"active","ping":48},{"user_id":872,"name":"Clown :o)","steam_id":76561198074657015,"connected_time":1641000000000,"state":"active","ping":61},{"user_id":873,"name":"lepicah","steam_id":76561198797345502,"connected_time":1629000000000,"state":"active","ping":59},{"user_id":876,"name":"Sinnamonsters","steam_id":76561198423422354,"connected_time":1163000000000,"state":"active","ping":130},{"user_id":880,"name":"gay little cunt","steam_id":76561198359806726,"connected_time":636000000000,"state":"active","ping":60},{"user_id":881,"name":"Creasman","steam_id":76561198875379322,"connected_time":610000000000,"state":"active","ping":122},{"user_id":886,"name":"Shadow","steam_id":76561198080524596,"connected_time":295000000000,"state":"active","ping":41},{"user_id":888,"name":"Feels Good","steam_id":76561198058030054,"connected_time":0,"state":"spawning","ping":26}]},{"server_id":114,"name":"Uncletopia | London | 2 | All Maps","name_short":"lon-2","host":"lon-1.uk.uncletopia.com","port":27025,"enabled":true,"region":"eu","cc":"gb","latitude":51.509865,"longitude":-0.118092,"reserved":0,"last_update":"0001-01-01T00:00:00Z","name_a2s":"Uncletopia | London | 2 | All Maps","protocol":17,"map":"pl_upward","folder":"tf","game":"Team Fortress","app_id":440,"player_count":24,"max_players":24,"Bots":0,"server_type":"Dedicated","server_os":"Linux","password":true,"vac":true,"version":"7961495","steam_id":85568392924470941,"keywords":["nocrits","nodmgspread","payload","uncletopia"],"game_id":440,"stv_port":27026,"stv_name":"Uncletopia | London | 2 | All Maps | STV","players":[{"user_id":939,"name":"pezza","steam_id":76561197995173247,"connected_time":11408000000000,"state":"active","ping":60},{"user_id":1099,"name":"Coca162","steam_id":76561198230656540,"connected_time":1122000000000,"state":"active","ping":92},{"user_id":1103,"name":"goblin","steam_id":76561198170334258,"connected_time":989000000000,"state":"active","ping":75},{"user_id":1112,"name":"âœªDamien","steam_id":76561198053577040,"connected_time":459000000000,"state":"active","ping":144},{"user_id":1108,"name":"Asfedia","steam_id":76561199386836351,"connected_time":579000000000,"state":"active","ping":52},{"user_id":1052,"name":"jones","steam_id":76561198044434971,"connected_time":3594000000000,"state":"active","ping":69},{"user_id":1075,"name":"jerkwaterberg","steam_id":76561198134165667,"connected_time":3077000000000,"state":"active","ping":55},{"user_id":1091,"name":"St. Pablo","steam_id":76561199009805208,"connected_time":1703000000000,"state":"active","ping":116},{"user_id":1085,"name":"stun","steam_id":76561198276681691,"connected_time":2085000000000,"state":"active","ping":47},{"user_id":1034,"name":"ion luca caragiale","steam_id":76561198132025408,"connected_time":4570000000000,"state":"active","ping":60},{"user_id":1069,"name":"Alduin's Wings","steam_id":76561198341180949,"connected_time":3183000000000,"state":"active","ping":61},{"user_id":1115,"name":"Efemek","steam_id":76561199076133712,"connected_time":170000000000,"state":"active","ping":110},{"user_id":1084,"name":"turbo terry","steam_id":76561198307037169,"connected_time":2096000000000,"state":"active","ping":45},{"user_id":1110,"name":"Larry CaÃ±onga","steam_id":76561198081053203,"connected_time":542000000000,"state":"active","ping":164},{"user_id":1104,"name":"Lemmy","steam_id":76561199038870751,"connected_time":915000000000,"state":"active","ping":61},{"user_id":1107,"name":"lawn","steam_id":76561198001243486,"connected_time":622000000000,"state":"active","ping":44},{"user_id":1109,"name":"Hisense U7QF","steam_id":76561199224563150,"connected_time":577000000000,"state":"active","ping":122},{"user_id":981,"name":"Bobirulez","steam_id":76561198009125458,"connected_time":6660000000000,"state":"active","ping":74},{"user_id":1074,"name":"siriusplay116","steam_id":76561199403847433,"connected_time":3086000000000,"state":"active","ping":55},{"user_id":1096,"name":"The Duke","steam_id":76561198063644325,"connected_time":1210000000000,"state":"active","ping":54},{"user_id":1111,"name":"Testicular Slaughter","steam_id":76561198208538295,"connected_time":531000000000,"state":"active","ping":92},{"user_id":1113,"name":"Aiya LeiÃŸ","steam_id":76561198067677196,"connected_time":426000000000,"state":"active","ping":54},{"user_id":1054,"name":"Bubsy 3D","steam_id":76561197988942314,"connected_time":3579000000000,"state":"active","ping":34},{"user_id":1089,"name":"Uncle Dane's Evil Twin","steam_id":76561198012410589,"connected_time":1739000000000,"state":"active","ping":44}]},{"server_id":320,"name":"Uncletopia | London | 3 | All Maps","name_short":"lon-3","host":"lon-1.uk.uncletopia.com","port":27035,"enabled":true,"region":"eu","cc":"gb","latitude":51.509865,"longitude":-0.118092,"reserved":0,"last_update":"0001-01-01T00:00:00Z","name_a2s":"Uncletopia | London | 3 | All Maps","protocol":17,"map":"cp_sunshine","folder":"tf","game":"Team Fortress","app_id":440,"player_count":0,"max_players":24,"Bots":0,"server_type":"Dedicated","server_os":"Linux","password":true,"vac":true,"version":"7961495","steam_id":85568392924510192,"keywords":["cp","nocrits","nodmgspread","uncletopia"],"game_id":440,"stv_port":27036,"stv_name":"Uncletopia | London | 3 | All Maps | STV","players":null},{"server_id":321,"name":"Uncletopia | London | 4 | All Maps","name_short":"lon-4","host":"lon-1.uk.uncletopia.com","port":27045,"enabled":true,"region":"eu","cc":"gb","latitude":51.509865,"longitude":-0.118092,"reserved":0,"last_update":"0001-01-01T00:00:00Z","name_a2s":"Uncletopia | London | 4 | All Maps","protocol":17,"map":"koth_lakeside_final","folder":"tf","game":"Team Fortress","app_id":440,"player_count":0,"max_players":24,"Bots":0,"server_type":"Dedicated","server_os":"Linux","password":true,"vac":true,"version":"7961495","steam_id":85568392924510193,"keywords":["cp","nocrits","nodmgspread","uncletopia"],"game_id":440,"stv_port":27046,"stv_name":"Uncletopia | London | 4 | All Maps | STV","players":null},{"server_id":21,"name":"Uncletopia | London | 5 | All Maps","name_short":"lon-5","host":"lon-1.uk.uncletopia.com","port":27055,"enabled":true,"region":"eu","cc":"gb","latitude":51.509865,"longitude":-0.118092,"reserved":0,"last_update":"0001-01-01T00:00:00Z","name_a2s":"Uncletopia | London | 5 | All Maps","protocol":17,"map":"cp_snakewater_final1","folder":"tf","game":"Team Fortress","app_id":440,"player_count":0,"max_players":24,"Bots":0,"server_type":"Dedicated","server_os":"Linux","password":true,"vac":true,"version":"7961495","steam_id":85568392924742829,"keywords":["cp","nocrits","nodmgspread","uncletopia"],"game_id":440,"stv_port":27056,"stv_name":"Uncletopia | London | 5 | All Maps | STV","players":null},{"server_id":22,"name":"Uncletopia | London | 6 | All Maps","name_short":"lon-6","host":"lon-1.uk.uncletopia.com","port":27065,"enabled":true,"region":"eu","cc":"gb","latitude":51.509865,"longitude":-0.118092,"reserved":0,"last_update":"0001-01-01T00:00:00Z","name_a2s":"Uncletopia | London | 6 | All Maps","protocol":17,"map":"cp_sunshine","folder":"tf","game":"Team Fortress","app_id":440,"player_count":0,"max_players":24,"Bots":0,"server_type":"Dedicated","server_os":"Linux","password":true,"vac":true,"version":"7961495","steam_id":85568392924742830,"keywords":["cp","nocrits","nodmgspread","uncletopia"],"game_id":440,"stv_port":27066,"stv_name":"Uncletopia | London | 6 | All Maps | STV","players":null},{"server_id":40,"name":"Uncletopia | London | 7 | Stopwatch","name_short":"lon-7","host":"lon-1.uk.uncletopia.com","port":27075,"enabled":true,"region":"eu","cc":"gb","latitude":51.509865,"longitude":-0.118092,"reserved":0,"last_update":"0001-01-01T00:00:00Z","name_a2s":"Uncletopia | London | 7 | Stopwatch","protocol":17,"map":"cp_gullywash_final1","folder":"tf","game":"Team Fortress","app_id":440,"player_count":0,"max_players":24,"Bots":0,"server_type":"Dedicated","server_os":"Linux","password":true,"vac":true,"version":"7961495","steam_id":85568392924964314,"keywords":["cp","nocrits","nodmgspread","uncletopia"],"game_id":440,"stv_port":27076,"stv_name":"Uncletopia | London | 7 | Stopwatch | STV","players":null},{"server_id":41,"name":"Uncletopia | London | 8 | Community","name_short":"lon-8","host":"lon-1.uk.uncletopia.com","port":27085,"enabled":true,"region":"eu","cc":"gb","latitude":51.509865,"longitude":-0.118092,"reserved":0,"last_update":"0001-01-01T00:00:00Z","name_a2s":"Uncletopia | London | 8 | Community","protocol":17,"map":"workshop/koth_ramjam_rc1.ugc459778887","folder":"tf","game":"Team Fortress","app_id":440,"player_count":0,"max_players":24,"Bots":0,"server_type":"Dedicated","server_os":"Linux","password":true,"vac":true,"version":"7961495","steam_id":85568392924964315,"keywords":["cp","nocrits","nodmgspread","uncletopia"],"game_id":440,"stv_port":27086,"stv_name":"Uncletopia | London | 8 | Community | STV","players":null},{"server_id":300,"name":"Uncletopia | MontrÃ©al | 1 | One Thousand Uncles","name_short":"mtl-1","host":"mtl-1.ca.uncletopia.com","port":27015,"enabled":true,"region":"us-east","cc":"ca","latitude":45.50889,"longitude":-73.56167,"reserved":0,"last_update":"0001-01-01T00:00:00Z","name_a2s":"","protocol":0,"map":"","folder":"","game":"","app_id":0,"player_count":0,"max_players":0,"Bots":0,"server_type":"","server_os":"","password":false,"vac":false,"version":"","steam_id":0,"keywords":null,"game_id":0,"stv_port":0,"stv_name":"","players":null},{"server_id":301,"name":"Uncletopia | MontrÃ©al | 2 | One Thousand Uncles","name_short":"mtl-2","host":"mtl-1.ca.uncletopia.com","port":27025,"enabled":true,"region":"us-east","cc":"ca","latitude":45.50889,"longitude":-73.56167,"reserved":0,"last_update":"0001-01-01T00:00:00Z","name_a2s":"","protocol":0,"map":"","folder":"","game":"","app_id":0,"player_count":0,"max_players":0,"Bots":0,"server_type":"","server_os":"","password":false,"vac":false,"version":"","steam_id":0,"keywords":null,"game_id":0,"stv_port":0,"stv_name":"","players":null},{"server_id":302,"name":"Uncletopia | MontrÃ©al | 3 | One Thousand Uncles","name_short":"mtl-3","host":"mtl-1.ca.uncletopia.com","port":27035,"enabled":true,"region":"us-east","cc":"ca","latitude":45.50889,"longitude":-73.56167,"reserved":0,"last_update":"0001-01-01T00:00:00Z","name_a2s":"","protocol":0,"map":"","folder":"","game":"","app_id":0,"player_count":13,"max_players":0,"Bots":0,"server_type":"","server_os":"","password":false,"vac":false,"version":"","steam_id":0,"keywords":null,"game_id":0,"stv_port":0,"stv_name":"","players":[{"user_id":653,"name":"Bubtit","steam_id":76561199138751788,"connected_time":405000000000,"state":"active","ping":58},{"user_id":644,"name":"Girl who stinks good","steam_id":76561198195512819,"connected_time":1586000000000,"state":"active","ping":115},{"user_id":596,"name":"TheGhostThatWas","steam_id":76561198055836483,"connected_time":5365000000000,"state":"active","ping":51},{"user_id":621,"name":"Waaagh!","steam_id":76561197995317887,"connected_time":3298000000000,"state":"active","ping":36},{"user_id":622,"name":"pipebombrater","steam_id":76561199029030831,"connected_time":3284000000000,"state":"active","ping":78},{"user_id":654,"name":"curi promedio","steam_id":76561199212700053,"connected_time":304000000000,"state":"active","ping":144},{"user_id":624,"name":"Snoopist","steam_id":76561198144023761,"connected_time":1867000000000,"state":"active","ping":58},{"user_id":625,"name":"ArcticRescue","steam_id":76561198055362404,"connected_time":1816000000000,"state":"active","ping":41},{"user_id":655,"name":"Ó¨chpochmak","steam_id":76561198434212101,"connected_time":243000000000,"state":"active","ping":59},{"user_id":648,"name":"dog","steam_id":76561198263873491,"connected_time":769000000000,"state":"active","ping":66},{"user_id":649,"name":"Captian Wobbs","steam_id":76561198142884936,"connected_time":748000000000,"state":"active","ping":78},{"user_id":656,"name":"RacoonGamer","steam_id":76561198100907657,"connected_time":131000000000,"state":"active","ping":46},{"user_id":657,"name":"squoing","steam_id":76561199259430159,"connected_time":108000000000,"state":"active","ping":96}]},{"server_id":13,"name":"Uncletopia | New York City | 1 | All Maps","name_short":"nyc-1","host":"nyc-1.us.uncletopia.com","port":27015,"enabled":true,"region":"us-east","cc":"us","latitude":40.73061,"longitude":-73.93524,"reserved":0,"last_update":"0001-01-01T00:00:00Z","name_a2s":"Uncletopia | New York City | 1 | All Maps","protocol":17,"map":"cp_dustbowl","folder":"tf","game":"Team Fortress","app_id":440,"player_count":24,"max_players":24,"Bots":0,"server_type":"Dedicated","server_os":"Linux","password":true,"vac":true,"version":"7961495","steam_id":85568392924469993,"keywords":["cp","nocrits","nodmgspread","uncletopia"],"game_id":440,"stv_port":27016,"stv_name":"Uncletopia | New York City | 1 | All Maps | STV","players":[{"user_id":673,"name":"BadLuck","steam_id":76561198096452401,"connected_time":1552000000000,"state":"active","ping":63},{"user_id":670,"name":"Pluto","steam_id":76561198351543811,"connected_time":1797000000000,"state":"active","ping":146},{"user_id":550,"name":"googa","steam_id":76561198133130452,"connected_time":9521000000000,"state":"active","ping":45},{"user_id":667,"name":"Catscout","steam_id":76561198140893643,"connected_time":1974000000000,"state":"active","ping":108},{"user_id":687,"name":"Yuzu","steam_id":76561198417913035,"connected_time":208000000000,"state":"active","ping":69},{"user_id":688,"name":"Broadway Rose","steam_id":76561198046083342,"connected_time":160000000000,"state":"active","ping":39},{"user_id":686,"name":"Gibusize","steam_id":76561198081758770,"connected_time":218000000000,"state":"active","ping":61},{"user_id":671,"name":"Spiral Mountain","steam_id":76561198058683715,"connected_time":1586000000000,"state":"active","ping":73},{"user_id":608,"name":"The Colonel","steam_id":76561198081280583,"connected_time":5651000000000,"state":"active","ping":63},{"user_id":678,"name":"Olly324","steam_id":76561198404607352,"connected_time":966000000000,"state":"active","ping":68},{"user_id":689,"name":"Herdez Hot Salsa","steam_id":76561197991740906,"connected_time":159000000000,"state":"active","ping":67},{"user_id":683,"name":"Child Obesity","steam_id":76561198099263425,"connected_time":233000000000,"state":"active","ping":50},{"user_id":684,"name":"Tarkan Neco Ark","steam_id":76561198208190985,"connected_time":222000000000,"state":"active","ping":148},{"user_id":564,"name":"HUESO","steam_id":76561198276383681,"connected_time":8179000000000,"state":"active","ping":78},{"user_id":653,"name":"i hate my bitchmade son","steam_id":76561198044034546,"connected_time":2839000000000,"state":"active","ping":65},{"user_id":690,"name":"Manu","steam_id":76561198145330934,"connected_time":137000000000,"state":"active","ping":119},{"user_id":694,"name":"bajookieland patriot","steam_id":76561198994524569,"connected_time":58000000000,"state":"active","ping":102},{"user_id":674,"name":"ndvr","steam_id":76561199379200102,"connected_time":1461000000000,"state":"active","ping":56},{"user_id":685,"name":"Classy","steam_id":76561198128415840,"connected_time":222000000000,"state":"active","ping":60},{"user_id":672,"name":"DeDMeeT (Fae/They)","steam_id":76561198135686475,"connected_time":1569000000000,"state":"active","ping":113},{"user_id":680,"name":"vv","steam_id":76561198134813102,"connected_time":827000000000,"state":"active","ping":72},{"user_id":656,"name":"sloth (be nice im cringe)","steam_id":76561198047098172,"connected_time":2805000000000,"state":"active","ping":67},{"user_id":668,"name":"Ember The Femboy","steam_id":76561198139630565,"connected_time":1971000000000,"state":"active","ping":127},{"user_id":666,"name":"Gentoo Linux Gaming","steam_id":76561197999657118,"connected_time":2165000000000,"state":"active","ping":77}]},{"server_id":14,"name":"Uncletopia | New York City | 2 | All Maps","name_short":"nyc-2","host":"nyc-1.us.uncletopia.com","port":27025,"enabled":true,"region":"us-east","cc":"us","latitude":40.73061,"longitude":-73.93524,"reserved":0,"last_update":"0001-01-01T00:00:00Z","name_a2s":"Uncletopia | New York City | 2 | All Maps","protocol":17,"map":"pl_badwater","folder":"tf","game":"Team Fortress","app_id":440,"player_count":24,"max_players":24,"Bots":0,"server_type":"Dedicated","server_os":"Linux","password":true,"vac":true,"version":"7961495","steam_id":85568392924469994,"keywords":["nocrits","nodmgspread","payload","uncletopia"],"game_id":440,"stv_port":27026,"stv_name":"Uncletopia | New York City | 2 | All Maps | STV","players":[{"user_id":643,"name":"henryissoreal","steam_id":76561198128074539,"connected_time":2275000000000,"state":"active","ping":73},{"user_id":631,"name":"Blade Racer","steam_id":76561198155896703,"connected_time":3162000000000,"state":"active","ping":58},{"user_id":670,"name":"Jeiyo","steam_id":76561199070161957,"connected_time":304000000000,"state":"active","ping":80},{"user_id":664,"name":"Cousin Balki","steam_id":76561198070496395,"connected_time":1190000000000,"state":"active","ping":71},{"user_id":666,"name":"Krissy","steam_id":76561197960848174,"connected_time":994000000000,"state":"active","ping":58},{"user_id":641,"name":"Synell","steam_id":76561198053232523,"connected_time":2454000000000,"state":"active","ping":66},{"user_id":672,"name":"SinÂ°","steam_id":76561198952843442,"connected_time":282000000000,"state":"active","ping":76},{"user_id":646,"name":"Fish Fisherman","steam_id":76561198018656022,"connected_time":2096000000000,"state":"active","ping":52},{"user_id":679,"name":"G2 DamDam","steam_id":76561198173095997,"connected_time":36000000000,"state":"active","ping":55},{"user_id":668,"name":"Reflector","steam_id":76561198078999855,"connected_time":366000000000,"state":"active","ping":77},{"user_id":665,"name":"Pomegranate88","steam_id":76561198056385456,"connected_time":1066000000000,"state":"active","ping":59},{"user_id":673,"name":"AlexLovesYou","steam_id":76561199163263543,"connected_time":275000000000,"state":"active","ping":89},{"user_id":678,"name":"grog","steam_id":76561198066436850,"connected_time":170000000000,"state":"active","ping":80},{"user_id":674,"name":"cotton","steam_id":76561198018652890,"connected_time":269000000000,"state":"active","ping":53},{"user_id":622,"name":"Dr.Coomer PH.D","steam_id":76561198144558937,"connected_time":4342000000000,"state":"active","ping":84},{"user_id":675,"name":"Wique","steam_id":76561198071217597,"connected_time":263000000000,"state":"active","ping":74},{"user_id":659,"name":"MAXIMUS","steam_id":76561198085809453,"connected_time":1301000000000,"state":"active","ping":84},{"user_id":660,"name":"com lag","steam_id":76561198019019392,"connected_time":1291000000000,"state":"active","ping":75},{"user_id":639,"name":"Sickduck Mcgee","steam_id":76561198028577159,"connected_time":2830000000000,"state":"active","ping":67},{"user_id":661,"name":"Santamen","steam_id":76561198119478199,"connected_time":1275000000000,"state":"active","ping":42},{"user_id":662,"name":"C Papi","steam_id":76561198027779564,"connected_time":1267000000000,"state":"active","ping":62},{"user_id":590,"name":"aisu","steam_id":76561198043768507,"connected_time":5188000000000,"state":"active","ping":90},{"user_id":669,"name":"Hoopla","steam_id":76561198327775508,"connected_time":356000000000,"state":"active","ping":44},{"user_id":677,"name":"HemoTox","steam_id":76561197999713466,"connected_time":208000000000,"state":"active","ping":70}]},{"server_id":15,"name":"Uncletopia | New York City | 3 | Stopwatch","name_short":"nyc-3","host":"nyc-1.us.uncletopia.com","port":27035,"enabled":true,"region":"us-east","cc":"us","latitude":40.73061,"longitude":-73.93524,"reserved":0,"last_update":"0001-01-01T00:00:00Z","name_a2s":"Uncletopia | New York City | 3 | Stopwatch","protocol":17,"map":"cp_granary","folder":"tf","game":"Team Fortress","app_id":440,"player_count":23,"max_players":24,"Bots":0,"server_type":"Dedicated","server_os":"Linux","password":true,"vac":true,"version":"7961495","steam_id":85568392924742820,"keywords":["cp","nocrits","nodmgspread","uncletopia"],"game_id":440,"stv_port":27036,"stv_name":"Uncletopia | New York City | 3 | Stopwatch | STV","players":[{"user_id":205,"name":"Harbor Seal","steam_id":76561198162631724,"connected_time":726000000000,"state":"active","ping":61},{"user_id":190,"name":"PoopBob","steam_id":76561198066733892,"connected_time":1741000000000,"state":"active","ping":62},{"user_id":217,"name":"Lane","steam_id":76561197965828506,"connected_time":251000000000,"state":"active","ping":60},{"user_id":220,"name":"grayflingsnap098","steam_id":76561199142779872,"connected_time":23000000000,"state":"active","ping":75},{"user_id":181,"name":"Kreld","steam_id":76561198047794615,"connected_time":2082000000000,"state":"active","ping":145},{"user_id":136,"name":"I love you","steam_id":76561198250371792,"connected_time":3972000000000,"state":"active","ping":74},{"user_id":192,"name":"Balerion the Black Dread","steam_id":76561198003728369,"connected_time":1589000000000,"state":"active","ping":84},{"user_id":147,"name":"Emiza","steam_id":76561198120524962,"connected_time":3656000000000,"state":"active","ping":145},{"user_id":215,"name":"Wiener Hole Paper Cut","steam_id":76561198000808203,"connected_time":359000000000,"state":"active","ping":56},{"user_id":196,"name":"Silvr","steam_id":76561198069368377,"connected_time":1298000000000,"state":"active","ping":58},{"user_id":209,"name":"Yeast","steam_id":76561198796747043,"connected_time":541000000000,"state":"active","ping":53},{"user_id":187,"name":"booze cruiser","steam_id":76561198203395648,"connected_time":1805000000000,"state":"active","ping":54},{"user_id":213,"name":"DivineBanana","steam_id":76561198026529731,"connected_time":469000000000,"state":"active","ping":86},{"user_id":221,"name":"Ticktockman","steam_id":76561198170071647,"connected_time":12000000000,"state":"active","ping":61},{"user_id":222,"name":"Disco Fever","steam_id":76561198069532215,"connected_time":9000000000,"state":"active","ping":71},{"user_id":165,"name":"muggyrhombus","steam_id":76561198832044501,"connected_time":3175000000000,"state":"active","ping":90},{"user_id":216,"name":"chilis baby back ribs","steam_id":76561198813516435,"connected_time":352000000000,"state":"active","ping":105},{"user_id":218,"name":"UwU","steam_id":76561198971629959,"connected_time":224000000000,"state":"active","ping":134},{"user_id":180,"name":"Molly","steam_id":76561198327905969,"connected_time":2108000000000,"state":"active","ping":107},{"user_id":203,"name":"Gustavo Fring","steam_id":76561198132807405,"connected_time":781000000000,"state":"active","ping":89},{"user_id":183,"name":"Y S","steam_id":76561199095128971,"connected_time":2062000000000,"state":"active","ping":76},{"user_id":212,"name":"blizz.blam","steam_id":76561198128790719,"connected_time":484000000000,"state":"active","ping":71},{"user_id":219,"name":"Meatballgirl","steam_id":76561198049902502,"connected_time":217000000000,"state":"active","ping":64}]},{"server_id":16,"name":"Uncletopia | New York City | 4 | Community","name_short":"nyc-4","host":"nyc-1.us.uncletopia.com","port":27045,"enabled":true,"region":"us-east","cc":"us","latitude":40.73061,"longitude":-73.93524,"reserved":0,"last_update":"0001-01-01T00:00:00Z","name_a2s":"Uncletopia | New York City | 4 | Community","protocol":17,"map":"workshop/koth_synthetic_rc6a.ugc1549817316","folder":"tf","game":"Team Fortress","app_id":440,"player_count":0,"max_players":24,"Bots":0,"server_type":"Dedicated","server_os":"Linux","password":true,"vac":true,"version":"7961495","steam_id":85568392924742821,"keywords":["cp","nocrits","nodmgspread","uncletopia"],"game_id":440,"stv_port":27046,"stv_name":"Uncletopia | New York City | 4 | Community | STV","players":null},{"server_id":142,"name":"Uncletopia | SÃ£o Paulo | 1 | All Maps","name_short":"sao-1","host":"sao-1.br.uncletopia.com","port":27015,"enabled":true,"region":"sa","cc":"br","latitude":-23.533773,"longitude":-46.62529,"reserved":0,"last_update":"0001-01-01T00:00:00Z","name_a2s":"Uncletopia | SÃ£o Paulo | 1 | All Maps","protocol":17,"map":"koth_viaduct","folder":"tf","game":"Team Fortress","app_id":440,"player_count":0,"max_players":24,"Bots":0,"server_type":"Dedicated","server_os":"Linux","password":true,"vac":true,"version":"7961495","steam_id":85568392924469996,"keywords":["cp","nocrits","nodmgspread","uncletopia"],"game_id":440,"stv_port":27016,"stv_name":"Uncletopia | SÃ£o Paulo | 1 | All Maps | STV","players":null},{"server_id":143,"name":"Uncletopia | SÃ£o Paulo | 2 | Community","name_short":"sao-2","host":"sao-2.br.uncletopia.com","port":27015,"enabled":true,"region":"sa","cc":"br","latitude":-23.533773,"longitude":-46.62529,"reserved":0,"last_update":"0001-01-01T00:00:00Z","name_a2s":"Uncletopia | SÃ£o Paulo | 2 | Community","protocol":17,"map":"workshop/cp_hazyfort_rc6.ugc1365963729","folder":"tf","game":"Team Fortress","app_id":440,"player_count":0,"max_players":24,"Bots":0,"server_type":"Dedicated","server_os":"Linux","password":true,"vac":true,"version":"7961495","steam_id":85568392924485349,"keywords":["cp","nocrits","nodmgspread","uncletopia"],"game_id":440,"stv_port":27016,"stv_name":"Uncletopia | SÃ£o Paulo | 2 | Community | STV","players":null},{"server_id":7,"name":"Uncletopia | Seattle | 1 | All Maps","name_short":"sea-1","host":"sea-1.us.uncletopia.com","port":27015,"enabled":true,"region":"us-west","cc":"us","latitude":47.608013,"longitude":-122.33517,"reserved":0,"last_update":"0001-01-01T00:00:00Z","name_a2s":"Uncletopia | Seattle | 1 | All Maps","protocol":17,"map":"pl_barnblitz","folder":"tf","game":"Team Fortress","app_id":440,"player_count":24,"max_players":24,"Bots":0,"server_type":"Dedicated","server_os":"Linux","password":true,"vac":true,"version":"7961495","steam_id":85568392924469997,"keywords":["nocrits","nodmgspread","payload","uncletopia"],"game_id":440,"stv_port":27016,"stv_name":"Uncletopia | Seattle | 1 | All Maps | STV","players":[{"user_id":405,"name":"wrench","steam_id":76561198137242573,"connected_time":4021000000000,"state":"active","ping":62},{"user_id":457,"name":"ronald","steam_id":76561197960691622,"connected_time":1045000000000,"state":"active","ping":75},{"user_id":463,"name":"NEBULA","steam_id":76561198086878595,"connected_time":871000000000,"state":"active","ping":74},{"user_id":409,"name":"Nom Skirrett","steam_id":76561198014600788,"connected_time":3676000000000,"state":"active","ping":69},{"user_id":411,"name":"TROY","steam_id":76561197983852176,"connected_time":3536000000000,"state":"active","ping":76},{"user_id":454,"name":"WillowWisp","steam_id":76561198049104842,"connected_time":1137000000000,"state":"active","ping":45},{"user_id":401,"name":"ShiningForce","steam_id":76561198026039048,"connected_time":4731000000000,"state":"active","ping":72},{"user_id":449,"name":"Gm_Sweet","steam_id":76561199445091548,"connected_time":1576000000000,"state":"active","ping":60},{"user_id":452,"name":"Flerps","steam_id":76561197979279110,"connected_time":1459000000000,"state":"active","ping":61},{"user_id":440,"name":"Spectre","steam_id":76561198037535169,"connected_time":2326000000000,"state":"active","ping":70},{"user_id":461,"name":"Darkgigglemonster","steam_id":76561198870649125,"connected_time":989000000000,"state":"active","ping":79},{"user_id":458,"name":"Can of Oranges","steam_id":76561199121813529,"connected_time":1031000000000,"state":"active","ping":32},{"user_id":448,"name":"gimp daddy","steam_id":76561198981518998,"connected_time":1657000000000,"state":"active","ping":54},{"user_id":459,"name":"priÂ¹â¿á¶œáµ‰","steam_id":76561198286627157,"connected_time":1025000000000,"state":"active","ping":74},{"user_id":430,"name":"imasheep","steam_id":76561198210322871,"connected_time":2812000000000,"state":"active","ping":91},{"user_id":464,"name":"Athena","steam_id":76561198249736590,"connected_time":612000000000,"state":"active","ping":48},{"user_id":424,"name":"Hasterberg","steam_id":76561198968097614,"connected_time":3126000000000,"state":"active","ping":90},{"user_id":447,"name":"slushy :))","steam_id":76561198135281802,"connected_time":1838000000000,"state":"active","ping":45},{"user_id":438,"name":"Tibetan Pop Star","steam_id":76561198844903984,"connected_time":2506000000000,"state":"active","ping":70},{"user_id":427,"name":"Haydob13","steam_id":76561198110378191,"connected_time":3072000000000,"state":"active","ping":58},{"user_id":455,"name":"cheesebro","steam_id":76561198002072852,"connected_time":1094000000000,"state":"active","ping":68},{"user_id":433,"name":"Puskinti","steam_id":76561198032120688,"connected_time":2686000000000,"state":"active","ping":48},{"user_id":443,"name":"nutbuster23","steam_id":76561198372513219,"connected_time":1982000000000,"state":"active","ping":49},{"user_id":456,"name":"StudioMania (#SAVETF2)","steam_id":76561198211315795,"connected_time":1073000000000,"state":"active","ping":117}]},{"server_id":119,"name":"Uncletopia | Seattle | 2 | All Maps","name_short":"sea-2","host":"sea-1.us.uncletopia.com","port":27025,"enabled":true,"region":"us-west","cc":"us","latitude":47.608013,"longitude":-122.33517,"reserved":0,"last_update":"0001-01-01T00:00:00Z","name_a2s":"Uncletopia | Seattle | 2 | All Maps","protocol":17,"map":"cp_process_final","folder":"tf","game":"Team Fortress","app_id":440,"player_count":24,"max_players":24,"Bots":0,"server_type":"Dedicated","server_os":"Linux","password":true,"vac":true,"version":"7961495","steam_id":85568392924469998,"keywords":["cp","nocrits","nodmgspread","uncletopia"],"game_id":440,"stv_port":27026,"stv_name":"Uncletopia | Seattle | 2 | All Maps | STV","players":[{"user_id":408,"name":"RedNeckMatt","steam_id":76561198025831435,"connected_time":187000000000,"state":"active","ping":118},{"user_id":386,"name":"D.A.V.I.D","steam_id":76561199443570634,"connected_time":1561000000000,"state":"active","ping":56},{"user_id":387,"name":"femmescout","steam_id":76561198250928638,"connected_time":1520000000000,"state":"active","ping":72},{"user_id":409,"name":"Tommy Pickles (Very Cool)","steam_id":76561198391261463,"connected_time":0,"state":"spawning","ping":52},{"user_id":406,"name":"BradB.","steam_id":76561199163905036,"connected_time":228000000000,"state":"active","ping":122},{"user_id":405,"name":"Apollo","steam_id":76561198162364702,"connected_time":231000000000,"state":"active","ping":53},{"user_id":353,"name":"MrYadaization","steam_id":76561198050770818,"connected_time":3280000000000,"state":"active","ping":58},{"user_id":402,"name":"Banette","steam_id":76561198215458333,"connected_time":601000000000,"state":"active","ping":48},{"user_id":376,"name":"watrisntfruit","steam_id":76561199274595793,"connected_time":1781000000000,"state":"active","ping":61},{"user_id":400,"name":"beastbitesbag;becomebereft","steam_id":76561197972601902,"connected_time":950000000000,"state":"active","ping":82},{"user_id":382,"name":"Venk","steam_id":76561198251131422,"connected_time":1591000000000,"state":"active","ping":80},{"user_id":370,"name":"don't get mad","steam_id":76561198064662875,"connected_time":2260000000000,"state":"active","ping":62},{"user_id":377,"name":"â™¥ Osana Najimi â™¥ (Soupcan)","steam_id":76561198056269538,"connected_time":1641000000000,"state":"active","ping":46},{"user_id":399,"name":"albert581_gaming","steam_id":76561198219209367,"connected_time":1068000000000,"state":"active","ping":59},{"user_id":359,"name":"Trouser Snivy","steam_id":76561198073788829,"connected_time":2926000000000,"state":"active","ping":61},{"user_id":337,"name":"CashGordon","steam_id":76561197975594096,"connected_time":4473000000000,"state":"active","ping":42},{"user_id":395,"name":"ballslol","steam_id":76561198071578435,"connected_time":1382000000000,"state":"active","ping":46},{"user_id":365,"name":"trackpad gaming | f2p","steam_id":76561198840414371,"connected_time":2511000000000,"state":"active","ping":53},{"user_id":396,"name":"Grilled Jizo","steam_id":76561199250875340,"connected_time":1377000000000,"state":"active","ping":64},{"user_id":403,"name":"mub","steam_id":76561197961943948,"connected_time":527000000000,"state":"active","ping":48},{"user_id":333,"name":"Femboy Bowsetteâ„¢","steam_id":76561198028183029,"connected_time":4681000000000,"state":"active","ping":114},{"user_id":374,"name":"gloobern","steam_id":76561198341190679,"connected_time":1955000000000,"state":"active","ping":56},{"user_id":398,"name":"Koishi","steam_id":76561198054541054,"connected_time":1168000000000,"state":"active","ping":108},{"user_id":407,"name":"R5-D4","steam_id":76561198025196439,"connected_time":226000000000,"state":"active","ping":59}]},{"server_id":406,"name":"Uncletopia | Seattle | 3 | Stopwatch","name_short":"sea-3","host":"sea-1.us.uncletopia.com","port":27035,"enabled":true,"region":"us-west","cc":"us","latitude":47.608013,"longitude":-122.33517,"reserved":0,"last_update":"0001-01-01T00:00:00Z","name_a2s":"Uncletopia | Seattle | 3 | Stopwatch","protocol":17,"map":"workshop/koth_product_final.ugc454272353","folder":"tf","game":"Team Fortress","app_id":440,"player_count":0,"max_players":24,"Bots":0,"server_type":"Dedicated","server_os":"Linux","password":true,"vac":true,"version":"7961495","steam_id":85568392924515217,"keywords":["cp","nocrits","nodmgspread","uncletopia"],"game_id":440,"stv_port":27036,"stv_name":"Uncletopia | Seattle | 3 | Stopwatch | STV","players":null},{"server_id":17,"name":"Uncletopia | San Francisco | 1 | All Maps","name_short":"sfo-1","host":"sfo-1.us.uncletopia.com","port":27015,"enabled":true,"region":"us-west","cc":"us","latitude":37.77397,"longitude":-122.4313,"reserved":0,"last_update":"0001-01-01T00:00:00Z","name_a2s":"Uncletopia | San Francisco | 1 | All Maps","protocol":17,"map":"pl_thundermountain","folder":"tf","game":"Team Fortress","app_id":440,"player_count":24,"max_players":24,"Bots":0,"server_type":"Dedicated","server_os":"Linux","password":true,"vac":true,"version":"7961495","steam_id":85568392924469999,"keywords":["nocrits","nodmgspread","payload","uncletopia"],"game_id":440,"stv_port":27016,"stv_name":"Uncletopia | San Francisco | 1 | All Maps | STV","players":[{"user_id":264,"name":"Dagoth Ur","steam_id":76561198115714484,"connected_time":264000000000,"state":"active","ping":90},{"user_id":263,"name":"SÃ¡bado Gigante","steam_id":76561197994685971,"connected_time":529000000000,"state":"active","ping":61},{"user_id":265,"name":"Rafl","steam_id":76561198055222756,"connected_time":241000000000,"state":"active","ping":84},{"user_id":266,"name":"FOOL","steam_id":76561198370866973,"connected_time":26000000000,"state":"active","ping":99},{"user_id":255,"name":"demomanfan2008","steam_id":76561198077030486,"connected_time":1711000000000,"state":"active","ping":52},{"user_id":200,"name":"AstroRips","steam_id":76561198827617571,"connected_time":5588000000000,"state":"active","ping":77},{"user_id":229,"name":"Charlatan","steam_id":76561198345242865,"connected_time":3812000000000,"state":"active","ping":51},{"user_id":252,"name":"Lickity Split","steam_id":76561198132051047,"connected_time":1965000000000,"state":"active","ping":90},{"user_id":236,"name":"Igrium","steam_id":76561198119549811,"connected_time":2946000000000,"state":"active","ping":61},{"user_id":216,"name":"MasterGeek.MX","steam_id":76561198063355220,"connected_time":4294000000000,"state":"active","ping":132},{"user_id":180,"name":"hyaz, +rep.","steam_id":76561199100342013,"connected_time":7434000000000,"state":"active","ping":58},{"user_id":195,"name":"Mom","steam_id":76561198207936000,"connected_time":5673000000000,"state":"active","ping":44},{"user_id":246,"name":"SnÃ¶rk PjÃ¶rklet","steam_id":76561198022556859,"connected_time":2424000000000,"state":"active","ping":104},{"user_id":238,"name":"Dunder","steam_id":76561198263280104,"connected_time":2878000000000,"state":"active","ping":52},{"user_id":253,"name":"SoldMyKidneyForCollege","steam_id":76561198096329559,"connected_time":1918000000000,"state":"active","ping":53},{"user_id":225,"name":"Jovo","steam_id":76561197993265970,"connected_time":3993000000000,"state":"active","ping":60},{"user_id":254,"name":"O-Daesu","steam_id":76561198025796732,"connected_time":1846000000000,"state":"active","ping":133},{"user_id":193,"name":"The_Pacific_gamer","steam_id":76561198089491446,"connected_time":5729000000000,"state":"active","ping":71},{"user_id":262,"name":"God's Goofiest Goober","steam_id":76561198418288939,"connected_time":1114000000000,"state":"active","ping":63},{"user_id":247,"name":"Pixelated Pussy","steam_id":76561198002511088,"connected_time":2407000000000,"state":"active","ping":72},{"user_id":199,"name":"Gwuf","steam_id":76561198091503282,"connected_time":5638000000000,"state":"active","ping":93},{"user_id":260,"name":"The Jarge","steam_id":76561198970722195,"connected_time":1619000000000,"state":"active","ping":114},{"user_id":251,"name":"Stapler","steam_id":76561198099295077,"connected_time":2206000000000,"state":"active","ping":59},{"user_id":257,"name":"Crylec","steam_id":76561198092755279,"connected_time":1689000000000,"state":"active","ping":124}]},{"server_id":18,"name":"Uncletopia | San Francisco | 2 | All Maps","name_short":"sfo-2","host":"sfo-1.us.uncletopia.com","port":27025,"enabled":true,"region":"us-west","cc":"us","latitude":37.77397,"longitude":-122.4313,"reserved":0,"last_update":"0001-01-01T00:00:00Z","name_a2s":"Uncletopia | San Francisco | 2 | All Maps","protocol":17,"map":"cp_mountainlab","folder":"tf","game":"Team Fortress","app_id":440,"player_count":24,"max_players":24,"Bots":0,"server_type":"Dedicated","server_os":"Linux","password":true,"vac":true,"version":"7961495","steam_id":85568392924470000,"keywords":["cp","nocrits","nodmgspread","uncletopia"],"game_id":440,"stv_port":27026,"stv_name":"Uncletopia | San Francisco | 2 | All Maps | STV","players":[{"user_id":319,"name":"bobtheninjaman","steam_id":76561198066424544,"connected_time":6015000000000,"state":"active","ping":70},{"user_id":378,"name":"Happytoe","steam_id":76561198001295503,"connected_time":2226000000000,"state":"active","ping":66},{"user_id":374,"name":"John Quincy Adams","steam_id":76561198069735882,"connected_time":3128000000000,"state":"active","ping":113},{"user_id":362,"name":"Not pawky","steam_id":76561198148738849,"connected_time":3883000000000,"state":"active","ping":49},{"user_id":410,"name":"Jack","steam_id":76561199135213338,"connected_time":281000000000,"state":"active","ping":63},{"user_id":405,"name":"LordKirby","steam_id":76561198006938286,"connected_time":789000000000,"state":"active","ping":84},{"user_id":380,"name":"crispy","steam_id":76561198971106376,"connected_time":1795000000000,"state":"active","ping":92},{"user_id":411,"name":"i only give sandwiches to gays","steam_id":76561198041061148,"connected_time":271000000000,"state":"active","ping":68},{"user_id":402,"name":"Beta Fish","steam_id":76561198073504861,"connected_time":913000000000,"state":"active","ping":98},{"user_id":385,"name":"TheTalentlessChicken","steam_id":76561198148390834,"connected_time":1562000000000,"state":"active","ping":64},{"user_id":404,"name":"wizerd","steam_id":76561198342480009,"connected_time":883000000000,"state":"active","ping":54},{"user_id":395,"name":"Emprial","steam_id":76561198195574594,"connected_time":1373000000000,"state":"active","ping":97},{"user_id":387,"name":"Cash MoneyBlue","steam_id":76561198934825927,"connected_time":1550000000000,"state":"active","ping":113},{"user_id":307,"name":"||:â™©â™©â™©â™ª:|| Opplydead","steam_id":76561198028630334,"connected_time":6809000000000,"state":"active","ping":55},{"user_id":375,"name":"TeriyakiDynamite","steam_id":76561198050049346,"connected_time":3127000000000,"state":"active","ping":71},{"user_id":406,"name":"Birby","steam_id":76561198884009768,"connected_time":786000000000,"state":"active","ping":54},{"user_id":412,"name":"Rav3 p4rty (feat. Kranky Kranky","steam_id":76561198975450630,"connected_time":270000000000,"state":"active","ping":66},{"user_id":413,"name":"Run 'n gun","steam_id":76561198081173302,"connected_time":151000000000,"state":"active","ping":63},{"user_id":401,"name":"mom","steam_id":76561198333370104,"connected_time":944000000000,"state":"active","ping":38},{"user_id":396,"name":"Spooks","steam_id":76561198360959776,"connected_time":1343000000000,"state":"active","ping":64},{"user_id":391,"name":"Risky","steam_id":76561198231029328,"connected_time":1467000000000,"state":"active","ping":48},{"user_id":393,"name":"reymundo","steam_id":76561197989412830,"connected_time":1446000000000,"state":"active","ping":74},{"user_id":397,"name":"beefskewer","steam_id":76561198049992949,"connected_time":1287000000000,"state":"active","ping":55},{"user_id":414,"name":"Major_Pippy","steam_id":76561198004482878,"connected_time":106000000000,"state":"active","ping":67}]},{"server_id":19,"name":"Uncletopia | San Francisco | 3 | Stopwatch","name_short":"sfo-3","host":"sfo-1.us.uncletopia.com","port":27035,"enabled":true,"region":"us-west","cc":"us","latitude":37.77397,"longitude":-122.4313,"reserved":0,"last_update":"0001-01-01T00:00:00Z","name_a2s":"Uncletopia | San Francisco | 3 | Stopwatch","protocol":17,"map":"workshop/koth_clearcut_b15.ugc2107050255","folder":"tf","game":"Team Fortress","app_id":440,"player_count":0,"max_players":24,"Bots":0,"server_type":"Dedicated","server_os":"Linux","password":true,"vac":true,"version":"7961495","steam_id":85568392924742824,"keywords":["cp","nocrits","nodmgspread","uncletopia"],"game_id":440,"stv_port":27036,"stv_name":"Uncletopia | San Francisco | 3 | Stopwatch | STV","players":null},{"server_id":20,"name":"Uncletopia | San Francisco | 4 | Community","name_short":"sfo-4","host":"sfo-1.us.uncletopia.com","port":27045,"enabled":true,"region":"us-west","cc":"us","latitude":37.77397,"longitude":-122.4313,"reserved":0,"last_update":"0001-01-01T00:00:00Z","name_a2s":"Uncletopia | San Francisco | 4 | Community","protocol":17,"map":"workshop/cp_coilblaze_rc7.ugc1272700588","folder":"tf","game":"Team Fortress","app_id":440,"player_count":0,"max_players":24,"Bots":0,"server_type":"Dedicated","server_os":"Linux","password":true,"vac":true,"version":"7961495","steam_id":85568392924742826,"keywords":["cp","nocrits","nodmgspread","uncletopia"],"game_id":440,"stv_port":27046,"stv_name":"Uncletopia | San Francisco | 4 | Community | STV","players":null},{"server_id":141,"name":"Uncletopia | Sydney | 1 | All Maps","name_short":"syd-1","host":"syd-1.au.uncletopia.com","port":27015,"enabled":true,"region":"au","cc":"au","latitude":-33.865143,"longitude":151.2099,"reserved":0,"last_update":"0001-01-01T00:00:00Z","name_a2s":"Uncletopia | Sydney | 1 | All Maps","protocol":17,"map":"koth_cascade","folder":"tf","game":"Team Fortress","app_id":440,"player_count":2,"max_players":24,"Bots":0,"server_type":"Dedicated","server_os":"Linux","password":true,"vac":true,"version":"7961495","steam_id":85568392924470001,"keywords":["cp","nocrits","nodmgspread","uncletopia"],"game_id":440,"stv_port":27016,"stv_name":"Uncletopia | Sydney | 1 | All Maps | STV","players":[{"user_id":45,"name":"Cabanela","steam_id":76561198305342025,"connected_time":84000000000,"state":"spawning","ping":96},{"user_id":44,"name":"dav","steam_id":76561199109146432,"connected_time":202000000000,"state":"active","ping":71}]},{"server_id":123,"name":"Uncletopia | Sydney | 2 | All Maps","name_short":"syd-2","host":"syd-1.au.uncletopia.com","port":27025,"enabled":true,"region":"au","cc":"au","latitude":-33.865143,"longitude":151.2099,"reserved":0,"last_update":"0001-01-01T00:00:00Z","name_a2s":"Uncletopia | Sydney | 2 | All Maps","protocol":17,"map":"cp_mountainlab","folder":"tf","game":"Team Fortress","app_id":440,"player_count":0,"max_players":24,"Bots":0,"server_type":"Dedicated","server_os":"Linux","password":true,"vac":true,"version":"7961495","steam_id":85568392924470002,"keywords":["cp","nocrits","nodmgspread","uncletopia"],"game_id":440,"stv_port":27026,"stv_name":"Uncletopia | Sydney | 2 | All Maps | STV","players":null},{"server_id":395,"name":"Uncletopia | Sydney | 3 | All Maps","name_short":"syd-3","host":"syd-1.au.uncletopia.com","port":27035,"enabled":true,"region":"au","cc":"au","latitude":-33.865143,"longitude":151.2099,"reserved":0,"last_update":"0001-01-01T00:00:00Z","name_a2s":"Uncletopia | Sydney | 3 | All Maps","protocol":17,"map":"pl_frontier_final","folder":"tf","game":"Team Fortress","app_id":440,"player_count":0,"max_players":24,"Bots":0,"server_type":"Dedicated","server_os":"Linux","password":true,"vac":true,"version":"7961495","steam_id":85568392925194467,"keywords":["nocrits","nodmgspread","payload","uncletopia"],"game_id":440,"stv_port":27036,"stv_name":"Uncletopia | Sydney | 3 | All Maps | STV","players":null},{"server_id":396,"name":"Uncletopia | Sydney | 4 | All Maps","name_short":"syd-4","host":"syd-1.au.uncletopia.com","port":27045,"enabled":true,"region":"au","cc":"au","latitude":-33.865143,"longitude":151.2099,"reserved":0,"last_update":"0001-01-01T00:00:00Z","name_a2s":"Uncletopia | Sydney | 4 | All Maps","protocol":17,"map":"pl_pier","folder":"tf","game":"Team Fortress","app_id":440,"player_count":0,"max_players":24,"Bots":0,"server_type":"Dedicated","server_os":"Linux","password":true,"vac":true,"version":"7961495","steam_id":85568392925397958,"keywords":["nocrits","nodmgspread","payload","uncletopia"],"game_id":440,"stv_port":27046,"stv_name":"Uncletopia | Sydney | 4 | All Maps | STV","players":null},{"server_id":58,"name":"Uncletopia | Sydney | 5 | Stopwatch","name_short":"syd-5","host":"syd-1.au.uncletopia.com","port":27055,"enabled":true,"region":"au","cc":"au","latitude":-33.865143,"longitude":151.2099,"reserved":0,"last_update":"0001-01-01T00:00:00Z","name_a2s":"Uncletopia | Sydney | 5 | Stopwatch","protocol":17,"map":"pl_frontier_final","folder":"tf","game":"Team Fortress","app_id":440,"player_count":0,"max_players":24,"Bots":0,"server_type":"Dedicated","server_os":"Linux","password":true,"vac":true,"version":"7961495","steam_id":85568392925397959,"keywords":["nocrits","nodmgspread","payload","uncletopia"],"game_id":440,"stv_port":27056,"stv_name":"Uncletopia | Sydney | 5 | Stopwatch | STV","players":null},{"server_id":59,"name":"Uncletopia | Sydney | 6 | Community","name_short":"syd-6","host":"syd-1.au.uncletopia.com","port":27065,"enabled":true,"region":"au","cc":"au","latitude":-33.865143,"longitude":151.2099,"reserved":0,"last_update":"0001-01-01T00:00:00Z","name_a2s":"Uncletopia | Sydney | 6 | Community","protocol":17,"map":"cp_sunshine","folder":"tf","game":"Team Fortress","app_id":440,"player_count":0,"max_players":24,"Bots":0,"server_type":"Dedicated","server_os":"Linux","password":true,"vac":true,"version":"7961495","steam_id":85568392925397960,"keywords":["cp","nocrits","nodmgspread","uncletopia"],"game_id":440,"stv_port":27066,"stv_name":"Uncletopia | Sydney | 6 | Community | STV","players":null},{"server_id":49,"name":"Uncletopia | Warsaw | 1 | One Thousand Uncles","name_short":"waw-1","host":"waw-1.pl.uncletopia.com","port":27015,"enabled":true,"region":"eu","cc":"pl","latitude":52.2297,"longitude":21.017532,"reserved":0,"last_update":"0001-01-01T00:00:00Z","name_a2s":"Uncletopia | Warsaw | 1 | One Thousand Uncles","protocol":17,"map":"pl_snowycoast","folder":"tf","game":"Team Fortress","app_id":440,"player_count":0,"max_players":32,"Bots":0,"server_type":"Dedicated","server_os":"Linux","password":true,"vac":true,"version":"7961495","steam_id":85568392925397850,"keywords":["alltalk","danepve","increased_maxplayers","nocrits","norespawntime","payload","uncletopia"],"game_id":440,"stv_port":0,"stv_name":"","players":null},{"server_id":50,"name":"Uncletopia | Warsaw | 2 | One Thousand Uncles","name_short":"waw-2","host":"waw-1.pl.uncletopia.com","port":27025,"enabled":true,"region":"eu","cc":"pl","latitude":52.2297,"longitude":21.017532,"reserved":0,"last_update":"0001-01-01T00:00:00Z","name_a2s":"Uncletopia | Warsaw | 2 | One Thousand Uncles","protocol":17,"map":"cp_mossrock","folder":"tf","game":"Team Fortress","app_id":440,"player_count":0,"max_players":32,"Bots":0,"server_type":"Dedicated","server_os":"Linux","password":true,"vac":true,"version":"7961495","steam_id":85568392925397851,"keywords":["alltalk","cp","danepve","increased_maxplayers","nocrits","norespawntime","uncletopia"],"game_id":440,"stv_port":0,"stv_name":"","players":null},{"server_id":51,"name":"Uncletopia | Warsaw | 3 | All Maps","name_short":"waw-3","host":"waw-1.pl.uncletopia.com","port":27035,"enabled":true,"region":"eu","cc":"pl","latitude":52.2297,"longitude":21.017532,"reserved":0,"last_update":"0001-01-01T00:00:00Z","name_a2s":"Uncletopia | Warsaw | 3 | All Maps","protocol":17,"map":"cp_sunshine","folder":"tf","game":"Team Fortress","app_id":440,"player_count":0,"max_players":24,"Bots":0,"server_type":"Dedicated","server_os":"Linux","password":true,"vac":true,"version":"7961495","steam_id":85568392925397852,"keywords":["cp","nocrits","nodmgspread","uncletopia"],"game_id":440,"stv_port":27036,"stv_name":"Uncletopia | Warsaw | 3 | All Maps | STV","players":null},{"server_id":52,"name":"Uncletopia | Warsaw | 4 | All Maps","name_short":"waw-4","host":"waw-1.pl.uncletopia.com","port":27045,"enabled":true,"region":"eu","cc":"pl","latitude":52.2297,"longitude":21.017532,"reserved":0,"last_update":"0001-01-01T00:00:00Z","name_a2s":"Uncletopia | Warsaw | 4 | All Maps","protocol":17,"map":"cp_dustbowl","folder":"tf","game":"Team Fortress","app_id":440,"player_count":0,"max_players":24,"Bots":0,"server_type":"Dedicated","server_os":"Linux","password":true,"vac":true,"version":"7961495","steam_id":85568392925397853,"keywords":["cp","nocrits","nodmgspread","uncletopia"],"game_id":440,"stv_port":27046,"stv_name":"Uncletopia | Warsaw | 4 | All Maps | STV","players":null},{"server_id":53,"name":"Uncletopia | Warsaw | 5 | Stopwatch","name_short":"waw-5","host":"waw-1.pl.uncletopia.com","port":27055,"enabled":true,"region":"eu","cc":"pl","latitude":52.2297,"longitude":21.017532,"reserved":0,"last_update":"0001-01-01T00:00:00Z","name_a2s":"Uncletopia | Warsaw | 5 | Stopwatch","protocol":17,"map":"workshop/koth_ashville_final.ugc2130459942","folder":"tf","game":"Team Fortress","app_id":440,"player_count":0,"max_players":24,"Bots":0,"server_type":"Dedicated","server_os":"Linux","password":true,"vac":true,"version":"7961495","steam_id":85568392925397854,"keywords":["cp","nocrits","nodmgspread","uncletopia"],"game_id":440,"stv_port":27056,"stv_name":"Uncletopia | Warsaw | 5 | Stopwatch | STV","players":null},{"server_id":54,"name":"Uncletopia | Warsaw | 6 | Community","name_short":"waw-6","host":"waw-1.pl.uncletopia.com","port":27065,"enabled":true,"region":"eu","cc":"pl","latitude":52.2297,"longitude":21.017532,"reserved":0,"last_update":"0001-01-01T00:00:00Z","name_a2s":"Uncletopia | Warsaw | 6 | Community","protocol":17,"map":"workshop/cp_mannbase_rc2a.ugc1900737467","folder":"tf","game":"Team Fortress","app_id":440,"player_count":0,"max_players":24,"Bots":0,"server_type":"Dedicated","server_os":"Linux","password":true,"vac":true,"version":"7961495","steam_id":85568392925397856,"keywords":["cp","nocrits","nodmgspread","uncletopia"],"game_id":440,"stv_port":27066,"stv_name":"Uncletopia | Warsaw | 6 | Community | STV","players":null}]}