{"status":true,"message":"","result":[{"server_id":9,"name":"Uncletopia | Atlanta | 1 | All Maps","name_short":"atl-1","host":"atl-1.us.uncletopia.com","port":27015,"enabled":true,"region":"us-east","cc":"us","latitude":33.753746,"longitude":-84.38633,"reserved":0,"last_update":"0001-01-01T00:00:00Z","name_a2s":"Uncletopia | Atlanta | 1 | All Maps","protocol":17,"map":"koth_cascade","folder":"tf","game":"Team Fortress","app_id":440,"player_count":16,"max_players":24,"Bots":0,"server_type":"Dedicated","server_os":"Linux","password":true,"vac":true,"version":"7932396","steam_id":85568392924469982,"keywords":["cp","nocrits","nodmgspread","uncletopia"],"game_id":440,"stv_port":27016,"stv_name":"Uncletopia | Atlanta | 1 | All Maps | STV","players":[{"user_id":462,"name":"A Rope, for big pits","steam_id":76561198068044782,"connected_time":1270000000000,"state":"active","ping":75},{"user_id":400,"name":"GibbusGod","steam_id":76561199232436690,"connected_time":2348000000000,"state":"active","ping":90},{"user_id":448,"name":"Drinker of Water","steam_id":76561198284647525,"connected_time":1478000000000,"state":"active","ping":90},{"user_id":496,"name":"Pourpel","steam_id":76561198059125470,"connected_time":50000000000,"state":"active","ping":69},{"user_id":323,"name":"Denzel McFlurry","steam_id":76561199231296521,"connected_time":3491000000000,"state":"active","ping":98},{"user_id":475,"name":"Maximuffin2","steam_id":76561198169475792,"connected_time":1042000000000,"state":"active","ping":91},{"user_id":464,"name":"Adora","steam_id":76561198315631796,"connected_time":1256000000000,"state":"active","ping":94},{"user_id":427,"name":"gon","steam_id":76561198341171295,"connected_time":2027000000000,"state":"active","ping":127},{"user_id":490,"name":"Flaynfish","steam_id":76561198988653698,"connected_time":485000000000,"state":"active","ping":97},{"user_id":373,"name":"V. G. Sunderland","steam_id":76561198161839980,"connected_time":2690000000000,"state":"active","ping":88},{"user_id":494,"name":"Mince_","steam_id":76561199456345008,"connected_time":287000000000,"state":"active","ping":137},{"user_id":457,"name":"loboto gaming","steam_id":76561199088321574,"connected_time":1383000000000,"state":"active","ping":125},{"user_id":332,"name":"FOrce of nature","steam_id":76561198390522839,"connected_time":3402000000000,"state":"active","ping":119},{"user_id":467,"name":"√áAFFIEND","steam_id":76561198062993241,"connected_time":1240000000000,"state":"active","ping":89},{"user_id":377,"name":"iclark5","steam_id":76561199256588354,"connected_time":2663000000000,"state":"active","ping":119},{"user_id":493,"name":"Zigadox","steam_id":76561198079813479,"connected_time":322000000000,"state":"active","ping":107}]},{"server_id":104,"name":"Uncletopia | Atlanta | 2 | All Maps","name_short":"atl-2","host":"atl-1.us.uncletopia.com","port":27025,"enabled":true,"region":"us-east","cc":"us","latitude":33.753746,"longitude":-84.38633,"reserved":0,"last_update":"0001-01-01T00:00:00Z","name_a2s":"Uncletopia | Atlanta | 2 | All Maps","protocol":17,"map":"cp_altitude","folder":"tf","game":"Team Fortress","app_id":440,"player_count":0,"max_players":24,"Bots":0,"server_type":"Dedicated","server_os":"Linux","password":true,"vac":true,"version":"7932396","steam_id":85568392924469983,"keywords":["cp","nocrits","nodmgspread","uncletopia"],"game_id":440,"stv_port":27026,"stv_name":"Uncletopia | Atlanta | 2 | All Maps | STV","players":null},{"server_id":400,"name":"Uncletopia | Atlanta | 3 | Community","name_short":"atl-3","host":"atl-1.us.uncletopia.com","port":27035,"enabled":true,"region":"us-east","cc":"us","latitude":33.753746,"longitude":-84.38633,"reserved":0,"last_update":"0001-01-01T00:00:00Z","name_a2s":"Uncletopia | Atlanta | 3 | Community","protocol":17,"map":"workshop/koth_trenchfoot_b1a.ugc731436616","folder":"tf","game":"Team Fortress","app_id":440,"player_count":0,"max_players":24,"Bots":0,"server_type":"Dedicated","server_os":"Linux","password":true,"vac":true,"version":"7932396","steam_id":85568392924515187,"keywords":["cp","nocrits","nodmgspread","uncletopia"],"game_id":440,"stv_port":27036,"stv_name":"Uncletopia | Atlanta | 3 | Community | STV","players":null},{"server_id":401,"name":"Uncletopia | Atlanta | 4 | No Payload","name_short":"atl-4","host":"atl-1.us.uncletopia.com","port":27045,"enabled":true,"region":"us-east","cc":"us","latitude":33.753746,"longitude":-84.38633,"reserved":0,"last_update":"0001-01-01T00:00:00Z","name_a2s":"","protocol":0,"map":"","folder":"","game":"","app_id":0,"player_count":0,"max_players":0,"Bots":0,"server_type":"","server_os":"","password":false,"vac":false,"version":"","steam_id":0,"keywords":null,"game_id":0,"stv_port":0,"stv_name":"","players":null},{"server_id":2,"name":"Uncletopia | Chicago | 1 | All Maps","name_short":"chi-1","host":"chi-1.us.uncletopia.com","port":27015,"enabled":true,"region":"us-central","cc":"us","latitude":41.881832,"longitude":-87.62318,"reserved":0,"last_update":"0001-01-01T00:00:00Z","name_a2s":"Uncletopia | Chicago | 1 | All Maps","protocol":17,"map":"pl_upward","folder":"tf","game":"Team Fortress","app_id":440,"player_count":24,"max_players":24,"Bots":0,"server_type":"Dedicated","server_os":"Linux","password":true,"vac":true,"version":"7932396","steam_id":85568392924469984,"keywords":["nocrits","nodmgspread","payload","uncletopia"],"game_id":440,"stv_port":27016,"stv_name":"Uncletopia | Chicago | 1 | All Maps | STV","players":[{"user_id":786,"name":"God","steam_id":76561198131089513,"connected_time":1106000000000,"state":"active","ping":50},{"user_id":782,"name":"Skeleton Dad","steam_id":76561198021489595,"connected_time":1258000000000,"state":"active","ping":74},{"user_id":740,"name":"Robo Boss","steam_id":76561199067098696,"connected_time":4960000000000,"state":"active","ping":85},{"user_id":771,"name":"win free ipod","steam_id":76561198057356807,"connected_time":1745000000000,"state":"active","ping":50},{"user_id":760,"name":"Drooop","steam_id":76561198856700517,"connected_time":3404000000000,"state":"active","ping":74},{"user_id":781,"name":"loser","steam_id":76561198259380127,"connected_time":1493000000000,"state":"active","ping":59},{"user_id":704,"name":"Celestial Bodies","steam_id":76561198212572955,"connected_time":8563000000000,"state":"active","ping":77},{"user_id":773,"name":"Lost","steam_id":76561198093713427,"connected_time":1713000000000,"state":"active","ping":60},{"user_id":761,"name":"heademptyengineer.JIFF","steam_id":76561198045181760,"connected_time":3400000000000,"state":"active","ping":59},{"user_id":787,"name":"Karrman","steam_id":76561198859737700,"connected_time":694000000000,"state":"active","ping":70},{"user_id":790,"name":"Person","steam_id":76561198093244204,"connected_time":442000000000,"state":"active","ping":69},{"user_id":752,"name":"Doctor Emerald(real)","steam_id":76561199123003872,"connected_time":3666000000000,"state":"active","ping":95},{"user_id":791,"name":"peakmeta","steam_id":76561199053600691,"connected_time":438000000000,"state":"active","ping":52},{"user_id":774,"name":"Skinny pete","steam_id":76561198801608576,"connected_time":1700000000000,"state":"active","ping":75},{"user_id":784,"name":"Captain S. Forrest","steam_id":76561198062463029,"connected_time":1132000000000,"state":"active","ping":106},{"user_id":789,"name":"Mehman","steam_id":76561199020244051,"connected_time":471000000000,"state":"active","ping":116},{"user_id":779,"name":"I shovel mayonnaise in mouth","steam_id":76561199123118241,"connected_time":1598000000000,"state":"active","ping":105},{"user_id":776,"name":"FHC | Nyle","steam_id":76561198045652639,"connected_time":1634000000000,"state":"active","ping":133},{"user_id":727,"name":"Wizard Raccoon","steam_id":76561198072562591,"connected_time":6185000000000,"state":"active","ping":82},{"user_id":728,"name":"L + Ratio","steam_id":76561198263786953,"connected_time":6184000000000,"state":"active","ping":76},{"user_id":780,"name":"WM1 PYRO","steam_id":76561198045893896,"connected_time":1597000000000,"state":"active","ping":91},{"user_id":783,"name":"Toastie","steam_id":76561198246760934,"connected_time":1205000000000,"state":"active","ping":84},{"user_id":785,"name":"Cleric","steam_id":76561198045887994,"connected_time":1132000000000,"state":"active","ping":48},{"user_id":792,"name":"DiGiorno's Pizza","steam_id":76561198142244035,"connected_time":77000000000,"state":"active","ping":57}]},{"server_id":106,"name":"Uncletopia | Chicago | 2 | All Maps","name_short":"chi-2","host":"chi-1.us.uncletopia.com","port":27025,"enabled":true,"region":"us-central","cc":"us","latitude":41.881832,"longitude":-87.62318,"reserved":0,"last_update":"0001-01-01T00:00:00Z","name_a2s":"Uncletopia | Chicago | 2 | All Maps","protocol":17,"map":"pl_frontier_final","folder":"tf","game":"Team Fortress","app_id":440,"player_count":24,"max_players":24,"Bots":0,"server_type":"Dedicated","server_os":"Linux","password":true,"vac":true,"version":"7932396","steam_id":85568392924469985,"keywords":["nocrits","nodmgspread","payload","uncletopia"],"game_id":440,"stv_port":27026,"stv_name":"Uncletopia | Chicago | 2 | All Maps | STV","players":[{"user_id":771,"name":"cucumper","steam_id":76561198079504588,"connected_time":1142000000000,"state":"active","ping":62},{"user_id":766,"name":"SpongedSocks","steam_id":76561198374009086,"connected_time":1894000000000,"state":"active","ping":64},{"user_id":700,"name":"gps","steam_id":76561198067492304,"connected_time":6695000000000,"state":"active","ping":81},{"user_id":717,"name":"xX_HimboSwallower_Xx","steam_id":76561198016029965,"connected_time":5839000000000,"state":"active","ping":61},{"user_id":776,"name":"Oddball","steam_id":76561198040440984,"connected_time":213000000000,"state":"active","ping":78},{"user_id":734,"name":"Glass Joe","steam_id":76561198317365741,"connected_time":5044000000000,"state":"active","ping":63},{"user_id":772,"name":"Bunnyboy","steam_id":76561198298416058,"connected_time":1122000000000,"state":"active","ping":68},{"user_id":711,"name":"LegendaryMister151","steam_id":76561198064890524,"connected_time":6246000000000,"state":"active","ping":92},{"user_id":773,"name":"RaddahRaddah","steam_id":76561198194462829,"connected_time":1119000000000,"state":"active","ping":63},{"user_id":761,"name":"wiiblob","steam_id":76561198109106242,"connected_time":2440000000000,"state":"active","ping":142},{"user_id":740,"name":"Rafl","steam_id":76561198055222756,"connected_time":4307000000000,"state":"active","ping":67},{"user_id":735,"name":"Protato","steam_id":76561198061182563,"connected_time":4984000000000,"state":"active","ping":79},{"user_id":775,"name":"Apple Crisp","steam_id":76561198129518886,"connected_time":328000000000,"state":"active","ping":84},{"user_id":646,"name":"Unholy","steam_id":76561198058312481,"connected_time":11169000000000,"state":"active","ping":74},{"user_id":709,"name":"Wallem","steam_id":76561198052361822,"connected_time":6383000000000,"state":"active","ping":76},{"user_id":778,"name":"co)))))ne","steam_id":76561198053967778,"connected_time":86000000000,"state":"active","ping":60},{"user_id":763,"name":"Bali","steam_id":76561198038693845,"connected_time":2288000000000,"state":"active","ping":89},{"user_id":715,"name":"Mister Rattlebones","steam_id":76561198065560157,"connected_time":5899000000000,"state":"active","ping":57},{"user_id":708,"name":"Bolty","steam_id":76561198084199165,"connected_time":6569000000000,"state":"active","ping":75},{"user_id":622,"name":"bluebird","steam_id":76561198065219155,"connected_time":12261000000000,"state":"active","ping":47},{"user_id":764,"name":"Flaxks","steam_id":76561198410260447,"connected_time":1929000000000,"state":"active","ping":92},{"user_id":762,"name":"Motor Mongol","steam_id":76561198067436825,"connected_time":2377000000000,"state":"active","ping":89},{"user_id":751,"name":"C4K3","steam_id":76561197996963285,"connected_time":3620000000000,"state":"active","ping":84},{"user_id":779,"name":"Chilly Pyro","steam_id":76561199100849880,"connected_time":23000000000,"state":"spawning","ping":68}]},{"server_id":402,"name":"Uncletopia | Chicago | 3 | All Maps","name_short":"chi-3","host":"chi-1.us.uncletopia.com","port":27035,"enabled":true,"region":"us-central","cc":"us","latitude":41.881832,"longitude":-87.62318,"reserved":0,"last_update":"0001-01-01T00:00:00Z","name_a2s":"Uncletopia | Chicago | 3 | All Maps","protocol":17,"map":"pl_snowycoast","folder":"tf","game":"Team Fortress","app_id":440,"player_count":24,"max_players":24,"Bots":0,"server_type":"Dedicated","server_os":"Linux","password":true,"vac":true,"version":"7932396","steam_id":85568392924515191,"keywords":["nocrits","nodmgspread","payload","uncletopia"],"game_id":440,"stv_port":27036,"stv_name":"Uncletopia | Chicago | 3 | All Maps | STV","players":[{"user_id":327,"name":"JDM Street Cred","steam_id":76561198033035560,"connected_time":2378000000000,"state":"active","ping":60},{"user_id":251,"name":"DoubleX2000","steam_id":76561198164134387,"connected_time":8715000000000,"state":"active","ping":115},{"user_id":350,"name":"RedBatman","steam_id":76561198064252016,"connected_time":550000000000,"state":"active","ping":84},{"user_id":326,"name":"Ringo x Seiran","steam_id":76561198357437908,"connected_time":2385000000000,"state":"active","ping":70},{"user_id":312,"name":"gaming gerald","steam_id":76561198011707083,"connected_time":4920000000000,"state":"active","ping":57},{"user_id":295,"name":"reis","steam_id":76561199232952016,"connected_time":5325000000000,"state":"active","ping":180},{"user_id":344,"name":"Cassius Money","steam_id":76561197979696414,"connected_time":1529000000000,"state":"active","ping":54},{"user_id":320,"name":"eat Pant","steam_id":76561197974965536,"connected_time":3567000000000,"state":"active","ping":63},{"user_id":331,"name":"Jo","steam_id":76561198060447015,"connected_time":2348000000000,"state":"active","ping":79},{"user_id":240,"name":"Digitic","steam_id":76561198080295536,"connected_time":9330000000000,"state":"active","ping":81},{"user_id":353,"name":"frank","steam_id":76561198137777483,"connected_time":294000000000,"state":"active","ping":69},{"user_id":351,"name":"TheSecretNewbie","steam_id":76561198194671218,"connected_time":539000000000,"state":"active","ping":59},{"user_id":332,"name":"Sup m8","steam_id":76561198081659121,"connected_time":2324000000000,"state":"active","ping":62},{"user_id":333,"name":"hill of the king","steam_id":76561198099491925,"connected_time":2311000000000,"state":"active","ping":75},{"user_id":304,"name":"stick","steam_id":76561198049489094,"connected_time":5146000000000,"state":"active","ping":53},{"user_id":341,"name":"You","steam_id":76561198154209806,"connected_time":1825000000000,"state":"active","ping":63},{"user_id":334,"name":"Tick","steam_id":76561198184161214,"connected_time":2302000000000,"state":"active","ping":45},{"user_id":342,"name":"Temujin","steam_id":76561198030936583,"connected_time":1739000000000,"state":"active","ping":58},{"user_id":289,"name":"HappyOtterMan","steam_id":76561199051276989,"connected_time":6310000000000,"state":"active","ping":75},{"user_id":286,"name":"vv","steam_id":76561198134813102,"connected_time":6432000000000,"state":"active","ping":56},{"user_id":345,"name":"dailyspesh","steam_id":76561197988072369,"connected_time":1481000000000,"state":"active","ping":72},{"user_id":348,"name":"Chucklin","steam_id":76561198010823579,"connected_time":738000000000,"state":"active","ping":90},{"user_id":349,"name":"reymundo","steam_id":76561197989412830,"connected_time":737000000000,"state":"active","ping":119},{"user_id":325,"name":"freyja","steam_id":76561198249206656,"connected_time":2664000000000,"state":"active","ping":71}]},{"server_id":403,"name":"Uncletopia | Chicago | 4 | All Maps","name_short":"chi-4","host":"chi-1.us.uncletopia.com","port":27045,"enabled":true,"region":"us-central","cc":"us","latitude":41.881832,"longitude":-87.62318,"reserved":0,"last_update":"0001-01-01T00:00:00Z","name_a2s":"Uncletopia | Chicago | 4 | All Maps","protocol":17,"map":"cp_dustbowl","folder":"tf","game":"Team Fortress","app_id":440,"player_count":23,"max_players":24,"Bots":0,"server_type":"Dedicated","server_os":"Linux","password":true,"vac":true,"version":"7932396","steam_id":85568392924515193,"keywords":["cp","nocrits","nodmgspread","uncletopia"],"game_id":440,"stv_port":27046,"stv_name":"Uncletopia | Chicago | 4 | All Maps | STV","players":[{"user_id":367,"name":"Kidjays","steam_id":76561198124941901,"connected_time":3331000000000,"state":"active","ping":98},{"user_id":356,"name":"Wiscipline","steam_id":76561198019206178,"connected_time":4313000000000,"state":"active","ping":77},{"user_id":393,"name":"lil homie gay ass","steam_id":76561198044804626,"connected_time":976000000000,"state":"active","ping":80},{"user_id":330,"name":"hej","steam_id":76561197996366940,"connected_time":5351000000000,"state":"active","ping":58},{"user_id":395,"name":"lpk","steam_id":76561198025478698,"connected_time":818000000000,"state":"active","ping":44},{"user_id":392,"name":"Enough..","steam_id":76561198043918262,"connected_time":1405000000000,"state":"active","ping":76},{"user_id":375,"name":"duck, duck, LOVE","steam_id":76561198010706701,"connected_time":2478000000000,"state":"active","ping":69},{"user_id":376,"name":"gorf?","steam_id":76561198142286417,"connected_time":2477000000000,"state":"active","ping":58},{"user_id":365,"name":"pinglefingle","steam_id":76561198216580197,"connected_time":3440000000000,"state":"active","ping":78},{"user_id":397,"name":"Puke Skyfucker","steam_id":76561198012846213,"connected_time":375000000000,"state":"active","ping":86},{"user_id":391,"name":"cataclysm","steam_id":76561198061594160,"connected_time":1933000000000,"state":"active","ping":45},{"user_id":388,"name":"Morgster","steam_id":76561198131697761,"connected_time":2095000000000,"state":"active","ping":77},{"user_id":383,"name":"Elm","steam_id":76561198127972568,"connected_time":2271000000000,"state":"active","ping":73},{"user_id":389,"name":"smoking on bhutanese shadow pac","steam_id":76561198095313463,"connected_time":2079000000000,"state":"active","ping":64},{"user_id":360,"name":"Dr. Dick","steam_id":76561198138011922,"connected_time":3895000000000,"state":"active","ping":77},{"user_id":306,"name":"Waddlehi","steam_id":76561198072553840,"connected_time":6784000000000,"state":"active","ping":60},{"user_id":362,"name":"Swash","steam_id":76561197969421355,"connected_time":3809000000000,"state":"active","ping":59},{"user_id":380,"name":"donk","steam_id":76561198097138000,"connected_time":2404000000000,"state":"active","ping":58},{"user_id":394,"name":"Bean0914","steam_id":76561198261906023,"connected_time":841000000000,"state":"active","ping":87},{"user_id":382,"name":"sartre","steam_id":76561198885376777,"connected_time":2329000000000,"state":"active","ping":67},{"user_id":396,"name":"Double Dip","steam_id":76561198067483536,"connected_time":475000000000,"state":"active","ping":51},{"user_id":329,"name":"MedRed‚Ñ¢ #IATAH","steam_id":76561198002962970,"connected_time":5472000000000,"state":"active","ping":91},{"user_id":366,"name":"Lia_Rein","steam_id":76561198151569597,"connected_time":3413000000000,"state":"active","ping":146}]},{"server_id":36,"name":"Uncletopia | Chicago | 5 | All Maps","name_short":"chi-5","host":"chi-2.us.uncletopia.com","port":27015,"enabled":true,"region":"us-central","cc":"us","latitude":41.881832,"longitude":-87.62318,"reserved":0,"last_update":"0001-01-01T00:00:00Z","name_a2s":"Uncletopia | Chicago | 5 | All Maps","protocol":17,"map":"pl_upward","folder":"tf","game":"Team Fortress","app_id":440,"player_count":23,"max_players":24,"Bots":0,"server_type":"Dedicated","server_os":"Linux","password":true,"vac":true,"version":"7932396","steam_id":85568392924866362,"keywords":["nocrits","nodmgspread","payload","uncletopia"],"game_id":440,"stv_port":27016,"stv_name":"Uncletopia | Chicago | 5 | All Maps | STV","players":[{"user_id":373,"name":"com lag","steam_id":76561198019019392,"connected_time":3616000000000,"state":"active","ping":45},{"user_id":396,"name":"jim belushi's secret weapon","steam_id":76561198396326793,"connected_time":1040000000000,"state":"active","ping":96},{"user_id":379,"name":"Milkmur","steam_id":76561198210043821,"connected_time":2377000000000,"state":"active","ping":67},{"user_id":282,"name":"Liebestr√§ume","steam_id":76561198038862034,"connected_time":10296000000000,"state":"active","ping":88},{"user_id":402,"name":"pregame looser","steam_id":76561198075216115,"connected_time":210000000000,"state":"active","ping":141},{"user_id":136,"name":"b3afy","steam_id":76561198084208649,"connected_time":21591000000000,"state":"active","ping":90},{"user_id":371,"name":"-","steam_id":76561198057717934,"connected_time":3631000000000,"state":"active","ping":60},{"user_id":409,"name":"franky","steam_id":76561198070903328,"connected_time":40000000000,"state":"active","ping":74},{"user_id":394,"name":"6t26j","steam_id":76561198278282836,"connected_time":1354000000000,"state":"active","ping":49},{"user_id":372,"name":"Cherry Coke","steam_id":76561198178233006,"connected_time":3631000000000,"state":"active","ping":45},{"user_id":398,"name":"CAR BATTERY","steam_id":76561199122915452,"connected_time":982000000000,"state":"active","ping":102},{"user_id":330,"name":"eish","steam_id":76561198089463603,"connected_time":5450000000000,"state":"active","ping":131},{"user_id":384,"name":"LProduct","steam_id":76561199442139670,"connected_time":2276000000000,"state":"active","ping":129},{"user_id":403,"name":"irritable vowel syndrome","steam_id":76561198117033273,"connected_time":202000000000,"state":"active","ping":149},{"user_id":349,"name":"steakfarmasian","steam_id":76561198212754036,"connected_time":4769000000000,"state":"active","ping":53},{"user_id":391,"name":"totoro","steam_id":76561198210420871,"connected_time":1799000000000,"state":"active","ping":47},{"user_id":408,"name":"john travolta from pulp fiction","steam_id":76561199487373269,"connected_time":76000000000,"state":"active","ping":65},{"user_id":353,"name":"I have no idea what I am doing?","steam_id":76561198093152207,"connected_time":4569000000000,"state":"active","ping":75},{"user_id":375,"name":"Java_Siege_","steam_id":76561199090000728,"connected_time":3607000000000,"state":"active","ping":79},{"user_id":410,"name":"murder senators !!","steam_id":76561198319992602,"connected_time":27000000000,"state":"spawning","ping":75},{"user_id":392,"name":"SIN K4RMA","steam_id":76561198869287223,"connected_time":1749000000000,"state":"active","ping":85},{"user_id":388,"name":"MortusMelee","steam_id":76561198038434895,"connected_time":2215000000000,"state":"active","ping":99},{"user_id":382,"name":"Skendiesel","steam_id":76561198015497676,"connected_time":2358000000000,"state":"active","ping":52}]},{"server_id":37,"name":"Uncletopia | Chicago | 6 | All Maps","name_short":"chi-6","host":"chi-2.us.uncletopia.com","port":27025,"enabled":true,"region":"us-central","cc":"us","latitude":41.881832,"longitude":-87.62318,"reserved":0,"last_update":"0001-01-01T00:00:00Z","name_a2s":"Uncletopia | Chicago | 6 | All Maps","protocol":17,"map":"cp_dustbowl","folder":"tf","game":"Team Fortress","app_id":440,"player_count":20,"max_players":24,"Bots":0,"server_type":"Dedicated","server_os":"Linux","password":true,"vac":true,"version":"7932396","steam_id":85568392924866363,"keywords":["cp","nocrits","nodmgspread","uncletopia"],"game_id":440,"stv_port":27026,"stv_name":"Uncletopia | Chicago | 6 | All Maps | STV","players":[{"user_id":471,"name":"sankara","steam_id":76561198013806060,"connected_time":3179000000000,"state":"active","ping":50},{"user_id":510,"name":"mmdog2000","steam_id":76561198044484693,"connected_time":129000000000,"state":"active","ping":80},{"user_id":442,"name":"Snoopy","steam_id":76561198273735974,"connected_time":6113000000000,"state":"active","ping":110},{"user_id":501,"name":"ky jelly packing","steam_id":76561198240906222,"connected_time":657000000000,"state":"active","ping":75},{"user_id":473,"name":"meo ‚ô•","steam_id":76561197992719272,"connected_time":2767000000000,"state":"active","ping":53},{"user_id":489,"name":"wedoalittletrolling TF2EASY.COM","steam_id":76561198984807162,"connected_time":1551000000000,"state":"active","ping":56},{"user_id":508,"name":"Generic_Soda","steam_id":76561197993528721,"connected_time":196000000000,"state":"active","ping":60},{"user_id":507,"name":"e77","steam_id":76561198069309111,"connected_time":216000000000,"state":"active","ping":38},{"user_id":472,"name":"IMM0RTAL","steam_id":76561198013747901,"connected_time":2988000000000,"state":"active","ping":67},{"user_id":509,"name":"Walrusto","steam_id":76561198829644616,"connected_time":175000000000,"state":"active","ping":85},{"user_id":514,"name":"Fiftystorm","steam_id":76561198296894704,"connected_time":13000000000,"state":"active","ping":47},{"user_id":503,"name":"Orion","steam_id":76561198000418837,"connected_time":476000000000,"state":"active","ping":85},{"user_id":491,"name":"trappy (washed)","steam_id":76561198402801140,"connected_time":1356000000000,"state":"active","ping":56},{"user_id":451,"name":"eveie0mlets","steam_id":76561198259172011,"connected_time":5914000000000,"state":"active","ping":82},{"user_id":452,"name":"Melody","steam_id":76561198407789232,"connected_time":5882000000000,"state":"active","ping":117},{"user_id":512,"name":"pHsHy","steam_id":76561198013195018,"connected_time":96000000000,"state":"active","ping":76},{"user_id":386,"name":"daemon","steam_id":76561198001541433,"connected_time":10044000000000,"state":"active","ping":46},{"user_id":483,"name":"squash the beef","steam_id":76561198277163301,"connected_time":2143000000000,"state":"active","ping":61},{"user_id":496,"name":"Skeleton Hotel","steam_id":76561198041704727,"connected_time":1238000000000,"state":"active","ping":60},{"user_id":515,"name":"TheShadowAtMidnight","steam_id":76561199073880155,"connected_time":10000000000,"state":"spawning","ping":108}]},{"server_id":38,"name":"Uncletopia | Chicago | 7 | Stopwatch Beta","name_short":"chi-7","host":"chi-2.us.uncletopia.com","port":27035,"enabled":true,"region":"us-central","cc":"us","latitude":41.881832,"longitude":-87.62318,"reserved":0,"last_update":"0001-01-01T00:00:00Z","name_a2s":"Uncletopia | Chicago | 7 | Stopwatch Beta","protocol":17,"map":"pl_borneo","folder":"tf","game":"Team Fortress","app_id":440,"player_count":0,"max_players":24,"Bots":0,"server_type":"Dedicated","server_os":"Linux","password":true,"vac":true,"version":"7932396","steam_id":85568392924866364,"keywords":["nocrits","nodmgspread","payload","uncletopia"],"game_id":440,"stv_port":27036,"stv_name":"Uncletopia | Chicago | 7 | Stopwatch Beta | STV","players":null},{"server_id":39,"name":"Uncletopia | Chicago | 8 | Community","name_short":"chi-8","host":"chi-2.us.uncletopia.com","port":27045,"enabled":true,"region":"us-central","cc":"us","latitude":41.881832,"longitude":-87.62318,"reserved":0,"last_update":"0001-01-01T00:00:00Z","name_a2s":"Uncletopia | Chicago | 8 | Community","protocol":17,"map":"workshop/cp_glacier_rc6.ugc2905735376","folder":"tf","game":"Team Fortress","app_id":440,"player_count":17,"max_players":24,"Bots":0,"server_type":"Dedicated","server_os":"Linux","password":true,"vac":true,"version":"7932396","steam_id":85568392924866365,"keywords":["cp","nocrits","nodmgspread","uncletopia"],"game_id":440,"stv_port":27046,"stv_name":"Uncletopia | Chicago | 8 | Community | STV","players":[{"user_id":525,"name":"Infinitytacos","steam_id":76561198884260211,"connected_time":891000000000,"state":"active","ping":45},{"user_id":540,"name":"The Incredible Fem Boy","steam_id":76561198355754259,"connected_time":69000000000,"state":"active","ping":62},{"user_id":526,"name":"bonk","steam_id":76561198821774697,"connected_time":845000000000,"state":"active","ping":45},{"user_id":514,"name":"Kalmaro","steam_id":76561198097425350,"connected_time":2920000000000,"state":"active","ping":48},{"user_id":541,"name":"Salt","steam_id":76561198418001135,"connected_time":57000000000,"state":"active","ping":60},{"user_id":530,"name":"J76_","steam_id":76561199224457967,"connected_time":600000000000,"state":"spawning","ping":242},{"user_id":518,"name":"pudl","steam_id":76561198043726592,"connected_time":2144000000000,"state":"active","ping":60},{"user_id":528,"name":"Gamering_funy","steam_id":76561199006503777,"connected_time":753000000000,"state":"active","ping":54},{"user_id":534,"name":"Tom Cr√∫aich","steam_id":76561197999439911,"connected_time":376000000000,"state":"active","ping":73},{"user_id":535,"name":"Tis_Me_Hacksoulslayer1","steam_id":76561198340064206,"connected_time":292000000000,"state":"active","ping":71},{"user_id":536,"name":"Ace Chromatica","steam_id":76561198042211131,"connected_time":273000000000,"state":"active","ping":51},{"user_id":538,"name":"chunguspilled","steam_id":76561198263122601,"connected_time":217000000000,"state":"active","ping":44},{"user_id":539,"name":"marcybou430","steam_id":76561199056145280,"connected_time":202000000000,"state":"active","ping":60},{"user_id":517,"name":"HaveADay","steam_id":76561198001086219,"connected_time":2846000000000,"state":"active","ping":75},{"user_id":521,"name":"msay","steam_id":76561198170888029,"connected_time":1917000000000,"state":"active","ping":93},{"user_id":504,"name":"root","steam_id":76561198001727518,"connected_time":3645000000000,"state":"active","ping":71},{"user_id":522,"name":"whimsical little creature","steam_id":76561198271710504,"connected_time":1862000000000,"state":"active","ping":53}]},{"server_id":8,"name":"Uncletopia | Dallas | 1 | All Maps","name_short":"dal-1","host":"dal-1.us.uncletopia.com","port":27015,"enabled":true,"region":"us-central","cc":"us","latitude":32.779167,"longitude":-96.80889,"reserved":0,"last_update":"0001-01-01T00:00:00Z","name_a2s":"Uncletopia | Dallas | 1 | All Maps","protocol":17,"map":"pl_frontier_final","folder":"tf","game":"Team Fortress","app_id":440,"player_count":24,"max_players":24,"Bots":0,"server_type":"Dedicated","server_os":"Linux","password":true,"vac":true,"version":"7932396","steam_id":85568392924469986,"keywords":["nocrits","nodmgspread","payload","uncletopia"],"game_id":440,"stv_port":27016,"stv_name":"Uncletopia | Dallas | 1 | All Maps | STV","players":[{"user_id":340,"name":"Greg Boberton 2012","steam_id":76561198983566026,"connected_time":4798000000000,"state":"active","ping":79},{"user_id":394,"name":"covered in ants","steam_id":76561198065266282,"connected_time":701000000000,"state":"active","ping":83},{"user_id":393,"name":"Drapph","steam_id":76561199384213314,"connected_time":716000000000,"state":"active","ping":93},{"user_id":375,"name":"Sahbi","steam_id":76561199196292242,"connected_time":1883000000000,"state":"active","ping":64},{"user_id":392,"name":"Pight","steam_id":76561198823422389,"connected_time":720000000000,"state":"active","ping":80},{"user_id":396,"name":"Fletcher","steam_id":76561198317846538,"connected_time":637000000000,"state":"active","ping":88},{"user_id":397,"name":"Lunaborne","steam_id":76561198326561826,"connected_time":614000000000,"state":"active","ping":52},{"user_id":405,"name":"Ace_Steele23","steam_id":76561198086867678,"connected_time":63000000000,"state":"active","ping":71},{"user_id":385,"name":"Jamie","steam_id":76561198917309036,"connected_time":1382000000000,"state":"active","ping":83},{"user_id":380,"name":"Snorps","steam_id":76561198964516229,"connected_time":1714000000000,"state":"active","ping":86},{"user_id":395,"name":"Csquared","steam_id":76561198169038599,"connected_time":700000000000,"state":"active","ping":92},{"user_id":399,"name":"Alice in Rubberland","steam_id":76561198087328346,"connected_time":572000000000,"state":"active","ping":66},{"user_id":398,"name":"wheresgeorge","steam_id":76561198986281248,"connected_time":608000000000,"state":"active","ping":94},{"user_id":369,"name":"bred","steam_id":76561198408673781,"connected_time":2666000000000,"state":"active","ping":67},{"user_id":360,"name":"get with it","steam_id":76561198286627157,"connected_time":3514000000000,"state":"active","ping":82},{"user_id":404,"name":"OU YEAH","steam_id":76561198879017688,"connected_time":175000000000,"state":"active","ping":86},{"user_id":374,"name":"OverPowered64","steam_id":76561198291027287,"connected_time":1964000000000,"state":"active","ping":53},{"user_id":401,"name":"Fumpo","steam_id":76561198206873365,"connected_time":504000000000,"state":"active","ping":87},{"user_id":403,"name":"NeptuneÀñ‚Å∫ÔΩ°Àö‚ãÜÀô‚ô•","steam_id":76561199054203198,"connected_time":270000000000,"state":"active","ping":80},{"user_id":400,"name":"LittleFieryOne","steam_id":76561198107463724,"connected_time":571000000000,"state":"active","ping":85},{"user_id":384,"name":"Murrdogg","steam_id":76561198210491188,"connected_time":1398000000000,"state":"active","ping":86},{"user_id":379,"name":"Reague","steam_id":76561199092175631,"connected_time":1749000000000,"state":"active","ping":71},{"user_id":382,"name":"Floating Peasant","steam_id":76561198000183671,"connected_time":1581000000000,"state":"active","ping":58},{"user_id":348,"name":"Evangelion","steam_id":76561198059690074,"connected_time":4211000000000,"state":"active","ping":49}]},{"server_id":108,"name":"Uncletopia | Dallas | 2 | All Maps","name_short":"dal-2","host":"dal-1.us.uncletopia.com","port":27025,"enabled":true,"region":"us-central","cc":"us","latitude":32.779167,"longitude":-96.80889,"reserved":0,"last_update":"0001-01-01T00:00:00Z","name_a2s":"Uncletopia | Dallas | 2 | All Maps","protocol":17,"map":"plr_pipeline","folder":"tf","game":"Team Fortress","app_id":440,"player_count":24,"max_players":24,"Bots":0,"server_type":"Dedicated","server_os":"Linux","password":true,"vac":true,"version":"7932396","steam_id":85568392924469988,"keywords":["nocrits","nodmgspread","payload","uncletopia"],"game_id":440,"stv_port":27026,"stv_name":"Uncletopia | Dallas | 2 | All Maps | STV","players":[{"user_id":195,"name":"Redguardowen","steam_id":76561198176957862,"connected_time":3193000000000,"state":"active","ping":56},{"user_id":226,"name":"Liver stealer","steam_id":76561199029954287,"connected_time":1184000000000,"state":"active","ping":154},{"user_id":199,"name":"aisu","steam_id":76561198043768507,"connected_time":2842000000000,"state":"active","ping":90},{"user_id":188,"name":"Agent Bowtie","steam_id":76561198175839279,"connected_time":4112000000000,"state":"active","ping":62},{"user_id":224,"name":"Fig Newton","steam_id":76561198064255155,"connected_time":1303000000000,"state":"active","ping":59},{"user_id":216,"name":"carrotcake","steam_id":76561198030997761,"connected_time":1967000000000,"state":"active","ping":44},{"user_id":229,"name":"Mile S","steam_id":76561198163238434,"connected_time":948000000000,"state":"active","ping":91},{"user_id":235,"name":"HOODOO_LOVER_2007","steam_id":76561199087691214,"connected_time":393000000000,"state":"active","ping":89},{"user_id":239,"name":"Clumsy","steam_id":76561198056345245,"connected_time":73000000000,"state":"active","ping":60},{"user_id":205,"name":"Pie‚Ñ¢","steam_id":76561198158312625,"connected_time":2642000000000,"state":"active","ping":120},{"user_id":237,"name":"Soup Salad \u0026 Breadsticks","steam_id":76561198382572522,"connected_time":198000000000,"state":"active","ping":92},{"user_id":236,"name":"SizableChap","steam_id":76561199148162904,"connected_time":281000000000,"state":"active","ping":67},{"user_id":213,"name":"artichoke","steam_id":76561198980994364,"connected_time":2449000000000,"state":"active","ping":99},{"user_id":232,"name":"Nikki","steam_id":76561199485086969,"connected_time":596000000000,"state":"active","ping":108},{"user_id":185,"name":"[FOFS]billyburl","steam_id":76561198079535159,"connected_time":4283000000000,"state":"active","ping":81},{"user_id":238,"name":"SRP","steam_id":76561197995626651,"connected_time":185000000000,"state":"active","ping":59},{"user_id":227,"name":"OWEENIE","steam_id":76561198083135927,"connected_time":1148000000000,"state":"active","ping":45},{"user_id":209,"name":"Jux","steam_id":76561198119502356,"connected_time":2587000000000,"state":"active","ping":83},{"user_id":197,"name":"MeMyBongusAndTheGreatOutdoors","steam_id":76561198097708978,"connected_time":3160000000000,"state":"active","ping":45},{"user_id":241,"name":"fernando","steam_id":76561198142586591,"connected_time":36000000000,"state":"active","ping":63},{"user_id":228,"name":"WashingMachine","steam_id":76561198318572060,"connected_time":1129000000000,"state":"active","ping":60},{"user_id":215,"name":"Rowdyshark101","steam_id":76561199019123695,"connected_time":2213000000000,"state":"active","ping":63},{"user_id":88,"name":"nori_420","steam_id":76561199117134203,"connected_time":12435000000000,"state":"active","ping":86},{"user_id":192,"name":"Bean Marrow","steam_id":76561198116650223,"connected_time":3634000000000,"state":"active","ping":63}]},{"server_id":5,"name":"Uncletopia | Frankfurt | 1 | All Maps","name_short":"frk-1","host":"frk-1.de.uncletopia.com","port":27015,"enabled":true,"region":"eu","cc":"de","latitude":50.110924,"longitude":8.682127,"reserved":0,"last_update":"0001-01-01T00:00:00Z","name_a2s":"Uncletopia | Frankfurt | 1 | All Maps","protocol":17,"map":"koth_highpass","folder":"tf","game":"Team Fortress","app_id":440,"player_count":0,"max_players":24,"Bots":0,"server_type":"Dedicated","server_os":"Linux","password":true,"vac":true,"version":"7932396","steam_id":85568392924469989,"keywords":["cp","nocrits","nodmgspread","uncletopia"],"game_id":440,"stv_port":27016,"stv_name":"Uncletopia | Frankfurt | 1 | All Maps | STV","players":null},{"server_id":110,"name":"Uncletopia | Frankfurt | 2 | All Maps","name_short":"frk-2","host":"frk-1.de.uncletopia.com","port":27025,"enabled":true,"region":"eu","cc":"de","latitude":50.110924,"longitude":8.682127,"reserved":0,"last_update":"0001-01-01T00:00:00Z","name_a2s":"Uncletopia | Frankfurt | 2 | All Maps","protocol":17,"map":"pl_pier","folder":"tf","game":"Team Fortress","app_id":440,"player_count":0,"max_players":24,"Bots":0,"server_type":"Dedicated","server_os":"Linux","password":true,"vac":true,"version":"7932396","steam_id":85568392924469990,"keywords":["nocrits","nodmgspread","payload","uncletopia"],"game_id":440,"stv_port":27026,"stv_name":"Uncletopia | Frankfurt | 2 | All Maps | STV","players":null},{"server_id":308,"name":"Uncletopia | Frankfurt | 3 | All Maps","name_short":"frk-3","host":"frk-1.de.uncletopia.com","port":27035,"enabled":true,"region":"eu","cc":"de","latitude":50.110924,"longitude":8.682127,"reserved":0,"last_update":"0001-01-01T00:00:00Z","name_a2s":"Uncletopia | Frankfurt | 3 | All Maps","protocol":17,"map":"koth_cascade","folder":"tf","game":"Team Fortress","app_id":440,"player_count":0,"max_players":24,"Bots":0,"server_type":"Dedicated","server_os":"Linux","password":true,"vac":true,"version":"7932396","steam_id":85568392924504274,"keywords":["cp","nocrits","nodmgspread","uncletopia"],"game_id":440,"stv_port":27036,"stv_name":"Uncletopia | Frankfurt | 3 | All Maps | STV","players":null},{"server_id":309,"name":"Uncletopia | Frankfurt | 4 | All Maps","name_short":"frk-4","host":"frk-1.de.uncletopia.com","port":27045,"enabled":true,"region":"eu","cc":"de","latitude":50.110924,"longitude":8.682127,"reserved":0,"last_update":"0001-01-01T00:00:00Z","name_a2s":"Uncletopia | Frankfurt | 4 | All Maps","protocol":17,"map":"pl_snowycoast","folder":"tf","game":"Team Fortress","app_id":440,"player_count":0,"max_players":24,"Bots":0,"server_type":"Dedicated","server_os":"Linux","password":true,"vac":true,"version":"7932396","steam_id":85568392924504275,"keywords":["nocrits","nodmgspread","payload","uncletopia"],"game_id":440,"stv_port":27046,"stv_name":"Uncletopia | Frankfurt | 4 | All Maps | STV","players":null},{"server_id":310,"name":"Uncletopia | Frankfurt | 5 | All Maps","name_short":"frk-5","host":"frk-1.de.uncletopia.com","port":27055,"enabled":true,"region":"eu","cc":"de","latitude":50.110924,"longitude":8.682127,"reserved":0,"last_update":"0001-01-01T00:00:00Z","name_a2s":"Uncletopia | Frankfurt | 5 | All Maps","protocol":17,"map":"koth_highpass","folder":"tf","game":"Team Fortress","app_id":440,"player_count":0,"max_players":24,"Bots":0,"server_type":"Dedicated","server_os":"Linux","password":true,"vac":true,"version":"7932396","steam_id":85568392924504277,"keywords":["cp","nocrits","nodmgspread","uncletopia"],"game_id":440,"stv_port":27056,"stv_name":"Uncletopia | Frankfurt | 5 | All Maps | STV","players":null},{"server_id":311,"name":"Uncletopia | Frankfurt | 6 | All Maps","name_short":"frk-6","host":"frk-1.de.uncletopia.com","port":27065,"enabled":true,"region":"eu","cc":"de","latitude":50.110924,"longitude":8.682127,"reserved":0,"last_update":"0001-01-01T00:00:00Z","name_a2s":"Uncletopia | Frankfurt | 6 | All Maps","protocol":17,"map":"koth_highpass","folder":"tf","game":"Team Fortress","app_id":440,"player_count":0,"max_players":24,"Bots":0,"server_type":"Dedicated","server_os":"Linux","password":true,"vac":true,"version":"7932396","steam_id":85568392924504278,"keywords":["cp","nocrits","nodmgspread","uncletopia"],"game_id":440,"stv_port":27066,"stv_name":"Uncletopia | Frankfurt | 6 | All Maps | STV","players":null},{"server_id":23,"name":"Uncletopia | Frankfurt | 7 | Stopwatch Beta","name_short":"frk-7","host":"frk-1.de.uncletopia.com","port":27075,"enabled":true,"region":"eu","cc":"de","latitude":50.110924,"longitude":8.682127,"reserved":0,"last_update":"0001-01-01T00:00:00Z","name_a2s":"Uncletopia | Frankfurt | 7 | Stopwatch Beta","protocol":17,"map":"pl_snowycoast","folder":"tf","game":"Team Fortress","app_id":440,"player_count":0,"max_players":24,"Bots":0,"server_type":"Dedicated","server_os":"Linux","password":true,"vac":true,"version":"7932396","steam_id":85568392924742827,"keywords":["nocrits","nodmgspread","payload","uncletopia"],"game_id":440,"stv_port":27076,"stv_name":"Uncletopia | Frankfurt | 7 | Stopwatch Beta | STV","players":null},{"server_id":24,"name":"Uncletopia | Frankfurt | 8 | Community","name_short":"frk-8","host":"frk-1.de.uncletopia.com","port":27085,"enabled":true,"region":"eu","cc":"de","latitude":50.110924,"longitude":8.682127,"reserved":0,"last_update":"0001-01-01T00:00:00Z","name_a2s":"Uncletopia | Frankfurt | 8 | Community","protocol":17,"map":"workshop/koth_ashville_final.ugc2130459942","folder":"tf","game":"Team Fortress","app_id":440,"player_count":0,"max_players":24,"Bots":0,"server_type":"Dedicated","server_os":"Linux","password":true,"vac":true,"version":"7932396","steam_id":85568392924742828,"keywords":["cp","nocrits","nodmgspread","uncletopia"],"game_id":440,"stv_port":27086,"stv_name":"Uncletopia | Frankfurt | 8 | Community | STV","players":null},{"server_id":202,"name":"Uncletopia | Hong Kong | 1 | All Maps","name_short":"hgk-1","host":"hgk-1.hk.uncletopia.com","port":27015,"enabled":true,"region":"asia","cc":"hk","latitude":22.302711,"longitude":114.177216,"reserved":0,"last_update":"0001-01-01T00:00:00Z","name_a2s":"Uncletopia | Hong Kong | 1 | All Maps","protocol":17,"map":"koth_cascade","folder":"tf","game":"Team Fortress","app_id":440,"player_count":0,"max_players":24,"Bots":0,"server_type":"Dedicated","server_os":"Linux","password":true,"vac":true,"version":"7932396","steam_id":85568392924494504,"keywords":["cp","nocrits","nodmgspread","uncletopia"],"game_id":440,"stv_port":27016,"stv_name":"Uncletopia | Hong Kong | 1 | All Maps | STV","players":null},{"server_id":1,"name":"Uncletopia | Los Angeles | 1 | All Maps","name_short":"lax-1","host":"lax-1.us.uncletopia.com","port":27015,"enabled":true,"region":"us-west","cc":"us","latitude":33.94279,"longitude":-118.41004,"reserved":0,"last_update":"0001-01-01T00:00:00Z","name_a2s":"Uncletopia | Los Angeles | 1 | All Maps","protocol":17,"map":"pl_upward","folder":"tf","game":"Team Fortress","app_id":440,"player_count":13,"max_players":24,"Bots":0,"server_type":"Dedicated","server_os":"Linux","password":true,"vac":true,"version":"7932396","steam_id":85568392924469991,"keywords":["nocrits","nodmgspread","payload","uncletopia"],"game_id":440,"stv_port":27016,"stv_name":"Uncletopia | Los Angeles | 1 | All Maps | STV","players":[{"user_id":205,"name":"donkeyballs2007","steam_id":76561199466298683,"connected_time":1568000000000,"state":"active","ping":34},{"user_id":220,"name":"stinky","steam_id":76561199067307173,"connected_time":84000000000,"state":"active","ping":105},{"user_id":146,"name":"Pixeled","steam_id":76561198088917077,"connected_time":4150000000000,"state":"active","ping":115},{"user_id":221,"name":"MALWARE9000","steam_id":76561198065238093,"connected_time":58000000000,"state":"active","ping":88},{"user_id":222,"name":"Dr. Bubs","steam_id":76561198011696595,"connected_time":26000000000,"state":"active","ping":45},{"user_id":223,"name":"Fishandfish","steam_id":76561198298483804,"connected_time":25000000000,"state":"active","ping":67},{"user_id":194,"name":"pissacrash","steam_id":76561198110723576,"connected_time":1918000000000,"state":"active","ping":32},{"user_id":192,"name":"Lucide","steam_id":76561197998530400,"connected_time":2353000000000,"state":"active","ping":54},{"user_id":147,"name":"Blue","steam_id":76561199093604072,"connected_time":4147000000000,"state":"active","ping":105},{"user_id":212,"name":"R5-D4","steam_id":76561198025196439,"connected_time":1198000000000,"state":"active","ping":75},{"user_id":170,"name":"SanitysEdge","steam_id":76561198130732813,"connected_time":2817000000000,"state":"active","ping":42},{"user_id":189,"name":"Fostrel","steam_id":76561198152160601,"connected_time":2393000000000,"state":"active","ping":99},{"user_id":191,"name":"Nooblord","steam_id":76561199105123730,"connected_time":2357000000000,"state":"active","ping":85}]},{"server_id":112,"name":"Uncletopia | Los Angeles | 2 | All Maps","name_short":"lax-2","host":"lax-1.us.uncletopia.com","port":27025,"enabled":true,"region":"us-west","cc":"us","latitude":33.94279,"longitude":-118.41004,"reserved":0,"last_update":"0001-01-01T00:00:00Z","name_a2s":"Uncletopia | Los Angeles | 2 | All Maps","protocol":17,"map":"pl_badwater","folder":"tf","game":"Team Fortress","app_id":440,"player_count":24,"max_players":24,"Bots":0,"server_type":"Dedicated","server_os":"Linux","password":true,"vac":true,"version":"7932396","steam_id":85568392924469992,"keywords":["nocrits","nodmgspread","payload","uncletopia"],"game_id":440,"stv_port":27026,"stv_name":"Uncletopia | Los Angeles | 2 | All Maps | STV","players":[{"user_id":333,"name":"McDonald","steam_id":76561199028533497,"connected_time":2371000000000,"state":"active","ping":51},{"user_id":347,"name":"Some Big Mean Mother Hubbard","steam_id":76561198436672138,"connected_time":1074000000000,"state":"active","ping":79},{"user_id":284,"name":"HeathGeath","steam_id":76561198127484580,"connected_time":4793000000000,"state":"active","ping":46},{"user_id":339,"name":"LordKirby","steam_id":76561198006938286,"connected_time":1411000000000,"state":"active","ping":94},{"user_id":358,"name":"jon pickle water","steam_id":76561199036212135,"connected_time":682000000000,"state":"active","ping":89},{"user_id":338,"name":"Kip üêá","steam_id":76561198075476523,"connected_time":1429000000000,"state":"active","ping":69},{"user_id":318,"name":"kingcab","steam_id":76561197998531589,"connected_time":2888000000000,"state":"active","ping":79},{"user_id":359,"name":"Petrivus","steam_id":76561198202152453,"connected_time":671000000000,"state":"active","ping":84},{"user_id":340,"name":"Grognak","steam_id":76561198044710527,"connected_time":1382000000000,"state":"active","ping":81},{"user_id":351,"name":"mr cool","steam_id":76561197967915784,"connected_time":971000000000,"state":"active","ping":69},{"user_id":364,"name":"bladees saddest, realest verse","steam_id":76561198098099826,"connected_time":197000000000,"state":"active","ping":51},{"user_id":264,"name":"breakfast","steam_id":76561198043712978,"connected_time":6226000000000,"state":"active","ping":61},{"user_id":214,"name":"TORN RETINAS","steam_id":76561198033822457,"connected_time":10218000000000,"state":"active","ping":69},{"user_id":345,"name":"the beanboozler","steam_id":76561198442125983,"connected_time":1099000000000,"state":"active","ping":62},{"user_id":325,"name":"Bonk Co.","steam_id":76561198009355408,"connected_time":2656000000000,"state":"active","ping":62},{"user_id":322,"name":"framp down","steam_id":76561198006316527,"connected_time":2846000000000,"state":"active","ping":60},{"user_id":365,"name":"lonely","steam_id":76561199180338753,"connected_time":157000000000,"state":"active","ping":86},{"user_id":361,"name":"johnnajojonna","steam_id":76561199488883432,"connected_time":655000000000,"state":"active","ping":110},{"user_id":356,"name":"Herbal Infusion","steam_id":76561198146881319,"connected_time":843000000000,"state":"active","ping":55},{"user_id":352,"name":"goddess of holes","steam_id":76561198013483349,"connected_time":964000000000,"state":"active","ping":56},{"user_id":353,"name":"the bone zone","steam_id":76561198022141048,"connected_time":964000000000,"state":"active","ping":91},{"user_id":354,"name":"selvhat","steam_id":76561198114225509,"connected_time":939000000000,"state":"active","ping":49},{"user_id":281,"name":"[Champ] Marssygurl","steam_id":76561198014928241,"connected_time":5094000000000,"state":"active","ping":128},{"user_id":363,"name":"[El Fail] MR.BadassMCLee","steam_id":76561198043787818,"connected_time":547000000000,"state":"active","ping":93}]},{"server_id":324,"name":"Uncletopia | Los Angeles | 3 | All Maps","name_short":"lax-3","host":"lax-1.us.uncletopia.com","port":27035,"enabled":true,"region":"us-west","cc":"us","latitude":33.94279,"longitude":-118.41004,"reserved":0,"last_update":"0001-01-01T00:00:00Z","name_a2s":"Uncletopia | Los Angeles | 3 | All Maps","protocol":17,"map":"pl_pier","folder":"tf","game":"Team Fortress","app_id":440,"player_count":24,"max_players":24,"Bots":0,"server_type":"Dedicated","server_os":"Linux","password":true,"vac":true,"version":"7932396","steam_id":85568392924510198,"keywords":["nocrits","nodmgspread","payload","uncletopia"],"game_id":440,"stv_port":27036,"stv_name":"Uncletopia | Los Angeles | 3 | All Maps | STV","players":[{"user_id":313,"name":"naturia","steam_id":76561198092317849,"connected_time":2043000000000,"state":"active","ping":46},{"user_id":332,"name":"Nyges","steam_id":76561198139236154,"connected_time":372000000000,"state":"active","ping":52},{"user_id":260,"name":"the observer","steam_id":76561198966609490,"connected_time":5800000000000,"state":"active","ping":112},{"user_id":312,"name":"Loashes","steam_id":76561198119608299,"connected_time":2247000000000,"state":"active","ping":92},{"user_id":197,"name":"riSygneD","steam_id":76561198331618687,"connected_time":9463000000000,"state":"active","ping":32},{"user_id":307,"name":"Maxx","steam_id":76561199112037223,"connected_time":2650000000000,"state":"active","ping":96},{"user_id":319,"name":"Dylan Pulido","steam_id":76561198272681544,"connected_time":1600000000000,"state":"active","ping":54},{"user_id":328,"name":"sams","steam_id":76561199093161260,"connected_time":538000000000,"state":"active","ping":73},{"user_id":329,"name":"zenai","steam_id":76561199006227566,"connected_time":511000000000,"state":"active","ping":128},{"user_id":331,"name":"glue","steam_id":76561198382076026,"connected_time":417000000000,"state":"active","ping":54},{"user_id":314,"name":"-_-","steam_id":76561198048754646,"connected_time":2025000000000,"state":"active","ping":48},{"user_id":333,"name":"Branz","steam_id":76561198076632143,"connected_time":250000000000,"state":"active","ping":88},{"user_id":321,"name":"gunch","steam_id":76561198109948247,"connected_time":1542000000000,"state":"active","ping":90},{"user_id":258,"name":"Hindmost","steam_id":76561199081837220,"connected_time":5983000000000,"state":"active","ping":99},{"user_id":309,"name":"S√°bado Gigante","steam_id":76561197994685971,"connected_time":2558000000000,"state":"active","ping":57},{"user_id":322,"name":"it's peanut time","steam_id":76561198236028020,"connected_time":1523000000000,"state":"active","ping":132},{"user_id":278,"name":"Stapler","steam_id":76561198099295077,"connected_time":5391000000000,"state":"active","ping":60},{"user_id":276,"name":"Ice cream sandwich","steam_id":76561198172748357,"connected_time":5510000000000,"state":"active","ping":60},{"user_id":316,"name":"raya","steam_id":76561198051504581,"connected_time":2008000000000,"state":"active","ping":74},{"user_id":327,"name":"Grizzakk","steam_id":76561198115821923,"connected_time":590000000000,"state":"active","ping":130},{"user_id":326,"name":"selling rice","steam_id":76561198063357023,"connected_time":684000000000,"state":"active","ping":59},{"user_id":334,"name":"DropBear","steam_id":76561197964435496,"connected_time":213000000000,"state":"active","ping":137},{"user_id":274,"name":"mer5277","steam_id":76561198192171041,"connected_time":5570000000000,"state":"active","ping":147},{"user_id":295,"name":"PageBoiSkull","steam_id":76561198237353578,"connected_time":3992000000000,"state":"active","ping":66}]},{"server_id":25,"name":"Uncletopia | Los Angeles | 4 | Stopwatch Beta","name_short":"lax-4","host":"lax-1.us.uncletopia.com","port":27045,"enabled":true,"region":"us-west","cc":"us","latitude":33.94279,"longitude":-118.41004,"reserved":0,"last_update":"0001-01-01T00:00:00Z","name_a2s":"Uncletopia | Los Angeles | 4 | Stopwatch Beta","protocol":17,"map":"workshop/pl_badwater_pro_v12.ugc2142942074","folder":"tf","game":"Team Fortress","app_id":440,"player_count":15,"max_players":24,"Bots":0,"server_type":"Dedicated","server_os":"Linux","password":true,"vac":true,"version":"7932396","steam_id":85568392924510199,"keywords":["nocrits","nodmgspread","payload","uncletopia"],"game_id":440,"stv_port":27046,"stv_name":"Uncletopia | Los Angeles | 4 | Stopwatch Beta | STV","players":[{"user_id":45,"name":"bcizzo","steam_id":76561197994399953,"connected_time":1506000000000,"state":"active","ping":57},{"user_id":46,"name":"luigi is in debt","steam_id":76561198993139342,"connected_time":1459000000000,"state":"active","ping":63},{"user_id":71,"name":"Melon","steam_id":76561199202306398,"connected_time":94000000000,"state":"spawning","ping":196},{"user_id":49,"name":"CrystalClear","steam_id":76561198210417120,"connected_time":1111000000000,"state":"active","ping":64},{"user_id":65,"name":"two egg sandwhiches","steam_id":76561199084877166,"connected_time":414000000000,"state":"active","ping":260},{"user_id":19,"name":"Oatmeal","steam_id":76561199378924674,"connected_time":4011000000000,"state":"active","ping":133},{"user_id":28,"name":"Agent Q","steam_id":76561198830829003,"connected_time":2150000000000,"state":"active","ping":63},{"user_id":54,"name":"Capybara Enjoyer","steam_id":76561199147114434,"connected_time":957000000000,"state":"active","ping":110},{"user_id":68,"name":"Mr_Moose","steam_id":76561198152815154,"connected_time":257000000000,"state":"active","ping":81},{"user_id":55,"name":"Robo","steam_id":76561197979357919,"connected_time":936000000000,"state":"active","ping":90},{"user_id":59,"name":"babywizard","steam_id":76561198097757862,"connected_time":628000000000,"state":"active","ping":69},{"user_id":61,"name":"dAiLyGrInD","steam_id":76561198163531915,"connected_time":595000000000,"state":"active","ping":85},{"user_id":38,"name":"Allison Ghost ‚∏ª‚∏ª‚∏ª‚∏∫‚∏∫","steam_id":76561198053851548,"connected_time":1882000000000,"state":"active","ping":69},{"user_id":42,"name":"Battle Engineer","steam_id":76561198145396989,"connected_time":1779000000000,"state":"active","ping":35},{"user_id":62,"name":"Gues","steam_id":76561198058022955,"connected_time":592000000000,"state":"active","ping":103}]},{"server_id":11,"name":"Uncletopia | London | 1 | All Maps","name_short":"lon-1","host":"lon-1.uk.uncletopia.com","port":27015,"enabled":true,"region":"eu","cc":"gb","latitude":51.509865,"longitude":-0.118092,"reserved":0,"last_update":"0001-01-01T00:00:00Z","name_a2s":"Uncletopia | London | 1 | All Maps","protocol":17,"map":"pl_frontier_final","folder":"tf","game":"Team Fortress","app_id":440,"player_count":0,"max_players":24,"Bots":0,"server_type":"Dedicated","server_os":"Linux","password":true,"vac":true,"version":"7932396","steam_id":85568392924367362,"keywords":["nocrits","nodmgspread","payload","uncletopia"],"game_id":440,"stv_port":27016,"stv_name":"Uncletopia | London | 1 | All Maps | STV","players":null},{"server_id":114,"name":"Uncletopia | London | 2 | All Maps","name_short":"lon-2","host":"lon-1.uk.uncletopia.com","port":27025,"enabled":true,"region":"eu","cc":"gb","latitude":51.509865,"longitude":-0.118092,"reserved":0,"last_update":"0001-01-01T00:00:00Z","name_a2s":"Uncletopia | London | 2 | All Maps","protocol":17,"map":"pl_upward","folder":"tf","game":"Team Fortress","app_id":440,"player_count":12,"max_players":24,"Bots":0,"server_type":"Dedicated","server_os":"Linux","password":true,"vac":true,"version":"7932396","steam_id":85568392924470941,"keywords":["nocrits","nodmgspread","payload","uncletopia"],"game_id":440,"stv_port":27026,"stv_name":"Uncletopia | London | 2 | All Maps | STV","players":[{"user_id":664,"name":"Marcus","steam_id":76561198205027963,"connected_time":1134000000000,"state":"active","ping":63},{"user_id":623,"name":"paradigmatic shift","steam_id":76561197988802856,"connected_time":4496000000000,"state":"active","ping":59},{"user_id":666,"name":"Foreskin Washing Advisory Board","steam_id":76561198051685232,"connected_time":1099000000000,"state":"active","ping":44},{"user_id":658,"name":"MIG","steam_id":76561198099245500,"connected_time":1748000000000,"state":"active","ping":44},{"user_id":673,"name":"bing soy","steam_id":76561199093824429,"connected_time":163000000000,"state":"active","ping":188},{"user_id":668,"name":"jakub","steam_id":76561198449852071,"connected_time":957000000000,"state":"active","ping":40},{"user_id":661,"name":"exRage","steam_id":76561198449953655,"connected_time":1151000000000,"state":"active","ping":74},{"user_id":627,"name":"in the house like carpet","steam_id":76561199480942903,"connected_time":4293000000000,"state":"active","ping":75},{"user_id":667,"name":"goosu","steam_id":76561198116986693,"connected_time":1048000000000,"state":"active","ping":91},{"user_id":662,"name":"jonbob","steam_id":76561197963506620,"connected_time":1146000000000,"state":"active","ping":49},{"user_id":581,"name":"Glitch","steam_id":76561198081895538,"connected_time":8256000000000,"state":"active","ping":52},{"user_id":654,"name":"Mittep","steam_id":76561198082888891,"connected_time":2403000000000,"state":"active","ping":44}]},{"server_id":320,"name":"Uncletopia | London | 3 | All Maps","name_short":"lon-3","host":"lon-1.uk.uncletopia.com","port":27035,"enabled":true,"region":"eu","cc":"gb","latitude":51.509865,"longitude":-0.118092,"reserved":0,"last_update":"0001-01-01T00:00:00Z","name_a2s":"Uncletopia | London | 3 | All Maps","protocol":17,"map":"pl_barnblitz","folder":"tf","game":"Team Fortress","app_id":440,"player_count":5,"max_players":24,"Bots":0,"server_type":"Dedicated","server_os":"Linux","password":true,"vac":true,"version":"7932396","steam_id":85568392924510192,"keywords":["nocrits","nodmgspread","payload","uncletopia"],"game_id":440,"stv_port":27036,"stv_name":"Uncletopia | London | 3 | All Maps | STV","players":[{"user_id":1018,"name":"SirDapperBirb","steam_id":76561198978305181,"connected_time":3206000000000,"state":"active","ping":117},{"user_id":1030,"name":"Jason.2014","steam_id":76561198164877219,"connected_time":701000000000,"state":"active","ping":38},{"user_id":1016,"name":"Dr.Doc","steam_id":76561198981911429,"connected_time":3488000000000,"state":"active","ping":166},{"user_id":1024,"name":"odacovA","steam_id":76561199383345208,"connected_time":2029000000000,"state":"active","ping":143},{"user_id":1023,"name":"distra","steam_id":76561199474448245,"connected_time":2042000000000,"state":"active","ping":83}]},{"server_id":321,"name":"Uncletopia | London | 4 | All Maps","name_short":"lon-4","host":"lon-1.uk.uncletopia.com","port":27045,"enabled":true,"region":"eu","cc":"gb","latitude":51.509865,"longitude":-0.118092,"reserved":0,"last_update":"0001-01-01T00:00:00Z","name_a2s":"Uncletopia | London | 4 | All Maps","protocol":17,"map":"pl_barnblitz","folder":"tf","game":"Team Fortress","app_id":440,"player_count":0,"max_players":24,"Bots":0,"server_type":"Dedicated","server_os":"Linux","password":true,"vac":true,"version":"7932396","steam_id":85568392924510193,"keywords":["nocrits","nodmgspread","payload","uncletopia"],"game_id":440,"stv_port":27046,"stv_name":"Uncletopia | London | 4 | All Maps | STV","players":null},{"server_id":21,"name":"Uncletopia | London | 5 | All Maps","name_short":"lon-5","host":"lon-1.uk.uncletopia.com","port":27055,"enabled":true,"region":"eu","cc":"gb","latitude":51.509865,"longitude":-0.118092,"reserved":0,"last_update":"0001-01-01T00:00:00Z","name_a2s":"Uncletopia | London | 5 | All Maps","protocol":17,"map":"pl_badwater","folder":"tf","game":"Team Fortress","app_id":440,"player_count":0,"max_players":24,"Bots":0,"server_type":"Dedicated","server_os":"Linux","password":true,"vac":true,"version":"7932396","steam_id":85568392924742829,"keywords":["nocrits","nodmgspread","payload","uncletopia"],"game_id":440,"stv_port":27056,"stv_name":"Uncletopia | London | 5 | All Maps | STV","players":null},{"server_id":22,"name":"Uncletopia | London | 6 | All Maps","name_short":"lon-6","host":"lon-1.uk.uncletopia.com","port":27065,"enabled":true,"region":"eu","cc":"gb","latitude":51.509865,"longitude":-0.118092,"reserved":0,"last_update":"0001-01-01T00:00:00Z","name_a2s":"Uncletopia | London | 6 | All Maps","protocol":17,"map":"pl_upward","folder":"tf","game":"Team Fortress","app_id":440,"player_count":0,"max_players":24,"Bots":0,"server_type":"Dedicated","server_os":"Linux","password":true,"vac":true,"version":"7932396","steam_id":85568392924742830,"keywords":["nocrits","nodmgspread","payload","uncletopia"],"game_id":440,"stv_port":27066,"stv_name":"Uncletopia | London | 6 | All Maps | STV","players":null},{"server_id":40,"name":"Uncletopia | London | 7 | No Payload","name_short":"lon-7","host":"lon-1.uk.uncletopia.com","port":27075,"enabled":true,"region":"eu","cc":"gb","latitude":51.509865,"longitude":-0.118092,"reserved":0,"last_update":"0001-01-01T00:00:00Z","name_a2s":"Uncletopia | London | 7 | No Payload","protocol":17,"map":"koth_lazarus","folder":"tf","game":"Team Fortress","app_id":440,"player_count":0,"max_players":24,"Bots":0,"server_type":"Dedicated","server_os":"Linux","password":true,"vac":true,"version":"7932396","steam_id":85568392924964314,"keywords":["cp","nocrits","nodmgspread","uncletopia"],"game_id":440,"stv_port":27076,"stv_name":"Uncletopia | London | 7 | No Payload | STV","players":null},{"server_id":41,"name":"Uncletopia | London | 8 | Community","name_short":"lon-8","host":"lon-1.uk.uncletopia.com","port":27085,"enabled":true,"region":"eu","cc":"gb","latitude":51.509865,"longitude":-0.118092,"reserved":0,"last_update":"0001-01-01T00:00:00Z","name_a2s":"Uncletopia | London | 8 | Community","protocol":17,"map":"workshop/koth_trenchfoot_b1a.ugc731436616","folder":"tf","game":"Team Fortress","app_id":440,"player_count":0,"max_players":24,"Bots":0,"server_type":"Dedicated","server_os":"Linux","password":true,"vac":true,"version":"7932396","steam_id":85568392924964315,"keywords":["cp","nocrits","nodmgspread","uncletopia"],"game_id":440,"stv_port":27086,"stv_name":"Uncletopia | London | 8 | Community | STV","players":null},{"server_id":300,"name":"Uncletopia | Montr√©al | 1 | All Maps","name_short":"mtl-1","host":"mtl-1.ca.uncletopia.com","port":27015,"enabled":true,"region":"us-east","cc":"ca","latitude":45.50889,"longitude":-73.56167,"reserved":0,"last_update":"0001-01-01T00:00:00Z","name_a2s":"Uncletopia | Montr√©al | 1 | All Maps","protocol":17,"map":"koth_cascade","folder":"tf","game":"Team Fortress","app_id":440,"player_count":2,"max_players":24,"Bots":0,"server_type":"Dedicated","server_os":"Linux","password":true,"vac":true,"version":"7932396","steam_id":85568392924500087,"keywords":["cp","nocrits","nodmgspread","uncletopia"],"game_id":440,"stv_port":27016,"stv_name":"Uncletopia | Montr√©al | 1 | All Maps | STV","players":[{"user_id":206,"name":"coolname","steam_id":76561199153923345,"connected_time":941000000000,"state":"active","ping":66},{"user_id":207,"name":"fortnite gamer","steam_id":76561199445491246,"connected_time":920000000000,"state":"active","ping":66}]},{"server_id":301,"name":"Uncletopia | Montr√©al | 2 | All Maps","name_short":"mtl-2","host":"mtl-1.ca.uncletopia.com","port":27025,"enabled":true,"region":"us-east","cc":"ca","latitude":45.50889,"longitude":-73.56167,"reserved":0,"last_update":"0001-01-01T00:00:00Z","name_a2s":"Uncletopia | Montr√©al | 2 | All Maps","protocol":17,"map":"koth_lakeside_final","folder":"tf","game":"Team Fortress","app_id":440,"player_count":0,"max_players":24,"Bots":0,"server_type":"Dedicated","server_os":"Linux","password":true,"vac":true,"version":"7932396","steam_id":85568392924500088,"keywords":["cp","nocrits","nodmgspread","uncletopia"],"game_id":440,"stv_port":27026,"stv_name":"Uncletopia | Montr√©al | 2 | All Maps | STV","players":null},{"server_id":302,"name":"Uncletopia | Montr√©al | 3 | All Maps","name_short":"mtl-3","host":"mtl-1.ca.uncletopia.com","port":27035,"enabled":true,"region":"us-east","cc":"ca","latitude":45.50889,"longitude":-73.56167,"reserved":0,"last_update":"0001-01-01T00:00:00Z","name_a2s":"Uncletopia | Montr√©al | 3 | All Maps","protocol":17,"map":"koth_cascade","folder":"tf","game":"Team Fortress","app_id":440,"player_count":0,"max_players":24,"Bots":0,"server_type":"Dedicated","server_os":"Linux","password":true,"vac":true,"version":"7932396","steam_id":85568392924500089,"keywords":["cp","nocrits","nodmgspread","uncletopia"],"game_id":440,"stv_port":27036,"stv_name":"Uncletopia | Montr√©al | 3 | All Maps | STV","players":null},{"server_id":303,"name":"Uncletopia | Montr√©al | 4 | No Payload","name_short":"mtl-4","host":"mtl-1.ca.uncletopia.com","port":27045,"enabled":true,"region":"us-east","cc":"ca","latitude":45.50889,"longitude":-73.56167,"reserved":0,"last_update":"0001-01-01T00:00:00Z","name_a2s":"Uncletopia | Montr√©al | 4 | No Payload","protocol":17,"map":"koth_king","folder":"tf","game":"Team Fortress","app_id":440,"player_count":0,"max_players":24,"Bots":0,"server_type":"Dedicated","server_os":"Linux","password":true,"vac":true,"version":"7932396","steam_id":85568392924500090,"keywords":["cp","nocrits","nodmgspread","uncletopia"],"game_id":440,"stv_port":27046,"stv_name":"Uncletopia | Montr√©al | 4 | No Payload | STV","players":null},{"server_id":13,"name":"Uncletopia | New York City | 1 | All Maps","name_short":"nyc-1","host":"nyc-1.us.uncletopia.com","port":27015,"enabled":true,"region":"us-east","cc":"us","latitude":40.73061,"longitude":-73.93524,"reserved":0,"last_update":"0001-01-01T00:00:00Z","name_a2s":"Uncletopia | New York City | 1 | All Maps","protocol":17,"map":"cp_dustbowl","folder":"tf","game":"Team Fortress","app_id":440,"player_count":24,"max_players":24,"Bots":0,"server_type":"Dedicated","server_os":"Linux","password":true,"vac":true,"version":"7932396","steam_id":85568392924469993,"keywords":["cp","nocrits","nodmgspread","uncletopia"],"game_id":440,"stv_port":27016,"stv_name":"Uncletopia | New York City | 1 | All Maps | STV","players":[{"user_id":449,"name":"MayheM","steam_id":76561198104506954,"connected_time":1292000000000,"state":"active","ping":86},{"user_id":430,"name":"Only One Jhakobi","steam_id":76561197993641141,"connected_time":2932000000000,"state":"active","ping":73},{"user_id":448,"name":"MajorPancake","steam_id":76561198068713831,"connected_time":1385000000000,"state":"active","ping":50},{"user_id":450,"name":"Dr. FlimFlam","steam_id":76561198049212986,"connected_time":1272000000000,"state":"active","ping":100},{"user_id":451,"name":"Snoogs","steam_id":76561198444880931,"connected_time":1233000000000,"state":"active","ping":67},{"user_id":452,"name":"A very nice man","steam_id":76561198165472253,"connected_time":1214000000000,"state":"active","ping":65},{"user_id":453,"name":"theghazinator","steam_id":76561198188027695,"connected_time":1210000000000,"state":"active","ping":62},{"user_id":444,"name":"SentiuntReus","steam_id":76561198208788677,"connected_time":2089000000000,"state":"active","ping":54},{"user_id":397,"name":"Wique","steam_id":76561198071217597,"connected_time":5906000000000,"state":"active","ping":70},{"user_id":462,"name":"Skyfox","steam_id":76561198036647535,"connected_time":827000000000,"state":"active","ping":121},{"user_id":445,"name":"gamer girl looking for a bf","steam_id":76561198279901162,"connected_time":1586000000000,"state":"active","ping":73},{"user_id":432,"name":"badasscoolboy57","steam_id":76561198795412055,"connected_time":2873000000000,"state":"active","ping":56},{"user_id":463,"name":"t0ast","steam_id":76561198141722573,"connected_time":461000000000,"state":"active","ping":120},{"user_id":456,"name":"hoovy spy","steam_id":76561198999843667,"connected_time":1176000000000,"state":"active","ping":79},{"user_id":457,"name":"Voyager","steam_id":76561199128786637,"connected_time":1138000000000,"state":"active","ping":95},{"user_id":386,"name":"Periculosum PhD in Funny","steam_id":76561198123370914,"connected_time":7051000000000,"state":"active","ping":85},{"user_id":415,"name":"noided","steam_id":76561198353924837,"connected_time":4729000000000,"state":"active","ping":76},{"user_id":458,"name":"Lots0","steam_id":76561198043143145,"connected_time":1087000000000,"state":"active","ping":112},{"user_id":439,"name":"winrarFanatic","steam_id":76561198026538317,"connected_time":2529000000000,"state":"active","ping":78},{"user_id":459,"name":"SireOfTheSun","steam_id":76561199049465503,"connected_time":1083000000000,"state":"active","ping":48},{"user_id":460,"name":"|AG| Level","steam_id":76561198063633592,"connected_time":1074000000000,"state":"active","ping":101},{"user_id":404,"name":"Bee_Pirate","steam_id":76561199000599111,"connected_time":5670000000000,"state":"active","ping":71},{"user_id":461,"name":"Uncle Majic the Hip Hop Magicia","steam_id":76561198107924303,"connected_time":1029000000000,"state":"active","ping":32},{"user_id":367,"name":"Samrizo el Chorizo","steam_id":76561198009838162,"connected_time":8697000000000,"state":"active","ping":51}]},{"server_id":14,"name":"Uncletopia | New York City | 2 | All Maps","name_short":"nyc-2","host":"nyc-1.us.uncletopia.com","port":27025,"enabled":true,"region":"us-east","cc":"us","latitude":40.73061,"longitude":-73.93524,"reserved":0,"last_update":"0001-01-01T00:00:00Z","name_a2s":"Uncletopia | New York City | 2 | All Maps","protocol":17,"map":"pl_badwater","folder":"tf","game":"Team Fortress","app_id":440,"player_count":24,"max_players":24,"Bots":0,"server_type":"Dedicated","server_os":"Linux","password":true,"vac":true,"version":"7932396","steam_id":85568392924469994,"keywords":["nocrits","nodmgspread","payload","uncletopia"],"game_id":440,"stv_port":27026,"stv_name":"Uncletopia | New York City | 2 | All Maps | STV","players":[{"user_id":361,"name":"Aristotle Voulton","steam_id":76561198100174923,"connected_time":2126000000000,"state":"active","ping":75},{"user_id":373,"name":"Satan-2","steam_id":76561199231742764,"connected_time":754000000000,"state":"active","ping":62},{"user_id":283,"name":"Heropon","steam_id":76561198105224481,"connected_time":8272000000000,"state":"active","ping":63},{"user_id":360,"name":"The Grim Heaper","steam_id":76561197987759101,"connected_time":2132000000000,"state":"active","ping":127},{"user_id":278,"name":"Thurricane","steam_id":76561198410724666,"connected_time":8515000000000,"state":"active","ping":50},{"user_id":367,"name":"Santicules","steam_id":76561198209373536,"connected_time":1780000000000,"state":"active","ping":46},{"user_id":306,"name":"IMPACT CPU","steam_id":76561198001344879,"connected_time":5205000000000,"state":"active","ping":59},{"user_id":331,"name":"Nevil","steam_id":76561198067925462,"connected_time":4420000000000,"state":"active","ping":71},{"user_id":339,"name":"Lexabyte","steam_id":76561198065032237,"connected_time":3265000000000,"state":"active","ping":65},{"user_id":375,"name":"NeonBean","steam_id":76561198088335827,"connected_time":711000000000,"state":"active","ping":103},{"user_id":369,"name":"Sire Salty","steam_id":76561198079639072,"connected_time":1489000000000,"state":"active","ping":53},{"user_id":342,"name":"No_Dictators","steam_id":76561199065777321,"connected_time":3237000000000,"state":"active","ping":95},{"user_id":354,"name":"Pixellate","steam_id":76561198085555090,"connected_time":2629000000000,"state":"active","ping":82},{"user_id":370,"name":"Singular Rooster","steam_id":76561197983872657,"connected_time":1309000000000,"state":"active","ping":81},{"user_id":351,"name":"burt","steam_id":76561198137548311,"connected_time":2745000000000,"state":"active","ping":71},{"user_id":376,"name":"SCARRING THE HOES (i am lonely)","steam_id":76561198397009880,"connected_time":684000000000,"state":"active","ping":72},{"user_id":334,"name":"Matchstick","steam_id":76561198399856863,"connected_time":3331000000000,"state":"active","ping":95},{"user_id":345,"name":"Norman","steam_id":76561198154715990,"connected_time":3210000000000,"state":"active","ping":111},{"user_id":380,"name":"Sheev Palpatine","steam_id":76561198252332430,"connected_time":462000000000,"state":"active","ping":114},{"user_id":355,"name":"nullptr","steam_id":76561198111790388,"connected_time":2525000000000,"state":"active","ping":105},{"user_id":371,"name":"Rudy","steam_id":76561198013456828,"connected_time":1308000000000,"state":"active","ping":57},{"user_id":372,"name":"Fishman_200","steam_id":76561198152455167,"connected_time":764000000000,"state":"active","ping":65},{"user_id":379,"name":"gyozaking","steam_id":76561197972312696,"connected_time":534000000000,"state":"active","ping":57}]},{"server_id":15,"name":"Uncletopia | New York City | 3 | Stopwatch Beta","name_short":"nyc-3","host":"nyc-1.us.uncletopia.com","port":27035,"enabled":true,"region":"us-east","cc":"us","latitude":40.73061,"longitude":-73.93524,"reserved":0,"last_update":"0001-01-01T00:00:00Z","name_a2s":"Uncletopia | New York City | 3 | Stopwatch Beta","protocol":17,"map":"workshop/koth_clearcut_b15.ugc2107050255","folder":"tf","game":"Team Fortress","app_id":440,"player_count":0,"max_players":24,"Bots":0,"server_type":"Dedicated","server_os":"Linux","password":true,"vac":true,"version":"7932396","steam_id":85568392924742820,"keywords":["cp","nocrits","nodmgspread","uncletopia"],"game_id":440,"stv_port":27036,"stv_name":"Uncletopia | New York City | 3 | Stopwatch Beta | STV","players":null},{"server_id":16,"name":"Uncletopia | New York City | 4 | Community","name_short":"nyc-4","host":"nyc-1.us.uncletopia.com","port":27045,"enabled":true,"region":"us-east","cc":"us","latitude":40.73061,"longitude":-73.93524,"reserved":0,"last_update":"0001-01-01T00:00:00Z","name_a2s":"Uncletopia | New York City | 4 | Community","protocol":17,"map":"workshop/koth_ashville_final.ugc2130459942","folder":"tf","game":"Team Fortress","app_id":440,"player_count":20,"max_players":24,"Bots":0,"server_type":"Dedicated","server_os":"Linux","password":true,"vac":true,"version":"7932396","steam_id":85568392924742821,"keywords":["cp","nocrits","nodmgspread","uncletopia"],"game_id":440,"stv_port":27046,"stv_name":"Uncletopia | New York City | 4 | Community | STV","players":[{"user_id":463,"name":"St4r_K1ll3r","steam_id":76561198853157301,"connected_time":338000000000,"state":"active","ping":55},{"user_id":464,"name":"Source Enjoyer","steam_id":76561198105663173,"connected_time":310000000000,"state":"active","ping":70},{"user_id":457,"name":"k3ramb1t","steam_id":76561198097880352,"connected_time":875000000000,"state":"active","ping":55},{"user_id":420,"name":"EmeraldYeti","steam_id":76561198318703857,"connected_time":3418000000000,"state":"active","ping":62},{"user_id":442,"name":"Rainboy","steam_id":76561199387631492,"connected_time":1816000000000,"state":"active","ping":73},{"user_id":461,"name":"LostRibosome","steam_id":76561198224637224,"connected_time":463000000000,"state":"active","ping":74},{"user_id":397,"name":"helen keller","steam_id":76561197979870540,"connected_time":4746000000000,"state":"active","ping":65},{"user_id":418,"name":"Mathispell","steam_id":76561198066256066,"connected_time":3469000000000,"state":"active","ping":59},{"user_id":429,"name":"monkeycake","steam_id":76561198272061915,"connected_time":3114000000000,"state":"active","ping":64},{"user_id":468,"name":"-|FG|- Hamilkar Barca","steam_id":76561198091666474,"connected_time":212000000000,"state":"active","ping":45},{"user_id":466,"name":"0xymoron¬≤","steam_id":76561198135993275,"connected_time":291000000000,"state":"active","ping":64},{"user_id":423,"name":"Punkin","steam_id":76561198334301755,"connected_time":3359000000000,"state":"active","ping":52},{"user_id":459,"name":"Joshkinz","steam_id":76561199087994881,"connected_time":643000000000,"state":"active","ping":66},{"user_id":467,"name":"DaSoulFlaya","steam_id":76561198047916808,"connected_time":229000000000,"state":"active","ping":130},{"user_id":398,"name":"(Past Tense)","steam_id":76561197996279335,"connected_time":4728000000000,"state":"active","ping":58},{"user_id":469,"name":"lolstar64","steam_id":76561198048565155,"connected_time":190000000000,"state":"active","ping":57},{"user_id":470,"name":"Skiddy","steam_id":76561198125942665,"connected_time":88000000000,"state":"active","ping":61},{"user_id":425,"name":"Etienne 115","steam_id":76561198351660265,"connected_time":3328000000000,"state":"active","ping":60},{"user_id":428,"name":"Zephiel Castelianos","steam_id":76561198092435137,"connected_time":3281000000000,"state":"active","ping":73},{"user_id":447,"name":"Helloppl65","steam_id":76561198272420658,"connected_time":1593000000000,"state":"active","ping":117}]},{"server_id":142,"name":"Uncletopia | S√£o Paulo | 1 | All Maps","name_short":"sao-1","host":"sao-1.br.uncletopia.com","port":27015,"enabled":true,"region":"sa","cc":"br","latitude":-23.533773,"longitude":-46.62529,"reserved":0,"last_update":"0001-01-01T00:00:00Z","name_a2s":"Uncletopia | S√£o Paulo | 1 | All Maps","protocol":17,"map":"koth_cascade","folder":"tf","game":"Team Fortress","app_id":440,"player_count":3,"max_players":24,"Bots":0,"server_type":"Dedicated","server_os":"Linux","password":true,"vac":true,"version":"7932396","steam_id":85568392924469996,"keywords":["cp","nocrits","nodmgspread","uncletopia"],"game_id":440,"stv_port":27016,"stv_name":"Uncletopia | S√£o Paulo | 1 | All Maps | STV","players":[{"user_id":81,"name":"Hercules","steam_id":76561199017999458,"connected_time":294000000000,"state":"active","ping":86},{"user_id":79,"name":"kate ‚ùÄ","steam_id":76561198805567120,"connected_time":1193000000000,"state":"active","ping":37},{"user_id":80,"name":"iko","steam_id":76561198965538287,"connected_time":754000000000,"state":"active","ping":41}]},{"server_id":143,"name":"Uncletopia | S√£o Paulo | 2 | All Maps","name_short":"sao-2","host":"sao-2.br.uncletopia.com","port":27015,"enabled":true,"region":"sa","cc":"br","latitude":-23.533773,"longitude":-46.62529,"reserved":0,"last_update":"0001-01-01T00:00:00Z","name_a2s":"Uncletopia | S√£o Paulo | 2 | All Maps","protocol":17,"map":"cp_sunshine","folder":"tf","game":"Team Fortress","app_id":440,"player_count":0,"max_players":24,"Bots":0,"server_type":"Dedicated","server_os":"Linux","password":true,"vac":true,"version":"7932396","steam_id":85568392924485349,"keywords":["cp","nocrits","nodmgspread","uncletopia"],"game_id":440,"stv_port":27016,"stv_name":"Uncletopia | S√£o Paulo | 2 | All Maps | STV","players":null},{"server_id":7,"name":"Uncletopia | Seattle | 1 | All Maps","name_short":"sea-1","host":"sea-1.us.uncletopia.com","port":27015,"enabled":true,"region":"us-west","cc":"us","latitude":47.608013,"longitude":-122.33517,"reserved":0,"last_update":"0001-01-01T00:00:00Z","name_a2s":"Uncletopia | Seattle | 1 | All Maps","protocol":17,"map":"cp_process_final","folder":"tf","game":"Team Fortress","app_id":440,"player_count":22,"max_players":24,"Bots":0,"server_type":"Dedicated","server_os":"Linux","password":true,"vac":true,"version":"7932396","steam_id":85568392924469997,"keywords":["cp","nocrits","nodmgspread","uncletopia"],"game_id":440,"stv_port":27016,"stv_name":"Uncletopia | Seattle | 1 | All Maps | STV","players":[{"user_id":254,"name":"InterplanetaryGentlemann","steam_id":76561198146559390,"connected_time":7692000000000,"state":"active","ping":45},{"user_id":252,"name":"Officer Earl","steam_id":76561199019675078,"connected_time":7711000000000,"state":"active","ping":119},{"user_id":381,"name":"rad killl raccoon","steam_id":76561198980975595,"connected_time":719000000000,"state":"active","ping":59},{"user_id":373,"name":"Moonkey","steam_id":76561199013741389,"connected_time":1800000000000,"state":"active","ping":100},{"user_id":274,"name":"‚ô• Milo Stefferson ‚ô• (Soupca","steam_id":76561198056269538,"connected_time":6193000000000,"state":"active","ping":57},{"user_id":367,"name":"4 life","steam_id":76561198175961598,"connected_time":2428000000000,"state":"active","ping":78},{"user_id":291,"name":"Alphaarmy01","steam_id":76561198818913025,"connected_time":5329000000000,"state":"active","ping":116},{"user_id":366,"name":"Haydob13","steam_id":76561198110378191,"connected_time":2657000000000,"state":"active","ping":54},{"user_id":391,"name":"Skabbety","steam_id":76561198168044257,"connected_time":301000000000,"state":"active","ping":41},{"user_id":383,"name":"Coowil","steam_id":76561198070985437,"connected_time":587000000000,"state":"active","ping":33},{"user_id":384,"name":"Peppy","steam_id":76561198866629645,"connected_time":585000000000,"state":"active","ping":59},{"user_id":364,"name":"trans ally danny  brown","steam_id":76561198239598834,"connected_time":2751000000000,"state":"active","ping":125},{"user_id":365,"name":"Bendidy","steam_id":76561198041964300,"connected_time":2699000000000,"state":"active","ping":66},{"user_id":382,"name":"Greskrendtregk","steam_id":76561197969553142,"connected_time":602000000000,"state":"active","ping":40},{"user_id":396,"name":"Mignyanne :3","steam_id":76561198048754056,"connected_time":39000000000,"state":"active","ping":60},{"user_id":369,"name":"ismellgood","steam_id":76561199005142939,"connected_time":1990000000000,"state":"active","ping":66},{"user_id":394,"name":"CashGordon","steam_id":76561197975594096,"connected_time":111000000000,"state":"active","ping":37},{"user_id":392,"name":"sillyjack","steam_id":76561198844273999,"connected_time":220000000000,"state":"active","ping":41},{"user_id":378,"name":"SnailYT","steam_id":76561198332040385,"connected_time":955000000000,"state":"active","ping":60},{"user_id":389,"name":"S O L I D","steam_id":76561198086095072,"connected_time":458000000000,"state":"active","ping":111},{"user_id":377,"name":"Antwan","steam_id":76561198246200638,"connected_time":1593000000000,"state":"active","ping":91},{"user_id":346,"name":"jimmy","steam_id":76561198411061839,"connected_time":3235000000000,"state":"active","ping":44}]},{"server_id":119,"name":"Uncletopia | Seattle | 2 | All Maps","name_short":"sea-2","host":"sea-1.us.uncletopia.com","port":27025,"enabled":true,"region":"us-west","cc":"us","latitude":47.608013,"longitude":-122.33517,"reserved":0,"last_update":"0001-01-01T00:00:00Z","name_a2s":"Uncletopia | Seattle | 2 | All Maps","protocol":17,"map":"pl_upward","folder":"tf","game":"Team Fortress","app_id":440,"player_count":24,"max_players":24,"Bots":0,"server_type":"Dedicated","server_os":"Linux","password":true,"vac":true,"version":"7932396","steam_id":85568392924469998,"keywords":["nocrits","nodmgspread","payload","uncletopia"],"game_id":440,"stv_port":27026,"stv_name":"Uncletopia | Seattle | 2 | All Maps | STV","players":[{"user_id":716,"name":"HideOnTate","steam_id":76561198209880837,"connected_time":3837000000000,"state":"active","ping":44},{"user_id":770,"name":"viciousbeatmaker","steam_id":76561198086876652,"connected_time":588000000000,"state":"active","ping":74},{"user_id":761,"name":"Otterstream8502","steam_id":76561198343767866,"connected_time":1494000000000,"state":"active","ping":54},{"user_id":765,"name":"D.A.V.I.D","steam_id":76561199443570634,"connected_time":1394000000000,"state":"active","ping":69},{"user_id":773,"name":"xXCallOfDoodyQuikScopeMaster34X","steam_id":76561198067232540,"connected_time":350000000000,"state":"active","ping":114},{"user_id":705,"name":"sadlaxx","steam_id":76561198061354919,"connected_time":5058000000000,"state":"active","ping":95},{"user_id":766,"name":"VIRTUAL-AIDS","steam_id":76561198451067502,"connected_time":1337000000000,"state":"active","ping":53},{"user_id":744,"name":"ejschild745","steam_id":76561199013388867,"connected_time":2575000000000,"state":"active","ping":71},{"user_id":760,"name":"._.","steam_id":76561198300316801,"connected_time":1545000000000,"state":"active","ping":105},{"user_id":687,"name":"a cat plushie","steam_id":76561198080046542,"connected_time":6107000000000,"state":"active","ping":45},{"user_id":775,"name":"Codo Sapien","steam_id":76561198014206810,"connected_time":283000000000,"state":"active","ping":79},{"user_id":676,"name":"dab","steam_id":76561197997990613,"connected_time":6539000000000,"state":"active","ping":73},{"user_id":746,"name":"Sax","steam_id":76561198055425123,"connected_time":2355000000000,"state":"active","ping":56},{"user_id":780,"name":"chilis baby back ribs","steam_id":76561198813516435,"connected_time":108000000000,"state":"active","ping":71},{"user_id":781,"name":"m√ºnnn","steam_id":76561198111147624,"connected_time":93000000000,"state":"active","ping":81},{"user_id":625,"name":"a single goal","steam_id":76561198042913843,"connected_time":10078000000000,"state":"active","ping":55},{"user_id":777,"name":"Boomite","steam_id":76561198191441145,"connected_time":259000000000,"state":"active","ping":56},{"user_id":778,"name":"RileyTheProtogen","steam_id":76561198835492754,"connected_time":255000000000,"state":"active","ping":104},{"user_id":771,"name":"LordMorphesus","steam_id":76561198026995104,"connected_time":525000000000,"state":"active","ping":55},{"user_id":772,"name":"Shazzy","steam_id":76561198145460523,"connected_time":394000000000,"state":"active","ping":43},{"user_id":767,"name":"mac_cheese","steam_id":76561198071334162,"connected_time":1325000000000,"state":"active","ping":51},{"user_id":768,"name":"Mr8bittripper","steam_id":76561198133894229,"connected_time":912000000000,"state":"active","ping":46},{"user_id":764,"name":"canadian birds","steam_id":76561198059466588,"connected_time":1431000000000,"state":"active","ping":110},{"user_id":709,"name":"beam man","steam_id":76561198060567341,"connected_time":4925000000000,"state":"active","ping":144}]},{"server_id":406,"name":"Uncletopia | Seattle | 3 | Stopwatch Beta","name_short":"sea-3","host":"sea-1.us.uncletopia.com","port":27035,"enabled":true,"region":"us-west","cc":"us","latitude":47.608013,"longitude":-122.33517,"reserved":0,"last_update":"0001-01-01T00:00:00Z","name_a2s":"Uncletopia | Seattle | 3 | Stopwatch Beta","protocol":17,"map":"workshop/koth_bagel_rc6.ugc2514036946","folder":"tf","game":"Team Fortress","app_id":440,"player_count":0,"max_players":24,"Bots":0,"server_type":"Dedicated","server_os":"Linux","password":true,"vac":true,"version":"7932396","steam_id":85568392924515217,"keywords":["cp","nocrits","nodmgspread","uncletopia"],"game_id":440,"stv_port":27036,"stv_name":"Uncletopia | Seattle | 3 | Stopwatch Beta | STV","players":null},{"server_id":17,"name":"Uncletopia | San Francisco | 1 | All Maps","name_short":"sfo-1","host":"sfo-1.us.uncletopia.com","port":27015,"enabled":true,"region":"us-west","cc":"us","latitude":37.77397,"longitude":-122.4313,"reserved":0,"last_update":"0001-01-01T00:00:00Z","name_a2s":"Uncletopia | San Francisco | 1 | All Maps","protocol":17,"map":"pl_upward","folder":"tf","game":"Team Fortress","app_id":440,"player_count":23,"max_players":24,"Bots":0,"server_type":"Dedicated","server_os":"Linux","password":true,"vac":true,"version":"7932396","steam_id":85568392924469999,"keywords":["nocrits","nodmgspread","payload","uncletopia"],"game_id":440,"stv_port":27016,"stv_name":"Uncletopia | San Francisco | 1 | All Maps | STV","players":[{"user_id":193,"name":"Pan-Demonica","steam_id":76561198294350105,"connected_time":16000000000,"state":"active","ping":102},{"user_id":181,"name":"CJammy","steam_id":76561199074691047,"connected_time":1241000000000,"state":"active","ping":87},{"user_id":163,"name":"bobbymcbobington","steam_id":76561199089411172,"connected_time":2563000000000,"state":"active","ping":158},{"user_id":171,"name":"Mr Twitchy","steam_id":76561197995985499,"connected_time":2139000000000,"state":"active","ping":63},{"user_id":190,"name":"‚ò≠Borris‚ò≠","steam_id":76561198011136886,"connected_time":634000000000,"state":"active","ping":63},{"user_id":169,"name":"Livin' Like Larry","steam_id":76561198313360974,"connected_time":2149000000000,"state":"active","ping":33},{"user_id":160,"name":"FUNNY JOKE(pls laugh)","steam_id":76561199070877046,"connected_time":2720000000000,"state":"active","ping":64},{"user_id":194,"name":"frostedflakes99","steam_id":76561199049292578,"connected_time":15000000000,"state":"spawning","ping":44},{"user_id":182,"name":"Imitation Caucasian","steam_id":76561198320536166,"connected_time":1076000000000,"state":"active","ping":73},{"user_id":141,"name":"Buswolley","steam_id":76561197995205571,"connected_time":3177000000000,"state":"active","ping":46},{"user_id":188,"name":"Stitches","steam_id":76561198009227139,"connected_time":787000000000,"state":"active","ping":52},{"user_id":184,"name":"Sky","steam_id":76561198097549374,"connected_time":1051000000000,"state":"active","ping":85},{"user_id":145,"name":"whigmalwhim","steam_id":76561198338741303,"connected_time":3100000000000,"state":"active","ping":142},{"user_id":185,"name":"Bedside table, on the kangaroo","steam_id":76561198044277932,"connected_time":1042000000000,"state":"active","ping":92},{"user_id":147,"name":"fierbolt","steam_id":76561198081948338,"connected_time":3094000000000,"state":"active","ping":55},{"user_id":148,"name":"EL-1-XR","steam_id":76561198123214359,"connected_time":3091000000000,"state":"active","ping":52},{"user_id":150,"name":"Aureum Custos","steam_id":76561198062627582,"connected_time":2992000000000,"state":"active","ping":75},{"user_id":151,"name":"baguette","steam_id":76561199097689778,"connected_time":2991000000000,"state":"active","ping":96},{"user_id":153,"name":"nburns","steam_id":76561199227334296,"connected_time":2966000000000,"state":"active","ping":85},{"user_id":191,"name":"BongBlaster69","steam_id":76561198316811893,"connected_time":479000000000,"state":"active","ping":57},{"user_id":186,"name":"BON6 R1P5","steam_id":76561199187170139,"connected_time":1020000000000,"state":"active","ping":112},{"user_id":187,"name":"Maid Knight","steam_id":76561198214370515,"connected_time":1014000000000,"state":"active","ping":122},{"user_id":180,"name":"gmagnum","steam_id":76561199034260371,"connected_time":1291000000000,"state":"active","ping":67}]},{"server_id":18,"name":"Uncletopia | San Francisco | 2 | All Maps","name_short":"sfo-2","host":"sfo-1.us.uncletopia.com","port":27025,"enabled":true,"region":"us-west","cc":"us","latitude":37.77397,"longitude":-122.4313,"reserved":0,"last_update":"0001-01-01T00:00:00Z","name_a2s":"Uncletopia | San Francisco | 2 | All Maps","protocol":17,"map":"pl_snowycoast","folder":"tf","game":"Team Fortress","app_id":440,"player_count":24,"max_players":24,"Bots":0,"server_type":"Dedicated","server_os":"Linux","password":true,"vac":true,"version":"7932396","steam_id":85568392924470000,"keywords":["nocrits","nodmgspread","payload","uncletopia"],"game_id":440,"stv_port":27026,"stv_name":"Uncletopia | San Francisco | 2 | All Maps | STV","players":[{"user_id":199,"name":"Strangelove","steam_id":76561198353773611,"connected_time":121000000000,"state":"active","ping":163},{"user_id":142,"name":"slightly faster heavy","steam_id":76561199077027954,"connected_time":4941000000000,"state":"active","ping":59},{"user_id":192,"name":"monk mode protocol","steam_id":76561199100342013,"connected_time":1720000000000,"state":"active","ping":52},{"user_id":182,"name":"Norriss","steam_id":76561198920296293,"connected_time":2532000000000,"state":"active","ping":59},{"user_id":200,"name":"SomeRandomBetaFish","steam_id":76561198827731399,"connected_time":106000000000,"state":"active","ping":100},{"user_id":191,"name":"the fool","steam_id":76561198133933158,"connected_time":1792000000000,"state":"active","ping":60},{"user_id":183,"name":"TheLlamaKang","steam_id":76561198125828837,"connected_time":2525000000000,"state":"active","ping":131},{"user_id":201,"name":"NeoJesus","steam_id":76561197973145852,"connected_time":72000000000,"state":"active","ping":113},{"user_id":202,"name":"Starwhal","steam_id":76561198028539312,"connected_time":38000000000,"state":"spawning","ping":44},{"user_id":193,"name":"bandit","steam_id":76561198126546221,"connected_time":1424000000000,"state":"active","ping":47},{"user_id":168,"name":"Feel the bern","steam_id":76561198078824519,"connected_time":3650000000000,"state":"active","ping":59},{"user_id":203,"name":"CollDragon","steam_id":76561198067534450,"connected_time":35000000000,"state":"spawning","ping":129},{"user_id":204,"name":"Macro","steam_id":76561199442846226,"connected_time":26000000000,"state":"active","ping":108},{"user_id":194,"name":"hace","steam_id":76561198240217520,"connected_time":1416000000000,"state":"active","ping":85},{"user_id":189,"name":"Ajax","steam_id":76561198071310833,"connected_time":1958000000000,"state":"active","ping":77},{"user_id":43,"name":"Ansuz();","steam_id":76561198260732135,"connected_time":7503000000000,"state":"active","ping":73},{"user_id":195,"name":"lasky","steam_id":76561198017030029,"connected_time":1103000000000,"state":"active","ping":52},{"user_id":185,"name":"Fatal Top Deficiency","steam_id":76561198141738612,"connected_time":2434000000000,"state":"active","ping":117},{"user_id":197,"name":"air¬≤","steam_id":76561198318855276,"connected_time":905000000000,"state":"active","ping":130},{"user_id":153,"name":"lili","steam_id":76561199391478575,"connected_time":4430000000000,"state":"active","ping":80},{"user_id":138,"name":"Contender","steam_id":76561198074607715,"connected_time":4978000000000,"state":"active","ping":122},{"user_id":49,"name":"Idiot","steam_id":76561198973316284,"connected_time":7362000000000,"state":"active","ping":101},{"user_id":205,"name":"too many fives","steam_id":76561198128465482,"connected_time":25000000000,"state":"spawning","ping":87},{"user_id":198,"name":"zinnk","steam_id":76561198092081825,"connected_time":415000000000,"state":"active","ping":42}]},{"server_id":19,"name":"Uncletopia | San Francisco | 3 | Stopwatch Beta","name_short":"sfo-3","host":"sfo-1.us.uncletopia.com","port":27035,"enabled":true,"region":"us-west","cc":"us","latitude":37.77397,"longitude":-122.4313,"reserved":0,"last_update":"0001-01-01T00:00:00Z","name_a2s":"Uncletopia | San Francisco | 3 | Stopwatch Beta","protocol":17,"map":"workshop/pl_vigil_rc9.ugc1266210012","folder":"tf","game":"Team Fortress","app_id":440,"player_count":0,"max_players":24,"Bots":0,"server_type":"Dedicated","server_os":"Linux","password":true,"vac":true,"version":"7932396","steam_id":85568392924742824,"keywords":["nocrits","nodmgspread","payload","uncletopia"],"game_id":440,"stv_port":27036,"stv_name":"Uncletopia | San Francisco | 3 | Stopwatch Beta | STV","players":null},{"server_id":20,"name":"Uncletopia | San Francisco | 4 | Community","name_short":"sfo-4","host":"sfo-1.us.uncletopia.com","port":27045,"enabled":true,"region":"us-west","cc":"us","latitude":37.77397,"longitude":-122.4313,"reserved":0,"last_update":"0001-01-01T00:00:00Z","name_a2s":"Uncletopia | San Francisco | 4 | Community","protocol":17,"map":"workshop/cp_croissant_final.ugc458840209","folder":"tf","game":"Team Fortress","app_id":440,"player_count":0,"max_players":24,"Bots":0,"server_type":"Dedicated","server_os":"Linux","password":true,"vac":true,"version":"7932396","steam_id":85568392924742826,"keywords":["cp","nocrits","nodmgspread","uncletopia"],"game_id":440,"stv_port":27046,"stv_name":"Uncletopia | San Francisco | 4 | Community | STV","players":null},{"server_id":141,"name":"Uncletopia | Sydney | 1 | All Maps","name_short":"syd-1","host":"syd-1.au.uncletopia.com","port":27015,"enabled":true,"region":"au","cc":"au","latitude":-33.865143,"longitude":151.2099,"reserved":0,"last_update":"0001-01-01T00:00:00Z","name_a2s":"Uncletopia | Sydney | 1 | All Maps","protocol":17,"map":"koth_highpass","folder":"tf","game":"Team Fortress","app_id":440,"player_count":0,"max_players":24,"Bots":0,"server_type":"Dedicated","server_os":"Linux","password":true,"vac":true,"version":"7932396","steam_id":85568392924470001,"keywords":["cp","nocrits","nodmgspread","uncletopia"],"game_id":440,"stv_port":27016,"stv_name":"Uncletopia | Sydney | 1 | All Maps | STV","players":null},{"server_id":123,"name":"Uncletopia | Sydney | 2 | All Maps","name_short":"syd-2","host":"syd-1.au.uncletopia.com","port":27025,"enabled":true,"region":"au","cc":"au","latitude":-33.865143,"longitude":151.2099,"reserved":0,"last_update":"0001-01-01T00:00:00Z","name_a2s":"Uncletopia | Sydney | 2 | All Maps","protocol":17,"map":"pl_badwater","folder":"tf","game":"Team Fortress","app_id":440,"player_count":23,"max_players":24,"Bots":0,"server_type":"Dedicated","server_os":"Linux","password":true,"vac":true,"version":"7932396","steam_id":85568392924470002,"keywords":["nocrits","nodmgspread","payload","uncletopia"],"game_id":440,"stv_port":27026,"stv_name":"Uncletopia | Sydney | 2 | All Maps | STV","players":[{"user_id":234,"name":"Hawk","steam_id":76561198135164277,"connected_time":2407000000000,"state":"active","ping":53},{"user_id":260,"name":"Psalm 118:10-17","steam_id":76561198305904806,"connected_time":1119000000000,"state":"active","ping":56},{"user_id":254,"name":"Bamooxa","steam_id":76561198067160709,"connected_time":1409000000000,"state":"active","ping":83},{"user_id":238,"name":"kisses you","steam_id":76561198288970258,"connected_time":2070000000000,"state":"active","ping":48},{"user_id":239,"name":"Sinister80s","steam_id":76561198343540472,"connected_time":2028000000000,"state":"active","ping":72},{"user_id":244,"name":"Zieria","steam_id":76561199261811388,"connected_time":1802000000000,"state":"active","ping":42},{"user_id":142,"name":"SUSHIMAN","steam_id":76561199089989428,"connected_time":8771000000000,"state":"active","ping":107},{"user_id":217,"name":"cocaine bear","steam_id":76561198129112901,"connected_time":3947000000000,"state":"active","ping":71},{"user_id":262,"name":"Mooty","steam_id":76561198301293435,"connected_time":590000000000,"state":"active","ping":56},{"user_id":242,"name":"splurboingus wazoogort","steam_id":76561198063481761,"connected_time":1977000000000,"state":"active","ping":45},{"user_id":246,"name":"Kiwoo","steam_id":76561198097429186,"connected_time":1728000000000,"state":"active","ping":80},{"user_id":263,"name":"BOT Gary","steam_id":76561198376950841,"connected_time":538000000000,"state":"active","ping":67},{"user_id":153,"name":"jim :)","steam_id":76561198127508905,"connected_time":7904000000000,"state":"active","ping":40},{"user_id":265,"name":"Morgenstern","steam_id":76561198253080474,"connected_time":496000000000,"state":"active","ping":73},{"user_id":251,"name":"MS PowerPoint","steam_id":76561198369523192,"connected_time":1490000000000,"state":"active","ping":169},{"user_id":266,"name":"wom","steam_id":76561199375834537,"connected_time":405000000000,"state":"active","ping":126},{"user_id":130,"name":"Empol√©","steam_id":76561198363939040,"connected_time":9656000000000,"state":"active","ping":82},{"user_id":252,"name":"Hona","steam_id":76561198221809496,"connected_time":1475000000000,"state":"active","ping":60},{"user_id":233,"name":"mwahlib","steam_id":76561198044007267,"connected_time":2534000000000,"state":"active","ping":54},{"user_id":272,"name":"MrTrollTheMadGamer","steam_id":76561198095862889,"connected_time":77000000000,"state":"active","ping":71},{"user_id":264,"name":"WogBat","steam_id":76561198151221055,"connected_time":518000000000,"state":"active","ping":63},{"user_id":269,"name":"payn.","steam_id":76561199277321828,"connected_time":373000000000,"state":"active","ping":54}]},{"server_id":395,"name":"Uncletopia | Sydney | 3 | All Maps","name_short":"syd-3","host":"syd-1.au.uncletopia.com","port":27035,"enabled":true,"region":"au","cc":"au","latitude":-33.865143,"longitude":151.2099,"reserved":0,"last_update":"0001-01-01T00:00:00Z","name_a2s":"Uncletopia | Sydney | 3 | All Maps","protocol":17,"map":"cp_snakewater_final1","folder":"tf","game":"Team Fortress","app_id":440,"player_count":0,"max_players":24,"Bots":0,"server_type":"Dedicated","server_os":"Linux","password":true,"vac":true,"version":"7932396","steam_id":85568392925194467,"keywords":["cp","nocrits","nodmgspread","uncletopia"],"game_id":440,"stv_port":27036,"stv_name":"Uncletopia | Sydney | 3 | All Maps | STV","players":null},{"server_id":396,"name":"Uncletopia | Sydney | 4 | All Maps","name_short":"syd-4","host":"syd-1.au.uncletopia.com","port":27045,"enabled":true,"region":"au","cc":"au","latitude":-33.865143,"longitude":151.2099,"reserved":0,"last_update":"0001-01-01T00:00:00Z","name_a2s":"Uncletopia | Sydney | 4 | All Maps","protocol":17,"map":"cp_sunshine","folder":"tf","game":"Team Fortress","app_id":440,"player_count":0,"max_players":24,"Bots":0,"server_type":"Dedicated","server_os":"Linux","password":true,"vac":true,"version":"7932396","steam_id":85568392925397958,"keywords":["cp","nocrits","nodmgspread","uncletopia"],"game_id":440,"stv_port":27046,"stv_name":"Uncletopia | Sydney | 4 | All Maps | STV","players":null},{"server_id":58,"name":"Uncletopia | Sydney | 5 | Stopwatch Beta","name_short":"syd-5","host":"syd-1.au.uncletopia.com","port":27055,"enabled":true,"region":"au","cc":"au","latitude":-33.865143,"longitude":151.2099,"reserved":0,"last_update":"0001-01-01T00:00:00Z","name_a2s":"Uncletopia | Sydney | 5 | Stopwatch Beta","protocol":17,"map":"pl_borneo","folder":"tf","game":"Team Fortress","app_id":440,"player_count":0,"max_players":24,"Bots":0,"server_type":"Dedicated","server_os":"Linux","password":true,"vac":true,"version":"7932396","steam_id":85568392925397959,"keywords":["nocrits","nodmgspread","payload","uncletopia"],"game_id":440,"stv_port":27056,"stv_name":"Uncletopia | Sydney | 5 | Stopwatch Beta | STV","players":null},{"server_id":59,"name":"Uncletopia | Sydney | 6 | Community","name_short":"syd-6","host":"syd-1.au.uncletopia.com","port":27065,"enabled":true,"region":"au","cc":"au","latitude":-33.865143,"longitude":151.2099,"reserved":0,"last_update":"0001-01-01T00:00:00Z","name_a2s":"Uncletopia | Sydney | 6 | Community","protocol":17,"map":"workshop/cp_snowbase_b18.ugc2081770490","folder":"tf","game":"Team Fortress","app_id":440,"player_count":0,"max_players":24,"Bots":0,"server_type":"Dedicated","server_os":"Linux","password":true,"vac":true,"version":"7932396","steam_id":85568392925397960,"keywords":["cp","nocrits","nodmgspread","uncletopia"],"game_id":440,"stv_port":27066,"stv_name":"Uncletopia | Sydney | 6 | Community | STV","players":null},{"server_id":49,"name":"Uncletopia | Warsaw | 1 | All Maps","name_short":"waw-1","host":"waw-1.pl.uncletopia.com","port":27015,"enabled":true,"region":"eu","cc":"pl","latitude":52.2297,"longitude":21.017532,"reserved":0,"last_update":"0001-01-01T00:00:00Z","name_a2s":"","protocol":0,"map":"","folder":"","game":"","app_id":0,"player_count":0,"max_players":0,"Bots":0,"server_type":"","server_os":"","password":false,"vac":false,"version":"","steam_id":0,"keywords":null,"game_id":0,"stv_port":0,"stv_name":"","players":null},{"server_id":50,"name":"Uncletopia | Warsaw | 2 | All Maps","name_short":"waw-2","host":"waw-1.pl.uncletopia.com","port":27025,"enabled":true,"region":"eu","cc":"pl","latitude":52.2297,"longitude":21.017532,"reserved":0,"last_update":"0001-01-01T00:00:00Z","name_a2s":"Uncletopia | Warsaw | 2 | All Maps","protocol":17,"map":"koth_highpass","folder":"tf","game":"Team Fortress","app_id":440,"player_count":0,"max_players":24,"Bots":0,"server_type":"Dedicated","server_os":"Linux","password":true,"vac":true,"version":"7932396","steam_id":85568392925397851,"keywords":["cp","nocrits","nodmgspread","uncletopia"],"game_id":440,"stv_port":27026,"stv_name":"Uncletopia | Warsaw | 2 | All Maps | STV","players":null},{"server_id":51,"name":"Uncletopia | Warsaw | 3 | All Maps","name_short":"waw-3","host":"waw-1.pl.uncletopia.com","port":27035,"enabled":true,"region":"eu","cc":"pl","latitude":52.2297,"longitude":21.017532,"reserved":0,"last_update":"0001-01-01T00:00:00Z","name_a2s":"Uncletopia | Warsaw | 3 | All Maps","protocol":17,"map":"pl_pier","folder":"tf","game":"Team Fortress","app_id":440,"player_count":0,"max_players":24,"Bots":0,"server_type":"Dedicated","server_os":"Linux","password":true,"vac":true,"version":"7932396","steam_id":85568392925397852,"keywords":["nocrits","nodmgspread","payload","uncletopia"],"game_id":440,"stv_port":27036,"stv_name":"Uncletopia | Warsaw | 3 | All Maps | STV","players":null},{"server_id":52,"name":"Uncletopia | Warsaw | 4 | All Maps","name_short":"waw-4","host":"waw-1.pl.uncletopia.com","port":27045,"enabled":true,"region":"eu","cc":"pl","latitude":52.2297,"longitude":21.017532,"reserved":0,"last_update":"0001-01-01T00:00:00Z","name_a2s":"Uncletopia | Warsaw | 4 | All Maps","protocol":17,"map":"pl_frontier_final","folder":"tf","game":"Team Fortress","app_id":440,"player_count":0,"max_players":24,"Bots":0,"server_type":"Dedicated","server_os":"Linux","password":true,"vac":true,"version":"7932396","steam_id":85568392925397853,"keywords":["nocrits","nodmgspread","payload","uncletopia"],"game_id":440,"stv_port":27046,"stv_name":"Uncletopia | Warsaw | 4 | All Maps | STV","players":null},{"server_id":53,"name":"Uncletopia | Warsaw | 5 | Stopwatch Beta","name_short":"waw-5","host":"waw-1.pl.uncletopia.com","port":27055,"enabled":true,"region":"eu","cc":"pl","latitude":52.2297,"longitude":21.017532,"reserved":0,"last_update":"0001-01-01T00:00:00Z","name_a2s":"Uncletopia | Warsaw | 5 | Stopwatch Beta","protocol":17,"map":"pl_upward","folder":"tf","game":"Team Fortress","app_id":440,"player_count":0,"max_players":24,"Bots":0,"server_type":"Dedicated","server_os":"Linux","password":true,"vac":true,"version":"7932396","steam_id":85568392925397854,"keywords":["nocrits","nodmgspread","payload","uncletopia"],"game_id":440,"stv_port":27056,"stv_name":"Uncletopia | Warsaw | 5 | Stopwatch Beta | STV","players":null},{"server_id":54,"name":"Uncletopia | Warsaw | 6 | Community","name_short":"waw-6","host":"waw-1.pl.uncletopia.com","port":27065,"enabled":true,"region":"eu","cc":"pl","latitude":52.2297,"longitude":21.017532,"reserved":0,"last_update":"0001-01-01T00:00:00Z","name_a2s":"Uncletopia | Warsaw | 6 | Community","protocol":17,"map":"workshop/cp_bruhstbowl_b6.ugc2878604990","folder":"tf","game":"Team Fortress","app_id":440,"player_count":0,"max_players":24,"Bots":0,"server_type":"Dedicated","server_os":"Linux","password":true,"vac":true,"version":"7932396","steam_id":85568392925397856,"keywords":["cp","nocrits","nodmgspread","uncletopia"],"game_id":440,"stv_port":27066,"stv_name":"Uncletopia | Warsaw | 6 | Community | STV","players":null}]}