{"status":true,"message":"","result":[{"server_id":9,"name":"Uncletopia | Atlanta | 1 | All Maps","name_short":"atl-1","host":"atl-1.us.uncletopia.com","port":27015,"enabled":true,"region":"us-east","cc":"us","latitude":33.753746,"longitude":-84.38633,"reserved":0,"last_update":"0001-01-01T00:00:00Z","name_a2s":"Uncletopia | Atlanta | 1 | All Maps","protocol":17,"map":"pl_borneo","folder":"tf","game":"Team Fortress","app_id":440,"player_count":23,"max_players":24,"Bots":0,"server_type":"Dedicated","server_os":"Linux","password":true,"vac":true,"version":"7961495","steam_id":85568392924469982,"keywords":["nocrits","nodmgspread","payload","uncletopia"],"game_id":440,"stv_port":27016,"stv_name":"Uncletopia | Atlanta | 1 | All Maps | STV","players":null},{"server_id":104,"name":"Uncletopia | Atlanta | 2 | All Maps","name_short":"atl-2","host":"atl-1.us.uncletopia.com","port":27025,"enabled":true,"region":"us-east","cc":"us","latitude":33.753746,"longitude":-84.38633,"reserved":0,"last_update":"0001-01-01T00:00:00Z","name_a2s":"Uncletopia | Atlanta | 2 | All Maps","protocol":17,"map":"cp_mountainlab","folder":"tf","game":"Team Fortress","app_id":440,"player_count":1,"max_players":24,"Bots":0,"server_type":"Dedicated","server_os":"Linux","password":true,"vac":true,"version":"7961495","steam_id":85568392924469983,"keywords":["cp","nocrits","nodmgspread","uncletopia"],"game_id":440,"stv_port":27026,"stv_name":"Uncletopia | Atlanta | 2 | All Maps | STV","players":null},{"server_id":400,"name":"Uncletopia | Atlanta | 3 | All Maps","name_short":"atl-3","host":"atl-1.us.uncletopia.com","port":27035,"enabled":true,"region":"us-east","cc":"us","latitude":33.753746,"longitude":-84.38633,"reserved":0,"last_update":"0001-01-01T00:00:00Z","name_a2s":"Uncletopia | Atlanta | 3 | All Maps","protocol":17,"map":"pl_barnblitz","folder":"tf","game":"Team Fortress","app_id":440,"player_count":21,"max_players":24,"Bots":0,"server_type":"Dedicated","server_os":"Linux","password":true,"vac":true,"version":"7961495","steam_id":85568392924515187,"keywords":["nocrits","nodmgspread","payload","uncletopia"],"game_id":440,"stv_port":27036,"stv_name":"Uncletopia | Atlanta | 3 | All Maps | STV","players":null},{"server_id":401,"name":"Uncletopia | Atlanta | 4 | Community","name_short":"atl-4","host":"atl-1.us.uncletopia.com","port":27045,"enabled":true,"region":"us-east","cc":"us","latitude":33.753746,"longitude":-84.38633,"reserved":0,"last_update":"0001-01-01T00:00:00Z","name_a2s":"Uncletopia | Atlanta | 4 | Community","protocol":17,"map":"rd_asteroid_redux_b1","folder":"tf","game":"Team Fortress","app_id":440,"player_count":0,"max_players":24,"Bots":0,"server_type":"Dedicated","server_os":"Linux","password":true,"vac":true,"version":"7961495","steam_id":85568392924515188,"keywords":["beta","nocrits","nodmgspread","rd","uncletopia"],"game_id":440,"stv_port":27046,"stv_name":"Uncletopia | Atlanta | 4 | Community | STV","players":null},{"server_id":2,"name":"Uncletopia | Chicago | 1 | All Maps","name_short":"chi-1","host":"chi-1.us.uncletopia.com","port":27015,"enabled":true,"region":"us-central","cc":"us","latitude":41.881832,"longitude":-87.62318,"reserved":0,"last_update":"0001-01-01T00:00:00Z","name_a2s":"Uncletopia | Chicago | 1 | All Maps","protocol":17,"map":"cp_dustbowl","folder":"tf","game":"Team Fortress","app_id":440,"player_count":23,"max_players":24,"Bots":0,"server_type":"Dedicated","server_os":"Linux","password":true,"vac":true,"version":"7961495","steam_id":85568392924469984,"keywords":["cp","nocrits","nodmgspread","uncletopia"],"game_id":440,"stv_port":27016,"stv_name":"Uncletopia | Chicago | 1 | All Maps | STV","players":[{"user_id":793,"name":"Aeri","steam_id":76561198041809495,"connected_time":2222000000000,"state":"active","ping":93},{"user_id":800,"name":"aintnowaiyboi","steam_id":76561198301372369,"connected_time":1565000000000,"state":"active","ping":57},{"user_id":687,"name":"Tito","steam_id":76561198041702529,"connected_time":12558000000000,"state":"active","ping":89},{"user_id":792,"name":"Sirlite","steam_id":76561198873316645,"connected_time":2244000000000,"state":"active","ping":100},{"user_id":820,"name":"pancake ‚óè","steam_id":76561198999217575,"connected_time":737000000000,"state":"active","ping":69},{"user_id":794,"name":"Duckbeater","steam_id":76561198012421014,"connected_time":2215000000000,"state":"active","ping":104},{"user_id":795,"name":"Pepüíî","steam_id":76561197995411109,"connected_time":2211000000000,"state":"active","ping":83},{"user_id":796,"name":"Getter","steam_id":76561198001395991,"connected_time":2201000000000,"state":"active","ping":134},{"user_id":812,"name":"9AM | Lunean","steam_id":76561198106546230,"connected_time":1170000000000,"state":"active","ping":65},{"user_id":803,"name":"$K8DEMON666","steam_id":76561198212993755,"connected_time":1342000000000,"state":"active","ping":104},{"user_id":821,"name":"only a spoonful","steam_id":76561198113180616,"connected_time":665000000000,"state":"active","ping":70},{"user_id":805,"name":"Ÿ¥","steam_id":76561198161403931,"connected_time":1331000000000,"state":"active","ping":61},{"user_id":806,"name":"salmon","steam_id":76561198050061475,"connected_time":1329000000000,"state":"active","ping":72},{"user_id":822,"name":"j3sstendo","steam_id":76561198121850880,"connected_time":661000000000,"state":"active","ping":79},{"user_id":807,"name":"Based","steam_id":76561199089316436,"connected_time":1321000000000,"state":"active","ping":90},{"user_id":808,"name":"StarManMatt","steam_id":76561198125513574,"connected_time":1266000000000,"state":"active","ping":90},{"user_id":823,"name":"Iron Argus","steam_id":76561198181088245,"connected_time":658000000000,"state":"active","ping":70},{"user_id":813,"name":"Career","steam_id":76561198028542212,"connected_time":1153000000000,"state":"active","ping":73},{"user_id":717,"name":"Kero","steam_id":76561198343231436,"connected_time":10089000000000,"state":"active","ping":63},{"user_id":815,"name":"negus 2","steam_id":76561198043862737,"connected_time":1133000000000,"state":"active","ping":58},{"user_id":825,"name":"greg club","steam_id":76561198370506193,"connected_time":567000000000,"state":"active","ping":52},{"user_id":817,"name":"Liquid Oxycodone","steam_id":76561198154162664,"connected_time":1097000000000,"state":"active","ping":66},{"user_id":819,"name":"PageBoiSkull","steam_id":76561198237353578,"connected_time":1054000000000,"state":"active","ping":114}]},{"server_id":106,"name":"Uncletopia | Chicago | 2 | All Maps","name_short":"chi-2","host":"chi-1.us.uncletopia.com","port":27025,"enabled":true,"region":"us-central","cc":"us","latitude":41.881832,"longitude":-87.62318,"reserved":0,"last_update":"0001-01-01T00:00:00Z","name_a2s":"Uncletopia | Chicago | 2 | All Maps","protocol":17,"map":"cp_snakewater_final1","folder":"tf","game":"Team Fortress","app_id":440,"player_count":0,"max_players":24,"Bots":0,"server_type":"Dedicated","server_os":"Linux","password":true,"vac":true,"version":"7961495","steam_id":85568392924469985,"keywords":["cp","nocrits","nodmgspread","uncletopia"],"game_id":440,"stv_port":27026,"stv_name":"Uncletopia | Chicago | 2 | All Maps | STV","players":null},{"server_id":402,"name":"Uncletopia | Chicago | 3 | All Maps","name_short":"chi-3","host":"chi-1.us.uncletopia.com","port":27035,"enabled":true,"region":"us-central","cc":"us","latitude":41.881832,"longitude":-87.62318,"reserved":0,"last_update":"0001-01-01T00:00:00Z","name_a2s":"Uncletopia | Chicago | 3 | All Maps","protocol":17,"map":"pl_pier","folder":"tf","game":"Team Fortress","app_id":440,"player_count":0,"max_players":24,"Bots":0,"server_type":"Dedicated","server_os":"Linux","password":true,"vac":true,"version":"7961495","steam_id":85568392924515191,"keywords":["nocrits","nodmgspread","payload","uncletopia"],"game_id":440,"stv_port":27036,"stv_name":"Uncletopia | Chicago | 3 | All Maps | STV","players":null},{"server_id":403,"name":"Uncletopia | Chicago | 4 | All Maps","name_short":"chi-4","host":"chi-1.us.uncletopia.com","port":27045,"enabled":true,"region":"us-central","cc":"us","latitude":41.881832,"longitude":-87.62318,"reserved":0,"last_update":"0001-01-01T00:00:00Z","name_a2s":"Uncletopia | Chicago | 4 | All Maps","protocol":17,"map":"koth_nucleus","folder":"tf","game":"Team Fortress","app_id":440,"player_count":23,"max_players":24,"Bots":0,"server_type":"Dedicated","server_os":"Linux","password":true,"vac":true,"version":"7961495","steam_id":85568392924515193,"keywords":["cp","nocrits","nodmgspread","uncletopia"],"game_id":440,"stv_port":27046,"stv_name":"Uncletopia | Chicago | 4 | All Maps | STV","players":[{"user_id":619,"name":"BigNugs","steam_id":76561198056402610,"connected_time":1607000000000,"state":"active","ping":67},{"user_id":642,"name":"CyberZord","steam_id":76561198388195527,"connected_time":559000000000,"state":"active","ping":71},{"user_id":553,"name":"GruntRule","steam_id":76561198039987143,"connected_time":3021000000000,"state":"active","ping":81},{"user_id":643,"name":"Fumohuxi Viriphyto","steam_id":76561198369395636,"connected_time":548000000000,"state":"active","ping":86},{"user_id":447,"name":"Bobato Chaps","steam_id":76561198065103552,"connected_time":5658000000000,"state":"active","ping":45},{"user_id":491,"name":"Yongle","steam_id":76561198068591156,"connected_time":4091000000000,"state":"active","ping":54},{"user_id":640,"name":"Blue Eyes Ace Dragon.","steam_id":76561198048214237,"connected_time":611000000000,"state":"active","ping":58},{"user_id":380,"name":"Bocchi la roca","steam_id":76561198026458662,"connected_time":6982000000000,"state":"active","ping":90},{"user_id":644,"name":"ColdTooth","steam_id":76561197994963901,"connected_time":546000000000,"state":"active","ping":75},{"user_id":647,"name":"larguu","steam_id":76561197994336210,"connected_time":369000000000,"state":"active","ping":59},{"user_id":645,"name":"totoro","steam_id":76561198210420871,"connected_time":542000000000,"state":"active","ping":42},{"user_id":550,"name":"kaputon","steam_id":76561198146299782,"connected_time":3306000000000,"state":"active","ping":60},{"user_id":585,"name":"Shemk","steam_id":76561198201593238,"connected_time":2303000000000,"state":"active","ping":108},{"user_id":251,"name":"4 life","steam_id":76561198175961598,"connected_time":11683000000000,"state":"active","ping":117},{"user_id":648,"name":"*****setget","steam_id":76561198118824188,"connected_time":349000000000,"state":"active","ping":116},{"user_id":625,"name":"LITTLEBUDROOBSTER2010","steam_id":76561198028354983,"connected_time":1313000000000,"state":"active","ping":87},{"user_id":384,"name":"jonahscott2005","steam_id":76561199191090704,"connected_time":6849000000000,"state":"active","ping":77},{"user_id":616,"name":"Lawtumn","steam_id":76561198347286009,"connected_time":1708000000000,"state":"active","ping":81},{"user_id":521,"name":"El Duncan boxeador","steam_id":76561197996713526,"connected_time":3678000000000,"state":"active","ping":87},{"user_id":589,"name":"moe","steam_id":76561198929586245,"connected_time":2277000000000,"state":"active","ping":94},{"user_id":651,"name":"Kuber_Streamz","steam_id":76561198046008453,"connected_time":141000000000,"state":"active","ping":53},{"user_id":650,"name":"Elias","steam_id":76561198106431732,"connected_time":214000000000,"state":"active","ping":38},{"user_id":438,"name":"BLOCKHEAD","steam_id":76561198808224331,"connected_time":5824000000000,"state":"active","ping":119}]},{"server_id":36,"name":"Uncletopia | Chicago | 5 | All Maps","name_short":"chi-5","host":"chi-2.us.uncletopia.com","port":27015,"enabled":true,"region":"us-central","cc":"us","latitude":41.881832,"longitude":-87.62318,"reserved":0,"last_update":"0001-01-01T00:00:00Z","name_a2s":"Uncletopia | Chicago | 5 | All Maps","protocol":17,"map":"pl_thundermountain","folder":"tf","game":"Team Fortress","app_id":440,"player_count":20,"max_players":24,"Bots":0,"server_type":"Dedicated","server_os":"Linux","password":true,"vac":true,"version":"7961495","steam_id":85568392924866362,"keywords":["nocrits","nodmgspread","payload","uncletopia"],"game_id":440,"stv_port":27016,"stv_name":"Uncletopia | Chicago | 5 | All Maps | STV","players":[{"user_id":801,"name":"That Darned Imperialist","steam_id":76561198854501307,"connected_time":1689000000000,"state":"active","ping":123},{"user_id":800,"name":"roto","steam_id":76561198138735860,"connected_time":1799000000000,"state":"active","ping":64},{"user_id":809,"name":"Lane","steam_id":76561197965828506,"connected_time":1552000000000,"state":"active","ping":45},{"user_id":815,"name":"Lucid","steam_id":76561199002529478,"connected_time":1091000000000,"state":"active","ping":58},{"user_id":825,"name":"Lavender","steam_id":76561198142770666,"connected_time":153000000000,"state":"active","ping":88},{"user_id":804,"name":"Mcdiddle","steam_id":76561198025390097,"connected_time":1647000000000,"state":"active","ping":89},{"user_id":826,"name":"Person","steam_id":76561198093244204,"connected_time":139000000000,"state":"active","ping":75},{"user_id":681,"name":"Snoopy","steam_id":76561198273735974,"connected_time":8826000000000,"state":"active","ping":94},{"user_id":799,"name":"/\\/Mr. Phoenix/\\/","steam_id":76561198258944941,"connected_time":1833000000000,"state":"active","ping":77},{"user_id":777,"name":"TheBlue","steam_id":76561198363412851,"connected_time":2883000000000,"state":"active","ping":53},{"user_id":778,"name":"poopshitter9000","steam_id":76561198074624639,"connected_time":2866000000000,"state":"active","ping":59},{"user_id":827,"name":"CloutJohnson | Blazblue Romania","steam_id":76561198355738163,"connected_time":78000000000,"state":"active","ping":158},{"user_id":810,"name":"wow12000000000000098","steam_id":76561198016826181,"connected_time":1514000000000,"state":"active","ping":70},{"user_id":819,"name":"Drapph","steam_id":76561199384213314,"connected_time":862000000000,"state":"active","ping":61},{"user_id":817,"name":"jordanddean2016","steam_id":76561198323772677,"connected_time":1033000000000,"state":"active","ping":103},{"user_id":751,"name":"Ace Chromatica","steam_id":76561198042211131,"connected_time":4489000000000,"state":"active","ping":54},{"user_id":811,"name":"Johann of Ulm","steam_id":76561198087484922,"connected_time":1475000000000,"state":"active","ping":67},{"user_id":823,"name":"Lord Gourd","steam_id":76561197995620232,"connected_time":678000000000,"state":"active","ping":59},{"user_id":818,"name":"Gliglamesh","steam_id":76561198058221449,"connected_time":966000000000,"state":"active","ping":55},{"user_id":813,"name":"Stranger in a Strange Land","steam_id":76561198049843671,"connected_time":1324000000000,"state":"active","ping":62}]},{"server_id":37,"name":"Uncletopia | Chicago | 6 | All Maps","name_short":"chi-6","host":"chi-2.us.uncletopia.com","port":27025,"enabled":true,"region":"us-central","cc":"us","latitude":41.881832,"longitude":-87.62318,"reserved":0,"last_update":"0001-01-01T00:00:00Z","name_a2s":"Uncletopia | Chicago | 6 | All Maps","protocol":17,"map":"pl_pier","folder":"tf","game":"Team Fortress","app_id":440,"player_count":0,"max_players":24,"Bots":0,"server_type":"Dedicated","server_os":"Linux","password":true,"vac":true,"version":"7961495","steam_id":85568392924866363,"keywords":["nocrits","nodmgspread","payload","uncletopia"],"game_id":440,"stv_port":27026,"stv_name":"Uncletopia | Chicago | 6 | All Maps | STV","players":null},{"server_id":38,"name":"Uncletopia | Chicago | 7 | Stopwatch Beta","name_short":"chi-7","host":"chi-2.us.uncletopia.com","port":27035,"enabled":true,"region":"us-central","cc":"us","latitude":41.881832,"longitude":-87.62318,"reserved":0,"last_update":"0001-01-01T00:00:00Z","name_a2s":"Uncletopia | Chicago | 7 | Stopwatch Beta","protocol":17,"map":"pl_badwater","folder":"tf","game":"Team Fortress","app_id":440,"player_count":0,"max_players":24,"Bots":0,"server_type":"Dedicated","server_os":"Linux","password":true,"vac":true,"version":"7961495","steam_id":85568392924866364,"keywords":["nocrits","nodmgspread","payload","uncletopia"],"game_id":440,"stv_port":27036,"stv_name":"Uncletopia | Chicago | 7 | Stopwatch Beta | STV","players":null},{"server_id":39,"name":"Uncletopia | Chicago | 8 | Community","name_short":"chi-8","host":"chi-2.us.uncletopia.com","port":27045,"enabled":true,"region":"us-central","cc":"us","latitude":41.881832,"longitude":-87.62318,"reserved":0,"last_update":"0001-01-01T00:00:00Z","name_a2s":"Uncletopia | Chicago | 8 | Community","protocol":17,"map":"workshop/cp_mannbase_rc2a.ugc1900737467","folder":"tf","game":"Team Fortress","app_id":440,"player_count":0,"max_players":24,"Bots":0,"server_type":"Dedicated","server_os":"Linux","password":true,"vac":true,"version":"7961495","steam_id":85568392924866365,"keywords":["cp","nocrits","nodmgspread","uncletopia"],"game_id":440,"stv_port":27046,"stv_name":"Uncletopia | Chicago | 8 | Community | STV","players":null},{"server_id":8,"name":"Uncletopia | Dallas | 1 | All Maps","name_short":"dal-1","host":"dal-1.us.uncletopia.com","port":27015,"enabled":true,"region":"us-central","cc":"us","latitude":32.779167,"longitude":-96.80889,"reserved":0,"last_update":"0001-01-01T00:00:00Z","name_a2s":"Uncletopia | Dallas | 1 | All Maps","protocol":17,"map":"cp_5gorge","folder":"tf","game":"Team Fortress","app_id":440,"player_count":2,"max_players":24,"Bots":0,"server_type":"Dedicated","server_os":"Linux","password":true,"vac":true,"version":"7961495","steam_id":85568392924469986,"keywords":["cp","nocrits","nodmgspread","uncletopia"],"game_id":440,"stv_port":27016,"stv_name":"Uncletopia | Dallas | 1 | All Maps | STV","players":[{"user_id":862,"name":"DA DOBA DA SR","steam_id":76561198168488850,"connected_time":975000000000,"state":"active","ping":62},{"user_id":863,"name":"DA DOBA DA JR","steam_id":76561199117662967,"connected_time":871000000000,"state":"active","ping":66}]},{"server_id":108,"name":"Uncletopia | Dallas | 2 | All Maps","name_short":"dal-2","host":"dal-1.us.uncletopia.com","port":27025,"enabled":true,"region":"us-central","cc":"us","latitude":32.779167,"longitude":-96.80889,"reserved":0,"last_update":"0001-01-01T00:00:00Z","name_a2s":"Uncletopia | Dallas | 2 | All Maps","protocol":17,"map":"koth_viaduct","folder":"tf","game":"Team Fortress","app_id":440,"player_count":0,"max_players":24,"Bots":0,"server_type":"Dedicated","server_os":"Linux","password":true,"vac":true,"version":"7961495","steam_id":85568392924469988,"keywords":["cp","nocrits","nodmgspread","uncletopia"],"game_id":440,"stv_port":27026,"stv_name":"Uncletopia | Dallas | 2 | All Maps | STV","players":null},{"server_id":404,"name":"Uncletopia | Dallas | 3 | All Maps","name_short":"dal-3","host":"dal-1.us.uncletopia.com","port":27035,"enabled":true,"region":"us-central","cc":"us","latitude":32.779167,"longitude":-96.80889,"reserved":0,"last_update":"0001-01-01T00:00:00Z","name_a2s":"Uncletopia | Dallas | 3 | All Maps","protocol":17,"map":"cp_gullywash_final1","folder":"tf","game":"Team Fortress","app_id":440,"player_count":22,"max_players":24,"Bots":0,"server_type":"Dedicated","server_os":"Linux","password":true,"vac":true,"version":"7961495","steam_id":85568392924515219,"keywords":["cp","nocrits","nodmgspread","uncletopia"],"game_id":440,"stv_port":27036,"stv_name":"Uncletopia | Dallas | 3 | All Maps | STV","players":[{"user_id":289,"name":"J.G.","steam_id":76561198100942212,"connected_time":808000000000,"state":"active","ping":75},{"user_id":258,"name":"cozy","steam_id":76561199044037628,"connected_time":3443000000000,"state":"active","ping":94},{"user_id":260,"name":"OneMisguidedSlyGuy","steam_id":76561198372243261,"connected_time":3422000000000,"state":"active","ping":76},{"user_id":294,"name":"b","steam_id":76561198118211523,"connected_time":217000000000,"state":"active","ping":79},{"user_id":269,"name":"Etomb","steam_id":76561198210017208,"connected_time":2589000000000,"state":"active","ping":73},{"user_id":287,"name":"SleepyScotoplanesTTV","steam_id":76561198968140914,"connected_time":1057000000000,"state":"active","ping":71},{"user_id":256,"name":"King Cotton","steam_id":76561198292444376,"connected_time":3756000000000,"state":"active","ping":71},{"user_id":273,"name":"soolgom","steam_id":76561198296551471,"connected_time":2451000000000,"state":"active","ping":101},{"user_id":254,"name":"a bucket of chicken","steam_id":76561198023710042,"connected_time":3899000000000,"state":"active","ping":58},{"user_id":240,"name":"my tummy hurts","steam_id":76561198272333441,"connected_time":4700000000000,"state":"active","ping":76},{"user_id":247,"name":"CamPayne Papi","steam_id":76561198192485274,"connected_time":4479000000000,"state":"active","ping":60},{"user_id":274,"name":"Flex Pexico","steam_id":76561198041838930,"connected_time":2433000000000,"state":"active","ping":75},{"user_id":291,"name":"Skeleblood","steam_id":76561198153323281,"connected_time":614000000000,"state":"active","ping":75},{"user_id":266,"name":"EdxTheFig","steam_id":76561198108650109,"connected_time":3235000000000,"state":"active","ping":73},{"user_id":276,"name":"Draven","steam_id":76561198074776388,"connected_time":2344000000000,"state":"active","ping":55},{"user_id":284,"name":"SiphonFIre","steam_id":76561198305327992,"connected_time":1476000000000,"state":"active","ping":56},{"user_id":283,"name":"ark","steam_id":76561198041066271,"connected_time":1509000000000,"state":"active","ping":66},{"user_id":250,"name":"skegeton","steam_id":76561198095581099,"connected_time":4168000000000,"state":"active","ping":60},{"user_id":278,"name":"TF2C | fac -AA-","steam_id":76561198009818412,"connected_time":2018000000000,"state":"active","ping":60},{"user_id":292,"name":"sunny","steam_id":76561198069380992,"connected_time":408000000000,"state":"active","ping":53},{"user_id":271,"name":"nella","steam_id":76561198079349621,"connected_time":2581000000000,"state":"active","ping":88},{"user_id":288,"name":"lucasgamer4life","steam_id":76561198129816242,"connected_time":972000000000,"state":"active","ping":97}]},{"server_id":405,"name":"Uncletopia | Dallas | 4 | Community","name_short":"dal-4","host":"dal-1.us.uncletopia.com","port":27045,"enabled":true,"region":"us-central","cc":"us","latitude":32.779167,"longitude":-96.80889,"reserved":0,"last_update":"0001-01-01T00:00:00Z","name_a2s":"Uncletopia | Dallas | 4 | Community","protocol":17,"map":"workshop/pl_fifthcurve_rc1.ugc648227046","folder":"tf","game":"Team Fortress","app_id":440,"player_count":0,"max_players":24,"Bots":0,"server_type":"Dedicated","server_os":"Linux","password":true,"vac":true,"version":"7961495","steam_id":85568392924515220,"keywords":["nocrits","nodmgspread","payload","uncletopia"],"game_id":440,"stv_port":27046,"stv_name":"Uncletopia | Dallas | 4 | Community | STV","players":null},{"server_id":5,"name":"Uncletopia | Frankfurt | 1 | All Maps","name_short":"frk-1","host":"frk-1.de.uncletopia.com","port":27015,"enabled":true,"region":"eu","cc":"de","latitude":50.110924,"longitude":8.682127,"reserved":0,"last_update":"0001-01-01T00:00:00Z","name_a2s":"Uncletopia | Frankfurt | 1 | All Maps","protocol":17,"map":"pl_badwater","folder":"tf","game":"Team Fortress","app_id":440,"player_count":0,"max_players":24,"Bots":0,"server_type":"Dedicated","server_os":"Linux","password":true,"vac":true,"version":"7961495","steam_id":85568392924469989,"keywords":["nocrits","nodmgspread","payload","uncletopia"],"game_id":440,"stv_port":27016,"stv_name":"Uncletopia | Frankfurt | 1 | All Maps | STV","players":null},{"server_id":110,"name":"Uncletopia | Frankfurt | 2 | All Maps","name_short":"frk-2","host":"frk-1.de.uncletopia.com","port":27025,"enabled":true,"region":"eu","cc":"de","latitude":50.110924,"longitude":8.682127,"reserved":0,"last_update":"0001-01-01T00:00:00Z","name_a2s":"Uncletopia | Frankfurt | 2 | All Maps","protocol":17,"map":"koth_lakeside_final","folder":"tf","game":"Team Fortress","app_id":440,"player_count":0,"max_players":24,"Bots":0,"server_type":"Dedicated","server_os":"Linux","password":true,"vac":true,"version":"7961495","steam_id":85568392924469990,"keywords":["cp","nocrits","nodmgspread","uncletopia"],"game_id":440,"stv_port":27026,"stv_name":"Uncletopia | Frankfurt | 2 | All Maps | STV","players":null},{"server_id":308,"name":"Uncletopia | Frankfurt | 3 | All Maps","name_short":"frk-3","host":"frk-1.de.uncletopia.com","port":27035,"enabled":true,"region":"eu","cc":"de","latitude":50.110924,"longitude":8.682127,"reserved":0,"last_update":"0001-01-01T00:00:00Z","name_a2s":"Uncletopia | Frankfurt | 3 | All Maps","protocol":17,"map":"cp_sunshine","folder":"tf","game":"Team Fortress","app_id":440,"player_count":0,"max_players":24,"Bots":0,"server_type":"Dedicated","server_os":"Linux","password":true,"vac":true,"version":"7961495","steam_id":85568392924504274,"keywords":["cp","nocrits","nodmgspread","uncletopia"],"game_id":440,"stv_port":27036,"stv_name":"Uncletopia | Frankfurt | 3 | All Maps | STV","players":null},{"server_id":309,"name":"Uncletopia | Frankfurt | 4 | All Maps","name_short":"frk-4","host":"frk-1.de.uncletopia.com","port":27045,"enabled":true,"region":"eu","cc":"de","latitude":50.110924,"longitude":8.682127,"reserved":0,"last_update":"0001-01-01T00:00:00Z","name_a2s":"Uncletopia | Frankfurt | 4 | All Maps","protocol":17,"map":"cp_altitude","folder":"tf","game":"Team Fortress","app_id":440,"player_count":0,"max_players":24,"Bots":0,"server_type":"Dedicated","server_os":"Linux","password":true,"vac":true,"version":"7961495","steam_id":85568392924504275,"keywords":["cp","nocrits","nodmgspread","uncletopia"],"game_id":440,"stv_port":27046,"stv_name":"Uncletopia | Frankfurt | 4 | All Maps | STV","players":null},{"server_id":310,"name":"Uncletopia | Frankfurt | 5 | All Maps","name_short":"frk-5","host":"frk-1.de.uncletopia.com","port":27055,"enabled":true,"region":"eu","cc":"de","latitude":50.110924,"longitude":8.682127,"reserved":0,"last_update":"0001-01-01T00:00:00Z","name_a2s":"Uncletopia | Frankfurt | 5 | All Maps","protocol":17,"map":"cp_process_final","folder":"tf","game":"Team Fortress","app_id":440,"player_count":0,"max_players":24,"Bots":0,"server_type":"Dedicated","server_os":"Linux","password":true,"vac":true,"version":"7961495","steam_id":85568392924504277,"keywords":["cp","nocrits","nodmgspread","uncletopia"],"game_id":440,"stv_port":27056,"stv_name":"Uncletopia | Frankfurt | 5 | All Maps | STV","players":null},{"server_id":311,"name":"Uncletopia | Frankfurt | 6 | All Maps","name_short":"frk-6","host":"frk-1.de.uncletopia.com","port":27065,"enabled":true,"region":"eu","cc":"de","latitude":50.110924,"longitude":8.682127,"reserved":0,"last_update":"0001-01-01T00:00:00Z","name_a2s":"Uncletopia | Frankfurt | 6 | All Maps","protocol":17,"map":"cp_sunshine","folder":"tf","game":"Team Fortress","app_id":440,"player_count":0,"max_players":24,"Bots":0,"server_type":"Dedicated","server_os":"Linux","password":true,"vac":true,"version":"7961495","steam_id":85568392924504278,"keywords":["cp","nocrits","nodmgspread","uncletopia"],"game_id":440,"stv_port":27066,"stv_name":"Uncletopia | Frankfurt | 6 | All Maps | STV","players":null},{"server_id":23,"name":"Uncletopia | Frankfurt | 7 | Stopwatch Beta","name_short":"frk-7","host":"frk-1.de.uncletopia.com","port":27075,"enabled":true,"region":"eu","cc":"de","latitude":50.110924,"longitude":8.682127,"reserved":0,"last_update":"0001-01-01T00:00:00Z","name_a2s":"Uncletopia | Frankfurt | 7 | Stopwatch Beta","protocol":17,"map":"koth_cascade","folder":"tf","game":"Team Fortress","app_id":440,"player_count":0,"max_players":24,"Bots":0,"server_type":"Dedicated","server_os":"Linux","password":true,"vac":true,"version":"7961495","steam_id":85568392924742827,"keywords":["cp","nocrits","nodmgspread","uncletopia"],"game_id":440,"stv_port":27076,"stv_name":"Uncletopia | Frankfurt | 7 | Stopwatch Beta | STV","players":null},{"server_id":24,"name":"Uncletopia | Frankfurt | 8 | Community","name_short":"frk-8","host":"frk-1.de.uncletopia.com","port":27085,"enabled":true,"region":"eu","cc":"de","latitude":50.110924,"longitude":8.682127,"reserved":0,"last_update":"0001-01-01T00:00:00Z","name_a2s":"Uncletopia | Frankfurt | 8 | Community","protocol":17,"map":"workshop/pl_shoreleave_rc2.ugc1238849347","folder":"tf","game":"Team Fortress","app_id":440,"player_count":11,"max_players":24,"Bots":0,"server_type":"Dedicated","server_os":"Linux","password":true,"vac":true,"version":"7961495","steam_id":85568392924742828,"keywords":["nocrits","nodmgspread","payload","uncletopia"],"game_id":440,"stv_port":27086,"stv_name":"Uncletopia | Frankfurt | 8 | Community | STV","players":[{"user_id":3,"name":"[She]Mundanemount18","steam_id":76561199142372194,"connected_time":3263000000000,"state":"active","ping":201},{"user_id":21,"name":"Fish","steam_id":76561198152128484,"connected_time":444000000000,"state":"active","ping":68},{"user_id":23,"name":"engineer drip","steam_id":76561198991032570,"connected_time":400000000000,"state":"active","ping":90},{"user_id":6,"name":"Snd","steam_id":76561198010816408,"connected_time":2614000000000,"state":"active","ping":85},{"user_id":24,"name":"Hunter64","steam_id":76561199121947938,"connected_time":114000000000,"state":"spawning","ping":188},{"user_id":25,"name":"PerskuleBenener","steam_id":76561198156899375,"connected_time":72000000000,"state":"spawning","ping":240},{"user_id":26,"name":"Coenoes","steam_id":76561199085694898,"connected_time":68000000000,"state":"active","ping":62},{"user_id":10,"name":"Bounty_","steam_id":76561199060704870,"connected_time":1568000000000,"state":"active","ping":68},{"user_id":27,"name":"Barak93","steam_id":76561198044585705,"connected_time":17000000000,"state":"spawning","ping":251},{"user_id":16,"name":"Rin-Nakaret","steam_id":76561197971051188,"connected_time":1273000000000,"state":"active","ping":63},{"user_id":19,"name":"costco-pilled individual","steam_id":76561198818037965,"connected_time":1022000000000,"state":"active","ping":105}]},{"server_id":202,"name":"Uncletopia | Hong Kong | 1 | All Maps","name_short":"hgk-1","host":"hgk-1.hk.uncletopia.com","port":27015,"enabled":true,"region":"asia","cc":"hk","latitude":22.302711,"longitude":114.177216,"reserved":0,"last_update":"0001-01-01T00:00:00Z","name_a2s":"Uncletopia | Hong Kong | 1 | All Maps","protocol":17,"map":"cp_process_final","folder":"tf","game":"Team Fortress","app_id":440,"player_count":24,"max_players":24,"Bots":0,"server_type":"Dedicated","server_os":"Linux","password":true,"vac":true,"version":"7961495","steam_id":85568392924494504,"keywords":["cp","nocrits","nodmgspread","uncletopia"],"game_id":440,"stv_port":27016,"stv_name":"Uncletopia | Hong Kong | 1 | All Maps | STV","players":[{"user_id":70,"name":"im_0ff","steam_id":76561198339346695,"connected_time":662000000000,"state":"active","ping":116},{"user_id":62,"name":"The Estate Sale","steam_id":76561198074339034,"connected_time":1020000000000,"state":"active","ping":75},{"user_id":72,"name":"malkuth","steam_id":76561198230213828,"connected_time":368000000000,"state":"active","ping":61},{"user_id":46,"name":"Mad Dawg","steam_id":76561199373637717,"connected_time":2062000000000,"state":"active","ping":60},{"user_id":33,"name":"KOISHI","steam_id":76561198812433510,"connected_time":2766000000000,"state":"active","ping":104},{"user_id":73,"name":"probably_not_bro","steam_id":76561198982205882,"connected_time":193000000000,"state":"active","ping":89},{"user_id":52,"name":"nyakky","steam_id":76561198927779787,"connected_time":1940000000000,"state":"active","ping":90},{"user_id":36,"name":"Rob L. Callistis","steam_id":76561199000135798,"connected_time":2533000000000,"state":"active","ping":119},{"user_id":37,"name":"Mari \u003c3 (Femboy therapy)","steam_id":76561199034546642,"connected_time":2522000000000,"state":"active","ping":118},{"user_id":48,"name":"TomProPlayer","steam_id":76561199223292521,"connected_time":2007000000000,"state":"active","ping":73},{"user_id":39,"name":"let him cook","steam_id":76561199219484527,"connected_time":2454000000000,"state":"active","ping":120},{"user_id":66,"name":"1061656379","steam_id":76561198317095471,"connected_time":879000000000,"state":"active","ping":100},{"user_id":67,"name":"MEELEE.","steam_id":76561199227871384,"connected_time":844000000000,"state":"active","ping":69},{"user_id":58,"name":"force","steam_id":76561199109339247,"connected_time":1387000000000,"state":"active","ping":79},{"user_id":60,"name":"Oraj√©ed","steam_id":76561199389156980,"connected_time":1282000000000,"state":"active","ping":96},{"user_id":47,"name":". ·¥ó.","steam_id":76561198208632261,"connected_time":2053000000000,"state":"active","ping":37},{"user_id":61,"name":"PootMann","steam_id":76561198123376937,"connected_time":1269000000000,"state":"active","ping":91},{"user_id":50,"name":"Battery","steam_id":76561198004583032,"connected_time":1967000000000,"state":"active","ping":100},{"user_id":68,"name":"churropan","steam_id":76561199258385450,"connected_time":779000000000,"state":"active","ping":97},{"user_id":53,"name":"David Keithson","steam_id":76561199279393636,"connected_time":1859000000000,"state":"active","ping":86},{"user_id":54,"name":"junbi OK","steam_id":76561198116387218,"connected_time":1827000000000,"state":"active","ping":87},{"user_id":55,"name":"Vesha","steam_id":76561199208233146,"connected_time":1827000000000,"state":"active","ping":77},{"user_id":69,"name":"guy fucks girl","steam_id":76561198320532821,"connected_time":778000000000,"state":"active","ping":67},{"user_id":74,"name":"\"I will have order!\"","steam_id":76561199118887297,"connected_time":191000000000,"state":"active","ping":84}]},{"server_id":1,"name":"Uncletopia | Los Angeles | 1 | All Maps","name_short":"lax-1","host":"lax-1.us.uncletopia.com","port":27015,"enabled":true,"region":"us-west","cc":"us","latitude":33.94279,"longitude":-118.41004,"reserved":0,"last_update":"0001-01-01T00:00:00Z","name_a2s":"Uncletopia | Los Angeles | 1 | All Maps","protocol":17,"map":"pl_swiftwater_final1","folder":"tf","game":"Team Fortress","app_id":440,"player_count":24,"max_players":24,"Bots":0,"server_type":"Dedicated","server_os":"Linux","password":true,"vac":true,"version":"7961495","steam_id":85568392924469991,"keywords":["nocrits","nodmgspread","payload","uncletopia"],"game_id":440,"stv_port":27016,"stv_name":"Uncletopia | Los Angeles | 1 | All Maps | STV","players":[{"user_id":720,"name":"Scout Player (Derogatory)","steam_id":76561198046526036,"connected_time":18000000000,"state":"active","ping":45},{"user_id":672,"name":"5/10 looks","steam_id":76561198986534519,"connected_time":5290000000000,"state":"active","ping":54},{"user_id":688,"name":"xbox record that","steam_id":76561198150117455,"connected_time":3130000000000,"state":"active","ping":50},{"user_id":676,"name":"G‡∂ûMER","steam_id":76561198340389876,"connected_time":5144000000000,"state":"active","ping":56},{"user_id":721,"name":"Praphu","steam_id":76561198799298570,"connected_time":13000000000,"state":"active","ping":92},{"user_id":697,"name":"cream team","steam_id":76561198139043953,"connected_time":2825000000000,"state":"active","ping":78},{"user_id":718,"name":"Doony","steam_id":76561198073472571,"connected_time":36000000000,"state":"active","ping":67},{"user_id":675,"name":"Lucky","steam_id":76561198828715832,"connected_time":5162000000000,"state":"active","ping":72},{"user_id":701,"name":"ZeeKThe3rd","steam_id":76561198190156546,"connected_time":1044000000000,"state":"active","ping":52},{"user_id":702,"name":"Satori Komeiji","steam_id":76561198158211423,"connected_time":977000000000,"state":"active","ping":48},{"user_id":703,"name":"Aerospine","steam_id":76561198021438134,"connected_time":971000000000,"state":"active","ping":44},{"user_id":678,"name":"unicornCatLiliOwO","steam_id":76561199391478575,"connected_time":5110000000000,"state":"active","ping":88},{"user_id":692,"name":"Silvermace","steam_id":76561198090696843,"connected_time":3001000000000,"state":"active","ping":45},{"user_id":716,"name":"Chinaski","steam_id":76561198092218594,"connected_time":49000000000,"state":"active","ping":60},{"user_id":670,"name":"Ralph Kramden (Slim Charles)","steam_id":76561197981687895,"connected_time":5443000000000,"state":"active","ping":58},{"user_id":629,"name":"Tumblewood","steam_id":76561198117958344,"connected_time":7981000000000,"state":"active","ping":74},{"user_id":683,"name":"itwaslag1337","steam_id":76561198217276345,"connected_time":4827000000000,"state":"active","ping":61},{"user_id":713,"name":"Western_dragon","steam_id":76561198130456105,"connected_time":531000000000,"state":"active","ping":49},{"user_id":704,"name":"Bonk Co.","steam_id":76561198009355408,"connected_time":948000000000,"state":"active","ping":66},{"user_id":717,"name":"WabM (top 50 Aimlabs player)","steam_id":76561198073739176,"connected_time":37000000000,"state":"active","ping":81},{"user_id":712,"name":"HAT-WEARING‚Ñ¢ Maggot Gamer Cat","steam_id":76561197973992705,"connected_time":674000000000,"state":"active","ping":66},{"user_id":706,"name":"Phlog in Dustbowl Enjoyer","steam_id":76561198016168993,"connected_time":920000000000,"state":"active","ping":76},{"user_id":719,"name":"Freyja","steam_id":76561198207412177,"connected_time":27000000000,"state":"active","ping":100},{"user_id":709,"name":"Lucas","steam_id":76561198399704604,"connected_time":872000000000,"state":"spawning","ping":44}]},{"server_id":112,"name":"Uncletopia | Los Angeles | 2 | All Maps","name_short":"lax-2","host":"lax-1.us.uncletopia.com","port":27025,"enabled":true,"region":"us-west","cc":"us","latitude":33.94279,"longitude":-118.41004,"reserved":0,"last_update":"0001-01-01T00:00:00Z","name_a2s":"Uncletopia | Los Angeles | 2 | All Maps","protocol":17,"map":"koth_lakeside_final","folder":"tf","game":"Team Fortress","app_id":440,"player_count":22,"max_players":24,"Bots":0,"server_type":"Dedicated","server_os":"Linux","password":true,"vac":true,"version":"7961495","steam_id":85568392924469992,"keywords":["cp","nocrits","nodmgspread","uncletopia"],"game_id":440,"stv_port":27026,"stv_name":"Uncletopia | Los Angeles | 2 | All Maps | STV","players":[{"user_id":209,"name":"NobodyMonkey","steam_id":76561198318360972,"connected_time":727000000000,"state":"active","ping":58},{"user_id":175,"name":"binka bonk","steam_id":76561198174751517,"connected_time":2965000000000,"state":"active","ping":79},{"user_id":176,"name":"B.R.","steam_id":76561198084679109,"connected_time":2958000000000,"state":"active","ping":45},{"user_id":177,"name":"Fen Rex","steam_id":76561198276097086,"connected_time":2891000000000,"state":"active","ping":48},{"user_id":210,"name":"Thequirka","steam_id":76561198968058652,"connected_time":680000000000,"state":"active","ping":69},{"user_id":211,"name":"Dr. Bubs","steam_id":76561198011696595,"connected_time":594000000000,"state":"active","ping":49},{"user_id":182,"name":"Cypress [ +/- ] ‚úî","steam_id":76561198067164431,"connected_time":2281000000000,"state":"active","ping":43},{"user_id":204,"name":"Amogous Supreme","steam_id":76561198025476774,"connected_time":1303000000000,"state":"active","ping":58},{"user_id":207,"name":"shakoiwa","steam_id":76561199059441773,"connected_time":1161000000000,"state":"active","ping":55},{"user_id":212,"name":"Nuts","steam_id":76561199258535559,"connected_time":584000000000,"state":"active","ping":74},{"user_id":148,"name":"shreklover69","steam_id":76561198054070811,"connected_time":4686000000000,"state":"active","ping":52},{"user_id":224,"name":"lyu","steam_id":76561198966125690,"connected_time":71000000000,"state":"active","ping":39},{"user_id":215,"name":"cilo","steam_id":76561198046163502,"connected_time":317000000000,"state":"active","ping":74},{"user_id":218,"name":"Storm_FireFox1","steam_id":76561198063387990,"connected_time":114000000000,"state":"active","ping":42},{"user_id":219,"name":"okay sized language model","steam_id":76561198071110753,"connected_time":113000000000,"state":"active","ping":37},{"user_id":220,"name":"Hexalellogram","steam_id":76561198075217568,"connected_time":112000000000,"state":"active","ping":54},{"user_id":195,"name":"japes.","steam_id":76561198145098071,"connected_time":1710000000000,"state":"active","ping":118},{"user_id":196,"name":"times table","steam_id":76561198341452558,"connected_time":1652000000000,"state":"active","ping":77},{"user_id":221,"name":"Torty the Turtle","steam_id":76561198098422947,"connected_time":99000000000,"state":"active","ping":58},{"user_id":198,"name":"Jokezonyu","steam_id":76561198213167893,"connected_time":1531000000000,"state":"active","ping":59},{"user_id":222,"name":"Horse Battery Staple","steam_id":76561198058947011,"connected_time":98000000000,"state":"active","ping":45},{"user_id":223,"name":"Hachet","steam_id":76561198160273704,"connected_time":89000000000,"state":"active","ping":50}]},{"server_id":324,"name":"Uncletopia | Los Angeles | 3 | All Maps","name_short":"lax-3","host":"lax-1.us.uncletopia.com","port":27035,"enabled":true,"region":"us-west","cc":"us","latitude":33.94279,"longitude":-118.41004,"reserved":0,"last_update":"0001-01-01T00:00:00Z","name_a2s":"Uncletopia | Los Angeles | 3 | All Maps","protocol":17,"map":"pl_swiftwater_final1","folder":"tf","game":"Team Fortress","app_id":440,"player_count":24,"max_players":24,"Bots":0,"server_type":"Dedicated","server_os":"Linux","password":true,"vac":true,"version":"7961495","steam_id":85568392924510198,"keywords":["nocrits","nodmgspread","payload","uncletopia"],"game_id":440,"stv_port":27036,"stv_name":"Uncletopia | Los Angeles | 3 | All Maps | STV","players":[{"user_id":838,"name":"‚ú™ Y V E S","steam_id":76561198299479796,"connected_time":1318000000000,"state":"active","ping":45},{"user_id":820,"name":"_cza","steam_id":76561198079793576,"connected_time":2794000000000,"state":"active","ping":78},{"user_id":801,"name":"Croxsbow","steam_id":76561198893327481,"connected_time":5074000000000,"state":"active","ping":76},{"user_id":781,"name":"Bitmap","steam_id":76561198285964424,"connected_time":6149000000000,"state":"active","ping":52},{"user_id":804,"name":"Toadwinter","steam_id":76561198329216601,"connected_time":4899000000000,"state":"active","ping":55},{"user_id":839,"name":"bengineer","steam_id":76561198171912174,"connected_time":1318000000000,"state":"active","ping":78},{"user_id":850,"name":"akarui","steam_id":76561198168492250,"connected_time":305000000000,"state":"active","ping":52},{"user_id":853,"name":"Gibler","steam_id":76561198091997881,"connected_time":113000000000,"state":"active","ping":97},{"user_id":847,"name":"10HourNaps","steam_id":76561199082304859,"connected_time":817000000000,"state":"active","ping":85},{"user_id":842,"name":"fiermo","steam_id":76561198105374054,"connected_time":1003000000000,"state":"active","ping":63},{"user_id":809,"name":"azureglxy","steam_id":76561198861388315,"connected_time":4568000000000,"state":"active","ping":38},{"user_id":837,"name":"ghostglitch","steam_id":76561197991608573,"connected_time":1378000000000,"state":"active","ping":58},{"user_id":816,"name":"Nez","steam_id":76561197963109059,"connected_time":3728000000000,"state":"active","ping":66},{"user_id":843,"name":"FriendlyStuart","steam_id":76561198136745161,"connected_time":966000000000,"state":"active","ping":93},{"user_id":846,"name":"Vriska","steam_id":76561198942104681,"connected_time":870000000000,"state":"active","ping":63},{"user_id":815,"name":"parallax","steam_id":76561198004438881,"connected_time":4023000000000,"state":"active","ping":73},{"user_id":848,"name":"AsianCthulhu","steam_id":76561198079761055,"connected_time":669000000000,"state":"active","ping":61},{"user_id":835,"name":"GLXy","steam_id":76561198207551544,"connected_time":1662000000000,"state":"active","ping":71},{"user_id":849,"name":"ùê∫ùëüùëéùëõùë°√©","steam_id":76561198124621381,"connected_time":663000000000,"state":"active","ping":55},{"user_id":708,"name":"dewey.","steam_id":76561198138325039,"connected_time":9098000000000,"state":"active","ping":75},{"user_id":829,"name":"0of64","steam_id":76561198376708545,"connected_time":1942000000000,"state":"active","ping":46},{"user_id":854,"name":"Loogus","steam_id":76561198811561721,"connected_time":94000000000,"state":"active","ping":58},{"user_id":828,"name":"Red","steam_id":76561198001939529,"connected_time":2055000000000,"state":"active","ping":115},{"user_id":830,"name":"Kaluka","steam_id":76561198036861445,"connected_time":1909000000000,"state":"active","ping":107}]},{"server_id":25,"name":"Uncletopia | Los Angeles | 4 | Stopwatch Beta","name_short":"lax-4","host":"lax-1.us.uncletopia.com","port":27045,"enabled":true,"region":"us-west","cc":"us","latitude":33.94279,"longitude":-118.41004,"reserved":0,"last_update":"0001-01-01T00:00:00Z","name_a2s":"Uncletopia | Los Angeles | 4 | Stopwatch Beta","protocol":17,"map":"pl_upward","folder":"tf","game":"Team Fortress","app_id":440,"player_count":0,"max_players":24,"Bots":0,"server_type":"Dedicated","server_os":"Linux","password":true,"vac":true,"version":"7961495","steam_id":85568392924510199,"keywords":["nocrits","nodmgspread","payload","uncletopia"],"game_id":440,"stv_port":27046,"stv_name":"Uncletopia | Los Angeles | 4 | Stopwatch Beta | STV","players":null},{"server_id":11,"name":"Uncletopia | London | 1 | All Maps","name_short":"lon-1","host":"lon-1.uk.uncletopia.com","port":27015,"enabled":true,"region":"eu","cc":"gb","latitude":51.509865,"longitude":-0.118092,"reserved":0,"last_update":"0001-01-01T00:00:00Z","name_a2s":"Uncletopia | London | 1 | All Maps","protocol":17,"map":"koth_lakeside_final","folder":"tf","game":"Team Fortress","app_id":440,"player_count":0,"max_players":24,"Bots":0,"server_type":"Dedicated","server_os":"Linux","password":true,"vac":true,"version":"7961495","steam_id":85568392924367362,"keywords":["cp","nocrits","nodmgspread","uncletopia"],"game_id":440,"stv_port":27016,"stv_name":"Uncletopia | London | 1 | All Maps | STV","players":null},{"server_id":114,"name":"Uncletopia | London | 2 | All Maps","name_short":"lon-2","host":"lon-1.uk.uncletopia.com","port":27025,"enabled":true,"region":"eu","cc":"gb","latitude":51.509865,"longitude":-0.118092,"reserved":0,"last_update":"0001-01-01T00:00:00Z","name_a2s":"Uncletopia | London | 2 | All Maps","protocol":17,"map":"cp_snakewater_final1","folder":"tf","game":"Team Fortress","app_id":440,"player_count":0,"max_players":24,"Bots":0,"server_type":"Dedicated","server_os":"Linux","password":true,"vac":true,"version":"7961495","steam_id":85568392924470941,"keywords":["cp","nocrits","nodmgspread","uncletopia"],"game_id":440,"stv_port":27026,"stv_name":"Uncletopia | London | 2 | All Maps | STV","players":null},{"server_id":320,"name":"Uncletopia | London | 3 | All Maps","name_short":"lon-3","host":"lon-1.uk.uncletopia.com","port":27035,"enabled":true,"region":"eu","cc":"gb","latitude":51.509865,"longitude":-0.118092,"reserved":0,"last_update":"0001-01-01T00:00:00Z","name_a2s":"Uncletopia | London | 3 | All Maps","protocol":17,"map":"pl_pier","folder":"tf","game":"Team Fortress","app_id":440,"player_count":0,"max_players":24,"Bots":0,"server_type":"Dedicated","server_os":"Linux","password":true,"vac":true,"version":"7961495","steam_id":85568392924510192,"keywords":["nocrits","nodmgspread","payload","uncletopia"],"game_id":440,"stv_port":27036,"stv_name":"Uncletopia | London | 3 | All Maps | STV","players":null},{"server_id":321,"name":"Uncletopia | London | 4 | All Maps","name_short":"lon-4","host":"lon-1.uk.uncletopia.com","port":27045,"enabled":true,"region":"eu","cc":"gb","latitude":51.509865,"longitude":-0.118092,"reserved":0,"last_update":"0001-01-01T00:00:00Z","name_a2s":"Uncletopia | London | 4 | All Maps","protocol":17,"map":"koth_viaduct","folder":"tf","game":"Team Fortress","app_id":440,"player_count":0,"max_players":24,"Bots":0,"server_type":"Dedicated","server_os":"Linux","password":true,"vac":true,"version":"7961495","steam_id":85568392924510193,"keywords":["cp","nocrits","nodmgspread","uncletopia"],"game_id":440,"stv_port":27046,"stv_name":"Uncletopia | London | 4 | All Maps | STV","players":null},{"server_id":21,"name":"Uncletopia | London | 5 | All Maps","name_short":"lon-5","host":"lon-1.uk.uncletopia.com","port":27055,"enabled":true,"region":"eu","cc":"gb","latitude":51.509865,"longitude":-0.118092,"reserved":0,"last_update":"0001-01-01T00:00:00Z","name_a2s":"Uncletopia | London | 5 | All Maps","protocol":17,"map":"pl_frontier_final","folder":"tf","game":"Team Fortress","app_id":440,"player_count":0,"max_players":24,"Bots":0,"server_type":"Dedicated","server_os":"Linux","password":true,"vac":true,"version":"7961495","steam_id":85568392924742829,"keywords":["nocrits","nodmgspread","payload","uncletopia"],"game_id":440,"stv_port":27056,"stv_name":"Uncletopia | London | 5 | All Maps | STV","players":null},{"server_id":22,"name":"Uncletopia | London | 6 | All Maps","name_short":"lon-6","host":"lon-1.uk.uncletopia.com","port":27065,"enabled":true,"region":"eu","cc":"gb","latitude":51.509865,"longitude":-0.118092,"reserved":0,"last_update":"0001-01-01T00:00:00Z","name_a2s":"Uncletopia | London | 6 | All Maps","protocol":17,"map":"pl_borneo","folder":"tf","game":"Team Fortress","app_id":440,"player_count":0,"max_players":24,"Bots":0,"server_type":"Dedicated","server_os":"Linux","password":true,"vac":true,"version":"7961495","steam_id":85568392924742830,"keywords":["nocrits","nodmgspread","payload","uncletopia"],"game_id":440,"stv_port":27066,"stv_name":"Uncletopia | London | 6 | All Maps | STV","players":null},{"server_id":40,"name":"Uncletopia | London | 7 | No Payload","name_short":"lon-7","host":"lon-1.uk.uncletopia.com","port":27075,"enabled":true,"region":"eu","cc":"gb","latitude":51.509865,"longitude":-0.118092,"reserved":0,"last_update":"0001-01-01T00:00:00Z","name_a2s":"Uncletopia | London | 7 | No Payload","protocol":17,"map":"pl_pier","folder":"tf","game":"Team Fortress","app_id":440,"player_count":0,"max_players":24,"Bots":0,"server_type":"Dedicated","server_os":"Linux","password":true,"vac":true,"version":"7961495","steam_id":85568392924964314,"keywords":["nocrits","nodmgspread","payload","uncletopia"],"game_id":440,"stv_port":27076,"stv_name":"Uncletopia | London | 7 | No Payload | STV","players":null},{"server_id":41,"name":"Uncletopia | London | 8 | Community","name_short":"lon-8","host":"lon-1.uk.uncletopia.com","port":27085,"enabled":true,"region":"eu","cc":"gb","latitude":51.509865,"longitude":-0.118092,"reserved":0,"last_update":"0001-01-01T00:00:00Z","name_a2s":"Uncletopia | London | 8 | Community","protocol":17,"map":"pl_borneo","folder":"tf","game":"Team Fortress","app_id":440,"player_count":0,"max_players":24,"Bots":0,"server_type":"Dedicated","server_os":"Linux","password":true,"vac":true,"version":"7961495","steam_id":85568392924964315,"keywords":["nocrits","nodmgspread","payload","uncletopia"],"game_id":440,"stv_port":27086,"stv_name":"Uncletopia | London | 8 | Community | STV","players":null},{"server_id":300,"name":"Uncletopia | Montr√©al | 1 | All Maps","name_short":"mtl-1","host":"mtl-1.ca.uncletopia.com","port":27015,"enabled":true,"region":"us-east","cc":"ca","latitude":45.50889,"longitude":-73.56167,"reserved":0,"last_update":"0001-01-01T00:00:00Z","name_a2s":"","protocol":0,"map":"","folder":"","game":"","app_id":0,"player_count":2,"max_players":0,"Bots":0,"server_type":"","server_os":"","password":false,"vac":false,"version":"","steam_id":0,"keywords":null,"game_id":0,"stv_port":0,"stv_name":"","players":[{"user_id":436,"name":"Frigiduck","steam_id":76561198129883125,"connected_time":5908000000000,"state":"active","ping":45},{"user_id":437,"name":"The Mosquito","steam_id":76561198254582597,"connected_time":5877000000000,"state":"active","ping":65}]},{"server_id":301,"name":"Uncletopia | Montr√©al | 2 | All Maps","name_short":"mtl-2","host":"mtl-1.ca.uncletopia.com","port":27025,"enabled":true,"region":"us-east","cc":"ca","latitude":45.50889,"longitude":-73.56167,"reserved":0,"last_update":"0001-01-01T00:00:00Z","name_a2s":"","protocol":0,"map":"","folder":"","game":"","app_id":0,"player_count":0,"max_players":0,"Bots":0,"server_type":"","server_os":"","password":false,"vac":false,"version":"","steam_id":0,"keywords":null,"game_id":0,"stv_port":0,"stv_name":"","players":null},{"server_id":302,"name":"Uncletopia | Montr√©al | 3 | All Maps","name_short":"mtl-3","host":"mtl-1.ca.uncletopia.com","port":27035,"enabled":true,"region":"us-east","cc":"ca","latitude":45.50889,"longitude":-73.56167,"reserved":0,"last_update":"0001-01-01T00:00:00Z","name_a2s":"","protocol":0,"map":"","folder":"","game":"","app_id":0,"player_count":0,"max_players":0,"Bots":0,"server_type":"","server_os":"","password":false,"vac":false,"version":"","steam_id":0,"keywords":null,"game_id":0,"stv_port":0,"stv_name":"","players":null},{"server_id":303,"name":"Uncletopia | Montr√©al | 4 | No Payload","name_short":"mtl-4","host":"mtl-1.ca.uncletopia.com","port":27045,"enabled":true,"region":"us-east","cc":"ca","latitude":45.50889,"longitude":-73.56167,"reserved":0,"last_update":"0001-01-01T00:00:00Z","name_a2s":"","protocol":0,"map":"","folder":"","game":"","app_id":0,"player_count":0,"max_players":0,"Bots":0,"server_type":"","server_os":"","password":false,"vac":false,"version":"","steam_id":0,"keywords":null,"game_id":0,"stv_port":0,"stv_name":"","players":null},{"server_id":13,"name":"Uncletopia | New York City | 1 | All Maps","name_short":"nyc-1","host":"nyc-1.us.uncletopia.com","port":27015,"enabled":true,"region":"us-east","cc":"us","latitude":40.73061,"longitude":-73.93524,"reserved":0,"last_update":"0001-01-01T00:00:00Z","name_a2s":"Uncletopia | New York City | 1 | All Maps","protocol":17,"map":"cp_gravelpit","folder":"tf","game":"Team Fortress","app_id":440,"player_count":17,"max_players":24,"Bots":0,"server_type":"Dedicated","server_os":"Linux","password":true,"vac":true,"version":"7961495","steam_id":85568392924469993,"keywords":["cp","nocrits","nodmgspread","uncletopia"],"game_id":440,"stv_port":27016,"stv_name":"Uncletopia | New York City | 1 | All Maps | STV","players":[{"user_id":828,"name":"darn","steam_id":76561198032121669,"connected_time":168000000000,"state":"active","ping":54},{"user_id":811,"name":"·óúÀ¨·óú","steam_id":76561198049076233,"connected_time":1333000000000,"state":"active","ping":52},{"user_id":755,"name":"Gentoo Linux Gaming","steam_id":76561197999657118,"connected_time":5270000000000,"state":"active","ping":65},{"user_id":831,"name":"ANormalUser","steam_id":76561199229410517,"connected_time":79000000000,"state":"active","ping":69},{"user_id":826,"name":"Ripping Heads","steam_id":76561198006146062,"connected_time":291000000000,"state":"active","ping":61},{"user_id":830,"name":"Malex","steam_id":76561198012216805,"connected_time":157000000000,"state":"active","ping":60},{"user_id":789,"name":"NyQuil For Seals","steam_id":76561198258642624,"connected_time":3191000000000,"state":"active","ping":100},{"user_id":815,"name":"Scylla","steam_id":76561198044470507,"connected_time":1053000000000,"state":"active","ping":85},{"user_id":760,"name":"Seal","steam_id":76561198043985619,"connected_time":5068000000000,"state":"active","ping":101},{"user_id":794,"name":"KYLE KYLESON","steam_id":76561198021920887,"connected_time":2976000000000,"state":"active","ping":60},{"user_id":797,"name":"üçíbutaüçí","steam_id":76561198135538212,"connected_time":2931000000000,"state":"active","ping":66},{"user_id":773,"name":"Ludcmorais","steam_id":76561198359217809,"connected_time":4116000000000,"state":"active","ping":175},{"user_id":796,"name":"BARACK$$$ PUSSEIN OBAMA","steam_id":76561198004882625,"connected_time":2938000000000,"state":"active","ping":135},{"user_id":816,"name":"FS Jorda (She/Her)","steam_id":76561198071421459,"connected_time":1044000000000,"state":"active","ping":30},{"user_id":817,"name":"Aurora","steam_id":76561198382144326,"connected_time":1031000000000,"state":"active","ping":94},{"user_id":719,"name":"Two-Teste Tommy","steam_id":76561198064308936,"connected_time":7884000000000,"state":"active","ping":60},{"user_id":821,"name":"Sturdy Primate","steam_id":76561198057954897,"connected_time":788000000000,"state":"active","ping":82}]},{"server_id":14,"name":"Uncletopia | New York City | 2 | All Maps","name_short":"nyc-2","host":"nyc-1.us.uncletopia.com","port":27025,"enabled":true,"region":"us-east","cc":"us","latitude":40.73061,"longitude":-73.93524,"reserved":0,"last_update":"0001-01-01T00:00:00Z","name_a2s":"Uncletopia | New York City | 2 | All Maps","protocol":17,"map":"pl_pier","folder":"tf","game":"Team Fortress","app_id":440,"player_count":2,"max_players":24,"Bots":0,"server_type":"Dedicated","server_os":"Linux","password":true,"vac":true,"version":"7961495","steam_id":85568392924469994,"keywords":["nocrits","nodmgspread","payload","uncletopia"],"game_id":440,"stv_port":27026,"stv_name":"Uncletopia | New York City | 2 | All Maps | STV","players":[{"user_id":565,"name":"MancalaMadMan","steam_id":76561198347324053,"connected_time":3479000000000,"state":"active","ping":126},{"user_id":566,"name":"DeltaForce4Life","steam_id":76561198355534614,"connected_time":3474000000000,"state":"active","ping":98}]},{"server_id":15,"name":"Uncletopia | New York City | 3 | Stopwatch Beta","name_short":"nyc-3","host":"nyc-1.us.uncletopia.com","port":27035,"enabled":true,"region":"us-east","cc":"us","latitude":40.73061,"longitude":-73.93524,"reserved":0,"last_update":"0001-01-01T00:00:00Z","name_a2s":"Uncletopia | New York City | 3 | Stopwatch Beta","protocol":17,"map":"pl_swiftwater_final1","folder":"tf","game":"Team Fortress","app_id":440,"player_count":0,"max_players":24,"Bots":0,"server_type":"Dedicated","server_os":"Linux","password":true,"vac":true,"version":"7961495","steam_id":85568392924742820,"keywords":["nocrits","nodmgspread","payload","uncletopia"],"game_id":440,"stv_port":27036,"stv_name":"Uncletopia | New York City | 3 | Stopwatch Beta | STV","players":null},{"server_id":16,"name":"Uncletopia | New York City | 4 | Community","name_short":"nyc-4","host":"nyc-1.us.uncletopia.com","port":27045,"enabled":true,"region":"us-east","cc":"us","latitude":40.73061,"longitude":-73.93524,"reserved":0,"last_update":"0001-01-01T00:00:00Z","name_a2s":"Uncletopia | New York City | 4 | Community","protocol":17,"map":"workshop/cp_propaganda_b18.ugc1603743849","folder":"tf","game":"Team Fortress","app_id":440,"player_count":15,"max_players":24,"Bots":0,"server_type":"Dedicated","server_os":"Linux","password":true,"vac":true,"version":"7961495","steam_id":85568392924742821,"keywords":["cp","nocrits","nodmgspread","uncletopia"],"game_id":440,"stv_port":27046,"stv_name":"Uncletopia | New York City | 4 | Community | STV","players":[{"user_id":528,"name":"ChaoticAngel","steam_id":76561198293528217,"connected_time":1014000000000,"state":"active","ping":50},{"user_id":537,"name":"buckydargon","steam_id":76561197991480502,"connected_time":209000000000,"state":"active","ping":106},{"user_id":474,"name":":3","steam_id":76561198015467611,"connected_time":8231000000000,"state":"active","ping":52},{"user_id":518,"name":"Help Me","steam_id":76561198133851467,"connected_time":1941000000000,"state":"active","ping":89},{"user_id":523,"name":"Trench","steam_id":76561198948351242,"connected_time":1584000000000,"state":"active","ping":181},{"user_id":526,"name":"G.bo","steam_id":76561198085176270,"connected_time":1378000000000,"state":"active","ping":132},{"user_id":457,"name":"A Puppy","steam_id":76561198828184456,"connected_time":9859000000000,"state":"active","ping":52},{"user_id":534,"name":"Mike","steam_id":76561198827756158,"connected_time":419000000000,"state":"active","ping":132},{"user_id":527,"name":"Hummus Enjoyer","steam_id":76561198105213446,"connected_time":1364000000000,"state":"active","ping":49},{"user_id":535,"name":"‚òπ","steam_id":76561198804763186,"connected_time":323000000000,"state":"active","ping":41},{"user_id":532,"name":"pepsi gaming","steam_id":76561199440200558,"connected_time":645000000000,"state":"active","ping":158},{"user_id":536,"name":"Shadow_kick","steam_id":76561198188851373,"connected_time":318000000000,"state":"active","ping":156},{"user_id":538,"name":"dillon/dylan","steam_id":76561198118054166,"connected_time":138000000000,"state":"active","ping":51},{"user_id":471,"name":"Rodrick Knee","steam_id":76561198283021062,"connected_time":8476000000000,"state":"active","ping":68},{"user_id":502,"name":"Zoey Cakes","steam_id":76561198080247936,"connected_time":4599000000000,"state":"active","ping":91}]},{"server_id":142,"name":"Uncletopia | S√£o Paulo | 1 | All Maps","name_short":"sao-1","host":"sao-1.br.uncletopia.com","port":27015,"enabled":true,"region":"sa","cc":"br","latitude":-23.533773,"longitude":-46.62529,"reserved":0,"last_update":"0001-01-01T00:00:00Z","name_a2s":"Uncletopia | S√£o Paulo | 1 | All Maps","protocol":17,"map":"koth_viaduct","folder":"tf","game":"Team Fortress","app_id":440,"player_count":0,"max_players":24,"Bots":0,"server_type":"Dedicated","server_os":"Linux","password":true,"vac":true,"version":"7961495","steam_id":85568392924469996,"keywords":["cp","nocrits","nodmgspread","uncletopia"],"game_id":440,"stv_port":27016,"stv_name":"Uncletopia | S√£o Paulo | 1 | All Maps | STV","players":null},{"server_id":143,"name":"Uncletopia | S√£o Paulo | 2 | Community","name_short":"sao-2","host":"sao-2.br.uncletopia.com","port":27015,"enabled":true,"region":"sa","cc":"br","latitude":-23.533773,"longitude":-46.62529,"reserved":0,"last_update":"0001-01-01T00:00:00Z","name_a2s":"Uncletopia | S√£o Paulo | 2 | Community","protocol":17,"map":"workshop/koth_bagel_rc6.ugc2514036946","folder":"tf","game":"Team Fortress","app_id":440,"player_count":0,"max_players":24,"Bots":0,"server_type":"Dedicated","server_os":"Linux","password":true,"vac":true,"version":"7961495","steam_id":85568392924485349,"keywords":["cp","nocrits","nodmgspread","uncletopia"],"game_id":440,"stv_port":27016,"stv_name":"Uncletopia | S√£o Paulo | 2 | Community | STV","players":null},{"server_id":7,"name":"Uncletopia | Seattle | 1 | All Maps","name_short":"sea-1","host":"sea-1.us.uncletopia.com","port":27015,"enabled":true,"region":"us-west","cc":"us","latitude":47.608013,"longitude":-122.33517,"reserved":0,"last_update":"0001-01-01T00:00:00Z","name_a2s":"Uncletopia | Seattle | 1 | All Maps","protocol":17,"map":"cp_powerhouse","folder":"tf","game":"Team Fortress","app_id":440,"player_count":24,"max_players":24,"Bots":0,"server_type":"Dedicated","server_os":"Linux","password":true,"vac":true,"version":"7961495","steam_id":85568392924469997,"keywords":["cp","nocrits","nodmgspread","uncletopia"],"game_id":440,"stv_port":27016,"stv_name":"Uncletopia | Seattle | 1 | All Maps | STV","players":[{"user_id":776,"name":"Misha","steam_id":76561198045937454,"connected_time":217000000000,"state":"active","ping":58},{"user_id":774,"name":"Tripll-L","steam_id":76561197998077437,"connected_time":247000000000,"state":"active","ping":49},{"user_id":777,"name":"Dooper","steam_id":76561198154514320,"connected_time":211000000000,"state":"active","ping":63},{"user_id":778,"name":"Dura","steam_id":76561198081086998,"connected_time":191000000000,"state":"active","ping":55},{"user_id":768,"name":"rat gets the cheese","steam_id":76561198031234032,"connected_time":1327000000000,"state":"active","ping":93},{"user_id":749,"name":"Sniff","steam_id":76561198010270922,"connected_time":4028000000000,"state":"active","ping":59},{"user_id":739,"name":"Finkly","steam_id":76561198049828110,"connected_time":5294000000000,"state":"active","ping":45},{"user_id":775,"name":"NEBULA","steam_id":76561198086878595,"connected_time":242000000000,"state":"active","ping":72},{"user_id":750,"name":"Ayayayayayahuasca","steam_id":76561199002906056,"connected_time":3794000000000,"state":"active","ping":51},{"user_id":762,"name":"2 Point Tom","steam_id":76561198087617008,"connected_time":2682000000000,"state":"active","ping":54},{"user_id":766,"name":"mub","steam_id":76561197961943948,"connected_time":1679000000000,"state":"active","ping":46},{"user_id":746,"name":"human (real)","steam_id":76561199001855562,"connected_time":4535000000000,"state":"active","ping":52},{"user_id":779,"name":"rorywashere /·ê† - Àï -„Éû ‚≥ä","steam_id":76561198065825165,"connected_time":186000000000,"state":"active","ping":101},{"user_id":755,"name":"Retesaurus","steam_id":76561198045189319,"connected_time":3541000000000,"state":"active","ping":76},{"user_id":780,"name":"jeffus","steam_id":76561199347238848,"connected_time":177000000000,"state":"active","ping":60},{"user_id":781,"name":"Deep Fried Pickles","steam_id":76561198048111293,"connected_time":152000000000,"state":"active","ping":88},{"user_id":761,"name":"tr","steam_id":76561198046944222,"connected_time":2816000000000,"state":"active","ping":45},{"user_id":771,"name":"bbbbb","steam_id":76561198095480838,"connected_time":809000000000,"state":"active","ping":46},{"user_id":782,"name":"Goosey","steam_id":76561198139648585,"connected_time":146000000000,"state":"active","ping":83},{"user_id":772,"name":"üéÑAndreaJinglingüéÑ","steam_id":76561198198658783,"connected_time":667000000000,"state":"active","ping":72},{"user_id":753,"name":"marlow","steam_id":76561198094408360,"connected_time":3575000000000,"state":"active","ping":124},{"user_id":758,"name":"my monitor is off","steam_id":76561198074499537,"connected_time":3201000000000,"state":"active","ping":104},{"user_id":783,"name":"Allotrope","steam_id":76561197998450103,"connected_time":136000000000,"state":"active","ping":74},{"user_id":732,"name":"jole","steam_id":76561198037292232,"connected_time":5502000000000,"state":"active","ping":135}]},{"server_id":119,"name":"Uncletopia | Seattle | 2 | All Maps","name_short":"sea-2","host":"sea-1.us.uncletopia.com","port":27025,"enabled":true,"region":"us-west","cc":"us","latitude":47.608013,"longitude":-122.33517,"reserved":0,"last_update":"0001-01-01T00:00:00Z","name_a2s":"Uncletopia | Seattle | 2 | All Maps","protocol":17,"map":"pl_upward","folder":"tf","game":"Team Fortress","app_id":440,"player_count":22,"max_players":24,"Bots":0,"server_type":"Dedicated","server_os":"Linux","password":true,"vac":true,"version":"7961495","steam_id":85568392924469998,"keywords":["nocrits","nodmgspread","payload","uncletopia"],"game_id":440,"stv_port":27026,"stv_name":"Uncletopia | Seattle | 2 | All Maps | STV","players":[{"user_id":509,"name":"p_p","steam_id":76561198221151676,"connected_time":3545000000000,"state":"active","ping":64},{"user_id":511,"name":"WaffleWithNoToppings","steam_id":76561199088280111,"connected_time":3511000000000,"state":"active","ping":45},{"user_id":539,"name":"Shibuya 808","steam_id":76561198040462757,"connected_time":2069000000000,"state":"active","ping":132},{"user_id":528,"name":"trackpad gaming | f2p","steam_id":76561198840414371,"connected_time":2959000000000,"state":"active","ping":49},{"user_id":552,"name":"Watsup19","steam_id":76561198063160173,"connected_time":671000000000,"state":"active","ping":87},{"user_id":517,"name":"Tsudad","steam_id":76561198827362462,"connected_time":3363000000000,"state":"active","ping":77},{"user_id":459,"name":"greens beans","steam_id":76561198153611491,"connected_time":7422000000000,"state":"active","ping":42},{"user_id":538,"name":"Whatsapp Spy","steam_id":76561198085410969,"connected_time":2148000000000,"state":"active","ping":91},{"user_id":562,"name":"porksoda","steam_id":76561198021451377,"connected_time":202000000000,"state":"active","ping":44},{"user_id":555,"name":"Agent Mania","steam_id":76561198029741272,"connected_time":564000000000,"state":"active","ping":81},{"user_id":556,"name":"luc","steam_id":76561198093883448,"connected_time":515000000000,"state":"active","ping":58},{"user_id":557,"name":"caca sniffer","steam_id":76561199099914725,"connected_time":373000000000,"state":"active","ping":49},{"user_id":558,"name":"enginer","steam_id":76561198017030029,"connected_time":322000000000,"state":"active","ping":74},{"user_id":532,"name":"Professor","steam_id":76561198097038169,"connected_time":2783000000000,"state":"active","ping":97},{"user_id":559,"name":"2girls1diymo","steam_id":76561198017600790,"connected_time":273000000000,"state":"active","ping":30},{"user_id":487,"name":"oo","steam_id":76561198119626492,"connected_time":5298000000000,"state":"active","ping":64},{"user_id":549,"name":"MrOliveTree","steam_id":76561198084789362,"connected_time":1244000000000,"state":"active","ping":126},{"user_id":563,"name":"Antzen","steam_id":76561198041343470,"connected_time":161000000000,"state":"active","ping":74},{"user_id":564,"name":"Trans Anime Rizz Gaming","steam_id":76561198257541502,"connected_time":24000000000,"state":"spawning","ping":50},{"user_id":561,"name":"Sweater-Fan","steam_id":76561199389567214,"connected_time":247000000000,"state":"active","ping":118},{"user_id":547,"name":"Alberto2104","steam_id":76561198094968873,"connected_time":1426000000000,"state":"active","ping":107}]},{"server_id":406,"name":"Uncletopia | Seattle | 3 | Stopwatch Beta","name_short":"sea-3","host":"sea-1.us.uncletopia.com","port":27035,"enabled":true,"region":"us-west","cc":"us","latitude":47.608013,"longitude":-122.33517,"reserved":0,"last_update":"0001-01-01T00:00:00Z","name_a2s":"Uncletopia | Seattle | 3 | Stopwatch Beta","protocol":17,"map":"koth_lakeside_final","folder":"tf","game":"Team Fortress","app_id":440,"player_count":0,"max_players":24,"Bots":0,"server_type":"Dedicated","server_os":"Linux","password":true,"vac":true,"version":"7961495","steam_id":85568392924515217,"keywords":["cp","nocrits","nodmgspread","uncletopia"],"game_id":440,"stv_port":27036,"stv_name":"Uncletopia | Seattle | 3 | Stopwatch Beta | STV","players":null},{"server_id":17,"name":"Uncletopia | San Francisco | 1 | All Maps","name_short":"sfo-1","host":"sfo-1.us.uncletopia.com","port":27015,"enabled":true,"region":"us-west","cc":"us","latitude":37.77397,"longitude":-122.4313,"reserved":0,"last_update":"0001-01-01T00:00:00Z","name_a2s":"Uncletopia | San Francisco | 1 | All Maps","protocol":17,"map":"cp_sunshine","folder":"tf","game":"Team Fortress","app_id":440,"player_count":0,"max_players":24,"Bots":0,"server_type":"Dedicated","server_os":"Linux","password":true,"vac":true,"version":"7961495","steam_id":85568392924469999,"keywords":["cp","nocrits","nodmgspread","uncletopia"],"game_id":440,"stv_port":27016,"stv_name":"Uncletopia | San Francisco | 1 | All Maps | STV","players":null},{"server_id":18,"name":"Uncletopia | San Francisco | 2 | All Maps","name_short":"sfo-2","host":"sfo-1.us.uncletopia.com","port":27025,"enabled":true,"region":"us-west","cc":"us","latitude":37.77397,"longitude":-122.4313,"reserved":0,"last_update":"0001-01-01T00:00:00Z","name_a2s":"Uncletopia | San Francisco | 2 | All Maps","protocol":17,"map":"koth_nucleus","folder":"tf","game":"Team Fortress","app_id":440,"player_count":24,"max_players":24,"Bots":0,"server_type":"Dedicated","server_os":"Linux","password":true,"vac":true,"version":"7961495","steam_id":85568392924470000,"keywords":["cp","nocrits","nodmgspread","uncletopia"],"game_id":440,"stv_port":27026,"stv_name":"Uncletopia | San Francisco | 2 | All Maps | STV","players":[{"user_id":326,"name":"constance clicker","steam_id":76561198046130544,"connected_time":4485000000000,"state":"active","ping":100},{"user_id":361,"name":"Canned Lobster","steam_id":76561198110847328,"connected_time":2859000000000,"state":"active","ping":58},{"user_id":339,"name":"Chiaki Nanami","steam_id":76561198164782653,"connected_time":4072000000000,"state":"active","ping":109},{"user_id":374,"name":"noellehound (she/her)","steam_id":76561198108844158,"connected_time":1635000000000,"state":"active","ping":69},{"user_id":388,"name":"init","steam_id":76561198194055874,"connected_time":193000000000,"state":"active","ping":75},{"user_id":348,"name":"Wendigo","steam_id":76561197994528974,"connected_time":3802000000000,"state":"active","ping":96},{"user_id":356,"name":"Nate","steam_id":76561198045186954,"connected_time":3347000000000,"state":"active","ping":58},{"user_id":383,"name":"scared","steam_id":76561198050220225,"connected_time":766000000000,"state":"active","ping":113},{"user_id":375,"name":"scatterflower (meow)","steam_id":76561198039982559,"connected_time":1279000000000,"state":"active","ping":101},{"user_id":363,"name":"Johnson, Navin R.","steam_id":76561197961107982,"connected_time":2821000000000,"state":"active","ping":93},{"user_id":340,"name":"gerg","steam_id":76561197997127387,"connected_time":4068000000000,"state":"active","ping":48},{"user_id":330,"name":"Heatto","steam_id":76561197988167897,"connected_time":4417000000000,"state":"active","ping":62},{"user_id":386,"name":"Thomas Chavira Gaming","steam_id":76561198313671617,"connected_time":484000000000,"state":"active","ping":66},{"user_id":377,"name":"WaWaSkittleTits","steam_id":76561198411234398,"connected_time":1137000000000,"state":"active","ping":121},{"user_id":360,"name":"Pyhoms","steam_id":76561198167809962,"connected_time":3037000000000,"state":"active","ping":54},{"user_id":380,"name":"Red Orbama","steam_id":76561198047002366,"connected_time":1106000000000,"state":"active","ping":66},{"user_id":372,"name":"zeel107","steam_id":76561198063892990,"connected_time":2001000000000,"state":"active","ping":70},{"user_id":381,"name":"Darkspiral","steam_id":76561198080807559,"connected_time":1040000000000,"state":"active","ping":58},{"user_id":341,"name":"social distance warrior","steam_id":76561198128992994,"connected_time":4064000000000,"state":"active","ping":69},{"user_id":369,"name":"josie","steam_id":76561198170848553,"connected_time":2418000000000,"state":"active","ping":64},{"user_id":384,"name":"Sentient Trash Can","steam_id":76561199438622491,"connected_time":702000000000,"state":"active","ping":70},{"user_id":370,"name":"Weakforanimebitches","steam_id":76561198217663016,"connected_time":2150000000000,"state":"active","ping":60},{"user_id":345,"name":"[DEFN] Mythic Cum Man","steam_id":76561198137143531,"connected_time":3983000000000,"state":"active","ping":120},{"user_id":389,"name":"Hatchitis","steam_id":76561198320346037,"connected_time":65000000000,"state":"active","ping":63}]},{"server_id":19,"name":"Uncletopia | San Francisco | 3 | Stopwatch Beta","name_short":"sfo-3","host":"sfo-1.us.uncletopia.com","port":27035,"enabled":true,"region":"us-west","cc":"us","latitude":37.77397,"longitude":-122.4313,"reserved":0,"last_update":"0001-01-01T00:00:00Z","name_a2s":"Uncletopia | San Francisco | 3 | Stopwatch Beta","protocol":17,"map":"pl_borneo","folder":"tf","game":"Team Fortress","app_id":440,"player_count":0,"max_players":24,"Bots":0,"server_type":"Dedicated","server_os":"Linux","password":true,"vac":true,"version":"7961495","steam_id":85568392924742824,"keywords":["nocrits","nodmgspread","payload","uncletopia"],"game_id":440,"stv_port":27036,"stv_name":"Uncletopia | San Francisco | 3 | Stopwatch Beta | STV","players":null},{"server_id":20,"name":"Uncletopia | San Francisco | 4 | Community","name_short":"sfo-4","host":"sfo-1.us.uncletopia.com","port":27045,"enabled":true,"region":"us-west","cc":"us","latitude":37.77397,"longitude":-122.4313,"reserved":0,"last_update":"0001-01-01T00:00:00Z","name_a2s":"Uncletopia | San Francisco | 4 | Community","protocol":17,"map":"workshop/koth_bagel_rc6.ugc2514036946","folder":"tf","game":"Team Fortress","app_id":440,"player_count":0,"max_players":24,"Bots":0,"server_type":"Dedicated","server_os":"Linux","password":true,"vac":true,"version":"7961495","steam_id":85568392924742826,"keywords":["cp","nocrits","nodmgspread","uncletopia"],"game_id":440,"stv_port":27046,"stv_name":"Uncletopia | San Francisco | 4 | Community | STV","players":null},{"server_id":141,"name":"Uncletopia | Sydney | 1 | All Maps","name_short":"syd-1","host":"syd-1.au.uncletopia.com","port":27015,"enabled":true,"region":"au","cc":"au","latitude":-33.865143,"longitude":151.2099,"reserved":0,"last_update":"0001-01-01T00:00:00Z","name_a2s":"Uncletopia | Sydney | 1 | All Maps","protocol":17,"map":"pl_borneo","folder":"tf","game":"Team Fortress","app_id":440,"player_count":11,"max_players":24,"Bots":0,"server_type":"Dedicated","server_os":"Linux","password":true,"vac":true,"version":"7961495","steam_id":85568392924470001,"keywords":["nocrits","nodmgspread","payload","uncletopia"],"game_id":440,"stv_port":27016,"stv_name":"Uncletopia | Sydney | 1 | All Maps | STV","players":[{"user_id":231,"name":"berko","steam_id":76561198012286680,"connected_time":55000000000,"state":"active","ping":77},{"user_id":225,"name":"Precipire","steam_id":76561198076159518,"connected_time":918000000000,"state":"active","ping":51},{"user_id":229,"name":"Paper","steam_id":76561198041517737,"connected_time":248000000000,"state":"active","ping":40},{"user_id":232,"name":"In the face!","steam_id":76561199400467501,"connected_time":41000000000,"state":"active","ping":116},{"user_id":212,"name":"uncle david","steam_id":76561198282686781,"connected_time":2480000000000,"state":"active","ping":69},{"user_id":208,"name":"Jeternal","steam_id":76561198016514233,"connected_time":2840000000000,"state":"active","ping":69},{"user_id":200,"name":"SlenderFox","steam_id":76561198044002401,"connected_time":3439000000000,"state":"active","ping":56},{"user_id":206,"name":"STOOGE","steam_id":76561198076707541,"connected_time":2852000000000,"state":"active","ping":48},{"user_id":169,"name":"ninjaneer gaming","steam_id":76561198014474886,"connected_time":7608000000000,"state":"active","ping":94},{"user_id":219,"name":"The Duck of Taunton","steam_id":76561198032000556,"connected_time":1911000000000,"state":"active","ping":63},{"user_id":222,"name":"cibo","steam_id":76561198798929932,"connected_time":1216000000000,"state":"active","ping":69}]},{"server_id":123,"name":"Uncletopia | Sydney | 2 | All Maps","name_short":"syd-2","host":"syd-1.au.uncletopia.com","port":27025,"enabled":true,"region":"au","cc":"au","latitude":-33.865143,"longitude":151.2099,"reserved":0,"last_update":"0001-01-01T00:00:00Z","name_a2s":"Uncletopia | Sydney | 2 | All Maps","protocol":17,"map":"cp_snakewater_final1","folder":"tf","game":"Team Fortress","app_id":440,"player_count":1,"max_players":24,"Bots":0,"server_type":"Dedicated","server_os":"Linux","password":true,"vac":true,"version":"7961495","steam_id":85568392924470002,"keywords":["cp","nocrits","nodmgspread","uncletopia"],"game_id":440,"stv_port":27026,"stv_name":"Uncletopia | Sydney | 2 | All Maps | STV","players":[{"user_id":14,"name":"bumbling fool","steam_id":76561198799725139,"connected_time":420000000000,"state":"active","ping":57}]},{"server_id":395,"name":"Uncletopia | Sydney | 3 | All Maps","name_short":"syd-3","host":"syd-1.au.uncletopia.com","port":27035,"enabled":true,"region":"au","cc":"au","latitude":-33.865143,"longitude":151.2099,"reserved":0,"last_update":"0001-01-01T00:00:00Z","name_a2s":"Uncletopia | Sydney | 3 | All Maps","protocol":17,"map":"pl_borneo","folder":"tf","game":"Team Fortress","app_id":440,"player_count":0,"max_players":24,"Bots":0,"server_type":"Dedicated","server_os":"Linux","password":true,"vac":true,"version":"7961495","steam_id":85568392925194467,"keywords":["nocrits","nodmgspread","payload","uncletopia"],"game_id":440,"stv_port":27036,"stv_name":"Uncletopia | Sydney | 3 | All Maps | STV","players":null},{"server_id":396,"name":"Uncletopia | Sydney | 4 | All Maps","name_short":"syd-4","host":"syd-1.au.uncletopia.com","port":27045,"enabled":true,"region":"au","cc":"au","latitude":-33.865143,"longitude":151.2099,"reserved":0,"last_update":"0001-01-01T00:00:00Z","name_a2s":"Uncletopia | Sydney | 4 | All Maps","protocol":17,"map":"pl_upward","folder":"tf","game":"Team Fortress","app_id":440,"player_count":20,"max_players":24,"Bots":0,"server_type":"Dedicated","server_os":"Linux","password":true,"vac":true,"version":"7961495","steam_id":85568392925397958,"keywords":["nocrits","nodmgspread","payload","uncletopia"],"game_id":440,"stv_port":27046,"stv_name":"Uncletopia | Sydney | 4 | All Maps | STV","players":[{"user_id":101,"name":"Steve","steam_id":76561198429235506,"connected_time":878000000000,"state":"active","ping":57},{"user_id":85,"name":"Bilbo Swaggins","steam_id":76561198984446872,"connected_time":1991000000000,"state":"active","ping":57},{"user_id":103,"name":"adam","steam_id":76561198087803935,"connected_time":176000000000,"state":"active","ping":47},{"user_id":91,"name":"Michaelsoft Binbows","steam_id":76561198422847304,"connected_time":1511000000000,"state":"active","ping":65},{"user_id":86,"name":"That one autistic pyro","steam_id":76561199206182584,"connected_time":1988000000000,"state":"active","ping":54},{"user_id":104,"name":"ADUCK","steam_id":76561198249887912,"connected_time":175000000000,"state":"active","ping":57},{"user_id":37,"name":"funGus","steam_id":76561198799796200,"connected_time":7439000000000,"state":"active","ping":65},{"user_id":105,"name":"kory/","steam_id":76561198048296897,"connected_time":163000000000,"state":"active","ping":58},{"user_id":46,"name":"Master LitFam","steam_id":76561199056106183,"connected_time":5053000000000,"state":"active","ping":67},{"user_id":106,"name":"tom :D","steam_id":76561198073393715,"connected_time":110000000000,"state":"active","ping":103},{"user_id":92,"name":"Mase","steam_id":76561198797093795,"connected_time":1478000000000,"state":"active","ping":47},{"user_id":99,"name":"Munch","steam_id":76561198308105172,"connected_time":1166000000000,"state":"active","ping":110},{"user_id":93,"name":"Mooty","steam_id":76561198301293435,"connected_time":1443000000000,"state":"active","ping":47},{"user_id":58,"name":"Batering","steam_id":76561198039849442,"connected_time":4112000000000,"state":"active","ping":53},{"user_id":67,"name":"WikkyD","steam_id":76561198043452962,"connected_time":3292000000000,"state":"active","ping":61},{"user_id":68,"name":"–ó—É–±–Ω–∞—è —â–µ—Ç–∫–∞","steam_id":76561198252661528,"connected_time":3264000000000,"state":"active","ping":113},{"user_id":95,"name":"Golfing with Joel","steam_id":76561199161637215,"connected_time":1350000000000,"state":"active","ping":88},{"user_id":71,"name":"ort","steam_id":76561198811693329,"connected_time":3152000000000,"state":"active","ping":104},{"user_id":96,"name":"Sodor Online Shorts","steam_id":76561198930577139,"connected_time":1276000000000,"state":"active","ping":55},{"user_id":98,"name":"doctor morbin' (official)","steam_id":76561199365241695,"connected_time":1216000000000,"state":"active","ping":126}]},{"server_id":58,"name":"Uncletopia | Sydney | 5 | Stopwatch Beta","name_short":"syd-5","host":"syd-1.au.uncletopia.com","port":27055,"enabled":true,"region":"au","cc":"au","latitude":-33.865143,"longitude":151.2099,"reserved":0,"last_update":"0001-01-01T00:00:00Z","name_a2s":"Uncletopia | Sydney | 5 | Stopwatch Beta","protocol":17,"map":"koth_viaduct","folder":"tf","game":"Team Fortress","app_id":440,"player_count":0,"max_players":24,"Bots":0,"server_type":"Dedicated","server_os":"Linux","password":true,"vac":true,"version":"7961495","steam_id":85568392925397959,"keywords":["cp","nocrits","nodmgspread","uncletopia"],"game_id":440,"stv_port":27056,"stv_name":"Uncletopia | Sydney | 5 | Stopwatch Beta | STV","players":null},{"server_id":59,"name":"Uncletopia | Sydney | 6 | Community","name_short":"syd-6","host":"syd-1.au.uncletopia.com","port":27065,"enabled":true,"region":"au","cc":"au","latitude":-33.865143,"longitude":151.2099,"reserved":0,"last_update":"0001-01-01T00:00:00Z","name_a2s":"Uncletopia | Sydney | 6 | Community","protocol":17,"map":"koth_cascade","folder":"tf","game":"Team Fortress","app_id":440,"player_count":0,"max_players":24,"Bots":0,"server_type":"Dedicated","server_os":"Linux","password":true,"vac":true,"version":"7961495","steam_id":85568392925397960,"keywords":["cp","nocrits","nodmgspread","uncletopia"],"game_id":440,"stv_port":27066,"stv_name":"Uncletopia | Sydney | 6 | Community | STV","players":null},{"server_id":49,"name":"Uncletopia | Warsaw | 1 | All Maps","name_short":"waw-1","host":"waw-1.pl.uncletopia.com","port":27015,"enabled":true,"region":"eu","cc":"pl","latitude":52.2297,"longitude":21.017532,"reserved":0,"last_update":"0001-01-01T00:00:00Z","name_a2s":"Uncletopia | Warsaw | 1 | All Maps","protocol":17,"map":"pl_swiftwater_final1","folder":"tf","game":"Team Fortress","app_id":440,"player_count":0,"max_players":24,"Bots":0,"server_type":"Dedicated","server_os":"Linux","password":true,"vac":true,"version":"7961495","steam_id":85568392925397850,"keywords":["nocrits","nodmgspread","payload","uncletopia"],"game_id":440,"stv_port":27016,"stv_name":"Uncletopia | Warsaw | 1 | All Maps | STV","players":null},{"server_id":50,"name":"Uncletopia | Warsaw | 2 | All Maps","name_short":"waw-2","host":"waw-1.pl.uncletopia.com","port":27025,"enabled":true,"region":"eu","cc":"pl","latitude":52.2297,"longitude":21.017532,"reserved":0,"last_update":"0001-01-01T00:00:00Z","name_a2s":"Uncletopia | Warsaw | 2 | All Maps","protocol":17,"map":"cp_dustbowl","folder":"tf","game":"Team Fortress","app_id":440,"player_count":0,"max_players":24,"Bots":0,"server_type":"Dedicated","server_os":"Linux","password":true,"vac":true,"version":"7961495","steam_id":85568392925397851,"keywords":["cp","nocrits","nodmgspread","uncletopia"],"game_id":440,"stv_port":27026,"stv_name":"Uncletopia | Warsaw | 2 | All Maps | STV","players":null},{"server_id":51,"name":"Uncletopia | Warsaw | 3 | All Maps","name_short":"waw-3","host":"waw-1.pl.uncletopia.com","port":27035,"enabled":true,"region":"eu","cc":"pl","latitude":52.2297,"longitude":21.017532,"reserved":0,"last_update":"0001-01-01T00:00:00Z","name_a2s":"Uncletopia | Warsaw | 3 | All Maps","protocol":17,"map":"pl_upward","folder":"tf","game":"Team Fortress","app_id":440,"player_count":0,"max_players":24,"Bots":0,"server_type":"Dedicated","server_os":"Linux","password":true,"vac":true,"version":"7961495","steam_id":85568392925397852,"keywords":["nocrits","nodmgspread","payload","uncletopia"],"game_id":440,"stv_port":27036,"stv_name":"Uncletopia | Warsaw | 3 | All Maps | STV","players":null},{"server_id":52,"name":"Uncletopia | Warsaw | 4 | All Maps","name_short":"waw-4","host":"waw-1.pl.uncletopia.com","port":27045,"enabled":true,"region":"eu","cc":"pl","latitude":52.2297,"longitude":21.017532,"reserved":0,"last_update":"0001-01-01T00:00:00Z","name_a2s":"Uncletopia | Warsaw | 4 | All Maps","protocol":17,"map":"koth_viaduct","folder":"tf","game":"Team Fortress","app_id":440,"player_count":0,"max_players":24,"Bots":0,"server_type":"Dedicated","server_os":"Linux","password":true,"vac":true,"version":"7961495","steam_id":85568392925397853,"keywords":["cp","nocrits","nodmgspread","uncletopia"],"game_id":440,"stv_port":27046,"stv_name":"Uncletopia | Warsaw | 4 | All Maps | STV","players":null},{"server_id":53,"name":"Uncletopia | Warsaw | 5 | Stopwatch Beta","name_short":"waw-5","host":"waw-1.pl.uncletopia.com","port":27055,"enabled":true,"region":"eu","cc":"pl","latitude":52.2297,"longitude":21.017532,"reserved":0,"last_update":"0001-01-01T00:00:00Z","name_a2s":"Uncletopia | Warsaw | 5 | Stopwatch Beta","protocol":17,"map":"cp_snakewater_final1","folder":"tf","game":"Team Fortress","app_id":440,"player_count":0,"max_players":24,"Bots":0,"server_type":"Dedicated","server_os":"Linux","password":true,"vac":true,"version":"7961495","steam_id":85568392925397854,"keywords":["cp","nocrits","nodmgspread","uncletopia"],"game_id":440,"stv_port":27056,"stv_name":"Uncletopia | Warsaw | 5 | Stopwatch Beta | STV","players":null},{"server_id":54,"name":"Uncletopia | Warsaw | 6 | Community","name_short":"waw-6","host":"waw-1.pl.uncletopia.com","port":27065,"enabled":true,"region":"eu","cc":"pl","latitude":52.2297,"longitude":21.017532,"reserved":0,"last_update":"0001-01-01T00:00:00Z","name_a2s":"Uncletopia | Warsaw | 6 | Community","protocol":17,"map":"cp_mountainlab","folder":"tf","game":"Team Fortress","app_id":440,"player_count":0,"max_players":24,"Bots":0,"server_type":"Dedicated","server_os":"Linux","password":true,"vac":true,"version":"7961495","steam_id":85568392925397856,"keywords":["cp","nocrits","nodmgspread","uncletopia"],"game_id":440,"stv_port":27066,"stv_name":"Uncletopia | Warsaw | 6 | Community | STV","players":null}]}