{"status":true,"message":"","result":[{"server_id":9,"name":"Uncletopia | Atlanta | 1 | All Maps","name_short":"atl-1","host":"atl-1.us.uncletopia.com","port":27015,"enabled":true,"region":"us-east","cc":"us","latitude":33.753746,"longitude":-84.38633,"reserved":0,"last_update":"0001-01-01T00:00:00Z","name_a2s":"Uncletopia | Atlanta | 1 | All Maps","protocol":17,"map":"cp_gravelpit","folder":"tf","game":"Team Fortress","app_id":440,"player_count":23,"max_players":24,"Bots":0,"server_type":"Dedicated","server_os":"Linux","password":true,"vac":true,"version":"7757534","steam_id":85568392924469982,"keywords":["cp","nocrits","nodmgspread","uncletopia"],"game_id":440,"stv_port":27016,"stv_name":"Uncletopia | Atlanta | 1 | All Maps | STV","players":[{"user_id":440,"name":"ATL1 | Bandi","steam_id":76561198432036026,"connected_time":1678000000000,"state":"active","ping":51},{"user_id":428,"name":"com lag","steam_id":76561198019019392,"connected_time":2354000000000,"state":"active","ping":60},{"user_id":412,"name":"ATL1 | on my hunting trip","steam_id":76561198315341646,"connected_time":3389000000000,"state":"active","ping":72},{"user_id":459,"name":"ATL1 | Lylith!!!","steam_id":76561198386687546,"connected_time":118000000000,"state":"active","ping":51},{"user_id":456,"name":"J O V A","steam_id":76561198090333536,"connected_time":169000000000,"state":"active","ping":74},{"user_id":439,"name":"melancholy","steam_id":76561198024301465,"connected_time":1682000000000,"state":"active","ping":43},{"user_id":457,"name":"BIG HOG","steam_id":76561198079923652,"connected_time":169000000000,"state":"active","ping":65},{"user_id":460,"name":"Minus273C","steam_id":76561197967510404,"connected_time":59000000000,"state":"active","ping":69},{"user_id":458,"name":"Yukko Aioi TF2","steam_id":76561198889857835,"connected_time":169000000000,"state":"active","ping":127},{"user_id":325,"name":"Firebug","steam_id":76561198081832157,"connected_time":11891000000000,"state":"active","ping":79},{"user_id":461,"name":"nay ners","steam_id":76561199238480644,"connected_time":51000000000,"state":"active","ping":76},{"user_id":414,"name":"Poopsock","steam_id":76561198166713255,"connected_time":3381000000000,"state":"active","ping":60},{"user_id":447,"name":"David De Bergerac","steam_id":76561198010306294,"connected_time":959000000000,"state":"active","ping":87},{"user_id":431,"name":"ATL1 | LuckyZero-_-","steam_id":76561198139891051,"connected_time":2302000000000,"state":"active","ping":65},{"user_id":434,"name":"Super","steam_id":76561199179611350,"connected_time":2267000000000,"state":"active","ping":85},{"user_id":442,"name":"Oddball","steam_id":76561198040440984,"connected_time":1601000000000,"state":"active","ping":87},{"user_id":398,"name":"mayhem","steam_id":76561199246637881,"connected_time":6339000000000,"state":"active","ping":54},{"user_id":333,"name":"twitch.tv/frimpimy","steam_id":76561198142605675,"connected_time":11176000000000,"state":"active","ping":82},{"user_id":441,"name":"floral green","steam_id":76561198332519926,"connected_time":1615000000000,"state":"active","ping":55},{"user_id":451,"name":"lil hog","steam_id":76561199230929836,"connected_time":449000000000,"state":"active","ping":81},{"user_id":444,"name":"Motorol¬™","steam_id":76561198358119669,"connected_time":1187000000000,"state":"active","ping":111},{"user_id":377,"name":"cheeks","steam_id":76561197993371179,"connected_time":7934000000000,"state":"active","ping":46},{"user_id":403,"name":"Brian","steam_id":76561198089908485,"connected_time":5969000000000,"state":"active","ping":58}]},{"server_id":400,"name":"Uncletopia | Atlanta | 3 | Community","name_short":"atl-3","host":"atl-1.us.uncletopia.com","port":27035,"enabled":true,"region":"us-east","cc":"us","latitude":33.753746,"longitude":-84.38633,"reserved":0,"last_update":"0001-01-01T00:00:00Z","name_a2s":"Uncletopia | Atlanta | 3 | Community","protocol":17,"map":"cp_mountainlab","folder":"tf","game":"Team Fortress","app_id":440,"player_count":0,"max_players":24,"Bots":0,"server_type":"Dedicated","server_os":"Linux","password":true,"vac":true,"version":"7757534","steam_id":85568392924515187,"keywords":["cp","nocrits","nodmgspread","uncletopia"],"game_id":440,"stv_port":27036,"stv_name":"Uncletopia | Atlanta | 3 | Community | STV","players":null},{"server_id":401,"name":"Uncletopia | Atlanta | 4 | No Payload","name_short":"atl-4","host":"atl-1.us.uncletopia.com","port":27045,"enabled":true,"region":"us-east","cc":"us","latitude":33.753746,"longitude":-84.38633,"reserved":0,"last_update":"0001-01-01T00:00:00Z","name_a2s":"","protocol":0,"map":"","folder":"","game":"","app_id":0,"player_count":0,"max_players":0,"Bots":0,"server_type":"","server_os":"","password":false,"vac":false,"version":"","steam_id":0,"keywords":null,"game_id":0,"stv_port":0,"stv_name":"","players":null},{"server_id":2,"name":"Uncletopia | Chicago | 1 | All Maps","name_short":"chi-1","host":"chi-1.us.uncletopia.com","port":27015,"enabled":true,"region":"us-central","cc":"us","latitude":41.881832,"longitude":-87.62318,"reserved":0,"last_update":"0001-01-01T00:00:00Z","name_a2s":"Uncletopia | Chicago | 1 | All Maps","protocol":17,"map":"pl_badwater","folder":"tf","game":"Team Fortress","app_id":440,"player_count":24,"max_players":24,"Bots":0,"server_type":"Dedicated","server_os":"Linux","password":true,"vac":true,"version":"7757534","steam_id":85568392924469984,"keywords":["nocrits","nodmgspread","payload","uncletopia"],"game_id":440,"stv_port":27016,"stv_name":"Uncletopia | Chicago | 1 | All Maps | STV","players":[{"user_id":250,"name":"Dot.","steam_id":76561198149463984,"connected_time":1071000000000,"state":"active","ping":48},{"user_id":220,"name":"Quakedad","steam_id":76561198055811307,"connected_time":2577000000000,"state":"active","ping":122},{"user_id":198,"name":"-_-","steam_id":76561198057717934,"connected_time":3772000000000,"state":"active","ping":45},{"user_id":149,"name":"enolteiii","steam_id":76561198140843225,"connected_time":7763000000000,"state":"active","ping":108},{"user_id":241,"name":"worker","steam_id":76561198039608940,"connected_time":1248000000000,"state":"active","ping":124},{"user_id":268,"name":"MengskDidNothingWrong","steam_id":76561198009510979,"connected_time":158000000000,"state":"active","ping":68},{"user_id":235,"name":"Apollite","steam_id":76561198071669801,"connected_time":1443000000000,"state":"active","ping":63},{"user_id":238,"name":"AdmiralSharpie","steam_id":76561198066394239,"connected_time":1327000000000,"state":"active","ping":82},{"user_id":255,"name":"EmptyB33R","steam_id":76561198993166528,"connected_time":907000000000,"state":"active","ping":131},{"user_id":259,"name":"JohnnyG","steam_id":76561198078395002,"connected_time":416000000000,"state":"active","ping":64},{"user_id":236,"name":"Dokkibai","steam_id":76561198355935693,"connected_time":1418000000000,"state":"active","ping":46},{"user_id":257,"name":"PhaserLazer","steam_id":76561198407341298,"connected_time":614000000000,"state":"active","ping":81},{"user_id":242,"name":"Candy Sparkles","steam_id":76561198126871264,"connected_time":1246000000000,"state":"active","ping":85},{"user_id":260,"name":"Alteraxia","steam_id":76561198213333961,"connected_time":409000000000,"state":"active","ping":89},{"user_id":261,"name":":()","steam_id":76561198071991975,"connected_time":376000000000,"state":"active","ping":60},{"user_id":262,"name":"HeyGamingLIVE","steam_id":76561199224811007,"connected_time":374000000000,"state":"active","ping":81},{"user_id":263,"name":"theeyeofsauronmc","steam_id":76561199157250663,"connected_time":367000000000,"state":"active","ping":78},{"user_id":264,"name":"Sableye","steam_id":76561198061247147,"connected_time":345000000000,"state":"active","ping":68},{"user_id":265,"name":"AlexLovesYou","steam_id":76561199163263543,"connected_time":333000000000,"state":"active","ping":102},{"user_id":266,"name":"Bubz","steam_id":76561199013499631,"connected_time":304000000000,"state":"active","ping":88},{"user_id":229,"name":"CamSoup","steam_id":76561198202483168,"connected_time":2110000000000,"state":"active","ping":70},{"user_id":248,"name":"Loleo","steam_id":76561198348132374,"connected_time":1095000000000,"state":"active","ping":60},{"user_id":199,"name":"ultralisk52","steam_id":76561198051666604,"connected_time":3771000000000,"state":"active","ping":65},{"user_id":269,"name":"Fr–∞nk","steam_id":76561198150754556,"connected_time":85000000000,"state":"active","ping":42}]},{"server_id":106,"name":"Uncletopia | Chicago | 2 | All Maps","name_short":"chi-2","host":"chi-1.us.uncletopia.com","port":27025,"enabled":true,"region":"us-central","cc":"us","latitude":41.881832,"longitude":-87.62318,"reserved":0,"last_update":"0001-01-01T00:00:00Z","name_a2s":"Uncletopia | Chicago | 2 | All Maps","protocol":17,"map":"cp_process_final","folder":"tf","game":"Team Fortress","app_id":440,"player_count":24,"max_players":24,"Bots":0,"server_type":"Dedicated","server_os":"Linux","password":true,"vac":true,"version":"7757534","steam_id":85568392924469985,"keywords":["cp","nocrits","nodmgspread","uncletopia"],"game_id":440,"stv_port":27026,"stv_name":"Uncletopia | Chicago | 2 | All Maps | STV","players":[{"user_id":175,"name":"Maxxycat","steam_id":76561198194062681,"connected_time":721000000000,"state":"active","ping":58},{"user_id":172,"name":"Fedsmoker","steam_id":76561198047372130,"connected_time":950000000000,"state":"active","ping":110},{"user_id":133,"name":"Demianeithor","steam_id":76561198800036537,"connected_time":3481000000000,"state":"active","ping":83},{"user_id":176,"name":"countrychefbeerboy92","steam_id":76561198132476501,"connected_time":626000000000,"state":"active","ping":54},{"user_id":174,"name":"Boogie","steam_id":76561198043626626,"connected_time":795000000000,"state":"active","ping":57},{"user_id":177,"name":"8080E38080E38080E3","steam_id":76561198102681457,"connected_time":619000000000,"state":"active","ping":72},{"user_id":144,"name":"JPSS","steam_id":76561199239530493,"connected_time":2783000000000,"state":"active","ping":95},{"user_id":184,"name":"emma","steam_id":76561198060187430,"connected_time":203000000000,"state":"active","ping":88},{"user_id":188,"name":"4 life","steam_id":76561198175961598,"connected_time":80000000000,"state":"active","ping":114},{"user_id":127,"name":"LerN","steam_id":76561198083463877,"connected_time":3900000000000,"state":"active","ping":59},{"user_id":185,"name":"Alice in Rubberland","steam_id":76561198087328346,"connected_time":197000000000,"state":"active","ping":45},{"user_id":135,"name":"bagelbillnacho","steam_id":76561198174342389,"connected_time":3439000000000,"state":"active","ping":75},{"user_id":136,"name":"GGG","steam_id":76561198308315479,"connected_time":3430000000000,"state":"active","ping":105},{"user_id":147,"name":"BetoelAff es","steam_id":76561198377842585,"connected_time":2633000000000,"state":"active","ping":121},{"user_id":171,"name":"VioletSpecs","steam_id":76561198089366466,"connected_time":979000000000,"state":"active","ping":80},{"user_id":160,"name":"M16A1","steam_id":76561198137548311,"connected_time":1426000000000,"state":"active","ping":75},{"user_id":164,"name":"-=Bits=-Dinkleberg","steam_id":76561198080367616,"connected_time":1136000000000,"state":"active","ping":80},{"user_id":183,"name":"turingsghost","steam_id":76561198029318657,"connected_time":214000000000,"state":"active","ping":60},{"user_id":186,"name":"LukeLeal","steam_id":76561198049822995,"connected_time":179000000000,"state":"active","ping":166},{"user_id":27,"name":"Blitzy","steam_id":76561198149472890,"connected_time":12396000000000,"state":"active","ping":76},{"user_id":28,"name":"üÖúüÖîüÖîüÖöüÖ¢üÖ£üÖî\ufffd\ufffd\ufffd","steam_id":76561197999748343,"connected_time":12394000000000,"state":"active","ping":67},{"user_id":181,"name":"morbissey","steam_id":76561198072592880,"connected_time":441000000000,"state":"active","ping":45},{"user_id":141,"name":"sweppy","steam_id":76561198035457667,"connected_time":3373000000000,"state":"active","ping":75},{"user_id":168,"name":"uzr","steam_id":76561198799343084,"connected_time":1086000000000,"state":"active","ping":110}]},{"server_id":402,"name":"Uncletopia | Chicago | 3 | All Maps","name_short":"chi-3","host":"chi-1.us.uncletopia.com","port":27035,"enabled":true,"region":"us-central","cc":"us","latitude":41.881832,"longitude":-87.62318,"reserved":0,"last_update":"0001-01-01T00:00:00Z","name_a2s":"Uncletopia | Chicago | 3 | All Maps","protocol":17,"map":"pl_snowycoast","folder":"tf","game":"Team Fortress","app_id":440,"player_count":5,"max_players":24,"Bots":0,"server_type":"Dedicated","server_os":"Linux","password":true,"vac":true,"version":"7757534","steam_id":85568392924515191,"keywords":["nocrits","nodmgspread","payload","uncletopia"],"game_id":440,"stv_port":27036,"stv_name":"Uncletopia | Chicago | 3 | All Maps | STV","players":[{"user_id":16,"name":"drillerman115","steam_id":76561198362523323,"connected_time":1776000000000,"state":"active","ping":105},{"user_id":20,"name":"Slabungus","steam_id":76561198392928526,"connected_time":872000000000,"state":"active","ping":74},{"user_id":23,"name":"reanimator","steam_id":76561198085830470,"connected_time":208000000000,"state":"active","ping":55},{"user_id":24,"name":"watchfull","steam_id":76561198433266742,"connected_time":160000000000,"state":"active","ping":94},{"user_id":25,"name":"The Lasagna Hunter","steam_id":76561199222602638,"connected_time":145000000000,"state":"active","ping":84}]},{"server_id":403,"name":"Uncletopia | Chicago | 4 | All Maps","name_short":"chi-4","host":"chi-1.us.uncletopia.com","port":27045,"enabled":true,"region":"us-central","cc":"us","latitude":41.881832,"longitude":-87.62318,"reserved":0,"last_update":"0001-01-01T00:00:00Z","name_a2s":"Uncletopia | Chicago | 4 | All Maps","protocol":17,"map":"koth_cascade","folder":"tf","game":"Team Fortress","app_id":440,"player_count":0,"max_players":24,"Bots":0,"server_type":"Dedicated","server_os":"Linux","password":true,"vac":true,"version":"7757534","steam_id":85568392924515193,"keywords":["cp","nocrits","nodmgspread","uncletopia"],"game_id":440,"stv_port":27046,"stv_name":"Uncletopia | Chicago | 4 | All Maps | STV","players":null},{"server_id":36,"name":"Uncletopia | Chicago | 5 | All Maps","name_short":"chi-5","host":"chi-2.us.uncletopia.com","port":27015,"enabled":true,"region":"us-central","cc":"us","latitude":41.881832,"longitude":-87.62318,"reserved":0,"last_update":"0001-01-01T00:00:00Z","name_a2s":"Uncletopia | Chicago | 5 | All Maps","protocol":17,"map":"koth_lakeside_final","folder":"tf","game":"Team Fortress","app_id":440,"player_count":2,"max_players":24,"Bots":0,"server_type":"Dedicated","server_os":"Linux","password":true,"vac":true,"version":"7757534","steam_id":85568392924866362,"keywords":["cp","nocrits","nodmgspread","uncletopia"],"game_id":440,"stv_port":27016,"stv_name":"Uncletopia | Chicago | 5 | All Maps | STV","players":[{"user_id":4,"name":"DotBozo","steam_id":76561199131091835,"connected_time":1071000000000,"state":"active","ping":59},{"user_id":11,"name":"DJ Creeper","steam_id":76561199399959639,"connected_time":965000000000,"state":"active","ping":72}]},{"server_id":37,"name":"Uncletopia | Chicago | 6 | All Maps","name_short":"chi-6","host":"chi-2.us.uncletopia.com","port":27025,"enabled":true,"region":"us-central","cc":"us","latitude":41.881832,"longitude":-87.62318,"reserved":0,"last_update":"0001-01-01T00:00:00Z","name_a2s":"Uncletopia | Chicago | 6 | All Maps","protocol":17,"map":"pl_badwater","folder":"tf","game":"Team Fortress","app_id":440,"player_count":24,"max_players":24,"Bots":0,"server_type":"Dedicated","server_os":"Linux","password":true,"vac":true,"version":"7757534","steam_id":85568392924866363,"keywords":["nocrits","nodmgspread","payload","uncletopia"],"game_id":440,"stv_port":27026,"stv_name":"Uncletopia | Chicago | 6 | All Maps | STV","players":[{"user_id":34,"name":"Jaydyn","steam_id":76561198140326797,"connected_time":1072000000000,"state":"active","ping":81},{"user_id":47,"name":"Dingolf","steam_id":76561198010127454,"connected_time":723000000000,"state":"active","ping":91},{"user_id":54,"name":"Fluffeline","steam_id":76561198352909489,"connected_time":477000000000,"state":"active","ping":142},{"user_id":21,"name":"Mr. Can't Hit a Shot","steam_id":76561198071620782,"connected_time":1512000000000,"state":"active","ping":88},{"user_id":56,"name":"Slashes","steam_id":76561197968573499,"connected_time":166000000000,"state":"active","ping":60},{"user_id":22,"name":"Zoo Keeper Engie","steam_id":76561198064380111,"connected_time":1429000000000,"state":"active","ping":65},{"user_id":23,"name":"CertifiedCereal","steam_id":76561198055027895,"connected_time":1426000000000,"state":"active","ping":69},{"user_id":27,"name":"Athaz","steam_id":76561198296557673,"connected_time":1353000000000,"state":"active","ping":74},{"user_id":25,"name":"Goobus","steam_id":76561198013808088,"connected_time":1419000000000,"state":"active","ping":70},{"user_id":44,"name":"KBoneski ‚ô°","steam_id":76561198307409065,"connected_time":754000000000,"state":"active","ping":102},{"user_id":37,"name":"YES YES YES","steam_id":76561198969592244,"connected_time":964000000000,"state":"active","ping":92},{"user_id":32,"name":"nicolas the mercenary","steam_id":76561199077641644,"connected_time":1196000000000,"state":"active","ping":72},{"user_id":39,"name":"agent chubo","steam_id":76561199029137789,"connected_time":928000000000,"state":"active","ping":89},{"user_id":38,"name":"FT","steam_id":76561198010452388,"connected_time":963000000000,"state":"active","ping":84},{"user_id":40,"name":"Cringeton","steam_id":76561199067547569,"connected_time":882000000000,"state":"active","ping":87},{"user_id":41,"name":"Sad Sapling","steam_id":76561198075612150,"connected_time":879000000000,"state":"active","ping":163},{"user_id":42,"name":"Colonel Chikara","steam_id":76561198010021087,"connected_time":811000000000,"state":"active","ping":95},{"user_id":43,"name":"caberknight tf2","steam_id":76561199273882768,"connected_time":783000000000,"state":"active","ping":74},{"user_id":52,"name":"Gordon Ramsay","steam_id":76561198123893900,"connected_time":623000000000,"state":"active","ping":79},{"user_id":46,"name":"Mintavious The Third","steam_id":76561198235953338,"connected_time":738000000000,"state":"active","ping":65},{"user_id":48,"name":"BigWack","steam_id":76561198334878169,"connected_time":721000000000,"state":"active","ping":88},{"user_id":49,"name":"Sorry, I only know swear words.","steam_id":76561197993151595,"connected_time":686000000000,"state":"active","ping":78},{"user_id":55,"name":"Cutovercarp","steam_id":76561199065978512,"connected_time":425000000000,"state":"active","ping":68},{"user_id":51,"name":"CeigeBirb","steam_id":76561198068538473,"connected_time":636000000000,"state":"active","ping":76}]},{"server_id":38,"name":"Uncletopia | Chicago | 7 | Stopwatch Beta","name_short":"chi-7","host":"chi-2.us.uncletopia.com","port":27035,"enabled":true,"region":"us-central","cc":"us","latitude":41.881832,"longitude":-87.62318,"reserved":0,"last_update":"0001-01-01T00:00:00Z","name_a2s":"Uncletopia | Chicago | 7 | Stopwatch Beta","protocol":17,"map":"koth_viaduct","folder":"tf","game":"Team Fortress","app_id":440,"player_count":0,"max_players":24,"Bots":0,"server_type":"Dedicated","server_os":"Linux","password":true,"vac":true,"version":"7757534","steam_id":85568392924866364,"keywords":["cp","nocrits","nodmgspread","uncletopia"],"game_id":440,"stv_port":27036,"stv_name":"Uncletopia | Chicago | 7 | Stopwatch Beta | STV","players":null},{"server_id":39,"name":"Uncletopia | Chicago | 8 | Community","name_short":"chi-8","host":"chi-2.us.uncletopia.com","port":27045,"enabled":true,"region":"us-central","cc":"us","latitude":41.881832,"longitude":-87.62318,"reserved":0,"last_update":"0001-01-01T00:00:00Z","name_a2s":"Uncletopia | Chicago | 8 | Community","protocol":17,"map":"koth_lakeside_final","folder":"tf","game":"Team Fortress","app_id":440,"player_count":0,"max_players":24,"Bots":0,"server_type":"Dedicated","server_os":"Linux","password":true,"vac":true,"version":"7757534","steam_id":85568392924866365,"keywords":["cp","nocrits","nodmgspread","uncletopia"],"game_id":440,"stv_port":27046,"stv_name":"Uncletopia | Chicago | 8 | Community | STV","players":null},{"server_id":8,"name":"Uncletopia | Dallas | 1 | All Maps","name_short":"dal-1","host":"dal-1.us.uncletopia.com","port":27015,"enabled":true,"region":"us-central","cc":"us","latitude":32.779167,"longitude":-96.80889,"reserved":0,"last_update":"0001-01-01T00:00:00Z","name_a2s":"Uncletopia | Dallas | 1 | All Maps","protocol":17,"map":"cp_dustbowl","folder":"tf","game":"Team Fortress","app_id":440,"player_count":24,"max_players":24,"Bots":0,"server_type":"Dedicated","server_os":"Linux","password":true,"vac":true,"version":"7757534","steam_id":85568392924469986,"keywords":["cp","nocrits","nodmgspread","uncletopia"],"game_id":440,"stv_port":27016,"stv_name":"Uncletopia | Dallas | 1 | All Maps | STV","players":[{"user_id":305,"name":"Fake21","steam_id":76561198282065071,"connected_time":586000000000,"state":"active","ping":50},{"user_id":290,"name":"SypherusKing","steam_id":76561198835379444,"connected_time":2218000000000,"state":"active","ping":85},{"user_id":298,"name":"conscripted monk","steam_id":76561199029246232,"connected_time":1844000000000,"state":"active","ping":46},{"user_id":314,"name":"Joshzu","steam_id":76561198200521137,"connected_time":15000000000,"state":"spawning","ping":89},{"user_id":293,"name":"Ixcarsis","steam_id":76561198880674783,"connected_time":2170000000000,"state":"active","ping":78},{"user_id":235,"name":"mkl","steam_id":76561197986401685,"connected_time":7490000000000,"state":"active","ping":61},{"user_id":297,"name":"SneekiCheekiQbone","steam_id":76561198045077980,"connected_time":1871000000000,"state":"active","ping":73},{"user_id":284,"name":"Derply","steam_id":76561198871211642,"connected_time":3376000000000,"state":"active","ping":78},{"user_id":302,"name":"Vorg","steam_id":76561198271959087,"connected_time":780000000000,"state":"active","ping":61},{"user_id":271,"name":"Mr.Pwesident","steam_id":76561198058114703,"connected_time":4280000000000,"state":"active","ping":95},{"user_id":315,"name":"swooce","steam_id":76561198156232484,"connected_time":8000000000,"state":"active","ping":136},{"user_id":273,"name":"ark","steam_id":76561198041066271,"connected_time":4278000000000,"state":"active","ping":63},{"user_id":306,"name":"bojack from the show bojack hor","steam_id":76561198053006712,"connected_time":584000000000,"state":"active","ping":75},{"user_id":307,"name":"Dictator Noodle","steam_id":76561198277243768,"connected_time":576000000000,"state":"active","ping":78},{"user_id":269,"name":"fac","steam_id":76561198009818412,"connected_time":4305000000000,"state":"active","ping":68},{"user_id":222,"name":"PinguEnjoyer6","steam_id":76561199186723516,"connected_time":8642000000000,"state":"active","ping":68},{"user_id":312,"name":"Muse","steam_id":76561198177715869,"connected_time":206000000000,"state":"active","ping":64},{"user_id":285,"name":"‡πá‡πá‡πá ‡πá","steam_id":76561198145598073,"connected_time":3345000000000,"state":"active","ping":75},{"user_id":260,"name":"money getter","steam_id":76561199065645094,"connected_time":5491000000000,"state":"active","ping":74},{"user_id":244,"name":"Crack Addict","steam_id":76561198166681494,"connected_time":6887000000000,"state":"active","ping":54},{"user_id":316,"name":"‚óè‚Äø‚óè","steam_id":76561199161322235,"connected_time":2000000000,"state":"spawning","ping":54},{"user_id":291,"name":"sollarious101","steam_id":76561199086649385,"connected_time":2215000000000,"state":"active","ping":38},{"user_id":176,"name":"BamboozleMcdoozle","steam_id":76561198166510167,"connected_time":11813000000000,"state":"active","ping":81},{"user_id":313,"name":"kissland","steam_id":76561198018564445,"connected_time":183000000000,"state":"active","ping":60}]},{"server_id":108,"name":"Uncletopia | Dallas | 2 | All Maps","name_short":"dal-2","host":"dal-1.us.uncletopia.com","port":27025,"enabled":true,"region":"us-central","cc":"us","latitude":32.779167,"longitude":-96.80889,"reserved":0,"last_update":"0001-01-01T00:00:00Z","name_a2s":"Uncletopia | Dallas | 2 | All Maps","protocol":17,"map":"koth_cascade","folder":"tf","game":"Team Fortress","app_id":440,"player_count":0,"max_players":24,"Bots":0,"server_type":"Dedicated","server_os":"Linux","password":true,"vac":true,"version":"7757534","steam_id":85568392924469988,"keywords":["cp","nocrits","nodmgspread","uncletopia"],"game_id":440,"stv_port":27026,"stv_name":"Uncletopia | Dallas | 2 | All Maps | STV","players":null},{"server_id":5,"name":"Uncletopia | Frankfurt | 1 | All Maps","name_short":"frk-1","host":"frk-1.de.uncletopia.com","port":27015,"enabled":true,"region":"eu","cc":"de","latitude":50.110924,"longitude":8.682127,"reserved":0,"last_update":"0001-01-01T00:00:00Z","name_a2s":"Uncletopia | Frankfurt | 1 | All Maps","protocol":17,"map":"pl_badwater","folder":"tf","game":"Team Fortress","app_id":440,"player_count":24,"max_players":24,"Bots":0,"server_type":"Dedicated","server_os":"Linux","password":true,"vac":true,"version":"7757534","steam_id":85568392924469989,"keywords":["nocrits","nodmgspread","payload","uncletopia"],"game_id":440,"stv_port":27016,"stv_name":"Uncletopia | Frankfurt | 1 | All Maps | STV","players":[{"user_id":166,"name":"ant753","steam_id":76561198103458889,"connected_time":1968000000000,"state":"active","ping":73},{"user_id":162,"name":"NicatsCage","steam_id":76561198067271076,"connected_time":2733000000000,"state":"active","ping":90},{"user_id":183,"name":"[O\u0026O]YaboiDucki","steam_id":76561198195976589,"connected_time":1445000000000,"state":"active","ping":73},{"user_id":190,"name":"Dkz","steam_id":76561197970673402,"connected_time":643000000000,"state":"active","ping":47},{"user_id":152,"name":"r06u3","steam_id":76561198254099253,"connected_time":3352000000000,"state":"active","ping":176},{"user_id":186,"name":"6","steam_id":76561198274105878,"connected_time":919000000000,"state":"active","ping":74},{"user_id":175,"name":"MYASSTRO","steam_id":76561198046513151,"connected_time":1745000000000,"state":"active","ping":93},{"user_id":176,"name":"Interclintonental","steam_id":76561198286824203,"connected_time":1723000000000,"state":"active","ping":64},{"user_id":182,"name":"Efeca","steam_id":76561198018923829,"connected_time":1528000000000,"state":"active","ping":61},{"user_id":174,"name":"Miiukade","steam_id":76561198089157860,"connected_time":1783000000000,"state":"active","ping":141},{"user_id":173,"name":"20BB Raxor","steam_id":76561198239927434,"connected_time":1803000000000,"state":"active","ping":88},{"user_id":187,"name":"Lil' Peen","steam_id":76561198073852509,"connected_time":916000000000,"state":"active","ping":57},{"user_id":147,"name":"Carrotcracker","steam_id":76561198034862396,"connected_time":3912000000000,"state":"active","ping":73},{"user_id":104,"name":"Microsoft PowerPoint","steam_id":76561198204290539,"connected_time":7472000000000,"state":"active","ping":83},{"user_id":177,"name":"Rectal Nectar","steam_id":76561198077975012,"connected_time":1714000000000,"state":"active","ping":62},{"user_id":192,"name":"ducks","steam_id":76561198166148685,"connected_time":308000000000,"state":"active","ping":45},{"user_id":164,"name":"Sabour","steam_id":76561197963965445,"connected_time":2628000000000,"state":"active","ping":60},{"user_id":178,"name":"frey`","steam_id":76561197971548290,"connected_time":1699000000000,"state":"active","ping":61},{"user_id":191,"name":"Endi","steam_id":76561198914938199,"connected_time":633000000000,"state":"active","ping":91},{"user_id":193,"name":"LawrenceFishdom","steam_id":76561199190918059,"connected_time":293000000000,"state":"active","ping":70},{"user_id":194,"name":"limbicsystem","steam_id":76561198025612680,"connected_time":289000000000,"state":"active","ping":73},{"user_id":144,"name":"eeeeee","steam_id":76561198017786875,"connected_time":4023000000000,"state":"active","ping":61},{"user_id":195,"name":"Pancakes","steam_id":76561198196259989,"connected_time":251000000000,"state":"active","ping":61},{"user_id":189,"name":"NotDolpho","steam_id":76561199140679685,"connected_time":714000000000,"state":"active","ping":138}]},{"server_id":110,"name":"Uncletopia | Frankfurt | 2 | All Maps","name_short":"frk-2","host":"frk-1.de.uncletopia.com","port":27025,"enabled":true,"region":"eu","cc":"de","latitude":50.110924,"longitude":8.682127,"reserved":0,"last_update":"0001-01-01T00:00:00Z","name_a2s":"Uncletopia | Frankfurt | 2 | All Maps","protocol":17,"map":"pl_frontier_final","folder":"tf","game":"Team Fortress","app_id":440,"player_count":20,"max_players":24,"Bots":0,"server_type":"Dedicated","server_os":"Linux","password":true,"vac":true,"version":"7757534","steam_id":85568392924469990,"keywords":["nocrits","nodmgspread","payload","uncletopia"],"game_id":440,"stv_port":27026,"stv_name":"Uncletopia | Frankfurt | 2 | All Maps | STV","players":[{"user_id":572,"name":"game","steam_id":76561199111169960,"connected_time":4000000000,"state":"spawning","ping":59},{"user_id":517,"name":"tapeworms!","steam_id":76561198069649097,"connected_time":3778000000000,"state":"connecting","ping":540},{"user_id":547,"name":"Big Noot","steam_id":76561198057707263,"connected_time":1140000000000,"state":"spawning","ping":92},{"user_id":549,"name":"heavy sings (real)","steam_id":76561199023804405,"connected_time":610000000000,"state":"spawning","ping":79},{"user_id":548,"name":"X45Y","steam_id":76561198112534025,"connected_time":905000000000,"state":"active","ping":152},{"user_id":569,"name":"UNPARALLELED INNOCENCE","steam_id":76561198104896547,"connected_time":36000000000,"state":"spawning","ping":63},{"user_id":477,"name":"Alice","steam_id":76561198208927047,"connected_time":5822000000000,"state":"spawning","ping":347},{"user_id":552,"name":"HUGO","steam_id":76561198317134996,"connected_time":483000000000,"state":"spawning","ping":78},{"user_id":551,"name":"AWJ ÀÜ-ÀÜ","steam_id":76561198053628243,"connected_time":493000000000,"state":"spawning","ping":54},{"user_id":511,"name":"megafon","steam_id":76561198143921841,"connected_time":4367000000000,"state":"spawning","ping":64},{"user_id":449,"name":"RadialMount","steam_id":76561198063002562,"connected_time":9179000000000,"state":"spawning","ping":37},{"user_id":531,"name":"generic alias","steam_id":76561198271607226,"connected_time":2634000000000,"state":"spawning","ping":110},{"user_id":536,"name":"Mikeshowsha","steam_id":76561199114014127,"connected_time":1901000000000,"state":"spawning","ping":71},{"user_id":506,"name":"Carrot Arc","steam_id":76561198164957006,"connected_time":4657000000000,"state":"spawning","ping":120},{"user_id":532,"name":"dems","steam_id":76561198122546674,"connected_time":2621000000000,"state":"spawning","ping":53},{"user_id":541,"name":"Bonca","steam_id":76561198137503531,"connected_time":1564000000000,"state":"spawning","ping":73},{"user_id":571,"name":"s a i","steam_id":76561197970379754,"connected_time":28000000000,"state":"spawning","ping":46},{"user_id":543,"name":"clean carp","steam_id":76561198127053294,"connected_time":1500000000000,"state":"spawning","ping":63},{"user_id":545,"name":"DeCypher [She/Her]","steam_id":76561198171992619,"connected_time":1370000000000,"state":"spawning","ping":56},{"user_id":510,"name":"Negromancer","steam_id":76561198065912877,"connected_time":4434000000000,"state":"spawning","ping":62}]},{"server_id":308,"name":"Uncletopia | Frankfurt | 3 | All Maps","name_short":"frk-3","host":"frk-1.de.uncletopia.com","port":27035,"enabled":true,"region":"eu","cc":"de","latitude":50.110924,"longitude":8.682127,"reserved":0,"last_update":"0001-01-01T00:00:00Z","name_a2s":"Uncletopia | Frankfurt | 3 | All Maps","protocol":17,"map":"pl_borneo","folder":"tf","game":"Team Fortress","app_id":440,"player_count":24,"max_players":24,"Bots":0,"server_type":"Dedicated","server_os":"Linux","password":true,"vac":true,"version":"7757534","steam_id":85568392924504274,"keywords":["nocrits","nodmgspread","payload","uncletopia"],"game_id":440,"stv_port":27036,"stv_name":"Uncletopia | Frankfurt | 3 | All Maps | STV","players":[{"user_id":409,"name":"Fifourche","steam_id":76561198078209480,"connected_time":3457000000000,"state":"active","ping":60},{"user_id":436,"name":"KittyKate ‚ù§","steam_id":76561198116340817,"connected_time":680000000000,"state":"active","ping":61},{"user_id":427,"name":"aykutbayrak","steam_id":76561198060206825,"connected_time":1740000000000,"state":"active","ping":96},{"user_id":412,"name":"zinzyk","steam_id":76561198128011822,"connected_time":2934000000000,"state":"active","ping":60},{"user_id":447,"name":"Zero (Orbital Gear Mastermind)","steam_id":76561198017416816,"connected_time":484000000000,"state":"active","ping":56},{"user_id":435,"name":"Bobo","steam_id":76561198052308399,"connected_time":770000000000,"state":"active","ping":55},{"user_id":421,"name":"agent of chaos","steam_id":76561198399729875,"connected_time":2365000000000,"state":"active","ping":95},{"user_id":437,"name":"Senator Armstrong","steam_id":76561198984346408,"connected_time":661000000000,"state":"active","ping":69},{"user_id":438,"name":"toe bias","steam_id":76561199084996146,"connected_time":640000000000,"state":"active","ping":73},{"user_id":444,"name":"Big Mac Gaming","steam_id":76561198158209651,"connected_time":553000000000,"state":"active","ping":68},{"user_id":423,"name":"Megasecret","steam_id":76561198055378025,"connected_time":2163000000000,"state":"active","ping":91},{"user_id":452,"name":"mayo clinic","steam_id":76561198357894803,"connected_time":193000000000,"state":"active","ping":92},{"user_id":441,"name":"Jack\u003c3","steam_id":76561197968851846,"connected_time":599000000000,"state":"active","ping":79},{"user_id":414,"name":"Drekad√≥ttir","steam_id":76561198119979169,"connected_time":2828000000000,"state":"active","ping":69},{"user_id":442,"name":"Laiker","steam_id":76561198163560309,"connected_time":591000000000,"state":"active","ping":48},{"user_id":374,"name":"Tlad2","steam_id":76561198854897667,"connected_time":5215000000000,"state":"active","ping":75},{"user_id":375,"name":"ice","steam_id":76561198011015750,"connected_time":5209000000000,"state":"active","ping":53},{"user_id":434,"name":"triangle","steam_id":76561198046838168,"connected_time":928000000000,"state":"active","ping":45},{"user_id":443,"name":"RyInc","steam_id":76561198874261643,"connected_time":567000000000,"state":"active","ping":127},{"user_id":417,"name":"Baki ‡∂û","steam_id":76561198193615529,"connected_time":2497000000000,"state":"active","ping":56},{"user_id":399,"name":"ruschca","steam_id":76561198041966522,"connected_time":4499000000000,"state":"active","ping":68},{"user_id":448,"name":"Gaunt","steam_id":76561198047724887,"connected_time":480000000000,"state":"active","ping":65},{"user_id":451,"name":"Grillem Dafoe","steam_id":76561198306874574,"connected_time":375000000000,"state":"active","ping":82},{"user_id":418,"name":"dn4k","steam_id":76561199221755690,"connected_time":2497000000000,"state":"active","ping":79}]},{"server_id":309,"name":"Uncletopia | Frankfurt | 4 | All Maps","name_short":"frk-4","host":"frk-1.de.uncletopia.com","port":27045,"enabled":true,"region":"eu","cc":"de","latitude":50.110924,"longitude":8.682127,"reserved":0,"last_update":"0001-01-01T00:00:00Z","name_a2s":"Uncletopia | Frankfurt | 4 | All Maps","protocol":17,"map":"koth_highpass","folder":"tf","game":"Team Fortress","app_id":440,"player_count":0,"max_players":24,"Bots":0,"server_type":"Dedicated","server_os":"Linux","password":true,"vac":true,"version":"7757534","steam_id":85568392924504275,"keywords":["cp","nocrits","nodmgspread","uncletopia"],"game_id":440,"stv_port":27046,"stv_name":"Uncletopia | Frankfurt | 4 | All Maps | STV","players":null},{"server_id":310,"name":"Uncletopia | Frankfurt | 5 | All Maps","name_short":"frk-5","host":"frk-1.de.uncletopia.com","port":27055,"enabled":true,"region":"eu","cc":"de","latitude":50.110924,"longitude":8.682127,"reserved":0,"last_update":"0001-01-01T00:00:00Z","name_a2s":"Uncletopia | Frankfurt | 5 | All Maps","protocol":17,"map":"pl_barnblitz","folder":"tf","game":"Team Fortress","app_id":440,"player_count":24,"max_players":24,"Bots":0,"server_type":"Dedicated","server_os":"Linux","password":true,"vac":true,"version":"7757534","steam_id":85568392924504277,"keywords":["nocrits","nodmgspread","payload","uncletopia"],"game_id":440,"stv_port":27056,"stv_name":"Uncletopia | Frankfurt | 5 | All Maps | STV","players":[{"user_id":363,"name":"The Cook","steam_id":76561198369335263,"connected_time":2928000000000,"state":"active","ping":45},{"user_id":404,"name":"let me cook","steam_id":76561198010380786,"connected_time":307000000000,"state":"active","ping":57},{"user_id":376,"name":"Suu","steam_id":76561198284993171,"connected_time":2047000000000,"state":"active","ping":81},{"user_id":396,"name":"Ziltoid","steam_id":76561198020753675,"connected_time":1040000000000,"state":"active","ping":68},{"user_id":400,"name":"KHattu","steam_id":76561198079203537,"connected_time":499000000000,"state":"active","ping":75},{"user_id":405,"name":"Wir suchen dich!","steam_id":76561198307613521,"connected_time":301000000000,"state":"active","ping":52},{"user_id":382,"name":"nedilya","steam_id":76561198039692077,"connected_time":1977000000000,"state":"active","ping":52},{"user_id":364,"name":"OTG|Smoke","steam_id":76561198203280535,"connected_time":2924000000000,"state":"active","ping":72},{"user_id":406,"name":"kbbq","steam_id":76561198346638308,"connected_time":282000000000,"state":"active","ping":52},{"user_id":359,"name":"frbuz","steam_id":76561198327135462,"connected_time":2954000000000,"state":"active","ping":172},{"user_id":407,"name":"CarrotFlowers","steam_id":76561198154714698,"connected_time":273000000000,"state":"active","ping":58},{"user_id":360,"name":"siental","steam_id":76561198275457864,"connected_time":2949000000000,"state":"active","ping":58},{"user_id":383,"name":"sork","steam_id":76561198082446459,"connected_time":1977000000000,"state":"active","ping":69},{"user_id":350,"name":"bobek","steam_id":76561198092312720,"connected_time":3436000000000,"state":"active","ping":58},{"user_id":390,"name":"–Ω–æ—á—å –Ω–∞ –ª–∞–¥–æ–Ω–µ","steam_id":76561197994492154,"connected_time":1580000000000,"state":"active","ping":66},{"user_id":361,"name":"tom","steam_id":76561198202442602,"connected_time":2945000000000,"state":"active","ping":90},{"user_id":385,"name":"paguro","steam_id":76561198119560871,"connected_time":1892000000000,"state":"active","ping":91},{"user_id":408,"name":"20Doomguy02","steam_id":76561199019725313,"connected_time":242000000000,"state":"active","ping":98},{"user_id":392,"name":"Lexios","steam_id":76561198079780864,"connected_time":1429000000000,"state":"active","ping":60},{"user_id":409,"name":"sh","steam_id":76561198126603493,"connected_time":240000000000,"state":"active","ping":78},{"user_id":410,"name":"Chambersite","steam_id":76561198197022399,"connected_time":176000000000,"state":"active","ping":73},{"user_id":402,"name":"fried","steam_id":76561198307522022,"connected_time":345000000000,"state":"active","ping":59},{"user_id":411,"name":"Albon","steam_id":76561198060378881,"connected_time":151000000000,"state":"active","ping":62},{"user_id":412,"name":"Umbro","steam_id":76561198087930438,"connected_time":31000000000,"state":"spawning","ping":65}]},{"server_id":311,"name":"Uncletopia | Frankfurt | 6 | All Maps","name_short":"frk-6","host":"frk-1.de.uncletopia.com","port":27065,"enabled":true,"region":"eu","cc":"de","latitude":50.110924,"longitude":8.682127,"reserved":0,"last_update":"0001-01-01T00:00:00Z","name_a2s":"Uncletopia | Frankfurt | 6 | All Maps","protocol":17,"map":"cp_snakewater_final1","folder":"tf","game":"Team Fortress","app_id":440,"player_count":24,"max_players":24,"Bots":0,"server_type":"Dedicated","server_os":"Linux","password":true,"vac":true,"version":"7757534","steam_id":85568392924504278,"keywords":["cp","nocrits","nodmgspread","uncletopia"],"game_id":440,"stv_port":27066,"stv_name":"Uncletopia | Frankfurt | 6 | All Maps | STV","players":[{"user_id":427,"name":"BrosFistingBros","steam_id":76561198141259301,"connected_time":448000000000,"state":"active","ping":175},{"user_id":424,"name":"RNTenant","steam_id":76561198081863650,"connected_time":520000000000,"state":"active","ping":84},{"user_id":418,"name":"kaelan!","steam_id":76561198001425310,"connected_time":1101000000000,"state":"active","ping":75},{"user_id":439,"name":"Yangus","steam_id":76561198147796010,"connected_time":138000000000,"state":"active","ping":59},{"user_id":436,"name":"lvl. 50 honkler","steam_id":76561198061688660,"connected_time":176000000000,"state":"active","ping":106},{"user_id":437,"name":"donal rump","steam_id":76561198136239861,"connected_time":172000000000,"state":"active","ping":61},{"user_id":403,"name":"zabloing","steam_id":76561198339480413,"connected_time":1596000000000,"state":"active","ping":74},{"user_id":322,"name":"‚òÖpoyo‚òÖ","steam_id":76561198150078959,"connected_time":6660000000000,"state":"active","ping":106},{"user_id":417,"name":"Cathedra","steam_id":76561198430227030,"connected_time":1152000000000,"state":"active","ping":64},{"user_id":408,"name":"jerma985fan319","steam_id":76561198829927042,"connected_time":1449000000000,"state":"active","ping":161},{"user_id":438,"name":"Roe Jogan","steam_id":76561198871991529,"connected_time":169000000000,"state":"active","ping":76},{"user_id":440,"name":"Regan","steam_id":76561198100631086,"connected_time":35000000000,"state":"active","ping":74},{"user_id":429,"name":"$n√òw","steam_id":76561198238781028,"connected_time":429000000000,"state":"active","ping":108},{"user_id":425,"name":"FoOzTV","steam_id":76561197998636728,"connected_time":488000000000,"state":"active","ping":69},{"user_id":430,"name":"Silva_mlon","steam_id":76561199310242047,"connected_time":429000000000,"state":"active","ping":75},{"user_id":431,"name":"F8U-2","steam_id":76561198143181879,"connected_time":392000000000,"state":"active","ping":75},{"user_id":420,"name":"Pilaarius","steam_id":76561198120273212,"connected_time":1095000000000,"state":"active","ping":118},{"user_id":394,"name":"Aregularhuman","steam_id":76561198343319848,"connected_time":2489000000000,"state":"active","ping":45},{"user_id":432,"name":"Squishy","steam_id":76561198124618876,"connected_time":381000000000,"state":"active","ping":112},{"user_id":422,"name":"Mi Manchi","steam_id":76561198171573129,"connected_time":992000000000,"state":"active","ping":60},{"user_id":434,"name":"wepon | google.com","steam_id":76561198097789669,"connected_time":321000000000,"state":"active","ping":60},{"user_id":398,"name":"zazuza","steam_id":76561198049820905,"connected_time":2182000000000,"state":"active","ping":62},{"user_id":414,"name":"Plubu","steam_id":76561198082511092,"connected_time":1240000000000,"state":"active","ping":120},{"user_id":435,"name":"Sure","steam_id":76561198057226849,"connected_time":309000000000,"state":"active","ping":100}]},{"server_id":23,"name":"Uncletopia | Frankfurt | 7 | Stopwatch Beta","name_short":"frk-7","host":"frk-1.de.uncletopia.com","port":27075,"enabled":true,"region":"eu","cc":"de","latitude":50.110924,"longitude":8.682127,"reserved":0,"last_update":"0001-01-01T00:00:00Z","name_a2s":"Uncletopia | Frankfurt | 7 | Stopwatch Beta","protocol":17,"map":"pl_borneo","folder":"tf","game":"Team Fortress","app_id":440,"player_count":0,"max_players":24,"Bots":0,"server_type":"Dedicated","server_os":"Linux","password":true,"vac":true,"version":"7757534","steam_id":85568392924742827,"keywords":["nocrits","nodmgspread","payload","uncletopia"],"game_id":440,"stv_port":27076,"stv_name":"Uncletopia | Frankfurt | 7 | Stopwatch Beta | STV","players":null},{"server_id":24,"name":"Uncletopia | Frankfurt | 8 | Community","name_short":"frk-8","host":"frk-1.de.uncletopia.com","port":27085,"enabled":true,"region":"eu","cc":"de","latitude":50.110924,"longitude":8.682127,"reserved":0,"last_update":"0001-01-01T00:00:00Z","name_a2s":"Uncletopia | Frankfurt | 8 | Community","protocol":17,"map":"workshop/koth_synthetic_rc6a.ugc1549817316","folder":"tf","game":"Team Fortress","app_id":440,"player_count":0,"max_players":24,"Bots":0,"server_type":"Dedicated","server_os":"Linux","password":true,"vac":true,"version":"7757534","steam_id":85568392924742828,"keywords":["cp","nocrits","nodmgspread","uncletopia"],"game_id":440,"stv_port":27086,"stv_name":"Uncletopia | Frankfurt | 8 | Community | STV","players":null},{"server_id":202,"name":"Uncletopia | Hong Kong | 1 | All Maps","name_short":"hgk-1","host":"hgk-1.hk.uncletopia.com","port":27015,"enabled":true,"region":"asia","cc":"hk","latitude":22.302711,"longitude":114.177216,"reserved":0,"last_update":"0001-01-01T00:00:00Z","name_a2s":"Uncletopia | Hong Kong | 1 | All Maps","protocol":17,"map":"koth_lakeside_final","folder":"tf","game":"Team Fortress","app_id":440,"player_count":0,"max_players":24,"Bots":0,"server_type":"Dedicated","server_os":"Linux","password":true,"vac":true,"version":"7757534","steam_id":85568392924494504,"keywords":["cp","nocrits","nodmgspread","uncletopia"],"game_id":440,"stv_port":27016,"stv_name":"Uncletopia | Hong Kong | 1 | All Maps | STV","players":null},{"server_id":1,"name":"Uncletopia | Los Angeles | 1 | All Maps","name_short":"lax-1","host":"lax-1.us.uncletopia.com","port":27015,"enabled":true,"region":"us-west","cc":"us","latitude":33.94279,"longitude":-118.41004,"reserved":0,"last_update":"0001-01-01T00:00:00Z","name_a2s":"Uncletopia | Los Angeles | 1 | All Maps","protocol":17,"map":"cp_altitude","folder":"tf","game":"Team Fortress","app_id":440,"player_count":0,"max_players":24,"Bots":0,"server_type":"Dedicated","server_os":"Linux","password":true,"vac":true,"version":"7757534","steam_id":85568392924469991,"keywords":["cp","nocrits","nodmgspread","uncletopia"],"game_id":440,"stv_port":27016,"stv_name":"Uncletopia | Los Angeles | 1 | All Maps | STV","players":null},{"server_id":112,"name":"Uncletopia | Los Angeles | 2 | All Maps","name_short":"lax-2","host":"lax-1.us.uncletopia.com","port":27025,"enabled":true,"region":"us-west","cc":"us","latitude":33.94279,"longitude":-118.41004,"reserved":0,"last_update":"0001-01-01T00:00:00Z","name_a2s":"Uncletopia | Los Angeles | 2 | All Maps","protocol":17,"map":"koth_viaduct","folder":"tf","game":"Team Fortress","app_id":440,"player_count":0,"max_players":24,"Bots":0,"server_type":"Dedicated","server_os":"Linux","password":true,"vac":true,"version":"7757534","steam_id":85568392924469992,"keywords":["cp","nocrits","nodmgspread","uncletopia"],"game_id":440,"stv_port":27026,"stv_name":"Uncletopia | Los Angeles | 2 | All Maps | STV","players":null},{"server_id":324,"name":"Uncletopia | Los Angeles | 3 | All Maps","name_short":"lax-3","host":"lax-1.us.uncletopia.com","port":27035,"enabled":true,"region":"us-west","cc":"us","latitude":33.94279,"longitude":-118.41004,"reserved":0,"last_update":"0001-01-01T00:00:00Z","name_a2s":"Uncletopia | Los Angeles | 3 | All Maps","protocol":17,"map":"cp_altitude","folder":"tf","game":"Team Fortress","app_id":440,"player_count":0,"max_players":24,"Bots":0,"server_type":"Dedicated","server_os":"Linux","password":true,"vac":true,"version":"7757534","steam_id":85568392924510198,"keywords":["cp","nocrits","nodmgspread","uncletopia"],"game_id":440,"stv_port":27036,"stv_name":"Uncletopia | Los Angeles | 3 | All Maps | STV","players":null},{"server_id":25,"name":"Uncletopia | Los Angeles | 4 | Stopwatch Beta","name_short":"lax-4","host":"lax-1.us.uncletopia.com","port":27045,"enabled":true,"region":"us-west","cc":"us","latitude":33.94279,"longitude":-118.41004,"reserved":0,"last_update":"0001-01-01T00:00:00Z","name_a2s":"Uncletopia | Los Angeles | 4 | Stopwatch Beta","protocol":17,"map":"cp_dustbowl","folder":"tf","game":"Team Fortress","app_id":440,"player_count":0,"max_players":24,"Bots":0,"server_type":"Dedicated","server_os":"Linux","password":true,"vac":true,"version":"7757534","steam_id":85568392924510199,"keywords":["cp","nocrits","nodmgspread","uncletopia"],"game_id":440,"stv_port":27046,"stv_name":"Uncletopia | Los Angeles | 4 | Stopwatch Beta | STV","players":null},{"server_id":11,"name":"Uncletopia | London | 1 | All Maps","name_short":"lon-1","host":"lon-1.uk.uncletopia.com","port":27015,"enabled":true,"region":"eu","cc":"gb","latitude":51.509865,"longitude":-0.118092,"reserved":0,"last_update":"0001-01-01T00:00:00Z","name_a2s":"Uncletopia | London | 1 | All Maps","protocol":17,"map":"koth_viaduct","folder":"tf","game":"Team Fortress","app_id":440,"player_count":24,"max_players":24,"Bots":0,"server_type":"Dedicated","server_os":"Linux","password":true,"vac":true,"version":"7757534","steam_id":85568392924367362,"keywords":["cp","nocrits","nodmgspread","uncletopia"],"game_id":440,"stv_port":27016,"stv_name":"Uncletopia | London | 1 | All Maps | STV","players":[{"user_id":662,"name":"POLISH_cow/yourmom","steam_id":76561199453766677,"connected_time":628000000000,"state":"active","ping":135},{"user_id":642,"name":"nudjura","steam_id":76561198281986139,"connected_time":1958000000000,"state":"active","ping":37},{"user_id":644,"name":"Camo Leaf","steam_id":76561197999456575,"connected_time":1950000000000,"state":"active","ping":47},{"user_id":660,"name":"Oki (Bon)","steam_id":76561199047748534,"connected_time":711000000000,"state":"active","ping":61},{"user_id":651,"name":"T K","steam_id":76561198134256917,"connected_time":1163000000000,"state":"active","ping":71},{"user_id":646,"name":"Noboru Belskaia","steam_id":76561198019426486,"connected_time":1896000000000,"state":"active","ping":62},{"user_id":652,"name":"daddybigboi","steam_id":76561198279103833,"connected_time":1153000000000,"state":"active","ping":78},{"user_id":663,"name":"Celtins","steam_id":76561198839837475,"connected_time":499000000000,"state":"active","ping":48},{"user_id":653,"name":"E","steam_id":76561198166340115,"connected_time":917000000000,"state":"active","ping":61},{"user_id":623,"name":"dec","steam_id":76561198009660168,"connected_time":3327000000000,"state":"active","ping":54},{"user_id":595,"name":"Flash","steam_id":76561198067379855,"connected_time":5407000000000,"state":"active","ping":47},{"user_id":650,"name":"Miles","steam_id":76561198084891833,"connected_time":1300000000000,"state":"active","ping":50},{"user_id":664,"name":"Emily","steam_id":76561198393596975,"connected_time":285000000000,"state":"active","ping":47},{"user_id":647,"name":"Dee","steam_id":76561198105520278,"connected_time":1811000000000,"state":"active","ping":68},{"user_id":658,"name":"supermariogrows","steam_id":76561198200238915,"connected_time":773000000000,"state":"active","ping":43},{"user_id":654,"name":"Ork","steam_id":76561197968575924,"connected_time":901000000000,"state":"active","ping":55},{"user_id":639,"name":"ArikMor","steam_id":76561199124472513,"connected_time":2165000000000,"state":"active","ping":132},{"user_id":656,"name":"Big Balls Bill","steam_id":76561198045998627,"connected_time":824000000000,"state":"active","ping":46},{"user_id":657,"name":"Sagger","steam_id":76561198065915748,"connected_time":789000000000,"state":"active","ping":55},{"user_id":649,"name":"git bash -er","steam_id":76561198072586494,"connected_time":1354000000000,"state":"active","ping":40},{"user_id":635,"name":"arcSolver","steam_id":76561198212013944,"connected_time":2537000000000,"state":"active","ping":49},{"user_id":661,"name":"I.C. Wiener","steam_id":76561197999912254,"connected_time":700000000000,"state":"active","ping":100},{"user_id":665,"name":"Ansari","steam_id":76561198074982971,"connected_time":206000000000,"state":"active","ping":69},{"user_id":559,"name":"Chad Slav","steam_id":76561198160103841,"connected_time":8200000000000,"state":"active","ping":74}]},{"server_id":114,"name":"Uncletopia | London | 2 | All Maps","name_short":"lon-2","host":"lon-1.uk.uncletopia.com","port":27025,"enabled":true,"region":"eu","cc":"gb","latitude":51.509865,"longitude":-0.118092,"reserved":0,"last_update":"0001-01-01T00:00:00Z","name_a2s":"Uncletopia | London | 2 | All Maps","protocol":17,"map":"koth_lakeside_final","folder":"tf","game":"Team Fortress","app_id":440,"player_count":0,"max_players":24,"Bots":0,"server_type":"Dedicated","server_os":"Linux","password":true,"vac":true,"version":"7757534","steam_id":85568392924470941,"keywords":["cp","nocrits","nodmgspread","uncletopia"],"game_id":440,"stv_port":27026,"stv_name":"Uncletopia | London | 2 | All Maps | STV","players":null},{"server_id":320,"name":"Uncletopia | London | 3 | All Maps","name_short":"lon-3","host":"lon-1.uk.uncletopia.com","port":27035,"enabled":true,"region":"eu","cc":"gb","latitude":51.509865,"longitude":-0.118092,"reserved":0,"last_update":"0001-01-01T00:00:00Z","name_a2s":"Uncletopia | London | 3 | All Maps","protocol":17,"map":"pl_pier","folder":"tf","game":"Team Fortress","app_id":440,"player_count":24,"max_players":24,"Bots":0,"server_type":"Dedicated","server_os":"Linux","password":true,"vac":true,"version":"7757534","steam_id":85568392924510192,"keywords":["nocrits","nodmgspread","payload","uncletopia"],"game_id":440,"stv_port":27036,"stv_name":"Uncletopia | London | 3 | All Maps | STV","players":[{"user_id":348,"name":"bum","steam_id":76561198060105180,"connected_time":2011000000000,"state":"active","ping":60},{"user_id":379,"name":"quake 2 hater","steam_id":76561198101451654,"connected_time":737000000000,"state":"active","ping":46},{"user_id":376,"name":"Raingnome @SaveTF2","steam_id":76561198007394958,"connected_time":907000000000,"state":"active","ping":55},{"user_id":391,"name":"SuperBob103","steam_id":76561199175360012,"connected_time":522000000000,"state":"active","ping":51},{"user_id":340,"name":"Datenegassie","steam_id":76561198089417032,"connected_time":3135000000000,"state":"active","ping":57},{"user_id":404,"name":"Tofu'","steam_id":76561197984621343,"connected_time":18000000000,"state":"active","ping":46},{"user_id":398,"name":"EmJKay","steam_id":76561198884051272,"connected_time":226000000000,"state":"active","ping":146},{"user_id":403,"name":"Doktor Drip","steam_id":76561198843329045,"connected_time":25000000000,"state":"active","ping":123},{"user_id":254,"name":"dotdotdot","steam_id":76561198057628751,"connected_time":7311000000000,"state":"active","ping":61},{"user_id":366,"name":"meatsoupcube","steam_id":76561198276802249,"connected_time":1435000000000,"state":"active","ping":100},{"user_id":393,"name":"Zed","steam_id":76561198188643754,"connected_time":280000000000,"state":"active","ping":85},{"user_id":350,"name":"102ping","steam_id":76561199000963772,"connected_time":1996000000000,"state":"active","ping":73},{"user_id":362,"name":"Bat in a thousand","steam_id":76561198320506848,"connected_time":1682000000000,"state":"active","ping":40},{"user_id":352,"name":"R","steam_id":76561199379233899,"connected_time":1943000000000,"state":"active","ping":104},{"user_id":395,"name":"Femboy Gaming","steam_id":76561199230209215,"connected_time":273000000000,"state":"active","ping":61},{"user_id":371,"name":"2BCD","steam_id":76561198178254946,"connected_time":1011000000000,"state":"active","ping":64},{"user_id":387,"name":"torn","steam_id":76561198223003236,"connected_time":619000000000,"state":"active","ping":32},{"user_id":388,"name":"Dunxle","steam_id":76561198236630276,"connected_time":569000000000,"state":"active","ping":37},{"user_id":374,"name":"Raulca25","steam_id":76561199068256964,"connected_time":942000000000,"state":"active","ping":78},{"user_id":400,"name":"Dangerousbros","steam_id":76561198088952519,"connected_time":126000000000,"state":"active","ping":34},{"user_id":375,"name":"Locke","steam_id":76561198339408300,"connected_time":929000000000,"state":"active","ping":57},{"user_id":402,"name":"r3licc_","steam_id":76561199474525648,"connected_time":67000000000,"state":"active","ping":79},{"user_id":347,"name":"minespweper","steam_id":76561199096919345,"connected_time":2524000000000,"state":"active","ping":90},{"user_id":385,"name":"waffle toaster","steam_id":76561198799089628,"connected_time":656000000000,"state":"active","ping":44}]},{"server_id":321,"name":"Uncletopia | London | 4 | All Maps","name_short":"lon-4","host":"lon-1.uk.uncletopia.com","port":27045,"enabled":true,"region":"eu","cc":"gb","latitude":51.509865,"longitude":-0.118092,"reserved":0,"last_update":"0001-01-01T00:00:00Z","name_a2s":"Uncletopia | London | 4 | All Maps","protocol":17,"map":"pl_pier","folder":"tf","game":"Team Fortress","app_id":440,"player_count":5,"max_players":24,"Bots":0,"server_type":"Dedicated","server_os":"Linux","password":true,"vac":true,"version":"7757534","steam_id":85568392924510193,"keywords":["nocrits","nodmgspread","payload","uncletopia"],"game_id":440,"stv_port":27046,"stv_name":"Uncletopia | London | 4 | All Maps | STV","players":[{"user_id":35,"name":"Psychicpie","steam_id":76561198126065206,"connected_time":3267000000000,"state":"active","ping":45},{"user_id":51,"name":"Gecko","steam_id":76561198041715340,"connected_time":972000000000,"state":"active","ping":59},{"user_id":52,"name":"Planck's Constant ƒß=10^(-34) J","steam_id":76561198053940216,"connected_time":935000000000,"state":"active","ping":56},{"user_id":60,"name":"Just gaming","steam_id":76561199161480806,"connected_time":434000000000,"state":"active","ping":70},{"user_id":56,"name":"pablo","steam_id":76561199190247198,"connected_time":707000000000,"state":"active","ping":192}]},{"server_id":21,"name":"Uncletopia | London | 5 | All Maps","name_short":"lon-5","host":"lon-1.uk.uncletopia.com","port":27055,"enabled":true,"region":"eu","cc":"gb","latitude":51.509865,"longitude":-0.118092,"reserved":0,"last_update":"0001-01-01T00:00:00Z","name_a2s":"Uncletopia | London | 5 | All Maps","protocol":17,"map":"pl_swiftwater_final1","folder":"tf","game":"Team Fortress","app_id":440,"player_count":22,"max_players":24,"Bots":0,"server_type":"Dedicated","server_os":"Linux","password":true,"vac":true,"version":"7757534","steam_id":85568392924742829,"keywords":["nocrits","nodmgspread","payload","uncletopia"],"game_id":440,"stv_port":27056,"stv_name":"Uncletopia | London | 5 | All Maps | STV","players":[{"user_id":757,"name":"The Power","steam_id":76561198060566884,"connected_time":1000000000,"state":"spawning","ping":24},{"user_id":731,"name":"Baron","steam_id":76561198021901783,"connected_time":1666000000000,"state":"active","ping":55},{"user_id":740,"name":"Gnarville","steam_id":76561198006373329,"connected_time":1144000000000,"state":"active","ping":47},{"user_id":743,"name":"Cerabond","steam_id":76561199230915333,"connected_time":804000000000,"state":"active","ping":132},{"user_id":709,"name":"D_Ink","steam_id":76561198267716662,"connected_time":2656000000000,"state":"active","ping":40},{"user_id":703,"name":"Julez","steam_id":76561198045505082,"connected_time":3054000000000,"state":"active","ping":88},{"user_id":723,"name":"Joxaren","steam_id":76561198049407893,"connected_time":2237000000000,"state":"active","ping":62},{"user_id":755,"name":"fshfkr","steam_id":76561198095979282,"connected_time":184000000000,"state":"active","ping":39},{"user_id":699,"name":"QuorglepleegJR","steam_id":76561198984658438,"connected_time":3153000000000,"state":"active","ping":43},{"user_id":580,"name":"dairy","steam_id":76561198117033273,"connected_time":8807000000000,"state":"active","ping":49},{"user_id":756,"name":"A Pigeon","steam_id":76561198114090555,"connected_time":151000000000,"state":"active","ping":80},{"user_id":657,"name":"KillerQueen (he/they/she)","steam_id":76561199019399725,"connected_time":5012000000000,"state":"active","ping":49},{"user_id":745,"name":"death is coming, live fast","steam_id":76561198284086634,"connected_time":648000000000,"state":"active","ping":57},{"user_id":732,"name":"i am bread","steam_id":76561199180277321,"connected_time":1637000000000,"state":"active","ping":56},{"user_id":713,"name":"plaier123457","steam_id":76561198993969194,"connected_time":2518000000000,"state":"active","ping":87},{"user_id":702,"name":"quickfast","steam_id":76561199438900919,"connected_time":3084000000000,"state":"active","ping":43},{"user_id":724,"name":"Peep","steam_id":76561198132508552,"connected_time":2183000000000,"state":"active","ping":66},{"user_id":730,"name":"Merca #savetf2","steam_id":76561198088782472,"connected_time":1862000000000,"state":"active","ping":60},{"user_id":751,"name":"Caesium_R4","steam_id":76561198432410602,"connected_time":544000000000,"state":"active","ping":38},{"user_id":752,"name":"Nugget","steam_id":76561198338916407,"connected_time":522000000000,"state":"active","ping":75},{"user_id":741,"name":"üóªüé¥Hadrian Maloneüé¥üóª","steam_id":76561198036151103,"connected_time":1136000000000,"state":"active","ping":55},{"user_id":679,"name":"Davey","steam_id":76561198256879107,"connected_time":4554000000000,"state":"active","ping":73}]},{"server_id":22,"name":"Uncletopia | London | 6 | All Maps","name_short":"lon-6","host":"lon-1.uk.uncletopia.com","port":27065,"enabled":true,"region":"eu","cc":"gb","latitude":51.509865,"longitude":-0.118092,"reserved":0,"last_update":"0001-01-01T00:00:00Z","name_a2s":"Uncletopia | London | 6 | All Maps","protocol":17,"map":"koth_highpass","folder":"tf","game":"Team Fortress","app_id":440,"player_count":0,"max_players":24,"Bots":0,"server_type":"Dedicated","server_os":"Linux","password":true,"vac":true,"version":"7757534","steam_id":85568392924742830,"keywords":["cp","nocrits","nodmgspread","uncletopia"],"game_id":440,"stv_port":27066,"stv_name":"Uncletopia | London | 6 | All Maps | STV","players":null},{"server_id":40,"name":"Uncletopia | London | 7 | No Payload","name_short":"lon-7","host":"lon-1.uk.uncletopia.com","port":27075,"enabled":true,"region":"eu","cc":"gb","latitude":51.509865,"longitude":-0.118092,"reserved":0,"last_update":"0001-01-01T00:00:00Z","name_a2s":"Uncletopia | London | 7 | No Payload","protocol":17,"map":"koth_highpass","folder":"tf","game":"Team Fortress","app_id":440,"player_count":0,"max_players":24,"Bots":0,"server_type":"Dedicated","server_os":"Linux","password":true,"vac":true,"version":"7757534","steam_id":85568392924964314,"keywords":["cp","nocrits","nodmgspread","uncletopia"],"game_id":440,"stv_port":27076,"stv_name":"Uncletopia | London | 7 | No Payload | STV","players":null},{"server_id":41,"name":"Uncletopia | London | 8 | Community","name_short":"lon-8","host":"lon-1.uk.uncletopia.com","port":27085,"enabled":true,"region":"eu","cc":"gb","latitude":51.509865,"longitude":-0.118092,"reserved":0,"last_update":"0001-01-01T00:00:00Z","name_a2s":"Uncletopia | London | 8 | Community","protocol":17,"map":"workshop/pl_eruption_b9a.ugc2807898013","folder":"tf","game":"Team Fortress","app_id":440,"player_count":20,"max_players":24,"Bots":0,"server_type":"Dedicated","server_os":"Linux","password":true,"vac":true,"version":"7757534","steam_id":85568392924964315,"keywords":["nocrits","nodmgspread","payload","uncletopia"],"game_id":440,"stv_port":27086,"stv_name":"Uncletopia | London | 8 | Community | STV","players":[{"user_id":469,"name":"plepek","steam_id":76561198042959598,"connected_time":6832000000000,"state":"active","ping":82},{"user_id":551,"name":"Dark ^^","steam_id":76561198036241064,"connected_time":45000000000,"state":"active","ping":75},{"user_id":531,"name":"FNF","steam_id":76561199151422826,"connected_time":1935000000000,"state":"active","ping":105},{"user_id":512,"name":"Iceeagle","steam_id":76561198056328858,"connected_time":3569000000000,"state":"active","ping":66},{"user_id":544,"name":"hud_saytext_time 0","steam_id":76561198010327228,"connected_time":1328000000000,"state":"active","ping":65},{"user_id":444,"name":"Uncle Owen","steam_id":76561198157999291,"connected_time":8190000000000,"state":"active","ping":88},{"user_id":514,"name":"rabbitface26","steam_id":76561198327540113,"connected_time":3535000000000,"state":"active","ping":47},{"user_id":494,"name":"Dawu","steam_id":76561198060418376,"connected_time":4645000000000,"state":"active","ping":87},{"user_id":532,"name":"Topme","steam_id":76561198091734693,"connected_time":1785000000000,"state":"active","ping":75},{"user_id":534,"name":"AYE","steam_id":76561198181368101,"connected_time":1755000000000,"state":"active","ping":57},{"user_id":536,"name":"Laxslow","steam_id":76561198065361846,"connected_time":1691000000000,"state":"active","ping":65},{"user_id":542,"name":"Miku","steam_id":76561198041717890,"connected_time":1523000000000,"state":"active","ping":89},{"user_id":470,"name":"mejt","steam_id":76561198106666604,"connected_time":6422000000000,"state":"active","ping":76},{"user_id":539,"name":"Simoh The Swoob","steam_id":76561198058078322,"connected_time":1615000000000,"state":"active","ping":82},{"user_id":523,"name":"t.tv/FamilyGuyFunnyMoments277","steam_id":76561198416047580,"connected_time":2892000000000,"state":"active","ping":145},{"user_id":522,"name":"Bo","steam_id":76561198023975550,"connected_time":2945000000000,"state":"active","ping":59},{"user_id":546,"name":"unknown","steam_id":76561198066452389,"connected_time":1306000000000,"state":"active","ping":70},{"user_id":529,"name":"Ushlus","steam_id":76561199225270732,"connected_time":2166000000000,"state":"active","ping":116},{"user_id":547,"name":"ham","steam_id":76561198849243189,"connected_time":1193000000000,"state":"active","ping":255},{"user_id":549,"name":"√•tem","steam_id":76561198148681931,"connected_time":911000000000,"state":"active","ping":76}]},{"server_id":300,"name":"Uncletopia | Montr√©al | 1 | All Maps","name_short":"mtl-1","host":"mtl-1.ca.uncletopia.com","port":27015,"enabled":true,"region":"us-east","cc":"ca","latitude":45.50889,"longitude":-73.56167,"reserved":0,"last_update":"0001-01-01T00:00:00Z","name_a2s":"Uncletopia | Montr√©al | 1 | All Maps","protocol":17,"map":"cp_mountainlab","folder":"tf","game":"Team Fortress","app_id":440,"player_count":0,"max_players":24,"Bots":0,"server_type":"Dedicated","server_os":"Linux","password":true,"vac":true,"version":"7757534","steam_id":85568392924500087,"keywords":["cp","nocrits","nodmgspread","uncletopia"],"game_id":440,"stv_port":27016,"stv_name":"Uncletopia | Montr√©al | 1 | All Maps | STV","players":null},{"server_id":301,"name":"Uncletopia | Montr√©al | 2 | All Maps","name_short":"mtl-2","host":"mtl-1.ca.uncletopia.com","port":27025,"enabled":true,"region":"us-east","cc":"ca","latitude":45.50889,"longitude":-73.56167,"reserved":0,"last_update":"0001-01-01T00:00:00Z","name_a2s":"Uncletopia | Montr√©al | 2 | All Maps","protocol":17,"map":"cp_sunshine","folder":"tf","game":"Team Fortress","app_id":440,"player_count":0,"max_players":24,"Bots":0,"server_type":"Dedicated","server_os":"Linux","password":true,"vac":true,"version":"7757534","steam_id":85568392924500088,"keywords":["cp","nocrits","nodmgspread","uncletopia"],"game_id":440,"stv_port":27026,"stv_name":"Uncletopia | Montr√©al | 2 | All Maps | STV","players":null},{"server_id":302,"name":"Uncletopia | Montr√©al | 3 | All Maps","name_short":"mtl-3","host":"mtl-1.ca.uncletopia.com","port":27035,"enabled":true,"region":"us-east","cc":"ca","latitude":45.50889,"longitude":-73.56167,"reserved":0,"last_update":"0001-01-01T00:00:00Z","name_a2s":"Uncletopia | Montr√©al | 3 | All Maps","protocol":17,"map":"pl_frontier_final","folder":"tf","game":"Team Fortress","app_id":440,"player_count":0,"max_players":24,"Bots":0,"server_type":"Dedicated","server_os":"Linux","password":true,"vac":true,"version":"7757534","steam_id":85568392924500089,"keywords":["nocrits","nodmgspread","payload","uncletopia"],"game_id":440,"stv_port":27036,"stv_name":"Uncletopia | Montr√©al | 3 | All Maps | STV","players":null},{"server_id":303,"name":"Uncletopia | Montr√©al | 4 | No Payload","name_short":"mtl-4","host":"mtl-1.ca.uncletopia.com","port":27045,"enabled":true,"region":"us-east","cc":"ca","latitude":45.50889,"longitude":-73.56167,"reserved":0,"last_update":"0001-01-01T00:00:00Z","name_a2s":"Uncletopia | Montr√©al | 4 | No Payload","protocol":17,"map":"cp_coldfront","folder":"tf","game":"Team Fortress","app_id":440,"player_count":0,"max_players":24,"Bots":0,"server_type":"Dedicated","server_os":"Linux","password":true,"vac":true,"version":"7757534","steam_id":85568392924500090,"keywords":["cp","nocrits","nodmgspread","uncletopia"],"game_id":440,"stv_port":27046,"stv_name":"Uncletopia | Montr√©al | 4 | No Payload | STV","players":null},{"server_id":13,"name":"Uncletopia | New York City | 1 | All Maps","name_short":"nyc-1","host":"nyc-1.us.uncletopia.com","port":27015,"enabled":true,"region":"us-east","cc":"us","latitude":40.73061,"longitude":-73.93524,"reserved":0,"last_update":"0001-01-01T00:00:00Z","name_a2s":"Uncletopia | New York City | 1 | All Maps","protocol":17,"map":"pl_thundermountain","folder":"tf","game":"Team Fortress","app_id":440,"player_count":20,"max_players":24,"Bots":0,"server_type":"Dedicated","server_os":"Linux","password":true,"vac":true,"version":"7757534","steam_id":85568392924469993,"keywords":["nocrits","nodmgspread","payload","uncletopia"],"game_id":440,"stv_port":27016,"stv_name":"Uncletopia | New York City | 1 | All Maps | STV","players":[{"user_id":339,"name":"Bronze Age GRINDSET","steam_id":76561198859118263,"connected_time":1669000000000,"state":"active","ping":68},{"user_id":335,"name":"Bin","steam_id":76561198042557767,"connected_time":1913000000000,"state":"active","ping":57},{"user_id":343,"name":"Uncle Majic the Hip Hop Magicia","steam_id":76561198107924303,"connected_time":1075000000000,"state":"active","ping":34},{"user_id":348,"name":"spimtmot733","steam_id":76561199029189825,"connected_time":3000000000,"state":"spawning","ping":53},{"user_id":340,"name":"Wengatang","steam_id":76561198021747059,"connected_time":1568000000000,"state":"active","ping":58},{"user_id":324,"name":"Lambda Gamer","steam_id":76561198392280580,"connected_time":2217000000000,"state":"active","ping":79},{"user_id":328,"name":"Gandalf Gaming","steam_id":76561198368151490,"connected_time":2084000000000,"state":"active","ping":45},{"user_id":336,"name":"Silver Cable","steam_id":76561198041366833,"connected_time":1905000000000,"state":"active","ping":41},{"user_id":337,"name":"jdkjdsjsdjdfsfsdfffg","steam_id":76561198338950292,"connected_time":1845000000000,"state":"active","ping":58},{"user_id":347,"name":"Pockets","steam_id":76561198001742296,"connected_time":61000000000,"state":"active","ping":81},{"user_id":346,"name":"IKON || SCRINGUS","steam_id":76561198083975056,"connected_time":77000000000,"state":"active","ping":92},{"user_id":277,"name":"Kasane","steam_id":76561198209006780,"connected_time":6145000000000,"state":"active","ping":89},{"user_id":283,"name":"Raptorria","steam_id":76561198105613110,"connected_time":5834000000000,"state":"active","ping":64},{"user_id":342,"name":"Saint","steam_id":76561199122494395,"connected_time":1227000000000,"state":"active","ping":64},{"user_id":323,"name":"Brass","steam_id":76561198275581643,"connected_time":2475000000000,"state":"active","ping":119},{"user_id":297,"name":"Jack","steam_id":76561198079575891,"connected_time":4998000000000,"state":"active","ping":120},{"user_id":331,"name":"--_Cook_--","steam_id":76561198080855748,"connected_time":2056000000000,"state":"active","ping":48},{"user_id":322,"name":"Fudgely","steam_id":76561198039425862,"connected_time":2624000000000,"state":"active","ping":63},{"user_id":344,"name":"Daddys Home","steam_id":76561198034702011,"connected_time":1070000000000,"state":"active","ping":63},{"user_id":345,"name":"Broadsword","steam_id":76561198011160411,"connected_time":89000000000,"state":"active","ping":85}]},{"server_id":14,"name":"Uncletopia | New York City | 2 | All Maps","name_short":"nyc-2","host":"nyc-1.us.uncletopia.com","port":27025,"enabled":true,"region":"us-east","cc":"us","latitude":40.73061,"longitude":-73.93524,"reserved":0,"last_update":"0001-01-01T00:00:00Z","name_a2s":"Uncletopia | New York City | 2 | All Maps","protocol":17,"map":"pl_badwater","folder":"tf","game":"Team Fortress","app_id":440,"player_count":2,"max_players":24,"Bots":0,"server_type":"Dedicated","server_os":"Linux","password":true,"vac":true,"version":"7757534","steam_id":85568392924469994,"keywords":["nocrits","nodmgspread","payload","uncletopia"],"game_id":440,"stv_port":27026,"stv_name":"Uncletopia | New York City | 2 | All Maps | STV","players":[{"user_id":17,"name":"Nice21","steam_id":76561199427548141,"connected_time":1196000000000,"state":"active","ping":68},{"user_id":18,"name":"yer_nerd","steam_id":76561199435454093,"connected_time":1105000000000,"state":"active","ping":63}]},{"server_id":15,"name":"Uncletopia | New York City | 3 | Stopwatch Beta","name_short":"nyc-3","host":"nyc-1.us.uncletopia.com","port":27035,"enabled":true,"region":"us-east","cc":"us","latitude":40.73061,"longitude":-73.93524,"reserved":0,"last_update":"0001-01-01T00:00:00Z","name_a2s":"Uncletopia | New York City | 3 | Stopwatch Beta","protocol":17,"map":"koth_lakeside_final","folder":"tf","game":"Team Fortress","app_id":440,"player_count":0,"max_players":24,"Bots":0,"server_type":"Dedicated","server_os":"Linux","password":true,"vac":true,"version":"7757534","steam_id":85568392924742820,"keywords":["cp","nocrits","nodmgspread","uncletopia"],"game_id":440,"stv_port":27036,"stv_name":"Uncletopia | New York City | 3 | Stopwatch Beta | STV","players":null},{"server_id":16,"name":"Uncletopia | New York City | 4 | Community","name_short":"nyc-4","host":"nyc-1.us.uncletopia.com","port":27045,"enabled":true,"region":"us-east","cc":"us","latitude":40.73061,"longitude":-73.93524,"reserved":0,"last_update":"0001-01-01T00:00:00Z","name_a2s":"Uncletopia | New York City | 4 | Community","protocol":17,"map":"workshop/cp_mannbase_rc2a.ugc1900737467","folder":"tf","game":"Team Fortress","app_id":440,"player_count":0,"max_players":24,"Bots":0,"server_type":"Dedicated","server_os":"Linux","password":true,"vac":true,"version":"7757534","steam_id":85568392924742821,"keywords":["cp","nocrits","nodmgspread","uncletopia"],"game_id":440,"stv_port":27046,"stv_name":"Uncletopia | New York City | 4 | Community | STV","players":null},{"server_id":142,"name":"Uncletopia | S√£o Paulo | 1 | All Maps","name_short":"sao-1","host":"sao-1.br.uncletopia.com","port":27015,"enabled":true,"region":"sa","cc":"br","latitude":-23.533773,"longitude":-46.62529,"reserved":0,"last_update":"0001-01-01T00:00:00Z","name_a2s":"Uncletopia | S√£o Paulo | 1 | All Maps","protocol":17,"map":"pl_snowycoast","folder":"tf","game":"Team Fortress","app_id":440,"player_count":3,"max_players":24,"Bots":0,"server_type":"Dedicated","server_os":"Linux","password":true,"vac":true,"version":"7757534","steam_id":85568392924469996,"keywords":["nocrits","nodmgspread","payload","uncletopia"],"game_id":440,"stv_port":27016,"stv_name":"Uncletopia | S√£o Paulo | 1 | All Maps | STV","players":[{"user_id":14,"name":"https://youtu.be/RvVdFXOFcjw","steam_id":76561198844048672,"connected_time":452000000000,"state":"active","ping":32},{"user_id":15,"name":"ORSI","steam_id":76561199445038412,"connected_time":222000000000,"state":"active","ping":54},{"user_id":16,"name":"seu cu 2000","steam_id":76561199212649021,"connected_time":196000000000,"state":"active","ping":53}]},{"server_id":143,"name":"Uncletopia | S√£o Paulo | 2 | All Maps","name_short":"sao-2","host":"sao-2.br.uncletopia.com","port":27015,"enabled":true,"region":"sa","cc":"br","latitude":-23.533773,"longitude":-46.62529,"reserved":0,"last_update":"0001-01-01T00:00:00Z","name_a2s":"Uncletopia | S√£o Paulo | 2 | All Maps","protocol":17,"map":"koth_cascade","folder":"tf","game":"Team Fortress","app_id":440,"player_count":0,"max_players":24,"Bots":0,"server_type":"Dedicated","server_os":"Linux","password":true,"vac":true,"version":"7757534","steam_id":85568392924485349,"keywords":["cp","nocrits","nodmgspread","uncletopia"],"game_id":440,"stv_port":27016,"stv_name":"Uncletopia | S√£o Paulo | 2 | All Maps | STV","players":null},{"server_id":7,"name":"Uncletopia | Seattle | 1 | All Maps","name_short":"sea-1","host":"sea-1.us.uncletopia.com","port":27015,"enabled":true,"region":"us-west","cc":"us","latitude":47.608013,"longitude":-122.33517,"reserved":0,"last_update":"0001-01-01T00:00:00Z","name_a2s":"Uncletopia | Seattle | 1 | All Maps","protocol":17,"map":"pl_snowycoast","folder":"tf","game":"Team Fortress","app_id":440,"player_count":24,"max_players":24,"Bots":0,"server_type":"Dedicated","server_os":"Linux","password":true,"vac":true,"version":"7757534","steam_id":85568392924469997,"keywords":["nocrits","nodmgspread","payload","uncletopia"],"game_id":440,"stv_port":27016,"stv_name":"Uncletopia | Seattle | 1 | All Maps | STV","players":[{"user_id":407,"name":"Sir Galahad","steam_id":76561198195999859,"connected_time":3051000000000,"state":"active","ping":55},{"user_id":441,"name":"jas_the_man","steam_id":76561198147991471,"connected_time":410000000000,"state":"active","ping":84},{"user_id":418,"name":"BreadQuest","steam_id":76561198082425960,"connected_time":2374000000000,"state":"active","ping":44},{"user_id":405,"name":"Admiral Crumbs","steam_id":76561198108791583,"connected_time":3489000000000,"state":"active","ping":47},{"user_id":426,"name":"george piston","steam_id":76561198120396039,"connected_time":1847000000000,"state":"active","ping":72},{"user_id":433,"name":"ur getting frog","steam_id":76561198880773196,"connected_time":617000000000,"state":"active","ping":62},{"user_id":422,"name":"Quon Grene for Vice Prez","steam_id":76561198127545817,"connected_time":1976000000000,"state":"active","ping":75},{"user_id":431,"name":"quality hair care products","steam_id":76561198046073848,"connected_time":650000000000,"state":"active","ping":53},{"user_id":434,"name":"Kaluka","steam_id":76561198036861445,"connected_time":554000000000,"state":"active","ping":125},{"user_id":421,"name":"Fh","steam_id":76561198000903511,"connected_time":2073000000000,"state":"active","ping":57},{"user_id":401,"name":"CaptainPikachu","steam_id":76561198075667401,"connected_time":4084000000000,"state":"active","ping":71},{"user_id":425,"name":"airbus a320","steam_id":76561199062294158,"connected_time":1878000000000,"state":"active","ping":108},{"user_id":435,"name":"Eosson","steam_id":76561198108642113,"connected_time":554000000000,"state":"active","ping":64},{"user_id":437,"name":"lol","steam_id":76561198026491738,"connected_time":492000000000,"state":"active","ping":81},{"user_id":442,"name":"Hook, Line, and Sphincter","steam_id":76561198078207743,"connected_time":24000000000,"state":"spawning","ping":356},{"user_id":438,"name":"Backside540","steam_id":76561197960602545,"connected_time":442000000000,"state":"active","ping":100},{"user_id":383,"name":"The Pepsi¬Æ Superbowl¬Æ!","steam_id":76561198080828981,"connected_time":5169000000000,"state":"active","ping":77},{"user_id":439,"name":"engineq","steam_id":76561198048342303,"connected_time":418000000000,"state":"active","ping":99},{"user_id":413,"name":"Lunatic Reisen Udongein Inaba","steam_id":76561198141955085,"connected_time":2435000000000,"state":"active","ping":46},{"user_id":415,"name":"SwoopShoot","steam_id":76561199024079388,"connected_time":2412000000000,"state":"active","ping":48},{"user_id":428,"name":"Frogzilla","steam_id":76561198077657538,"connected_time":1318000000000,"state":"active","ping":73},{"user_id":440,"name":"dog","steam_id":76561198090737207,"connected_time":415000000000,"state":"active","ping":45},{"user_id":430,"name":"Mico (ENA Enthusiast)","steam_id":76561198125462953,"connected_time":660000000000,"state":"active","ping":50},{"user_id":400,"name":"Anthid","steam_id":76561198074493797,"connected_time":4250000000000,"state":"active","ping":62}]},{"server_id":119,"name":"Uncletopia | Seattle | 2 | All Maps","name_short":"sea-2","host":"sea-1.us.uncletopia.com","port":27025,"enabled":true,"region":"us-west","cc":"us","latitude":47.608013,"longitude":-122.33517,"reserved":0,"last_update":"0001-01-01T00:00:00Z","name_a2s":"Uncletopia | Seattle | 2 | All Maps","protocol":17,"map":"cp_snakewater_final1","folder":"tf","game":"Team Fortress","app_id":440,"player_count":24,"max_players":24,"Bots":0,"server_type":"Dedicated","server_os":"Linux","password":true,"vac":true,"version":"7757534","steam_id":85568392924469998,"keywords":["cp","nocrits","nodmgspread","uncletopia"],"game_id":440,"stv_port":27026,"stv_name":"Uncletopia | Seattle | 2 | All Maps | STV","players":[{"user_id":123,"name":"hard dancing","steam_id":76561198868600487,"connected_time":1336000000000,"state":"active","ping":157},{"user_id":112,"name":"Angela :3","steam_id":76561198991101353,"connected_time":2039000000000,"state":"active","ping":44},{"user_id":58,"name":"creepycrawler","steam_id":76561198352016831,"connected_time":5841000000000,"state":"active","ping":111},{"user_id":73,"name":"AmiableNebula","steam_id":76561198094306627,"connected_time":4947000000000,"state":"active","ping":76},{"user_id":95,"name":"Rusty","steam_id":76561198055585129,"connected_time":3045000000000,"state":"active","ping":47},{"user_id":122,"name":"jacix3 [gay wolfgirl]{she/it}","steam_id":76561198205004165,"connected_time":1403000000000,"state":"active","ping":68},{"user_id":90,"name":"Daddy","steam_id":76561199247095754,"connected_time":3522000000000,"state":"active","ping":68},{"user_id":113,"name":"dust | she/it","steam_id":76561198045218909,"connected_time":2038000000000,"state":"active","ping":45},{"user_id":139,"name":"DesolateCabbage","steam_id":76561198064467423,"connected_time":389000000000,"state":"active","ping":101},{"user_id":130,"name":"chicken coup d'√©tat","steam_id":76561198069586736,"connected_time":702000000000,"state":"active","ping":118},{"user_id":109,"name":"Uso","steam_id":76561198012093238,"connected_time":2169000000000,"state":"active","ping":103},{"user_id":65,"name":"poopdog288","steam_id":76561199090287513,"connected_time":5391000000000,"state":"active","ping":69},{"user_id":124,"name":"Acehay14","steam_id":76561198052373291,"connected_time":1242000000000,"state":"active","ping":116},{"user_id":135,"name":"Killer Fish From San Diego","steam_id":76561199037594575,"connected_time":603000000000,"state":"active","ping":65},{"user_id":140,"name":"rock gaming","steam_id":76561199402868311,"connected_time":83000000000,"state":"active","ping":88},{"user_id":91,"name":"‚úø PoutyBun ‚úø","steam_id":76561197965762847,"connected_time":3476000000000,"state":"active","ping":43},{"user_id":129,"name":"The Pan","steam_id":76561198813468976,"connected_time":738000000000,"state":"active","ping":91},{"user_id":125,"name":"Scoron","steam_id":76561198062099305,"connected_time":1171000000000,"state":"active","ping":83},{"user_id":116,"name":"Sapphie","steam_id":76561198014986936,"connected_time":1715000000000,"state":"active","ping":122},{"user_id":133,"name":"Fluffy \u003c3 [HUGS]","steam_id":76561198119444962,"connected_time":630000000000,"state":"active","ping":60},{"user_id":87,"name":"Ltn. What's-his-Nuts","steam_id":76561198133834262,"connected_time":3777000000000,"state":"active","ping":107},{"user_id":134,"name":"pmstr","steam_id":76561198039366409,"connected_time":626000000000,"state":"active","ping":48},{"user_id":93,"name":"Tyzombiecrusher","steam_id":76561198175855278,"connected_time":3454000000000,"state":"active","ping":94},{"user_id":86,"name":"Kraftlos","steam_id":76561198074350350,"connected_time":3838000000000,"state":"active","ping":140}]},{"server_id":406,"name":"Uncletopia | Seattle | 3 | Stopwatch Beta","name_short":"sea-3","host":"sea-1.us.uncletopia.com","port":27035,"enabled":true,"region":"us-west","cc":"us","latitude":47.608013,"longitude":-122.33517,"reserved":0,"last_update":"0001-01-01T00:00:00Z","name_a2s":"Uncletopia | Seattle | 3 | Stopwatch Beta","protocol":17,"map":"workshop/pl_summercoast_rc8e.ugc1761528829","folder":"tf","game":"Team Fortress","app_id":440,"player_count":0,"max_players":24,"Bots":0,"server_type":"Dedicated","server_os":"Linux","password":true,"vac":true,"version":"7757534","steam_id":85568392924515217,"keywords":["nocrits","nodmgspread","payload","uncletopia"],"game_id":440,"stv_port":27036,"stv_name":"Uncletopia | Seattle | 3 | Stopwatch Beta | STV","players":null},{"server_id":17,"name":"Uncletopia | San Francisco | 1 | All Maps","name_short":"sfo-1","host":"sfo-1.us.uncletopia.com","port":27015,"enabled":true,"region":"us-west","cc":"us","latitude":37.77397,"longitude":-122.4313,"reserved":0,"last_update":"0001-01-01T00:00:00Z","name_a2s":"Uncletopia | San Francisco | 1 | All Maps","protocol":17,"map":"pl_badwater","folder":"tf","game":"Team Fortress","app_id":440,"player_count":0,"max_players":24,"Bots":0,"server_type":"Dedicated","server_os":"Linux","password":true,"vac":true,"version":"7757534","steam_id":85568392924469999,"keywords":["nocrits","nodmgspread","payload","uncletopia"],"game_id":440,"stv_port":27016,"stv_name":"Uncletopia | San Francisco | 1 | All Maps | STV","players":null},{"server_id":18,"name":"Uncletopia | San Francisco | 2 | All Maps","name_short":"sfo-2","host":"sfo-1.us.uncletopia.com","port":27025,"enabled":true,"region":"us-west","cc":"us","latitude":37.77397,"longitude":-122.4313,"reserved":0,"last_update":"0001-01-01T00:00:00Z","name_a2s":"Uncletopia | San Francisco | 2 | All Maps","protocol":17,"map":"pl_borneo","folder":"tf","game":"Team Fortress","app_id":440,"player_count":24,"max_players":24,"Bots":0,"server_type":"Dedicated","server_os":"Linux","password":true,"vac":true,"version":"7757534","steam_id":85568392924470000,"keywords":["nocrits","nodmgspread","payload","uncletopia"],"game_id":440,"stv_port":27026,"stv_name":"Uncletopia | San Francisco | 2 | All Maps | STV","players":[{"user_id":8,"name":"chillbo","steam_id":76561197975080641,"connected_time":2103000000000,"state":"active","ping":47},{"user_id":4,"name":"Tort boi","steam_id":76561198125327110,"connected_time":2759000000000,"state":"active","ping":64},{"user_id":37,"name":"Pudsla","steam_id":76561198258974036,"connected_time":1309000000000,"state":"active","ping":59},{"user_id":58,"name":"What am i covered in?","steam_id":76561198028349444,"connected_time":198000000000,"state":"active","ping":90},{"user_id":51,"name":"Ellis","steam_id":76561198993634489,"connected_time":465000000000,"state":"active","ping":60},{"user_id":44,"name":"jawnymac","steam_id":76561198179529599,"connected_time":943000000000,"state":"active","ping":54},{"user_id":14,"name":"fudo myoo","steam_id":76561198456258164,"connected_time":1866000000000,"state":"active","ping":102},{"user_id":15,"name":"Thequirka","steam_id":76561198968058652,"connected_time":1808000000000,"state":"active","ping":65},{"user_id":45,"name":"El pandora","steam_id":76561198075490385,"connected_time":941000000000,"state":"active","ping":59},{"user_id":54,"name":"Resident Thrussy Lender","steam_id":76561198071790583,"connected_time":362000000000,"state":"active","ping":99},{"user_id":33,"name":"Defragmented","steam_id":76561198854210081,"connected_time":1347000000000,"state":"active","ping":106},{"user_id":20,"name":"CashBin","steam_id":76561199382865598,"connected_time":1681000000000,"state":"active","ping":92},{"user_id":52,"name":"no medic no engie no win","steam_id":76561198048007844,"connected_time":450000000000,"state":"active","ping":59},{"user_id":27,"name":"MrCalmL.I","steam_id":76561198966598137,"connected_time":1497000000000,"state":"active","ping":120},{"user_id":53,"name":"Boy_Blue","steam_id":76561198142150093,"connected_time":397000000000,"state":"active","ping":118},{"user_id":46,"name":"unusuals suck","steam_id":76561198081681647,"connected_time":933000000000,"state":"active","ping":77},{"user_id":47,"name":"Jack from Jack in The Box","steam_id":76561199083594971,"connected_time":883000000000,"state":"active","ping":62},{"user_id":60,"name":"King Lemerton III","steam_id":76561199039363448,"connected_time":118000000000,"state":"active","ping":121},{"user_id":30,"name":"magotago","steam_id":76561198013650292,"connected_time":1396000000000,"state":"active","ping":134},{"user_id":31,"name":"puppygirl gaming","steam_id":76561198044363630,"connected_time":1386000000000,"state":"active","ping":105},{"user_id":36,"name":"Captain Buggy","steam_id":76561198024444448,"connected_time":1325000000000,"state":"active","ping":71},{"user_id":59,"name":"some_other_guy","steam_id":76561199387783793,"connected_time":181000000000,"state":"active","ping":107},{"user_id":39,"name":"Crylec","steam_id":76561198092755279,"connected_time":1293000000000,"state":"active","ping":121},{"user_id":40,"name":"Bluberry muffiN","steam_id":76561197993956013,"connected_time":1208000000000,"state":"active","ping":124}]},{"server_id":19,"name":"Uncletopia | San Francisco | 3 | Stopwatch Beta","name_short":"sfo-3","host":"sfo-1.us.uncletopia.com","port":27035,"enabled":true,"region":"us-west","cc":"us","latitude":37.77397,"longitude":-122.4313,"reserved":0,"last_update":"0001-01-01T00:00:00Z","name_a2s":"Uncletopia | San Francisco | 3 | Stopwatch Beta","protocol":17,"map":"cp_snakewater_final1","folder":"tf","game":"Team Fortress","app_id":440,"player_count":0,"max_players":24,"Bots":0,"server_type":"Dedicated","server_os":"Linux","password":true,"vac":true,"version":"7757534","steam_id":85568392924742824,"keywords":["cp","nocrits","nodmgspread","uncletopia"],"game_id":440,"stv_port":27036,"stv_name":"Uncletopia | San Francisco | 3 | Stopwatch Beta | STV","players":null},{"server_id":20,"name":"Uncletopia | San Francisco | 4 | Community","name_short":"sfo-4","host":"sfo-1.us.uncletopia.com","port":27045,"enabled":true,"region":"us-west","cc":"us","latitude":37.77397,"longitude":-122.4313,"reserved":0,"last_update":"0001-01-01T00:00:00Z","name_a2s":"Uncletopia | San Francisco | 4 | Community","protocol":17,"map":"pl_frontier_final","folder":"tf","game":"Team Fortress","app_id":440,"player_count":0,"max_players":24,"Bots":0,"server_type":"Dedicated","server_os":"Linux","password":true,"vac":true,"version":"7757534","steam_id":85568392924742826,"keywords":["nocrits","nodmgspread","payload","uncletopia"],"game_id":440,"stv_port":27046,"stv_name":"Uncletopia | San Francisco | 4 | Community | STV","players":null},{"server_id":141,"name":"Uncletopia | Sydney | 1 | All Maps","name_short":"syd-1","host":"syd-1.au.uncletopia.com","port":27015,"enabled":true,"region":"au","cc":"au","latitude":-33.865143,"longitude":151.2099,"reserved":0,"last_update":"0001-01-01T00:00:00Z","name_a2s":"Uncletopia | Sydney | 1 | All Maps","protocol":17,"map":"pl_borneo","folder":"tf","game":"Team Fortress","app_id":440,"player_count":0,"max_players":24,"Bots":0,"server_type":"Dedicated","server_os":"Linux","password":true,"vac":true,"version":"7757534","steam_id":85568392924470001,"keywords":["nocrits","nodmgspread","payload","uncletopia"],"game_id":440,"stv_port":27016,"stv_name":"Uncletopia | Sydney | 1 | All Maps | STV","players":null},{"server_id":123,"name":"Uncletopia | Sydney | 2 | All Maps","name_short":"syd-2","host":"syd-1.au.uncletopia.com","port":27025,"enabled":true,"region":"au","cc":"au","latitude":-33.865143,"longitude":151.2099,"reserved":0,"last_update":"0001-01-01T00:00:00Z","name_a2s":"Uncletopia | Sydney | 2 | All Maps","protocol":17,"map":"koth_cascade","folder":"tf","game":"Team Fortress","app_id":440,"player_count":0,"max_players":24,"Bots":0,"server_type":"Dedicated","server_os":"Linux","password":true,"vac":true,"version":"7757534","steam_id":85568392924470002,"keywords":["cp","nocrits","nodmgspread","uncletopia"],"game_id":440,"stv_port":27026,"stv_name":"Uncletopia | Sydney | 2 | All Maps | STV","players":null},{"server_id":395,"name":"Uncletopia | Sydney | 3 | All Maps","name_short":"syd-3","host":"syd-1.au.uncletopia.com","port":27035,"enabled":true,"region":"au","cc":"au","latitude":-33.865143,"longitude":151.2099,"reserved":0,"last_update":"0001-01-01T00:00:00Z","name_a2s":"Uncletopia | Sydney | 3 | All Maps","protocol":17,"map":"pl_borneo","folder":"tf","game":"Team Fortress","app_id":440,"player_count":0,"max_players":24,"Bots":0,"server_type":"Dedicated","server_os":"Linux","password":true,"vac":true,"version":"7757534","steam_id":85568392925194467,"keywords":["nocrits","nodmgspread","payload","uncletopia"],"game_id":440,"stv_port":27036,"stv_name":"Uncletopia | Sydney | 3 | All Maps | STV","players":null},{"server_id":396,"name":"Uncletopia | Sydney | 4 | All Maps","name_short":"syd-4","host":"syd-1.au.uncletopia.com","port":27045,"enabled":true,"region":"au","cc":"au","latitude":-33.865143,"longitude":151.2099,"reserved":0,"last_update":"0001-01-01T00:00:00Z","name_a2s":"Uncletopia | Sydney | 4 | All Maps","protocol":17,"map":"cp_dustbowl","folder":"tf","game":"Team Fortress","app_id":440,"player_count":0,"max_players":24,"Bots":0,"server_type":"Dedicated","server_os":"Linux","password":true,"vac":true,"version":"7757534","steam_id":85568392925397958,"keywords":["cp","nocrits","nodmgspread","uncletopia"],"game_id":440,"stv_port":27046,"stv_name":"Uncletopia | Sydney | 4 | All Maps | STV","players":null},{"server_id":58,"name":"Uncletopia | Sydney | 5 | Stopwatch Beta","name_short":"syd-5","host":"syd-1.au.uncletopia.com","port":27055,"enabled":true,"region":"au","cc":"au","latitude":-33.865143,"longitude":151.2099,"reserved":0,"last_update":"0001-01-01T00:00:00Z","name_a2s":"Uncletopia | Sydney | 5 | Stopwatch Beta","protocol":17,"map":"koth_cascade","folder":"tf","game":"Team Fortress","app_id":440,"player_count":0,"max_players":24,"Bots":0,"server_type":"Dedicated","server_os":"Linux","password":true,"vac":true,"version":"7757534","steam_id":85568392925397959,"keywords":["cp","nocrits","nodmgspread","uncletopia"],"game_id":440,"stv_port":27056,"stv_name":"Uncletopia | Sydney | 5 | Stopwatch Beta | STV","players":null},{"server_id":59,"name":"Uncletopia | Sydney | 6 | Community","name_short":"syd-6","host":"syd-1.au.uncletopia.com","port":27065,"enabled":true,"region":"au","cc":"au","latitude":-33.865143,"longitude":151.2099,"reserved":0,"last_update":"0001-01-01T00:00:00Z","name_a2s":"Uncletopia | Sydney | 6 | Community","protocol":17,"map":"pl_badwater","folder":"tf","game":"Team Fortress","app_id":440,"player_count":0,"max_players":24,"Bots":0,"server_type":"Dedicated","server_os":"Linux","password":true,"vac":true,"version":"7757534","steam_id":85568392925397960,"keywords":["nocrits","nodmgspread","payload","uncletopia"],"game_id":440,"stv_port":27066,"stv_name":"Uncletopia | Sydney | 6 | Community | STV","players":null},{"server_id":49,"name":"Uncletopia | Warsaw | 1 | All Maps","name_short":"waw-1","host":"waw-1.pl.uncletopia.com","port":27015,"enabled":true,"region":"eu","cc":"pl","latitude":52.2297,"longitude":21.017532,"reserved":0,"last_update":"0001-01-01T00:00:00Z","name_a2s":"","protocol":0,"map":"","folder":"","game":"","app_id":0,"player_count":0,"max_players":0,"Bots":0,"server_type":"","server_os":"","password":false,"vac":false,"version":"","steam_id":0,"keywords":null,"game_id":0,"stv_port":0,"stv_name":"","players":null},{"server_id":50,"name":"Uncletopia | Warsaw | 2 | All Maps","name_short":"waw-2","host":"waw-1.pl.uncletopia.com","port":27025,"enabled":true,"region":"eu","cc":"pl","latitude":52.2297,"longitude":21.017532,"reserved":0,"last_update":"0001-01-01T00:00:00Z","name_a2s":"Uncletopia | Warsaw | 2 | All Maps","protocol":17,"map":"koth_lakeside_final","folder":"tf","game":"Team Fortress","app_id":440,"player_count":0,"max_players":24,"Bots":0,"server_type":"Dedicated","server_os":"Linux","password":true,"vac":true,"version":"7757534","steam_id":85568392925397851,"keywords":["cp","nocrits","nodmgspread","uncletopia"],"game_id":440,"stv_port":27026,"stv_name":"Uncletopia | Warsaw | 2 | All Maps | STV","players":null},{"server_id":51,"name":"Uncletopia | Warsaw | 3 | All Maps","name_short":"waw-3","host":"waw-1.pl.uncletopia.com","port":27035,"enabled":true,"region":"eu","cc":"pl","latitude":52.2297,"longitude":21.017532,"reserved":0,"last_update":"0001-01-01T00:00:00Z","name_a2s":"Uncletopia | Warsaw | 3 | All Maps","protocol":17,"map":"cp_altitude","folder":"tf","game":"Team Fortress","app_id":440,"player_count":0,"max_players":24,"Bots":0,"server_type":"Dedicated","server_os":"Linux","password":true,"vac":true,"version":"7757534","steam_id":85568392925397852,"keywords":["cp","nocrits","nodmgspread","uncletopia"],"game_id":440,"stv_port":27036,"stv_name":"Uncletopia | Warsaw | 3 | All Maps | STV","players":null},{"server_id":52,"name":"Uncletopia | Warsaw | 4 | All Maps","name_short":"waw-4","host":"waw-1.pl.uncletopia.com","port":27045,"enabled":true,"region":"eu","cc":"pl","latitude":52.2297,"longitude":21.017532,"reserved":0,"last_update":"0001-01-01T00:00:00Z","name_a2s":"Uncletopia | Warsaw | 4 | All Maps","protocol":17,"map":"pl_upward","folder":"tf","game":"Team Fortress","app_id":440,"player_count":0,"max_players":24,"Bots":0,"server_type":"Dedicated","server_os":"Linux","password":true,"vac":true,"version":"7757534","steam_id":85568392925397853,"keywords":["nocrits","nodmgspread","payload","uncletopia"],"game_id":440,"stv_port":27046,"stv_name":"Uncletopia | Warsaw | 4 | All Maps | STV","players":null},{"server_id":53,"name":"Uncletopia | Warsaw | 5 | Stopwatch Beta","name_short":"waw-5","host":"waw-1.pl.uncletopia.com","port":27055,"enabled":true,"region":"eu","cc":"pl","latitude":52.2297,"longitude":21.017532,"reserved":0,"last_update":"0001-01-01T00:00:00Z","name_a2s":"Uncletopia | Warsaw | 5 | Stopwatch Beta","protocol":17,"map":"pl_pier","folder":"tf","game":"Team Fortress","app_id":440,"player_count":0,"max_players":24,"Bots":0,"server_type":"Dedicated","server_os":"Linux","password":true,"vac":true,"version":"7757534","steam_id":85568392925397854,"keywords":["nocrits","nodmgspread","payload","uncletopia"],"game_id":440,"stv_port":27056,"stv_name":"Uncletopia | Warsaw | 5 | Stopwatch Beta | STV","players":null},{"server_id":54,"name":"Uncletopia | Warsaw | 6 | Community","name_short":"waw-6","host":"waw-1.pl.uncletopia.com","port":27065,"enabled":true,"region":"eu","cc":"pl","latitude":52.2297,"longitude":21.017532,"reserved":0,"last_update":"0001-01-01T00:00:00Z","name_a2s":"Uncletopia | Warsaw | 6 | Community","protocol":17,"map":"koth_highpass","folder":"tf","game":"Team Fortress","app_id":440,"player_count":0,"max_players":24,"Bots":0,"server_type":"Dedicated","server_os":"Linux","password":true,"vac":true,"version":"7757534","steam_id":85568392925397856,"keywords":["cp","nocrits","nodmgspread","uncletopia"],"game_id":440,"stv_port":27066,"stv_name":"Uncletopia | Warsaw | 6 | Community | STV","players":null}]}