{"status":true,"message":"","result":[{"server_id":9,"name":"Uncletopia | Atlanta | 1 | All Maps","name_short":"atl-1","host":"atl-1.us.uncletopia.com","port":27015,"enabled":true,"region":"us-east","cc":"us","latitude":33.753746,"longitude":-84.38633,"reserved":0,"last_update":"0001-01-01T00:00:00Z","name_a2s":"Uncletopia | Atlanta | 1 | All Maps","protocol":17,"map":"pl_snowycoast","folder":"tf","game":"Team Fortress","app_id":440,"player_count":24,"max_players":24,"Bots":0,"server_type":"Dedicated","server_os":"Linux","password":true,"vac":true,"version":"7757534","steam_id":85568392924469982,"keywords":["nocrits","nodmgspread","payload","uncletopia"],"game_id":440,"stv_port":27016,"stv_name":"Uncletopia | Atlanta | 1 | All Maps | STV","players":[{"user_id":621,"name":"Jin","steam_id":76561198119873148,"connected_time":2186000000000,"state":"active","ping":59},{"user_id":596,"name":"wire-guided","steam_id":76561198055407168,"connected_time":4550000000000,"state":"active","ping":60},{"user_id":639,"name":"Fargo","steam_id":76561198044703931,"connected_time":563000000000,"state":"active","ping":88},{"user_id":600,"name":"Fishy","steam_id":76561198880711743,"connected_time":4433000000000,"state":"active","ping":88},{"user_id":611,"name":"DFR Le4n!!!","steam_id":76561198045522596,"connected_time":3233000000000,"state":"active","ping":70},{"user_id":502,"name":"BIG HOG","steam_id":76561198079923652,"connected_time":16041000000000,"state":"active","ping":64},{"user_id":602,"name":"Bomb Squirtle™","steam_id":76561197998931145,"connected_time":4428000000000,"state":"active","ping":99},{"user_id":623,"name":"lil hog","steam_id":76561199230929836,"connected_time":2179000000000,"state":"active","ping":80},{"user_id":614,"name":"ATL1 | on my hunting trip","steam_id":76561198315341646,"connected_time":3218000000000,"state":"active","ping":73},{"user_id":622,"name":"AlphaScout","steam_id":76561198047797890,"connected_time":2184000000000,"state":"active","ping":85},{"user_id":634,"name":"NEONPANTSGUY1","steam_id":76561198430388883,"connected_time":1285000000000,"state":"active","ping":140},{"user_id":616,"name":"Droz_Cola","steam_id":76561199154640926,"connected_time":3159000000000,"state":"active","ping":85},{"user_id":633,"name":"Crystal Mongoose","steam_id":76561198001585325,"connected_time":1353000000000,"state":"active","ping":51},{"user_id":619,"name":"CHIKN","steam_id":76561198277792665,"connected_time":2394000000000,"state":"active","ping":107},{"user_id":644,"name":"slay3r","steam_id":76561198012414439,"connected_time":29000000000,"state":"active","ping":172},{"user_id":620,"name":"crunchy obama","steam_id":76561198044485217,"connected_time":2381000000000,"state":"active","ping":116},{"user_id":640,"name":"DD_440","steam_id":76561199135978082,"connected_time":558000000000,"state":"active","ping":70},{"user_id":641,"name":"toilethumor","steam_id":76561197962028780,"connected_time":537000000000,"state":"active","ping":59},{"user_id":643,"name":"Zillers","steam_id":76561198095248744,"connected_time":53000000000,"state":"active","ping":90},{"user_id":637,"name":"Gichael","steam_id":76561198040602075,"connected_time":881000000000,"state":"active","ping":94},{"user_id":636,"name":"Albino Jellyfish","steam_id":76561198208561097,"connected_time":1053000000000,"state":"active","ping":65},{"user_id":592,"name":"Cursed Dog","steam_id":76561198090785078,"connected_time":5225000000000,"state":"active","ping":102},{"user_id":629,"name":"why","steam_id":76561199059732212,"connected_time":1903000000000,"state":"active","ping":59},{"user_id":607,"name":"Toonice","steam_id":76561198402994885,"connected_time":4253000000000,"state":"active","ping":83}]},{"server_id":104,"name":"Uncletopia | Atlanta | 2 | All Maps","name_short":"atl-2","host":"atl-1.us.uncletopia.com","port":27025,"enabled":true,"region":"us-east","cc":"us","latitude":33.753746,"longitude":-84.38633,"reserved":0,"last_update":"0001-01-01T00:00:00Z","name_a2s":"Uncletopia | Atlanta | 2 | All Maps","protocol":17,"map":"pl_goldrush","folder":"tf","game":"Team Fortress","app_id":440,"player_count":24,"max_players":24,"Bots":0,"server_type":"Dedicated","server_os":"Linux","password":true,"vac":true,"version":"7757534","steam_id":85568392924469983,"keywords":["nocrits","nodmgspread","payload","uncletopia"],"game_id":440,"stv_port":27026,"stv_name":"Uncletopia | Atlanta | 2 | All Maps | STV","players":[{"user_id":516,"name":"PackingPeanutt :)","steam_id":76561199053229413,"connected_time":1765000000000,"state":"active","ping":87},{"user_id":525,"name":"kametro4","steam_id":76561198835430429,"connected_time":1155000000000,"state":"active","ping":85},{"user_id":537,"name":"ItsBrieDude","steam_id":76561198051971306,"connected_time":245000000000,"state":"active","ping":42},{"user_id":490,"name":"PinguEnjoyer6","steam_id":76561199186723516,"connected_time":4897000000000,"state":"active","ping":93},{"user_id":540,"name":"Darkspiral","steam_id":76561198080807559,"connected_time":120000000000,"state":"active","ping":105},{"user_id":527,"name":"Terror-Billy #SaveTF2","steam_id":76561198328141870,"connected_time":1016000000000,"state":"active","ping":88},{"user_id":523,"name":"BTS | sat","steam_id":76561198084311006,"connected_time":1305000000000,"state":"active","ping":84},{"user_id":492,"name":"bob","steam_id":76561198261060542,"connected_time":4788000000000,"state":"active","ping":73},{"user_id":512,"name":"PANDER","steam_id":76561198021732844,"connected_time":3897000000000,"state":"active","ping":54},{"user_id":541,"name":"Gilded_Warrior","steam_id":76561199055082197,"connected_time":98000000000,"state":"active","ping":101},{"user_id":522,"name":"Gibus Man","steam_id":76561198257241062,"connected_time":1416000000000,"state":"active","ping":120},{"user_id":524,"name":"I Have A Name","steam_id":76561198011699246,"connected_time":1236000000000,"state":"active","ping":105},{"user_id":508,"name":"Lunar Lepidoptera","steam_id":76561198014593467,"connected_time":4245000000000,"state":"active","ping":33},{"user_id":518,"name":"HALO 3","steam_id":76561198020825795,"connected_time":1626000000000,"state":"active","ping":68},{"user_id":499,"name":"Olly","steam_id":76561198054273611,"connected_time":4567000000000,"state":"active","ping":81},{"user_id":535,"name":"loldewdz","steam_id":76561198067562811,"connected_time":515000000000,"state":"active","ping":77},{"user_id":538,"name":"Golden","steam_id":76561199230269724,"connected_time":197000000000,"state":"active","ping":96},{"user_id":501,"name":"Skip","steam_id":76561198333866086,"connected_time":4560000000000,"state":"active","ping":134},{"user_id":531,"name":"Skelloton","steam_id":76561198012298599,"connected_time":920000000000,"state":"active","ping":115},{"user_id":536,"name":"bossaru5499","steam_id":76561198278416816,"connected_time":473000000000,"state":"active","ping":70},{"user_id":469,"name":"DerpFamous","steam_id":76561198046167888,"connected_time":7229000000000,"state":"active","ping":37},{"user_id":532,"name":"Error 4 Oh Four","steam_id":76561198121637567,"connected_time":904000000000,"state":"active","ping":79},{"user_id":534,"name":"superx","steam_id":76561198044976613,"connected_time":845000000000,"state":"active","ping":67},{"user_id":513,"name":"glquantum","steam_id":76561198057553971,"connected_time":2530000000000,"state":"active","ping":69}]},{"server_id":400,"name":"Uncletopia | Atlanta | 3 | Community","name_short":"atl-3","host":"atl-1.us.uncletopia.com","port":27035,"enabled":true,"region":"us-east","cc":"us","latitude":33.753746,"longitude":-84.38633,"reserved":0,"last_update":"0001-01-01T00:00:00Z","name_a2s":"Uncletopia | Atlanta | 3 | Community","protocol":17,"map":"workshop/cp_glacier_rc6.ugc2905735376","folder":"tf","game":"Team Fortress","app_id":440,"player_count":0,"max_players":24,"Bots":0,"server_type":"Dedicated","server_os":"Linux","password":true,"vac":true,"version":"7757534","steam_id":85568392924515187,"keywords":["cp","nocrits","nodmgspread","uncletopia"],"game_id":440,"stv_port":27036,"stv_name":"Uncletopia | Atlanta | 3 | Community | STV","players":null},{"server_id":401,"name":"Uncletopia | Atlanta | 4 | No Payload","name_short":"atl-4","host":"atl-1.us.uncletopia.com","port":27045,"enabled":true,"region":"us-east","cc":"us","latitude":33.753746,"longitude":-84.38633,"reserved":0,"last_update":"0001-01-01T00:00:00Z","name_a2s":"","protocol":0,"map":"","folder":"","game":"","app_id":0,"player_count":0,"max_players":0,"Bots":0,"server_type":"","server_os":"","password":false,"vac":false,"version":"","steam_id":0,"keywords":null,"game_id":0,"stv_port":0,"stv_name":"","players":null},{"server_id":2,"name":"Uncletopia | Chicago | 1 | All Maps","name_short":"chi-1","host":"chi-1.us.uncletopia.com","port":27015,"enabled":true,"region":"us-central","cc":"us","latitude":41.881832,"longitude":-87.62318,"reserved":0,"last_update":"0001-01-01T00:00:00Z","name_a2s":"Uncletopia | Chicago | 1 | All Maps","protocol":17,"map":"cp_mountainlab","folder":"tf","game":"Team Fortress","app_id":440,"player_count":23,"max_players":24,"Bots":0,"server_type":"Dedicated","server_os":"Linux","password":true,"vac":true,"version":"7757534","steam_id":85568392924469984,"keywords":["cp","nocrits","nodmgspread","uncletopia"],"game_id":440,"stv_port":27016,"stv_name":"Uncletopia | Chicago | 1 | All Maps | STV","players":[{"user_id":802,"name":"cbug","steam_id":76561198034182509,"connected_time":2246000000000,"state":"active","ping":90},{"user_id":779,"name":"beefaroni","steam_id":76561198126489501,"connected_time":3549000000000,"state":"active","ping":44},{"user_id":814,"name":"p]","steam_id":76561198145784505,"connected_time":542000000000,"state":"active","ping":102},{"user_id":785,"name":"Sir Arcana","steam_id":76561198141298909,"connected_time":2611000000000,"state":"active","ping":70},{"user_id":808,"name":"enmgxcltayiqoacx","steam_id":76561197974965536,"connected_time":1528000000000,"state":"active","ping":61},{"user_id":816,"name":"Tec","steam_id":76561199096762480,"connected_time":418000000000,"state":"active","ping":158},{"user_id":817,"name":"GuyGoom","steam_id":76561198254522178,"connected_time":372000000000,"state":"active","ping":54},{"user_id":789,"name":"Voodo133","steam_id":76561198042670351,"connected_time":2512000000000,"state":"active","ping":91},{"user_id":770,"name":"SpaceDonut9","steam_id":76561199013502859,"connected_time":4333000000000,"state":"active","ping":47},{"user_id":818,"name":"Hanako","steam_id":76561198133272179,"connected_time":368000000000,"state":"active","ping":158},{"user_id":819,"name":"_","steam_id":76561198191199554,"connected_time":270000000000,"state":"active","ping":60},{"user_id":791,"name":"hamletespacial","steam_id":76561199084414649,"connected_time":2500000000000,"state":"active","ping":77},{"user_id":810,"name":"zSkele","steam_id":76561198128960931,"connected_time":1465000000000,"state":"active","ping":57},{"user_id":793,"name":"Thot Police","steam_id":76561198084299100,"connected_time":2449000000000,"state":"active","ping":66},{"user_id":813,"name":"professor coke","steam_id":76561198108165531,"connected_time":614000000000,"state":"active","ping":50},{"user_id":822,"name":"frank","steam_id":76561198137777483,"connected_time":69000000000,"state":"active","ping":68},{"user_id":796,"name":"Person","steam_id":76561198093244204,"connected_time":2419000000000,"state":"active","ping":74},{"user_id":797,"name":"leroy","steam_id":76561199013064727,"connected_time":2419000000000,"state":"active","ping":74},{"user_id":811,"name":"Kng","steam_id":76561198993248203,"connected_time":1372000000000,"state":"active","ping":82},{"user_id":821,"name":"Quantum Sauce","steam_id":76561198164034337,"connected_time":203000000000,"state":"active","ping":115},{"user_id":799,"name":"Adam9","steam_id":76561198272853331,"connected_time":2399000000000,"state":"active","ping":65},{"user_id":753,"name":"Tommy Provolone","steam_id":76561198170062377,"connected_time":5374000000000,"state":"active","ping":71},{"user_id":809,"name":"Iron","steam_id":76561198247918478,"connected_time":1512000000000,"state":"active","ping":63}]},{"server_id":106,"name":"Uncletopia | Chicago | 2 | All Maps","name_short":"chi-2","host":"chi-1.us.uncletopia.com","port":27025,"enabled":true,"region":"us-central","cc":"us","latitude":41.881832,"longitude":-87.62318,"reserved":0,"last_update":"0001-01-01T00:00:00Z","name_a2s":"Uncletopia | Chicago | 2 | All Maps","protocol":17,"map":"pl_upward","folder":"tf","game":"Team Fortress","app_id":440,"player_count":24,"max_players":24,"Bots":0,"server_type":"Dedicated","server_os":"Linux","password":true,"vac":true,"version":"7757534","steam_id":85568392924469985,"keywords":["nocrits","nodmgspread","payload","uncletopia"],"game_id":440,"stv_port":27026,"stv_name":"Uncletopia | Chicago | 2 | All Maps | STV","players":[{"user_id":904,"name":"Japanese_Spaghetti","steam_id":76561198081019897,"connected_time":179000000000,"state":"active","ping":118},{"user_id":893,"name":"Habba","steam_id":76561197986096340,"connected_time":1792000000000,"state":"active","ping":90},{"user_id":855,"name":"is this...yuri?","steam_id":76561198099249286,"connected_time":3106000000000,"state":"active","ping":73},{"user_id":856,"name":"yaysun","steam_id":76561198067162990,"connected_time":3102000000000,"state":"active","ping":74},{"user_id":895,"name":"Mini-engineer","steam_id":76561199131945299,"connected_time":1217000000000,"state":"active","ping":87},{"user_id":857,"name":"Scratchin Commander","steam_id":76561198076764729,"connected_time":3080000000000,"state":"active","ping":82},{"user_id":898,"name":"duneblaster0","steam_id":76561198040364680,"connected_time":909000000000,"state":"active","ping":45},{"user_id":859,"name":"peanus m\u0026ms","steam_id":76561198059116283,"connected_time":3079000000000,"state":"active","ping":69},{"user_id":860,"name":"Marce","steam_id":76561198073245553,"connected_time":3062000000000,"state":"active","ping":84},{"user_id":881,"name":"{FITH}™ Tnega Libram","steam_id":76561197997973526,"connected_time":2506000000000,"state":"active","ping":70},{"user_id":879,"name":"kiseek","steam_id":76561198075474088,"connected_time":2557000000000,"state":"active","ping":84},{"user_id":900,"name":"oat milf","steam_id":76561198805266653,"connected_time":400000000000,"state":"active","ping":83},{"user_id":863,"name":"Serbian Stalker","steam_id":76561199182959265,"connected_time":2964000000000,"state":"active","ping":77},{"user_id":905,"name":"Scuba","steam_id":76561198043340671,"connected_time":131000000000,"state":"active","ping":68},{"user_id":865,"name":"justapikmin","steam_id":76561199023650282,"connected_time":2957000000000,"state":"active","ping":79},{"user_id":867,"name":"DrunkDuckwit","steam_id":76561198355829109,"connected_time":2943000000000,"state":"active","ping":54},{"user_id":894,"name":"Ozirion","steam_id":76561198108901767,"connected_time":1765000000000,"state":"active","ping":66},{"user_id":880,"name":"HOTBOYHOTBOY","steam_id":76561198086070144,"connected_time":2519000000000,"state":"active","ping":83},{"user_id":883,"name":"aphexjh","steam_id":76561197985854658,"connected_time":2499000000000,"state":"active","ping":56},{"user_id":884,"name":"Marcy2231","steam_id":76561198202323656,"connected_time":2488000000000,"state":"active","ping":60},{"user_id":902,"name":"Rudy","steam_id":76561198013456828,"connected_time":391000000000,"state":"active","ping":64},{"user_id":891,"name":"TonyStewartFan03","steam_id":76561198271629958,"connected_time":1873000000000,"state":"active","ping":53},{"user_id":886,"name":"spunk","steam_id":76561198131089513,"connected_time":2470000000000,"state":"active","ping":53},{"user_id":899,"name":"!! BRO IS FLABBERGASTED !!","steam_id":76561198135036396,"connected_time":664000000000,"state":"active","ping":81}]},{"server_id":402,"name":"Uncletopia | Chicago | 3 | All Maps","name_short":"chi-3","host":"chi-1.us.uncletopia.com","port":27035,"enabled":true,"region":"us-central","cc":"us","latitude":41.881832,"longitude":-87.62318,"reserved":0,"last_update":"0001-01-01T00:00:00Z","name_a2s":"Uncletopia | Chicago | 3 | All Maps","protocol":17,"map":"pl_barnblitz","folder":"tf","game":"Team Fortress","app_id":440,"player_count":0,"max_players":24,"Bots":0,"server_type":"Dedicated","server_os":"Linux","password":true,"vac":true,"version":"7757534","steam_id":85568392924515191,"keywords":["nocrits","nodmgspread","payload","uncletopia"],"game_id":440,"stv_port":27036,"stv_name":"Uncletopia | Chicago | 3 | All Maps | STV","players":null},{"server_id":403,"name":"Uncletopia | Chicago | 4 | All Maps","name_short":"chi-4","host":"chi-1.us.uncletopia.com","port":27045,"enabled":true,"region":"us-central","cc":"us","latitude":41.881832,"longitude":-87.62318,"reserved":0,"last_update":"0001-01-01T00:00:00Z","name_a2s":"Uncletopia | Chicago | 4 | All Maps","protocol":17,"map":"pl_snowycoast","folder":"tf","game":"Team Fortress","app_id":440,"player_count":22,"max_players":24,"Bots":0,"server_type":"Dedicated","server_os":"Linux","password":true,"vac":true,"version":"7757534","steam_id":85568392924515193,"keywords":["nocrits","nodmgspread","payload","uncletopia"],"game_id":440,"stv_port":27046,"stv_name":"Uncletopia | Chicago | 4 | All Maps | STV","players":[{"user_id":760,"name":"Unregistered Hypercam 2","steam_id":76561198046895822,"connected_time":2620000000000,"state":"active","ping":78},{"user_id":763,"name":"Goldensliv","steam_id":76561198161673891,"connected_time":2567000000000,"state":"active","ping":91},{"user_id":761,"name":"Lipton","steam_id":76561198135397441,"connected_time":2586000000000,"state":"active","ping":79},{"user_id":771,"name":"periwinkle","steam_id":76561198021231689,"connected_time":1330000000000,"state":"active","ping":88},{"user_id":776,"name":"☂Bliffenstimmers☂","steam_id":76561198059984896,"connected_time":777000000000,"state":"active","ping":86},{"user_id":772,"name":"Lux E Tenebris","steam_id":76561198072664199,"connected_time":1290000000000,"state":"active","ping":50},{"user_id":769,"name":"ZombieDog[N8]","steam_id":76561198056076918,"connected_time":1687000000000,"state":"active","ping":72},{"user_id":781,"name":"Seaport Hime","steam_id":76561198055914224,"connected_time":92000000000,"state":"active","ping":73},{"user_id":686,"name":"Soupman_Official","steam_id":76561198314308732,"connected_time":7388000000000,"state":"active","ping":85},{"user_id":736,"name":"Sprit ♥","steam_id":76561198268780781,"connected_time":3617000000000,"state":"active","ping":47},{"user_id":777,"name":"SiphonFIre","steam_id":76561198305327992,"connected_time":730000000000,"state":"active","ping":86},{"user_id":740,"name":"crafters4000","steam_id":76561198304200963,"connected_time":3310000000000,"state":"active","ping":64},{"user_id":770,"name":"Eden Hazard","steam_id":76561198089241053,"connected_time":1682000000000,"state":"active","ping":63},{"user_id":741,"name":"Circuit Spark","steam_id":76561198832124473,"connected_time":3293000000000,"state":"active","ping":72},{"user_id":779,"name":"volta","steam_id":76561199214283884,"connected_time":322000000000,"state":"active","ping":96},{"user_id":743,"name":"Duckles","steam_id":76561198049203455,"connected_time":3211000000000,"state":"active","ping":65},{"user_id":745,"name":"ChefBev","steam_id":76561198189448113,"connected_time":3208000000000,"state":"active","ping":72},{"user_id":775,"name":"CarbonNotes","steam_id":76561198042006558,"connected_time":810000000000,"state":"active","ping":89},{"user_id":766,"name":"Hazi","steam_id":76561198066844855,"connected_time":2421000000000,"state":"active","ping":59},{"user_id":755,"name":"RedSock","steam_id":76561198161243404,"connected_time":3019000000000,"state":"active","ping":44},{"user_id":758,"name":"Suck Her Dick Sunday","steam_id":76561198029274581,"connected_time":2949000000000,"state":"active","ping":70},{"user_id":768,"name":"hatchetax","steam_id":76561199013337543,"connected_time":1994000000000,"state":"active","ping":70}]},{"server_id":36,"name":"Uncletopia | Chicago | 5 | All Maps","name_short":"chi-5","host":"chi-2.us.uncletopia.com","port":27015,"enabled":true,"region":"us-central","cc":"us","latitude":41.881832,"longitude":-87.62318,"reserved":0,"last_update":"0001-01-01T00:00:00Z","name_a2s":"Uncletopia | Chicago | 5 | All Maps","protocol":17,"map":"pl_swiftwater_final1","folder":"tf","game":"Team Fortress","app_id":440,"player_count":23,"max_players":24,"Bots":0,"server_type":"Dedicated","server_os":"Linux","password":true,"vac":true,"version":"7757534","steam_id":85568392924866362,"keywords":["nocrits","nodmgspread","payload","uncletopia"],"game_id":440,"stv_port":27016,"stv_name":"Uncletopia | Chicago | 5 | All Maps | STV","players":[{"user_id":550,"name":"loyaldandan0764","steam_id":76561199231020424,"connected_time":1580000000000,"state":"active","ping":116},{"user_id":507,"name":"lug nut larry","steam_id":76561198170643378,"connected_time":5274000000000,"state":"active","ping":74},{"user_id":556,"name":"RandomBrute","steam_id":76561198383618776,"connected_time":125000000000,"state":"active","ping":71},{"user_id":413,"name":"Mr. Dry Lips","steam_id":76561198028157625,"connected_time":8412000000000,"state":"active","ping":79},{"user_id":540,"name":"Cynicalrage #TF2center","steam_id":76561198085805532,"connected_time":2300000000000,"state":"active","ping":45},{"user_id":505,"name":"Hotspot Gaming","steam_id":76561198212993755,"connected_time":5327000000000,"state":"active","ping":105},{"user_id":559,"name":"chanoc","steam_id":76561198026734746,"connected_time":50000000000,"state":"active","ping":90},{"user_id":525,"name":"Larkaldi","steam_id":76561198029668456,"connected_time":3661000000000,"state":"active","ping":34},{"user_id":554,"name":"Dapper Monkey","steam_id":76561199047665187,"connected_time":136000000000,"state":"active","ping":73},{"user_id":558,"name":"dig","steam_id":76561198050061475,"connected_time":113000000000,"state":"active","ping":78},{"user_id":542,"name":"The Final Terminus","steam_id":76561197964985183,"connected_time":2266000000000,"state":"active","ping":65},{"user_id":548,"name":"sonic1394","steam_id":76561198054636788,"connected_time":1816000000000,"state":"active","ping":71},{"user_id":509,"name":"blazen","steam_id":76561198921007863,"connected_time":5169000000000,"state":"active","ping":128},{"user_id":486,"name":"TacticalFluke","steam_id":76561198403291862,"connected_time":5724000000000,"state":"active","ping":78},{"user_id":543,"name":"Wizard Raccoon","steam_id":76561198072562591,"connected_time":2157000000000,"state":"active","ping":84},{"user_id":557,"name":"Eve","steam_id":76561198039832932,"connected_time":121000000000,"state":"active","ping":58},{"user_id":544,"name":"andyruiz.2012","steam_id":76561198161403931,"connected_time":2154000000000,"state":"active","ping":60},{"user_id":502,"name":"ProbiusSC","steam_id":76561198379167322,"connected_time":5490000000000,"state":"active","ping":75},{"user_id":538,"name":"Chad Chaddington","steam_id":76561198160256997,"connected_time":2609000000000,"state":"active","ping":55},{"user_id":553,"name":"Bzamo","steam_id":76561198039883392,"connected_time":1079000000000,"state":"active","ping":61},{"user_id":546,"name":"Mush","steam_id":76561198393461065,"connected_time":1973000000000,"state":"active","ping":75},{"user_id":547,"name":"john","steam_id":76561198039864629,"connected_time":1852000000000,"state":"active","ping":71},{"user_id":549,"name":"Krellah","steam_id":76561198287045069,"connected_time":1810000000000,"state":"active","ping":56}]},{"server_id":37,"name":"Uncletopia | Chicago | 6 | All Maps","name_short":"chi-6","host":"chi-2.us.uncletopia.com","port":27025,"enabled":true,"region":"us-central","cc":"us","latitude":41.881832,"longitude":-87.62318,"reserved":0,"last_update":"0001-01-01T00:00:00Z","name_a2s":"Uncletopia | Chicago | 6 | All Maps","protocol":17,"map":"cp_granary","folder":"tf","game":"Team Fortress","app_id":440,"player_count":1,"max_players":24,"Bots":0,"server_type":"Dedicated","server_os":"Linux","password":true,"vac":true,"version":"7757534","steam_id":85568392924866363,"keywords":["cp","nocrits","nodmgspread","uncletopia"],"game_id":440,"stv_port":27026,"stv_name":"Uncletopia | Chicago | 6 | All Maps | STV","players":[{"user_id":476,"name":"ToonJotaro18","steam_id":76561198278808422,"connected_time":477000000000,"state":"active","ping":66}]},{"server_id":38,"name":"Uncletopia | Chicago | 7 | Stopwatch Beta","name_short":"chi-7","host":"chi-2.us.uncletopia.com","port":27035,"enabled":true,"region":"us-central","cc":"us","latitude":41.881832,"longitude":-87.62318,"reserved":0,"last_update":"0001-01-01T00:00:00Z","name_a2s":"Uncletopia | Chicago | 7 | Stopwatch Beta","protocol":17,"map":"workshop/koth_bagel_rc6.ugc2514036946","folder":"tf","game":"Team Fortress","app_id":440,"player_count":24,"max_players":24,"Bots":0,"server_type":"Dedicated","server_os":"Linux","password":true,"vac":true,"version":"7757534","steam_id":85568392924866364,"keywords":["cp","nocrits","nodmgspread","uncletopia"],"game_id":440,"stv_port":27036,"stv_name":"Uncletopia | Chicago | 7 | Stopwatch Beta | STV","players":[{"user_id":283,"name":"dzcreeper","steam_id":76561198072250723,"connected_time":1894000000000,"state":"active","ping":74},{"user_id":273,"name":"dahperson","steam_id":76561198067207467,"connected_time":2647000000000,"state":"active","ping":55},{"user_id":271,"name":"Banjo","steam_id":76561198004652853,"connected_time":2721000000000,"state":"active","ping":99},{"user_id":281,"name":"[DEEP] Danmar33","steam_id":76561198056453091,"connected_time":2387000000000,"state":"active","ping":45},{"user_id":231,"name":"get ethernet","steam_id":76561198056434055,"connected_time":6772000000000,"state":"active","ping":67},{"user_id":230,"name":"Chad","steam_id":76561198222313772,"connected_time":6806000000000,"state":"active","ping":73},{"user_id":272,"name":"Clockwick","steam_id":76561198047292719,"connected_time":2707000000000,"state":"active","ping":72},{"user_id":274,"name":"EmergantZombie","steam_id":76561198004993012,"connected_time":2529000000000,"state":"active","ping":87},{"user_id":248,"name":"cornshot","steam_id":76561198043496387,"connected_time":5092000000000,"state":"active","ping":97},{"user_id":255,"name":"Natalbee","steam_id":76561198118973332,"connected_time":4659000000000,"state":"active","ping":59},{"user_id":294,"name":"Everything, Everything","steam_id":76561198110046630,"connected_time":574000000000,"state":"active","ping":45},{"user_id":235,"name":"phoebe !!","steam_id":76561198233058324,"connected_time":6487000000000,"state":"active","ping":66},{"user_id":201,"name":"Fever Dreams","steam_id":76561198116614620,"connected_time":9302000000000,"state":"active","ping":71},{"user_id":282,"name":"briggs","steam_id":76561198045655893,"connected_time":2180000000000,"state":"active","ping":60},{"user_id":286,"name":"cataconik","steam_id":76561198145530829,"connected_time":1401000000000,"state":"active","ping":99},{"user_id":277,"name":"Reisen Udongein Inaba","steam_id":76561198051082314,"connected_time":2495000000000,"state":"active","ping":104},{"user_id":278,"name":"Junko","steam_id":76561198146089003,"connected_time":2490000000000,"state":"active","ping":49},{"user_id":279,"name":"Gopofas","steam_id":76561199227999157,"connected_time":2457000000000,"state":"active","ping":180},{"user_id":289,"name":"ethanf","steam_id":76561198103930234,"connected_time":1106000000000,"state":"active","ping":50},{"user_id":287,"name":"Laphi","steam_id":76561197962857449,"connected_time":1371000000000,"state":"active","ping":108},{"user_id":220,"name":"SpicyTacoMan","steam_id":76561198335699828,"connected_time":7862000000000,"state":"active","ping":74},{"user_id":290,"name":"Billeh","steam_id":76561197985025706,"connected_time":1092000000000,"state":"active","ping":68},{"user_id":240,"name":"Reverie","steam_id":76561198987005784,"connected_time":6230000000000,"state":"active","ping":61},{"user_id":292,"name":"800Lbs 9 Year Old","steam_id":76561198856102017,"connected_time":828000000000,"state":"active","ping":75}]},{"server_id":39,"name":"Uncletopia | Chicago | 8 | Community","name_short":"chi-8","host":"chi-2.us.uncletopia.com","port":27045,"enabled":true,"region":"us-central","cc":"us","latitude":41.881832,"longitude":-87.62318,"reserved":0,"last_update":"0001-01-01T00:00:00Z","name_a2s":"Uncletopia | Chicago | 8 | Community","protocol":17,"map":"workshop/koth_bagel_rc6.ugc2514036946","folder":"tf","game":"Team Fortress","app_id":440,"player_count":0,"max_players":24,"Bots":0,"server_type":"Dedicated","server_os":"Linux","password":true,"vac":true,"version":"7757534","steam_id":85568392924866365,"keywords":["cp","nocrits","nodmgspread","uncletopia"],"game_id":440,"stv_port":27046,"stv_name":"Uncletopia | Chicago | 8 | Community | STV","players":null},{"server_id":8,"name":"Uncletopia | Dallas | 1 | All Maps","name_short":"dal-1","host":"dal-1.us.uncletopia.com","port":27015,"enabled":true,"region":"us-central","cc":"us","latitude":32.779167,"longitude":-96.80889,"reserved":0,"last_update":"0001-01-01T00:00:00Z","name_a2s":"Uncletopia | Dallas | 1 | All Maps","protocol":17,"map":"cp_dustbowl","folder":"tf","game":"Team Fortress","app_id":440,"player_count":24,"max_players":24,"Bots":0,"server_type":"Dedicated","server_os":"Linux","password":true,"vac":true,"version":"7757534","steam_id":85568392924469986,"keywords":["cp","nocrits","nodmgspread","uncletopia"],"game_id":440,"stv_port":27016,"stv_name":"Uncletopia | Dallas | 1 | All Maps | STV","players":[{"user_id":612,"name":"Rocatex (HalloweenEnjoyer)","steam_id":76561199095053897,"connected_time":523000000000,"state":"active","ping":42},{"user_id":586,"name":"Micro","steam_id":76561198267196099,"connected_time":3441000000000,"state":"active","ping":114},{"user_id":603,"name":"twin","steam_id":76561198055626638,"connected_time":1730000000000,"state":"active","ping":105},{"user_id":571,"name":"sweets n treats","steam_id":76561198013039087,"connected_time":4391000000000,"state":"active","ping":71},{"user_id":622,"name":"eek","steam_id":76561198332896682,"connected_time":334000000000,"state":"active","ping":98},{"user_id":598,"name":"DjBallBag","steam_id":76561198118551080,"connected_time":2331000000000,"state":"active","ping":59},{"user_id":624,"name":"Barress","steam_id":76561198011728743,"connected_time":120000000000,"state":"active","ping":85},{"user_id":602,"name":"brain big okay?","steam_id":76561198102681457,"connected_time":1840000000000,"state":"active","ping":74},{"user_id":564,"name":"Choccy Milk","steam_id":76561198085333480,"connected_time":5223000000000,"state":"active","ping":116},{"user_id":615,"name":"{ST} Oxythemoron","steam_id":76561198060089965,"connected_time":491000000000,"state":"active","ping":54},{"user_id":608,"name":"KewlKris","steam_id":76561198260738308,"connected_time":1098000000000,"state":"active","ping":32},{"user_id":600,"name":"calcium","steam_id":76561198103598619,"connected_time":2033000000000,"state":"active","ping":73},{"user_id":616,"name":"Faraday","steam_id":76561198089928357,"connected_time":484000000000,"state":"active","ping":51},{"user_id":606,"name":"TheEmeraldLiker","steam_id":76561198323926464,"connected_time":1454000000000,"state":"active","ping":93},{"user_id":609,"name":"FullMetalHanson","steam_id":76561198149565623,"connected_time":1013000000000,"state":"active","ping":83},{"user_id":625,"name":"Krow","steam_id":76561198010392099,"connected_time":70000000000,"state":"active","ping":50},{"user_id":604,"name":"Tomoko2001","steam_id":76561198047117990,"connected_time":1682000000000,"state":"active","ping":66},{"user_id":551,"name":"errant","steam_id":76561197961758410,"connected_time":6665000000000,"state":"active","ping":43},{"user_id":620,"name":"Hindmost","steam_id":76561199081837220,"connected_time":467000000000,"state":"active","ping":84},{"user_id":579,"name":"4Z21","steam_id":76561198069271794,"connected_time":3899000000000,"state":"active","ping":54},{"user_id":563,"name":"A Straw","steam_id":76561199367935846,"connected_time":5693000000000,"state":"active","ping":75},{"user_id":590,"name":"Satori Komeiji","steam_id":76561198158211423,"connected_time":3211000000000,"state":"active","ping":74},{"user_id":596,"name":"sqgly","steam_id":76561198105508955,"connected_time":2381000000000,"state":"active","ping":69},{"user_id":570,"name":"Two-Ton Heavy Thing","steam_id":76561198201724274,"connected_time":4416000000000,"state":"active","ping":91}]},{"server_id":108,"name":"Uncletopia | Dallas | 2 | All Maps","name_short":"dal-2","host":"dal-1.us.uncletopia.com","port":27025,"enabled":true,"region":"us-central","cc":"us","latitude":32.779167,"longitude":-96.80889,"reserved":0,"last_update":"0001-01-01T00:00:00Z","name_a2s":"Uncletopia | Dallas | 2 | All Maps","protocol":17,"map":"cp_dustbowl","folder":"tf","game":"Team Fortress","app_id":440,"player_count":24,"max_players":24,"Bots":0,"server_type":"Dedicated","server_os":"Linux","password":true,"vac":true,"version":"7757534","steam_id":85568392924469988,"keywords":["cp","nocrits","nodmgspread","uncletopia"],"game_id":440,"stv_port":27026,"stv_name":"Uncletopia | Dallas | 2 | All Maps | STV","players":[{"user_id":486,"name":"bolainassr0","steam_id":76561199079078845,"connected_time":3358000000000,"state":"active","ping":101},{"user_id":465,"name":"BJ Deefstorm","steam_id":76561198297450626,"connected_time":5403000000000,"state":"active","ping":47},{"user_id":507,"name":"deb","steam_id":76561198414336279,"connected_time":795000000000,"state":"active","ping":59},{"user_id":485,"name":"Speed Weed","steam_id":76561198007512620,"connected_time":3365000000000,"state":"active","ping":66},{"user_id":397,"name":"678-999-8212","steam_id":76561198084260378,"connected_time":10764000000000,"state":"active","ping":32},{"user_id":487,"name":"PirateJet","steam_id":76561198050858744,"connected_time":3321000000000,"state":"active","ping":85},{"user_id":501,"name":"Piccadilly Willy","steam_id":76561198000312126,"connected_time":1619000000000,"state":"active","ping":75},{"user_id":483,"name":"drunk driving advocate","steam_id":76561198799724217,"connected_time":3502000000000,"state":"active","ping":109},{"user_id":496,"name":"Rafl","steam_id":76561198055222756,"connected_time":1888000000000,"state":"active","ping":45},{"user_id":395,"name":"austintacious","steam_id":76561198054118061,"connected_time":10822000000000,"state":"active","ping":74},{"user_id":494,"name":"_cza","steam_id":76561198079793576,"connected_time":2058000000000,"state":"active","ping":105},{"user_id":495,"name":"dingking","steam_id":76561198148059714,"connected_time":2014000000000,"state":"active","ping":79},{"user_id":506,"name":"Koffy","steam_id":76561198184386039,"connected_time":1078000000000,"state":"active","ping":85},{"user_id":491,"name":"Saikyo","steam_id":76561198212461467,"connected_time":3154000000000,"state":"active","ping":45},{"user_id":499,"name":"Scoutroad","steam_id":76561198136564680,"connected_time":1838000000000,"state":"active","ping":64},{"user_id":389,"name":"BimmyBohns","steam_id":76561198175895250,"connected_time":10900000000000,"state":"active","ping":50},{"user_id":510,"name":"Arcadletus","steam_id":76561198976009938,"connected_time":198000000000,"state":"active","ping":55},{"user_id":509,"name":"Lukut","steam_id":76561198041273515,"connected_time":404000000000,"state":"active","ping":90},{"user_id":511,"name":"Ted Kaczynski Gaming (classic)","steam_id":76561198121468734,"connected_time":18000000000,"state":"active","ping":97},{"user_id":414,"name":"Danger McHazard","steam_id":76561198059451274,"connected_time":9957000000000,"state":"active","ping":76},{"user_id":505,"name":"Billy zane","steam_id":76561198413386212,"connected_time":1265000000000,"state":"active","ping":72},{"user_id":473,"name":"FullMetalSlugCat","steam_id":76561199193784099,"connected_time":4938000000000,"state":"active","ping":66},{"user_id":427,"name":"Lambchop","steam_id":76561198043900363,"connected_time":9422000000000,"state":"active","ping":93},{"user_id":451,"name":"Mapachito Lindo","steam_id":76561198031359995,"connected_time":7199000000000,"state":"active","ping":91}]},{"server_id":5,"name":"Uncletopia | Frankfurt | 1 | All Maps","name_short":"frk-1","host":"frk-1.de.uncletopia.com","port":27015,"enabled":true,"region":"eu","cc":"de","latitude":50.110924,"longitude":8.682127,"reserved":0,"last_update":"0001-01-01T00:00:00Z","name_a2s":"Uncletopia | Frankfurt | 1 | All Maps","protocol":17,"map":"pl_snowycoast","folder":"tf","game":"Team Fortress","app_id":440,"player_count":0,"max_players":24,"Bots":0,"server_type":"Dedicated","server_os":"Linux","password":true,"vac":true,"version":"7757534","steam_id":85568392924469989,"keywords":["nocrits","nodmgspread","payload","uncletopia"],"game_id":440,"stv_port":27016,"stv_name":"Uncletopia | Frankfurt | 1 | All Maps | STV","players":null},{"server_id":110,"name":"Uncletopia | Frankfurt | 2 | All Maps","name_short":"frk-2","host":"frk-1.de.uncletopia.com","port":27025,"enabled":true,"region":"eu","cc":"de","latitude":50.110924,"longitude":8.682127,"reserved":0,"last_update":"0001-01-01T00:00:00Z","name_a2s":"Uncletopia | Frankfurt | 2 | All Maps","protocol":17,"map":"cp_snakewater_final1","folder":"tf","game":"Team Fortress","app_id":440,"player_count":0,"max_players":24,"Bots":0,"server_type":"Dedicated","server_os":"Linux","password":true,"vac":true,"version":"7757534","steam_id":85568392924469990,"keywords":["cp","nocrits","nodmgspread","uncletopia"],"game_id":440,"stv_port":27026,"stv_name":"Uncletopia | Frankfurt | 2 | All Maps | STV","players":null},{"server_id":308,"name":"Uncletopia | Frankfurt | 3 | All Maps","name_short":"frk-3","host":"frk-1.de.uncletopia.com","port":27035,"enabled":true,"region":"eu","cc":"de","latitude":50.110924,"longitude":8.682127,"reserved":0,"last_update":"0001-01-01T00:00:00Z","name_a2s":"Uncletopia | Frankfurt | 3 | All Maps","protocol":17,"map":"pl_swiftwater_final1","folder":"tf","game":"Team Fortress","app_id":440,"player_count":0,"max_players":24,"Bots":0,"server_type":"Dedicated","server_os":"Linux","password":true,"vac":true,"version":"7757534","steam_id":85568392924504274,"keywords":["nocrits","nodmgspread","payload","uncletopia"],"game_id":440,"stv_port":27036,"stv_name":"Uncletopia | Frankfurt | 3 | All Maps | STV","players":null},{"server_id":309,"name":"Uncletopia | Frankfurt | 4 | All Maps","name_short":"frk-4","host":"frk-1.de.uncletopia.com","port":27045,"enabled":true,"region":"eu","cc":"de","latitude":50.110924,"longitude":8.682127,"reserved":0,"last_update":"0001-01-01T00:00:00Z","name_a2s":"Uncletopia | Frankfurt | 4 | All Maps","protocol":17,"map":"koth_viaduct","folder":"tf","game":"Team Fortress","app_id":440,"player_count":0,"max_players":24,"Bots":0,"server_type":"Dedicated","server_os":"Linux","password":true,"vac":true,"version":"7757534","steam_id":85568392924504275,"keywords":["cp","nocrits","nodmgspread","uncletopia"],"game_id":440,"stv_port":27046,"stv_name":"Uncletopia | Frankfurt | 4 | All Maps | STV","players":null},{"server_id":310,"name":"Uncletopia | Frankfurt | 5 | All Maps","name_short":"frk-5","host":"frk-1.de.uncletopia.com","port":27055,"enabled":true,"region":"eu","cc":"de","latitude":50.110924,"longitude":8.682127,"reserved":0,"last_update":"0001-01-01T00:00:00Z","name_a2s":"Uncletopia | Frankfurt | 5 | All Maps","protocol":17,"map":"koth_lakeside_final","folder":"tf","game":"Team Fortress","app_id":440,"player_count":0,"max_players":24,"Bots":0,"server_type":"Dedicated","server_os":"Linux","password":true,"vac":true,"version":"7757534","steam_id":85568392924504277,"keywords":["cp","nocrits","nodmgspread","uncletopia"],"game_id":440,"stv_port":27056,"stv_name":"Uncletopia | Frankfurt | 5 | All Maps | STV","players":null},{"server_id":311,"name":"Uncletopia | Frankfurt | 6 | All Maps","name_short":"frk-6","host":"frk-1.de.uncletopia.com","port":27065,"enabled":true,"region":"eu","cc":"de","latitude":50.110924,"longitude":8.682127,"reserved":0,"last_update":"0001-01-01T00:00:00Z","name_a2s":"Uncletopia | Frankfurt | 6 | All Maps","protocol":17,"map":"pl_frontier_final","folder":"tf","game":"Team Fortress","app_id":440,"player_count":0,"max_players":24,"Bots":0,"server_type":"Dedicated","server_os":"Linux","password":true,"vac":true,"version":"7757534","steam_id":85568392924504278,"keywords":["nocrits","nodmgspread","payload","uncletopia"],"game_id":440,"stv_port":27066,"stv_name":"Uncletopia | Frankfurt | 6 | All Maps | STV","players":null},{"server_id":23,"name":"Uncletopia | Frankfurt | 7 | Stopwatch Beta","name_short":"frk-7","host":"frk-1.de.uncletopia.com","port":27075,"enabled":true,"region":"eu","cc":"de","latitude":50.110924,"longitude":8.682127,"reserved":0,"last_update":"0001-01-01T00:00:00Z","name_a2s":"Uncletopia | Frankfurt | 7 | Stopwatch Beta","protocol":17,"map":"cp_sunshine","folder":"tf","game":"Team Fortress","app_id":440,"player_count":0,"max_players":24,"Bots":0,"server_type":"Dedicated","server_os":"Linux","password":true,"vac":true,"version":"7757534","steam_id":85568392924742827,"keywords":["cp","nocrits","nodmgspread","uncletopia"],"game_id":440,"stv_port":27076,"stv_name":"Uncletopia | Frankfurt | 7 | Stopwatch Beta | STV","players":null},{"server_id":24,"name":"Uncletopia | Frankfurt | 8 | Community","name_short":"frk-8","host":"frk-1.de.uncletopia.com","port":27085,"enabled":true,"region":"eu","cc":"de","latitude":50.110924,"longitude":8.682127,"reserved":0,"last_update":"0001-01-01T00:00:00Z","name_a2s":"Uncletopia | Frankfurt | 8 | Community","protocol":17,"map":"workshop/koth_ashville_final.ugc2130459942","folder":"tf","game":"Team Fortress","app_id":440,"player_count":0,"max_players":24,"Bots":0,"server_type":"Dedicated","server_os":"Linux","password":true,"vac":true,"version":"7757534","steam_id":85568392924742828,"keywords":["cp","nocrits","nodmgspread","uncletopia"],"game_id":440,"stv_port":27086,"stv_name":"Uncletopia | Frankfurt | 8 | Community | STV","players":null},{"server_id":202,"name":"Uncletopia | Hong Kong | 1 | All Maps","name_short":"hgk-1","host":"hgk-1.hk.uncletopia.com","port":27015,"enabled":true,"region":"asia","cc":"hk","latitude":22.302711,"longitude":114.177216,"reserved":0,"last_update":"0001-01-01T00:00:00Z","name_a2s":"Uncletopia | Hong Kong | 1 | All Maps","protocol":17,"map":"cp_process_final","folder":"tf","game":"Team Fortress","app_id":440,"player_count":0,"max_players":24,"Bots":0,"server_type":"Dedicated","server_os":"Linux","password":true,"vac":true,"version":"7757534","steam_id":85568392924494504,"keywords":["cp","nocrits","nodmgspread","uncletopia"],"game_id":440,"stv_port":27016,"stv_name":"Uncletopia | Hong Kong | 1 | All Maps | STV","players":null},{"server_id":1,"name":"Uncletopia | Los Angeles | 1 | All Maps","name_short":"lax-1","host":"lax-1.us.uncletopia.com","port":27015,"enabled":true,"region":"us-west","cc":"us","latitude":33.94279,"longitude":-118.41004,"reserved":0,"last_update":"0001-01-01T00:00:00Z","name_a2s":"Uncletopia | Los Angeles | 1 | All Maps","protocol":17,"map":"cp_steel","folder":"tf","game":"Team Fortress","app_id":440,"player_count":0,"max_players":24,"Bots":0,"server_type":"Dedicated","server_os":"Linux","password":true,"vac":true,"version":"7757534","steam_id":85568392924469991,"keywords":["cp","nocrits","nodmgspread","uncletopia"],"game_id":440,"stv_port":27016,"stv_name":"Uncletopia | Los Angeles | 1 | All Maps | STV","players":null},{"server_id":112,"name":"Uncletopia | Los Angeles | 2 | All Maps","name_short":"lax-2","host":"lax-1.us.uncletopia.com","port":27025,"enabled":true,"region":"us-west","cc":"us","latitude":33.94279,"longitude":-118.41004,"reserved":0,"last_update":"0001-01-01T00:00:00Z","name_a2s":"Uncletopia | Los Angeles | 2 | All Maps","protocol":17,"map":"pl_pier","folder":"tf","game":"Team Fortress","app_id":440,"player_count":16,"max_players":24,"Bots":0,"server_type":"Dedicated","server_os":"Linux","password":true,"vac":true,"version":"7757534","steam_id":85568392924469992,"keywords":["nocrits","nodmgspread","payload","uncletopia"],"game_id":440,"stv_port":27026,"stv_name":"Uncletopia | Los Angeles | 2 | All Maps | STV","players":[{"user_id":595,"name":"RedRam","steam_id":76561198376857682,"connected_time":904000000000,"state":"active","ping":51},{"user_id":578,"name":"Altruisticailuridae","steam_id":76561198335295596,"connected_time":2160000000000,"state":"active","ping":53},{"user_id":580,"name":"JustForKicks96","steam_id":76561198055486814,"connected_time":1932000000000,"state":"active","ping":75},{"user_id":581,"name":"help","steam_id":76561198044689625,"connected_time":1927000000000,"state":"active","ping":76},{"user_id":603,"name":"Cy","steam_id":76561198134543062,"connected_time":145000000000,"state":"active","ping":60},{"user_id":601,"name":"stboncho","steam_id":76561198172275301,"connected_time":286000000000,"state":"active","ping":63},{"user_id":600,"name":"Livin' Like Larry","steam_id":76561198313360974,"connected_time":353000000000,"state":"active","ping":45},{"user_id":599,"name":"Moffein","steam_id":76561198016739296,"connected_time":475000000000,"state":"active","ping":53},{"user_id":579,"name":"johnman gooberguy","steam_id":76561199014859764,"connected_time":2002000000000,"state":"active","ping":73},{"user_id":590,"name":"H-keyLF","steam_id":76561198376014891,"connected_time":1066000000000,"state":"active","ping":47},{"user_id":602,"name":"alpharuby","steam_id":76561198051638462,"connected_time":271000000000,"state":"active","ping":45},{"user_id":591,"name":"PauperPiplup","steam_id":76561198079755313,"connected_time":1064000000000,"state":"active","ping":135},{"user_id":605,"name":"TheBlueBaron","steam_id":76561198093164594,"connected_time":66000000000,"state":"active","ping":75},{"user_id":593,"name":"EpicSurfer12","steam_id":76561198827103794,"connected_time":1035000000000,"state":"active","ping":60},{"user_id":576,"name":"-The_Under_Miner-","steam_id":76561199195735972,"connected_time":2379000000000,"state":"active","ping":95},{"user_id":606,"name":"Johnson, Navin R.","steam_id":76561197961107982,"connected_time":12000000000,"state":"spawning","ping":100}]},{"server_id":324,"name":"Uncletopia | Los Angeles | 3 | All Maps","name_short":"lax-3","host":"lax-1.us.uncletopia.com","port":27035,"enabled":true,"region":"us-west","cc":"us","latitude":33.94279,"longitude":-118.41004,"reserved":0,"last_update":"0001-01-01T00:00:00Z","name_a2s":"Uncletopia | Los Angeles | 3 | All Maps","protocol":17,"map":"cp_dustbowl","folder":"tf","game":"Team Fortress","app_id":440,"player_count":24,"max_players":24,"Bots":0,"server_type":"Dedicated","server_os":"Linux","password":true,"vac":true,"version":"7757534","steam_id":85568392924510198,"keywords":["cp","nocrits","nodmgspread","uncletopia"],"game_id":440,"stv_port":27036,"stv_name":"Uncletopia | Los Angeles | 3 | All Maps | STV","players":[{"user_id":234,"name":"Dean Martin","steam_id":76561198419470351,"connected_time":2252000000000,"state":"active","ping":45},{"user_id":210,"name":"Baggage","steam_id":76561198215128080,"connected_time":4855000000000,"state":"active","ping":65},{"user_id":214,"name":"Cosmic Visor","steam_id":76561197990817172,"connected_time":4154000000000,"state":"active","ping":84},{"user_id":247,"name":"DennethThaThinather","steam_id":76561198098121768,"connected_time":1828000000000,"state":"active","ping":85},{"user_id":248,"name":"ketsu","steam_id":76561197966171554,"connected_time":1608000000000,"state":"active","ping":170},{"user_id":233,"name":"Poop Train Conductor","steam_id":76561198073677619,"connected_time":2302000000000,"state":"active","ping":75},{"user_id":237,"name":"Frank Sinatra","steam_id":76561197981708855,"connected_time":2231000000000,"state":"active","ping":45},{"user_id":273,"name":"J1m","steam_id":76561197994114948,"connected_time":301000000000,"state":"active","ping":67},{"user_id":270,"name":"Team Fartpiss Poo","steam_id":76561199163591880,"connected_time":564000000000,"state":"active","ping":116},{"user_id":239,"name":"Billy Yank","steam_id":76561199059733640,"connected_time":2217000000000,"state":"active","ping":64},{"user_id":240,"name":"elephant thumb","steam_id":76561198118859752,"connected_time":2209000000000,"state":"active","ping":45},{"user_id":259,"name":"Kippy","steam_id":76561198281994974,"connected_time":885000000000,"state":"active","ping":54},{"user_id":125,"name":"rimbl","steam_id":76561198150137369,"connected_time":10996000000000,"state":"active","ping":46},{"user_id":249,"name":"ritchie","steam_id":76561198097835871,"connected_time":1584000000000,"state":"active","ping":115},{"user_id":241,"name":"big man","steam_id":76561198338622737,"connected_time":2171000000000,"state":"active","ping":67},{"user_id":262,"name":"poop gaming","steam_id":76561197997341630,"connected_time":736000000000,"state":"active","ping":85},{"user_id":195,"name":"Auggy","steam_id":76561198041816037,"connected_time":6011000000000,"state":"active","ping":68},{"user_id":171,"name":"God's Goofiest Goober","steam_id":76561198418288939,"connected_time":7986000000000,"state":"active","ping":64},{"user_id":267,"name":"Moshi Man","steam_id":76561198038249762,"connected_time":671000000000,"state":"active","ping":105},{"user_id":268,"name":"Slacker","steam_id":76561198133123977,"connected_time":629000000000,"state":"active","ping":100},{"user_id":274,"name":"Excalibrine","steam_id":76561198129312118,"connected_time":284000000000,"state":"active","ping":64},{"user_id":275,"name":"Arcane Flame","steam_id":76561198360024422,"connected_time":237000000000,"state":"active","ping":67},{"user_id":269,"name":"DJ Sheeve","steam_id":76561198095910139,"connected_time":628000000000,"state":"active","ping":104},{"user_id":246,"name":"Taco+Taco=Burrito","steam_id":76561198063128663,"connected_time":2020000000000,"state":"active","ping":31}]},{"server_id":25,"name":"Uncletopia | Los Angeles | 4 | Stopwatch Beta","name_short":"lax-4","host":"lax-1.us.uncletopia.com","port":27045,"enabled":true,"region":"us-west","cc":"us","latitude":33.94279,"longitude":-118.41004,"reserved":0,"last_update":"0001-01-01T00:00:00Z","name_a2s":"Uncletopia | Los Angeles | 4 | Stopwatch Beta","protocol":17,"map":"pl_swiftwater_final1","folder":"tf","game":"Team Fortress","app_id":440,"player_count":0,"max_players":24,"Bots":0,"server_type":"Dedicated","server_os":"Linux","password":true,"vac":true,"version":"7757534","steam_id":85568392924510199,"keywords":["nocrits","nodmgspread","payload","uncletopia"],"game_id":440,"stv_port":27046,"stv_name":"Uncletopia | Los Angeles | 4 | Stopwatch Beta | STV","players":null},{"server_id":11,"name":"Uncletopia | London | 1 | All Maps","name_short":"lon-1","host":"lon-1.uk.uncletopia.com","port":27015,"enabled":true,"region":"eu","cc":"gb","latitude":51.509865,"longitude":-0.118092,"reserved":0,"last_update":"0001-01-01T00:00:00Z","name_a2s":"Uncletopia | London | 1 | All Maps","protocol":17,"map":"koth_highpass","folder":"tf","game":"Team Fortress","app_id":440,"player_count":0,"max_players":24,"Bots":0,"server_type":"Dedicated","server_os":"Linux","password":true,"vac":true,"version":"7757534","steam_id":85568392924367362,"keywords":["cp","nocrits","nodmgspread","uncletopia"],"game_id":440,"stv_port":27016,"stv_name":"Uncletopia | London | 1 | All Maps | STV","players":null},{"server_id":114,"name":"Uncletopia | London | 2 | All Maps","name_short":"lon-2","host":"lon-1.uk.uncletopia.com","port":27025,"enabled":true,"region":"eu","cc":"gb","latitude":51.509865,"longitude":-0.118092,"reserved":0,"last_update":"0001-01-01T00:00:00Z","name_a2s":"Uncletopia | London | 2 | All Maps","protocol":17,"map":"koth_viaduct","folder":"tf","game":"Team Fortress","app_id":440,"player_count":0,"max_players":24,"Bots":0,"server_type":"Dedicated","server_os":"Linux","password":true,"vac":true,"version":"7757534","steam_id":85568392924470941,"keywords":["cp","nocrits","nodmgspread","uncletopia"],"game_id":440,"stv_port":27026,"stv_name":"Uncletopia | London | 2 | All Maps | STV","players":null},{"server_id":320,"name":"Uncletopia | London | 3 | All Maps","name_short":"lon-3","host":"lon-1.uk.uncletopia.com","port":27035,"enabled":true,"region":"eu","cc":"gb","latitude":51.509865,"longitude":-0.118092,"reserved":0,"last_update":"0001-01-01T00:00:00Z","name_a2s":"Uncletopia | London | 3 | All Maps","protocol":17,"map":"cp_dustbowl","folder":"tf","game":"Team Fortress","app_id":440,"player_count":0,"max_players":24,"Bots":0,"server_type":"Dedicated","server_os":"Linux","password":true,"vac":true,"version":"7757534","steam_id":85568392924510192,"keywords":["cp","nocrits","nodmgspread","uncletopia"],"game_id":440,"stv_port":27036,"stv_name":"Uncletopia | London | 3 | All Maps | STV","players":null},{"server_id":321,"name":"Uncletopia | London | 4 | All Maps","name_short":"lon-4","host":"lon-1.uk.uncletopia.com","port":27045,"enabled":true,"region":"eu","cc":"gb","latitude":51.509865,"longitude":-0.118092,"reserved":0,"last_update":"0001-01-01T00:00:00Z","name_a2s":"Uncletopia | London | 4 | All Maps","protocol":17,"map":"cp_dustbowl","folder":"tf","game":"Team Fortress","app_id":440,"player_count":0,"max_players":24,"Bots":0,"server_type":"Dedicated","server_os":"Linux","password":true,"vac":true,"version":"7757534","steam_id":85568392924510193,"keywords":["cp","nocrits","nodmgspread","uncletopia"],"game_id":440,"stv_port":27046,"stv_name":"Uncletopia | London | 4 | All Maps | STV","players":null},{"server_id":21,"name":"Uncletopia | London | 5 | All Maps","name_short":"lon-5","host":"lon-1.uk.uncletopia.com","port":27055,"enabled":true,"region":"eu","cc":"gb","latitude":51.509865,"longitude":-0.118092,"reserved":0,"last_update":"0001-01-01T00:00:00Z","name_a2s":"Uncletopia | London | 5 | All Maps","protocol":17,"map":"cp_altitude","folder":"tf","game":"Team Fortress","app_id":440,"player_count":0,"max_players":24,"Bots":0,"server_type":"Dedicated","server_os":"Linux","password":true,"vac":true,"version":"7757534","steam_id":85568392924742829,"keywords":["cp","nocrits","nodmgspread","uncletopia"],"game_id":440,"stv_port":27056,"stv_name":"Uncletopia | London | 5 | All Maps | STV","players":null},{"server_id":22,"name":"Uncletopia | London | 6 | All Maps","name_short":"lon-6","host":"lon-1.uk.uncletopia.com","port":27065,"enabled":true,"region":"eu","cc":"gb","latitude":51.509865,"longitude":-0.118092,"reserved":0,"last_update":"0001-01-01T00:00:00Z","name_a2s":"Uncletopia | London | 6 | All Maps","protocol":17,"map":"cp_mountainlab","folder":"tf","game":"Team Fortress","app_id":440,"player_count":0,"max_players":24,"Bots":0,"server_type":"Dedicated","server_os":"Linux","password":true,"vac":true,"version":"7757534","steam_id":85568392924742830,"keywords":["cp","nocrits","nodmgspread","uncletopia"],"game_id":440,"stv_port":27066,"stv_name":"Uncletopia | London | 6 | All Maps | STV","players":null},{"server_id":40,"name":"Uncletopia | London | 7 | No Payload","name_short":"lon-7","host":"lon-1.uk.uncletopia.com","port":27075,"enabled":true,"region":"eu","cc":"gb","latitude":51.509865,"longitude":-0.118092,"reserved":0,"last_update":"0001-01-01T00:00:00Z","name_a2s":"Uncletopia | London | 7 | No Payload","protocol":17,"map":"pl_badwater","folder":"tf","game":"Team Fortress","app_id":440,"player_count":0,"max_players":24,"Bots":0,"server_type":"Dedicated","server_os":"Linux","password":true,"vac":true,"version":"7757534","steam_id":85568392924964314,"keywords":["nocrits","nodmgspread","payload","uncletopia"],"game_id":440,"stv_port":27076,"stv_name":"Uncletopia | London | 7 | No Payload | STV","players":null},{"server_id":41,"name":"Uncletopia | London | 8 | Community","name_short":"lon-8","host":"lon-1.uk.uncletopia.com","port":27085,"enabled":true,"region":"eu","cc":"gb","latitude":51.509865,"longitude":-0.118092,"reserved":0,"last_update":"0001-01-01T00:00:00Z","name_a2s":"Uncletopia | London | 8 | Community","protocol":17,"map":"pl_barnblitz","folder":"tf","game":"Team Fortress","app_id":440,"player_count":0,"max_players":24,"Bots":0,"server_type":"Dedicated","server_os":"Linux","password":true,"vac":true,"version":"7757534","steam_id":85568392924964315,"keywords":["nocrits","nodmgspread","payload","uncletopia"],"game_id":440,"stv_port":27086,"stv_name":"Uncletopia | London | 8 | Community | STV","players":null},{"server_id":300,"name":"Uncletopia | Montréal | 1 | All Maps","name_short":"mtl-1","host":"mtl-1.ca.uncletopia.com","port":27015,"enabled":true,"region":"us-east","cc":"ca","latitude":45.50889,"longitude":-73.56167,"reserved":0,"last_update":"0001-01-01T00:00:00Z","name_a2s":"Uncletopia | Montréal | 1 | All Maps","protocol":17,"map":"cp_snakewater_final1","folder":"tf","game":"Team Fortress","app_id":440,"player_count":0,"max_players":24,"Bots":0,"server_type":"Dedicated","server_os":"Linux","password":true,"vac":true,"version":"7757534","steam_id":85568392924500087,"keywords":["cp","nocrits","nodmgspread","uncletopia"],"game_id":440,"stv_port":27016,"stv_name":"Uncletopia | Montréal | 1 | All Maps | STV","players":null},{"server_id":301,"name":"Uncletopia | Montréal | 2 | All Maps","name_short":"mtl-2","host":"mtl-1.ca.uncletopia.com","port":27025,"enabled":true,"region":"us-east","cc":"ca","latitude":45.50889,"longitude":-73.56167,"reserved":0,"last_update":"0001-01-01T00:00:00Z","name_a2s":"Uncletopia | Montréal | 2 | All Maps","protocol":17,"map":"cp_process_final","folder":"tf","game":"Team Fortress","app_id":440,"player_count":0,"max_players":24,"Bots":0,"server_type":"Dedicated","server_os":"Linux","password":true,"vac":true,"version":"7757534","steam_id":85568392924500088,"keywords":["cp","nocrits","nodmgspread","uncletopia"],"game_id":440,"stv_port":27026,"stv_name":"Uncletopia | Montréal | 2 | All Maps | STV","players":null},{"server_id":302,"name":"Uncletopia | Montréal | 3 | All Maps","name_short":"mtl-3","host":"mtl-1.ca.uncletopia.com","port":27035,"enabled":true,"region":"us-east","cc":"ca","latitude":45.50889,"longitude":-73.56167,"reserved":0,"last_update":"0001-01-01T00:00:00Z","name_a2s":"Uncletopia | Montréal | 3 | All Maps","protocol":17,"map":"koth_cascade","folder":"tf","game":"Team Fortress","app_id":440,"player_count":0,"max_players":24,"Bots":0,"server_type":"Dedicated","server_os":"Linux","password":true,"vac":true,"version":"7757534","steam_id":85568392924500089,"keywords":["cp","nocrits","nodmgspread","uncletopia"],"game_id":440,"stv_port":27036,"stv_name":"Uncletopia | Montréal | 3 | All Maps | STV","players":null},{"server_id":303,"name":"Uncletopia | Montréal | 4 | No Payload","name_short":"mtl-4","host":"mtl-1.ca.uncletopia.com","port":27045,"enabled":true,"region":"us-east","cc":"ca","latitude":45.50889,"longitude":-73.56167,"reserved":0,"last_update":"0001-01-01T00:00:00Z","name_a2s":"Uncletopia | Montréal | 4 | No Payload","protocol":17,"map":"koth_harvest_final","folder":"tf","game":"Team Fortress","app_id":440,"player_count":0,"max_players":24,"Bots":0,"server_type":"Dedicated","server_os":"Linux","password":true,"vac":true,"version":"7757534","steam_id":85568392924500090,"keywords":["cp","nocrits","nodmgspread","uncletopia"],"game_id":440,"stv_port":27046,"stv_name":"Uncletopia | Montréal | 4 | No Payload | STV","players":null},{"server_id":13,"name":"Uncletopia | New York City | 1 | All Maps","name_short":"nyc-1","host":"nyc-1.us.uncletopia.com","port":27015,"enabled":true,"region":"us-east","cc":"us","latitude":40.73061,"longitude":-73.93524,"reserved":0,"last_update":"0001-01-01T00:00:00Z","name_a2s":"Uncletopia | New York City | 1 | All Maps","protocol":17,"map":"cp_badlands","folder":"tf","game":"Team Fortress","app_id":440,"player_count":24,"max_players":24,"Bots":0,"server_type":"Dedicated","server_os":"Linux","password":true,"vac":true,"version":"7757534","steam_id":85568392924469993,"keywords":["cp","nocrits","nodmgspread","uncletopia"],"game_id":440,"stv_port":27016,"stv_name":"Uncletopia | New York City | 1 | All Maps | STV","players":[{"user_id":701,"name":"gouddo","steam_id":76561198195091799,"connected_time":3049000000000,"state":"active","ping":76},{"user_id":736,"name":"gromit","steam_id":76561198037746805,"connected_time":709000000000,"state":"active","ping":55},{"user_id":726,"name":"vadim_kotler","steam_id":76561199016634369,"connected_time":1294000000000,"state":"active","ping":175},{"user_id":737,"name":"Discount Lobotomy","steam_id":76561198014177686,"connected_time":706000000000,"state":"active","ping":84},{"user_id":738,"name":"golly gee willikers","steam_id":76561198069407799,"connected_time":666000000000,"state":"active","ping":71},{"user_id":670,"name":"Ludcmorais","steam_id":76561198359217809,"connected_time":5121000000000,"state":"active","ping":175},{"user_id":725,"name":"DavidBowiesPackage","steam_id":76561198148729253,"connected_time":1425000000000,"state":"active","ping":69},{"user_id":687,"name":"Zeek","steam_id":76561197987204351,"connected_time":4447000000000,"state":"active","ping":44},{"user_id":727,"name":"government assigned catgirl","steam_id":76561198833468802,"connected_time":1237000000000,"state":"active","ping":69},{"user_id":739,"name":"illegal alien","steam_id":76561198840484105,"connected_time":659000000000,"state":"active","ping":72},{"user_id":728,"name":"Slazzer","steam_id":76561198404351844,"connected_time":1204000000000,"state":"active","ping":56},{"user_id":729,"name":"DLRetro","steam_id":76561198120607261,"connected_time":1170000000000,"state":"active","ping":68},{"user_id":713,"name":"HammerHead","steam_id":76561197975668646,"connected_time":2264000000000,"state":"active","ping":90},{"user_id":731,"name":"Ltn. What's-his-Nuts","steam_id":76561198133834262,"connected_time":1045000000000,"state":"active","ping":93},{"user_id":732,"name":"Yeah, I get it. The Bird Flu","steam_id":76561198084167611,"connected_time":1000000000000,"state":"active","ping":86},{"user_id":717,"name":"2003 chevy malibu","steam_id":76561199075669125,"connected_time":1819000000000,"state":"active","ping":51},{"user_id":666,"name":"Jesse Bear","steam_id":76561198217075305,"connected_time":5362000000000,"state":"active","ping":69},{"user_id":733,"name":"Dog (real)","steam_id":76561198152622598,"connected_time":987000000000,"state":"active","ping":73},{"user_id":674,"name":"tesagi","steam_id":76561198026664629,"connected_time":4925000000000,"state":"active","ping":44},{"user_id":740,"name":"Sabaman55","steam_id":76561198212267979,"connected_time":641000000000,"state":"active","ping":64},{"user_id":735,"name":"box","steam_id":76561198985635309,"connected_time":770000000000,"state":"active","ping":85},{"user_id":678,"name":"Casual Costanza","steam_id":76561198024409325,"connected_time":4830000000000,"state":"active","ping":63},{"user_id":742,"name":"Tea Enthusiast","steam_id":76561198185583925,"connected_time":512000000000,"state":"active","ping":39},{"user_id":696,"name":"Rusted Cake","steam_id":76561198209755931,"connected_time":4039000000000,"state":"active","ping":104}]},{"server_id":14,"name":"Uncletopia | New York City | 2 | All Maps","name_short":"nyc-2","host":"nyc-1.us.uncletopia.com","port":27025,"enabled":true,"region":"us-east","cc":"us","latitude":40.73061,"longitude":-73.93524,"reserved":0,"last_update":"0001-01-01T00:00:00Z","name_a2s":"Uncletopia | New York City | 2 | All Maps","protocol":17,"map":"pl_pier","folder":"tf","game":"Team Fortress","app_id":440,"player_count":1,"max_players":24,"Bots":0,"server_type":"Dedicated","server_os":"Linux","password":true,"vac":true,"version":"7757534","steam_id":85568392924469994,"keywords":["nocrits","nodmgspread","payload","uncletopia"],"game_id":440,"stv_port":27026,"stv_name":"Uncletopia | New York City | 2 | All Maps | STV","players":[{"user_id":654,"name":"nnobi","steam_id":76561198878729277,"connected_time":401000000000,"state":"active","ping":81}]},{"server_id":15,"name":"Uncletopia | New York City | 3 | Stopwatch Beta","name_short":"nyc-3","host":"nyc-1.us.uncletopia.com","port":27035,"enabled":true,"region":"us-east","cc":"us","latitude":40.73061,"longitude":-73.93524,"reserved":0,"last_update":"0001-01-01T00:00:00Z","name_a2s":"Uncletopia | New York City | 3 | Stopwatch Beta","protocol":17,"map":"workshop/koth_ashville_final.ugc2130459942","folder":"tf","game":"Team Fortress","app_id":440,"player_count":0,"max_players":24,"Bots":0,"server_type":"Dedicated","server_os":"Linux","password":true,"vac":true,"version":"7757534","steam_id":85568392924742820,"keywords":["cp","nocrits","nodmgspread","uncletopia"],"game_id":440,"stv_port":27036,"stv_name":"Uncletopia | New York City | 3 | Stopwatch Beta | STV","players":null},{"server_id":16,"name":"Uncletopia | New York City | 4 | Community","name_short":"nyc-4","host":"nyc-1.us.uncletopia.com","port":27045,"enabled":true,"region":"us-east","cc":"us","latitude":40.73061,"longitude":-73.93524,"reserved":0,"last_update":"0001-01-01T00:00:00Z","name_a2s":"Uncletopia | New York City | 4 | Community","protocol":17,"map":"workshop/cp_mannbase_rc2a.ugc1900737467","folder":"tf","game":"Team Fortress","app_id":440,"player_count":0,"max_players":24,"Bots":0,"server_type":"Dedicated","server_os":"Linux","password":true,"vac":true,"version":"7757534","steam_id":85568392924742821,"keywords":["cp","nocrits","nodmgspread","uncletopia"],"game_id":440,"stv_port":27046,"stv_name":"Uncletopia | New York City | 4 | Community | STV","players":null},{"server_id":142,"name":"Uncletopia | São Paulo | 1 | All Maps","name_short":"sao-1","host":"sao-1.br.uncletopia.com","port":27015,"enabled":true,"region":"sa","cc":"br","latitude":-23.533773,"longitude":-46.62529,"reserved":0,"last_update":"0001-01-01T00:00:00Z","name_a2s":"Uncletopia | São Paulo | 1 | All Maps","protocol":17,"map":"cp_process_final","folder":"tf","game":"Team Fortress","app_id":440,"player_count":0,"max_players":24,"Bots":0,"server_type":"Dedicated","server_os":"Linux","password":true,"vac":true,"version":"7757534","steam_id":85568392924469996,"keywords":["cp","nocrits","nodmgspread","uncletopia"],"game_id":440,"stv_port":27016,"stv_name":"Uncletopia | São Paulo | 1 | All Maps | STV","players":null},{"server_id":143,"name":"Uncletopia | São Paulo | 2 | All Maps","name_short":"sao-2","host":"sao-2.br.uncletopia.com","port":27015,"enabled":true,"region":"sa","cc":"br","latitude":-23.533773,"longitude":-46.62529,"reserved":0,"last_update":"0001-01-01T00:00:00Z","name_a2s":"Uncletopia | São Paulo | 2 | All Maps","protocol":17,"map":"koth_lakeside_final","folder":"tf","game":"Team Fortress","app_id":440,"player_count":0,"max_players":24,"Bots":0,"server_type":"Dedicated","server_os":"Linux","password":true,"vac":true,"version":"7757534","steam_id":85568392924485349,"keywords":["cp","nocrits","nodmgspread","uncletopia"],"game_id":440,"stv_port":27016,"stv_name":"Uncletopia | São Paulo | 2 | All Maps | STV","players":null},{"server_id":7,"name":"Uncletopia | Seattle | 1 | All Maps","name_short":"sea-1","host":"sea-1.us.uncletopia.com","port":27015,"enabled":true,"region":"us-west","cc":"us","latitude":47.608013,"longitude":-122.33517,"reserved":0,"last_update":"0001-01-01T00:00:00Z","name_a2s":"Uncletopia | Seattle | 1 | All Maps","protocol":17,"map":"pl_thundermountain","folder":"tf","game":"Team Fortress","app_id":440,"player_count":24,"max_players":24,"Bots":0,"server_type":"Dedicated","server_os":"Linux","password":true,"vac":true,"version":"7757534","steam_id":85568392924469997,"keywords":["nocrits","nodmgspread","payload","uncletopia"],"game_id":440,"stv_port":27016,"stv_name":"Uncletopia | Seattle | 1 | All Maps | STV","players":[{"user_id":732,"name":":\u003c","steam_id":76561198072789439,"connected_time":1083000000000,"state":"active","ping":36},{"user_id":743,"name":"LizardGames","steam_id":76561199147525483,"connected_time":30000000000,"state":"spawning","ping":44},{"user_id":715,"name":"HundchenTanque","steam_id":76561198122692754,"connected_time":1791000000000,"state":"active","ping":105},{"user_id":655,"name":"MegumiTame","steam_id":76561198450280686,"connected_time":7593000000000,"state":"active","ping":56},{"user_id":721,"name":"asbestos","steam_id":76561198356181054,"connected_time":1371000000000,"state":"active","ping":79},{"user_id":740,"name":"Nolan","steam_id":76561198169648081,"connected_time":335000000000,"state":"active","ping":101},{"user_id":718,"name":"ROGUE-PLANET","steam_id":76561198116023052,"connected_time":1677000000000,"state":"active","ping":77},{"user_id":731,"name":"Pirate","steam_id":76561198109089321,"connected_time":1110000000000,"state":"active","ping":84},{"user_id":742,"name":"mournings end part 2 enthusiast","steam_id":76561197993524097,"connected_time":298000000000,"state":"active","ping":78},{"user_id":712,"name":"♥haunti","steam_id":76561199235580556,"connected_time":1949000000000,"state":"active","ping":45},{"user_id":687,"name":"The King of Piss World","steam_id":76561198082806956,"connected_time":5314000000000,"state":"active","ping":115},{"user_id":697,"name":"ImmuneToPeas","steam_id":76561198342411594,"connected_time":4434000000000,"state":"active","ping":70},{"user_id":741,"name":"JayLatne","steam_id":76561198258221077,"connected_time":317000000000,"state":"active","ping":51},{"user_id":728,"name":"Grill Skills","steam_id":76561198053575147,"connected_time":1159000000000,"state":"active","ping":63},{"user_id":724,"name":"Soozy420","steam_id":76561198809074422,"connected_time":1280000000000,"state":"active","ping":76},{"user_id":682,"name":"Lou Wii Gee","steam_id":76561198308449320,"connected_time":5592000000000,"state":"active","ping":83},{"user_id":725,"name":"F2P Captain Crosshair","steam_id":76561199474850983,"connected_time":1212000000000,"state":"active","ping":103},{"user_id":726,"name":"goblino","steam_id":76561198068260422,"connected_time":1202000000000,"state":"active","ping":91},{"user_id":727,"name":"AwkwardNoah","steam_id":76561198087782301,"connected_time":1193000000000,"state":"active","ping":69},{"user_id":729,"name":"Bad","steam_id":76561198128636271,"connected_time":1147000000000,"state":"active","ping":78},{"user_id":733,"name":":3","steam_id":76561198058890821,"connected_time":1072000000000,"state":"active","ping":114},{"user_id":738,"name":"gwen","steam_id":76561198046815360,"connected_time":445000000000,"state":"active","ping":75},{"user_id":737,"name":"lokm","steam_id":76561198030374238,"connected_time":914000000000,"state":"active","ping":86},{"user_id":709,"name":"C U Next Tuesday","steam_id":76561198058493492,"connected_time":2413000000000,"state":"active","ping":59}]},{"server_id":119,"name":"Uncletopia | Seattle | 2 | All Maps","name_short":"sea-2","host":"sea-1.us.uncletopia.com","port":27025,"enabled":true,"region":"us-west","cc":"us","latitude":47.608013,"longitude":-122.33517,"reserved":0,"last_update":"0001-01-01T00:00:00Z","name_a2s":"Uncletopia | Seattle | 2 | All Maps","protocol":17,"map":"pl_pier","folder":"tf","game":"Team Fortress","app_id":440,"player_count":24,"max_players":24,"Bots":0,"server_type":"Dedicated","server_os":"Linux","password":true,"vac":true,"version":"7757534","steam_id":85568392924469998,"keywords":["nocrits","nodmgspread","payload","uncletopia"],"game_id":440,"stv_port":27026,"stv_name":"Uncletopia | Seattle | 2 | All Maps | STV","players":[{"user_id":695,"name":"mub","steam_id":76561197961943948,"connected_time":389000000000,"state":"active","ping":45},{"user_id":682,"name":"Leidon","steam_id":76561198078386945,"connected_time":1945000000000,"state":"active","ping":77},{"user_id":668,"name":"skate 3 backwards man","steam_id":76561198133714966,"connected_time":2763000000000,"state":"active","ping":98},{"user_id":652,"name":"free the comish","steam_id":76561198169755734,"connected_time":4580000000000,"state":"active","ping":60},{"user_id":603,"name":"gorlab","steam_id":76561198025089694,"connected_time":11027000000000,"state":"active","ping":68},{"user_id":696,"name":"charley","steam_id":76561198828238339,"connected_time":359000000000,"state":"active","ping":82},{"user_id":685,"name":"exephur","steam_id":76561198135763234,"connected_time":1731000000000,"state":"active","ping":70},{"user_id":686,"name":"Shingis","steam_id":76561198171335930,"connected_time":1659000000000,"state":"active","ping":102},{"user_id":687,"name":"M4 Sherman","steam_id":76561198126990820,"connected_time":1598000000000,"state":"active","ping":108},{"user_id":670,"name":"Skarp129","steam_id":76561198108679057,"connected_time":2752000000000,"state":"active","ping":75},{"user_id":633,"name":"Disc0","steam_id":76561198067337267,"connected_time":7597000000000,"state":"active","ping":48},{"user_id":680,"name":"delight","steam_id":76561197980280272,"connected_time":2322000000000,"state":"active","ping":46},{"user_id":673,"name":"Dr Stange Nuts","steam_id":76561198122239885,"connected_time":2740000000000,"state":"active","ping":96},{"user_id":681,"name":"bad spy player","steam_id":76561198873699671,"connected_time":2305000000000,"state":"active","ping":55},{"user_id":643,"name":"RING DONG DORINGOS","steam_id":76561198043558709,"connected_time":6191000000000,"state":"active","ping":46},{"user_id":688,"name":"Oh No! It's Twister!","steam_id":76561198016791916,"connected_time":1546000000000,"state":"active","ping":84},{"user_id":697,"name":"porksoda","steam_id":76561198021451377,"connected_time":354000000000,"state":"active","ping":51},{"user_id":689,"name":"gender dysphoreos","steam_id":76561198038920185,"connected_time":1509000000000,"state":"active","ping":84},{"user_id":672,"name":"Benshiro","steam_id":76561198151776951,"connected_time":2747000000000,"state":"active","ping":87},{"user_id":661,"name":"wmjledger","steam_id":76561198443046861,"connected_time":4114000000000,"state":"active","ping":62},{"user_id":692,"name":"Cotton Ole Boi","steam_id":76561198373490702,"connected_time":613000000000,"state":"active","ping":81},{"user_id":684,"name":"Keamy","steam_id":76561199471434875,"connected_time":1936000000000,"state":"active","ping":44},{"user_id":691,"name":"C.E.O Of Power","steam_id":76561198173051462,"connected_time":720000000000,"state":"active","ping":65},{"user_id":601,"name":"jorts","steam_id":76561199041179985,"connected_time":11321000000000,"state":"active","ping":71}]},{"server_id":406,"name":"Uncletopia | Seattle | 3 | Stopwatch Beta","name_short":"sea-3","host":"sea-1.us.uncletopia.com","port":27035,"enabled":true,"region":"us-west","cc":"us","latitude":47.608013,"longitude":-122.33517,"reserved":0,"last_update":"0001-01-01T00:00:00Z","name_a2s":"Uncletopia | Seattle | 3 | Stopwatch Beta","protocol":17,"map":"koth_lakeside_final","folder":"tf","game":"Team Fortress","app_id":440,"player_count":0,"max_players":24,"Bots":0,"server_type":"Dedicated","server_os":"Linux","password":true,"vac":true,"version":"7757534","steam_id":85568392924515217,"keywords":["cp","nocrits","nodmgspread","uncletopia"],"game_id":440,"stv_port":27036,"stv_name":"Uncletopia | Seattle | 3 | Stopwatch Beta | STV","players":null},{"server_id":17,"name":"Uncletopia | San Francisco | 1 | All Maps","name_short":"sfo-1","host":"sfo-1.us.uncletopia.com","port":27015,"enabled":true,"region":"us-west","cc":"us","latitude":37.77397,"longitude":-122.4313,"reserved":0,"last_update":"0001-01-01T00:00:00Z","name_a2s":"Uncletopia | San Francisco | 1 | All Maps","protocol":17,"map":"pl_barnblitz","folder":"tf","game":"Team Fortress","app_id":440,"player_count":24,"max_players":24,"Bots":0,"server_type":"Dedicated","server_os":"Linux","password":true,"vac":true,"version":"7757534","steam_id":85568392924469999,"keywords":["nocrits","nodmgspread","payload","uncletopia"],"game_id":440,"stv_port":27016,"stv_name":"Uncletopia | San Francisco | 1 | All Maps | STV","players":[{"user_id":556,"name":"tobrehto","steam_id":76561198097544038,"connected_time":406000000000,"state":"active","ping":65},{"user_id":560,"name":"Flyingcat9000","steam_id":76561198179561797,"connected_time":328000000000,"state":"active","ping":35},{"user_id":501,"name":"Sunny","steam_id":76561198261667312,"connected_time":4891000000000,"state":"active","ping":69},{"user_id":535,"name":"Sidekick","steam_id":76561198392740835,"connected_time":2594000000000,"state":"active","ping":68},{"user_id":541,"name":"Excrement","steam_id":76561198167740127,"connected_time":1535000000000,"state":"active","ping":59},{"user_id":489,"name":"SvicidalBug","steam_id":76561198221390504,"connected_time":5563000000000,"state":"active","ping":87},{"user_id":538,"name":"muddy","steam_id":76561198035015260,"connected_time":2336000000000,"state":"active","ping":83},{"user_id":499,"name":"beatrix","steam_id":76561199057103062,"connected_time":5190000000000,"state":"active","ping":70},{"user_id":549,"name":":3","steam_id":76561198008599033,"connected_time":830000000000,"state":"active","ping":125},{"user_id":554,"name":"Boomba","steam_id":76561198071101891,"connected_time":648000000000,"state":"active","ping":99},{"user_id":547,"name":"Bread","steam_id":76561198309684977,"connected_time":1016000000000,"state":"active","ping":128},{"user_id":491,"name":"Exo","steam_id":76561198067943883,"connected_time":5469000000000,"state":"active","ping":67},{"user_id":544,"name":"Pah-Wraith Gul Dukat","steam_id":76561198033918106,"connected_time":1427000000000,"state":"active","ping":56},{"user_id":555,"name":"Mr.Frundles","steam_id":76561198134559026,"connected_time":538000000000,"state":"active","ping":78},{"user_id":559,"name":"the forbidden one","steam_id":76561198844273999,"connected_time":349000000000,"state":"active","ping":68},{"user_id":540,"name":"mechanicvirus","steam_id":76561198038161480,"connected_time":1803000000000,"state":"active","ping":67},{"user_id":460,"name":"Ian","steam_id":76561198159334435,"connected_time":7813000000000,"state":"active","ping":179},{"user_id":536,"name":"Listerine","steam_id":76561199016293796,"connected_time":2397000000000,"state":"active","ping":62},{"user_id":524,"name":"rat","steam_id":76561198069648768,"connected_time":3861000000000,"state":"active","ping":28},{"user_id":552,"name":"square-","steam_id":76561198058143770,"connected_time":805000000000,"state":"active","ping":87},{"user_id":486,"name":"Feel the bern","steam_id":76561198078824519,"connected_time":5899000000000,"state":"active","ping":68},{"user_id":546,"name":"cringy","steam_id":76561198323000455,"connected_time":1267000000000,"state":"active","ping":72},{"user_id":545,"name":"darktheif54","steam_id":76561198043650119,"connected_time":1380000000000,"state":"active","ping":70},{"user_id":519,"name":"jorild","steam_id":76561198213867093,"connected_time":4213000000000,"state":"active","ping":86}]},{"server_id":18,"name":"Uncletopia | San Francisco | 2 | All Maps","name_short":"sfo-2","host":"sfo-1.us.uncletopia.com","port":27025,"enabled":true,"region":"us-west","cc":"us","latitude":37.77397,"longitude":-122.4313,"reserved":0,"last_update":"0001-01-01T00:00:00Z","name_a2s":"Uncletopia | San Francisco | 2 | All Maps","protocol":17,"map":"cp_dustbowl","folder":"tf","game":"Team Fortress","app_id":440,"player_count":24,"max_players":24,"Bots":0,"server_type":"Dedicated","server_os":"Linux","password":true,"vac":true,"version":"7757534","steam_id":85568392924470000,"keywords":["cp","nocrits","nodmgspread","uncletopia"],"game_id":440,"stv_port":27026,"stv_name":"Uncletopia | San Francisco | 2 | All Maps | STV","players":[{"user_id":304,"name":"DOPEam1ne","steam_id":76561198112204774,"connected_time":2326000000000,"state":"active","ping":47},{"user_id":268,"name":"dewey","steam_id":76561198132791511,"connected_time":4289000000000,"state":"active","ping":62},{"user_id":310,"name":"Groth","steam_id":76561198061888926,"connected_time":1690000000000,"state":"active","ping":106},{"user_id":313,"name":"iSaH","steam_id":76561198305136202,"connected_time":1468000000000,"state":"active","ping":70},{"user_id":314,"name":"H4V0C","steam_id":76561199129350925,"connected_time":1395000000000,"state":"active","ping":73},{"user_id":283,"name":"blossom","steam_id":76561198042735130,"connected_time":3385000000000,"state":"active","ping":80},{"user_id":307,"name":"gt","steam_id":76561198033033884,"connected_time":2137000000000,"state":"active","ping":119},{"user_id":290,"name":"23™","steam_id":76561198314951185,"connected_time":2729000000000,"state":"active","ping":106},{"user_id":293,"name":"Power Jake","steam_id":76561198051510260,"connected_time":2707000000000,"state":"active","ping":62},{"user_id":326,"name":"parmesan","steam_id":76561198118304061,"connected_time":375000000000,"state":"active","ping":60},{"user_id":325,"name":"Artyom","steam_id":76561198152149679,"connected_time":528000000000,"state":"active","ping":60},{"user_id":315,"name":"bonk schnoffer","steam_id":76561198301598124,"connected_time":1368000000000,"state":"active","ping":83},{"user_id":282,"name":"Len","steam_id":76561199141913673,"connected_time":3497000000000,"state":"active","ping":43},{"user_id":271,"name":"The Mayo Man","steam_id":76561197995377425,"connected_time":4282000000000,"state":"active","ping":111},{"user_id":300,"name":"O Dog","steam_id":76561198133498912,"connected_time":2525000000000,"state":"active","ping":55},{"user_id":323,"name":"Cinco Noites Com Eduardo 6","steam_id":76561198101506575,"connected_time":982000000000,"state":"active","ping":76},{"user_id":294,"name":"Wheatrider","steam_id":76561198038074954,"connected_time":2698000000000,"state":"active","ping":92},{"user_id":317,"name":"Quon Grene for Vice Prez","steam_id":76561198127545817,"connected_time":1286000000000,"state":"active","ping":68},{"user_id":318,"name":"weed","steam_id":76561198149929071,"connected_time":1269000000000,"state":"active","ping":69},{"user_id":302,"name":"souljaboytellem.com","steam_id":76561198095824426,"connected_time":2471000000000,"state":"active","ping":85},{"user_id":324,"name":"pentUpinaBlind♏","steam_id":76561198146684778,"connected_time":924000000000,"state":"active","ping":69},{"user_id":305,"name":"Clit Yeastwood","steam_id":76561199042672094,"connected_time":2277000000000,"state":"active","ping":75},{"user_id":320,"name":"Fear mé","steam_id":76561198212969373,"connected_time":1230000000000,"state":"active","ping":53},{"user_id":322,"name":"Spaceman","steam_id":76561198349305249,"connected_time":1184000000000,"state":"active","ping":80}]},{"server_id":19,"name":"Uncletopia | San Francisco | 3 | Stopwatch Beta","name_short":"sfo-3","host":"sfo-1.us.uncletopia.com","port":27035,"enabled":true,"region":"us-west","cc":"us","latitude":37.77397,"longitude":-122.4313,"reserved":0,"last_update":"0001-01-01T00:00:00Z","name_a2s":"Uncletopia | San Francisco | 3 | Stopwatch Beta","protocol":17,"map":"workshop/pl_vigil_rc9.ugc1266210012","folder":"tf","game":"Team Fortress","app_id":440,"player_count":0,"max_players":24,"Bots":0,"server_type":"Dedicated","server_os":"Linux","password":true,"vac":true,"version":"7757534","steam_id":85568392924742824,"keywords":["nocrits","nodmgspread","payload","uncletopia"],"game_id":440,"stv_port":27036,"stv_name":"Uncletopia | San Francisco | 3 | Stopwatch Beta | STV","players":null},{"server_id":20,"name":"Uncletopia | San Francisco | 4 | Community","name_short":"sfo-4","host":"sfo-1.us.uncletopia.com","port":27045,"enabled":true,"region":"us-west","cc":"us","latitude":37.77397,"longitude":-122.4313,"reserved":0,"last_update":"0001-01-01T00:00:00Z","name_a2s":"Uncletopia | San Francisco | 4 | Community","protocol":17,"map":"workshop/koth_slaughter_rc1.ugc1712845210","folder":"tf","game":"Team Fortress","app_id":440,"player_count":0,"max_players":24,"Bots":0,"server_type":"Dedicated","server_os":"Linux","password":true,"vac":true,"version":"7757534","steam_id":85568392924742826,"keywords":["cp","nocrits","nodmgspread","uncletopia"],"game_id":440,"stv_port":27046,"stv_name":"Uncletopia | San Francisco | 4 | Community | STV","players":null},{"server_id":141,"name":"Uncletopia | Sydney | 1 | All Maps","name_short":"syd-1","host":"syd-1.au.uncletopia.com","port":27015,"enabled":true,"region":"au","cc":"au","latitude":-33.865143,"longitude":151.2099,"reserved":0,"last_update":"0001-01-01T00:00:00Z","name_a2s":"Uncletopia | Sydney | 1 | All Maps","protocol":17,"map":"cp_mountainlab","folder":"tf","game":"Team Fortress","app_id":440,"player_count":24,"max_players":24,"Bots":0,"server_type":"Dedicated","server_os":"Linux","password":true,"vac":true,"version":"7757534","steam_id":85568392924470001,"keywords":["cp","nocrits","nodmgspread","uncletopia"],"game_id":440,"stv_port":27016,"stv_name":"Uncletopia | Sydney | 1 | All Maps | STV","players":[{"user_id":152,"name":"koyaa","steam_id":76561198047484772,"connected_time":2037000000000,"state":"active","ping":75},{"user_id":155,"name":"Phobia²","steam_id":76561198038833524,"connected_time":1842000000000,"state":"active","ping":57},{"user_id":171,"name":"Griffin","steam_id":76561198024926514,"connected_time":761000000000,"state":"active","ping":86},{"user_id":149,"name":"Sinister80s","steam_id":76561198343540472,"connected_time":2307000000000,"state":"active","ping":72},{"user_id":165,"name":"rumoi","steam_id":76561198074814865,"connected_time":1313000000000,"state":"active","ping":70},{"user_id":153,"name":"fig","steam_id":76561198097964297,"connected_time":2021000000000,"state":"active","ping":54},{"user_id":24,"name":"Jodelkönig Franzl Lang","steam_id":76561198007667830,"connected_time":9922000000000,"state":"active","ping":50},{"user_id":175,"name":"I too have an uncle","steam_id":76561198073619528,"connected_time":362000000000,"state":"active","ping":57},{"user_id":162,"name":"Fresh Produce Gaming","steam_id":76561198358483352,"connected_time":1435000000000,"state":"active","ping":60},{"user_id":176,"name":"Cofwee","steam_id":76561198072414195,"connected_time":358000000000,"state":"active","ping":78},{"user_id":123,"name":"Albert Down under","steam_id":76561198122040049,"connected_time":4015000000000,"state":"active","ping":73},{"user_id":173,"name":"Tsolis","steam_id":76561198013950614,"connected_time":376000000000,"state":"active","ping":68},{"user_id":168,"name":"oh no, spy moment","steam_id":76561199224937937,"connected_time":898000000000,"state":"active","ping":52},{"user_id":178,"name":"cakey","steam_id":76561198173746761,"connected_time":229000000000,"state":"active","ping":47},{"user_id":126,"name":"whiteshaq","steam_id":76561198131988811,"connected_time":3869000000000,"state":"active","ping":48},{"user_id":177,"name":"CrowPBS1 PC","steam_id":76561198943274401,"connected_time":354000000000,"state":"active","ping":85},{"user_id":132,"name":"puzzling #puzzler","steam_id":76561198836003115,"connected_time":3420000000000,"state":"active","ping":61},{"user_id":105,"name":"david malouf","steam_id":76561198107085849,"connected_time":5887000000000,"state":"active","ping":50},{"user_id":163,"name":"Era","steam_id":76561198862382538,"connected_time":1434000000000,"state":"active","ping":57},{"user_id":113,"name":"shaymii","steam_id":76561198058562392,"connected_time":4987000000000,"state":"active","ping":84},{"user_id":174,"name":"Rainbowchimp33","steam_id":76561198340487560,"connected_time":366000000000,"state":"active","ping":66},{"user_id":156,"name":"goob","steam_id":76561199480479443,"connected_time":1805000000000,"state":"active","ping":90},{"user_id":172,"name":"Frog Friend","steam_id":76561198054505772,"connected_time":759000000000,"state":"active","ping":59},{"user_id":164,"name":"fungus","steam_id":76561198082217365,"connected_time":1406000000000,"state":"active","ping":81}]},{"server_id":123,"name":"Uncletopia | Sydney | 2 | All Maps","name_short":"syd-2","host":"syd-1.au.uncletopia.com","port":27025,"enabled":true,"region":"au","cc":"au","latitude":-33.865143,"longitude":151.2099,"reserved":0,"last_update":"0001-01-01T00:00:00Z","name_a2s":"Uncletopia | Sydney | 2 | All Maps","protocol":17,"map":"cp_dustbowl","folder":"tf","game":"Team Fortress","app_id":440,"player_count":0,"max_players":24,"Bots":0,"server_type":"Dedicated","server_os":"Linux","password":true,"vac":true,"version":"7757534","steam_id":85568392924470002,"keywords":["cp","nocrits","nodmgspread","uncletopia"],"game_id":440,"stv_port":27026,"stv_name":"Uncletopia | Sydney | 2 | All Maps | STV","players":null},{"server_id":395,"name":"Uncletopia | Sydney | 3 | All Maps","name_short":"syd-3","host":"syd-1.au.uncletopia.com","port":27035,"enabled":true,"region":"au","cc":"au","latitude":-33.865143,"longitude":151.2099,"reserved":0,"last_update":"0001-01-01T00:00:00Z","name_a2s":"Uncletopia | Sydney | 3 | All Maps","protocol":17,"map":"cp_sunshine","folder":"tf","game":"Team Fortress","app_id":440,"player_count":0,"max_players":24,"Bots":0,"server_type":"Dedicated","server_os":"Linux","password":true,"vac":true,"version":"7757534","steam_id":85568392925194467,"keywords":["cp","nocrits","nodmgspread","uncletopia"],"game_id":440,"stv_port":27036,"stv_name":"Uncletopia | Sydney | 3 | All Maps | STV","players":null},{"server_id":396,"name":"Uncletopia | Sydney | 4 | All Maps","name_short":"syd-4","host":"syd-1.au.uncletopia.com","port":27045,"enabled":true,"region":"au","cc":"au","latitude":-33.865143,"longitude":151.2099,"reserved":0,"last_update":"0001-01-01T00:00:00Z","name_a2s":"Uncletopia | Sydney | 4 | All Maps","protocol":17,"map":"koth_highpass","folder":"tf","game":"Team Fortress","app_id":440,"player_count":0,"max_players":24,"Bots":0,"server_type":"Dedicated","server_os":"Linux","password":true,"vac":true,"version":"7757534","steam_id":85568392925397958,"keywords":["cp","nocrits","nodmgspread","uncletopia"],"game_id":440,"stv_port":27046,"stv_name":"Uncletopia | Sydney | 4 | All Maps | STV","players":null},{"server_id":58,"name":"Uncletopia | Sydney | 5 | Stopwatch Beta","name_short":"syd-5","host":"syd-1.au.uncletopia.com","port":27055,"enabled":true,"region":"au","cc":"au","latitude":-33.865143,"longitude":151.2099,"reserved":0,"last_update":"0001-01-01T00:00:00Z","name_a2s":"Uncletopia | Sydney | 5 | Stopwatch Beta","protocol":17,"map":"workshop/pl_vigil_rc9.ugc1266210012","folder":"tf","game":"Team Fortress","app_id":440,"player_count":0,"max_players":24,"Bots":0,"server_type":"Dedicated","server_os":"Linux","password":true,"vac":true,"version":"7757534","steam_id":85568392925397959,"keywords":["nocrits","nodmgspread","payload","uncletopia"],"game_id":440,"stv_port":27056,"stv_name":"Uncletopia | Sydney | 5 | Stopwatch Beta | STV","players":null},{"server_id":59,"name":"Uncletopia | Sydney | 6 | Community","name_short":"syd-6","host":"syd-1.au.uncletopia.com","port":27065,"enabled":true,"region":"au","cc":"au","latitude":-33.865143,"longitude":151.2099,"reserved":0,"last_update":"0001-01-01T00:00:00Z","name_a2s":"Uncletopia | Sydney | 6 | Community","protocol":17,"map":"cp_snakewater_final1","folder":"tf","game":"Team Fortress","app_id":440,"player_count":0,"max_players":24,"Bots":0,"server_type":"Dedicated","server_os":"Linux","password":true,"vac":true,"version":"7757534","steam_id":85568392925397960,"keywords":["cp","nocrits","nodmgspread","uncletopia"],"game_id":440,"stv_port":27066,"stv_name":"Uncletopia | Sydney | 6 | Community | STV","players":null},{"server_id":49,"name":"Uncletopia | Warsaw | 1 | All Maps","name_short":"waw-1","host":"waw-1.pl.uncletopia.com","port":27015,"enabled":true,"region":"eu","cc":"pl","latitude":52.2297,"longitude":21.017532,"reserved":0,"last_update":"0001-01-01T00:00:00Z","name_a2s":"","protocol":0,"map":"","folder":"","game":"","app_id":0,"player_count":0,"max_players":0,"Bots":0,"server_type":"","server_os":"","password":false,"vac":false,"version":"","steam_id":0,"keywords":null,"game_id":0,"stv_port":0,"stv_name":"","players":null},{"server_id":50,"name":"Uncletopia | Warsaw | 2 | All Maps","name_short":"waw-2","host":"waw-1.pl.uncletopia.com","port":27025,"enabled":true,"region":"eu","cc":"pl","latitude":52.2297,"longitude":21.017532,"reserved":0,"last_update":"0001-01-01T00:00:00Z","name_a2s":"Uncletopia | Warsaw | 2 | All Maps","protocol":17,"map":"pl_upward","folder":"tf","game":"Team Fortress","app_id":440,"player_count":7,"max_players":24,"Bots":0,"server_type":"Dedicated","server_os":"Linux","password":true,"vac":true,"version":"7757534","steam_id":85568392925397851,"keywords":["nocrits","nodmgspread","payload","uncletopia"],"game_id":440,"stv_port":27026,"stv_name":"Uncletopia | Warsaw | 2 | All Maps | STV","players":[{"user_id":3,"name":"MoonShine","steam_id":76561199142730050,"connected_time":3147000000000,"state":"active","ping":118},{"user_id":4,"name":"ja","steam_id":76561199228540618,"connected_time":2500000000000,"state":"active","ping":61},{"user_id":6,"name":"TheFox.tf","steam_id":76561197996851702,"connected_time":2384000000000,"state":"active","ping":74},{"user_id":12,"name":"caveman.pnj","steam_id":76561198992856213,"connected_time":591000000000,"state":"active","ping":102},{"user_id":16,"name":"man-made horrors","steam_id":76561199480942903,"connected_time":108000000000,"state":"active","ping":89},{"user_id":14,"name":"Oborawatabinost","steam_id":76561199052275857,"connected_time":420000000000,"state":"active","ping":121},{"user_id":15,"name":"толя","steam_id":76561199098518615,"connected_time":242000000000,"state":"active","ping":89}]},{"server_id":51,"name":"Uncletopia | Warsaw | 3 | All Maps","name_short":"waw-3","host":"waw-1.pl.uncletopia.com","port":27035,"enabled":true,"region":"eu","cc":"pl","latitude":52.2297,"longitude":21.017532,"reserved":0,"last_update":"0001-01-01T00:00:00Z","name_a2s":"Uncletopia | Warsaw | 3 | All Maps","protocol":17,"map":"pl_badwater","folder":"tf","game":"Team Fortress","app_id":440,"player_count":0,"max_players":24,"Bots":0,"server_type":"Dedicated","server_os":"Linux","password":true,"vac":true,"version":"7757534","steam_id":85568392925397852,"keywords":["nocrits","nodmgspread","payload","uncletopia"],"game_id":440,"stv_port":27036,"stv_name":"Uncletopia | Warsaw | 3 | All Maps | STV","players":null},{"server_id":52,"name":"Uncletopia | Warsaw | 4 | All Maps","name_short":"waw-4","host":"waw-1.pl.uncletopia.com","port":27045,"enabled":true,"region":"eu","cc":"pl","latitude":52.2297,"longitude":21.017532,"reserved":0,"last_update":"0001-01-01T00:00:00Z","name_a2s":"Uncletopia | Warsaw | 4 | All Maps","protocol":17,"map":"koth_lakeside_final","folder":"tf","game":"Team Fortress","app_id":440,"player_count":0,"max_players":24,"Bots":0,"server_type":"Dedicated","server_os":"Linux","password":true,"vac":true,"version":"7757534","steam_id":85568392925397853,"keywords":["cp","nocrits","nodmgspread","uncletopia"],"game_id":440,"stv_port":27046,"stv_name":"Uncletopia | Warsaw | 4 | All Maps | STV","players":null},{"server_id":53,"name":"Uncletopia | Warsaw | 5 | Stopwatch Beta","name_short":"waw-5","host":"waw-1.pl.uncletopia.com","port":27055,"enabled":true,"region":"eu","cc":"pl","latitude":52.2297,"longitude":21.017532,"reserved":0,"last_update":"0001-01-01T00:00:00Z","name_a2s":"Uncletopia | Warsaw | 5 | Stopwatch Beta","protocol":17,"map":"pl_borneo","folder":"tf","game":"Team Fortress","app_id":440,"player_count":0,"max_players":24,"Bots":0,"server_type":"Dedicated","server_os":"Linux","password":true,"vac":true,"version":"7757534","steam_id":85568392925397854,"keywords":["nocrits","nodmgspread","payload","uncletopia"],"game_id":440,"stv_port":27056,"stv_name":"Uncletopia | Warsaw | 5 | Stopwatch Beta | STV","players":null},{"server_id":54,"name":"Uncletopia | Warsaw | 6 | Community","name_short":"waw-6","host":"waw-1.pl.uncletopia.com","port":27065,"enabled":true,"region":"eu","cc":"pl","latitude":52.2297,"longitude":21.017532,"reserved":0,"last_update":"0001-01-01T00:00:00Z","name_a2s":"Uncletopia | Warsaw | 6 | Community","protocol":17,"map":"koth_lakeside_final","folder":"tf","game":"Team Fortress","app_id":440,"player_count":0,"max_players":24,"Bots":0,"server_type":"Dedicated","server_os":"Linux","password":true,"vac":true,"version":"7757534","steam_id":85568392925397856,"keywords":["cp","nocrits","nodmgspread","uncletopia"],"game_id":440,"stv_port":27066,"stv_name":"Uncletopia | Warsaw | 6 | Community | STV","players":null}]}