{"status":true,"message":"","result":[{"server_id":9,"name":"Uncletopia | Atlanta | 1 | All Maps","name_short":"atl-1","host":"atl-1.us.uncletopia.com","port":27015,"enabled":true,"region":"us-east","cc":"us","latitude":33.753746,"longitude":-84.38633,"reserved":0,"last_update":"0001-01-01T00:00:00Z","name_a2s":"Uncletopia | Atlanta | 1 | All Maps","protocol":17,"map":"pl_badwater","folder":"tf","game":"Team Fortress","app_id":440,"player_count":23,"max_players":24,"Bots":0,"server_type":"Dedicated","server_os":"Linux","password":true,"vac":true,"version":"7695204","steam_id":85568392924469982,"keywords":["nocrits","nodmgspread","payload","uncletopia"],"game_id":440,"stv_port":27016,"stv_name":"Uncletopia | Atlanta | 1 | All Maps | STV","players":[{"user_id":2,"name":"Duckywinner","steam_id":76561198254828139,"connected_time":2616000000000,"state":"spawning","ping":48},{"user_id":40,"name":"Fall","steam_id":76561198186385485,"connected_time":1340000000000,"state":"active","ping":42},{"user_id":48,"name":"PanCAKEEE","steam_id":76561198237489544,"connected_time":1009000000000,"state":"active","ping":93},{"user_id":5,"name":"Abbashea","steam_id":76561199182136969,"connected_time":2608000000000,"state":"spawning","ping":108},{"user_id":58,"name":"Skinny Pete","steam_id":76561198801608576,"connected_time":164000000000,"state":"spawning","ping":63},{"user_id":61,"name":"Mononoke","steam_id":76561198067397074,"connected_time":43000000000,"state":"active","ping":206},{"user_id":8,"name":"ECCO","steam_id":76561198002821513,"connected_time":2581000000000,"state":"active","ping":73},{"user_id":35,"name":"Braixen","steam_id":76561198354314389,"connected_time":1369000000000,"state":"active","ping":69},{"user_id":44,"name":"PlatinumYeti","steam_id":76561198427937434,"connected_time":1333000000000,"state":"spawning","ping":75},{"user_id":11,"name":"penis expert","steam_id":76561198048139966,"connected_time":2565000000000,"state":"active","ping":134},{"user_id":13,"name":"NotSoMewwo","steam_id":76561198130067099,"connected_time":2538000000000,"state":"spawning","ping":92},{"user_id":59,"name":"mark","steam_id":76561198223421912,"connected_time":153000000000,"state":"spawning","ping":123},{"user_id":62,"name":"Fisherman","steam_id":76561198071026825,"connected_time":21000000000,"state":"active","ping":45},{"user_id":17,"name":"hotbox","steam_id":76561198184076165,"connected_time":2525000000000,"state":"spawning","ping":140},{"user_id":32,"name":"Quansen","steam_id":76561198151594550,"connected_time":2078000000000,"state":"active","ping":134},{"user_id":47,"name":"theeternalgasmask","steam_id":76561198394005165,"connected_time":1232000000000,"state":"active","ping":59},{"user_id":60,"name":"ATL1 | JOVA (very merry)","steam_id":76561198090333536,"connected_time":147000000000,"state":"active","ping":74},{"user_id":22,"name":"have you ever tossed a salad?","steam_id":76561198986534519,"connected_time":2509000000000,"state":"active","ping":123},{"user_id":63,"name":"Epifiny","steam_id":76561198027958086,"connected_time":14000000000,"state":"spawning","ping":85},{"user_id":24,"name":"Flar√≠s","steam_id":76561198055862577,"connected_time":2487000000000,"state":"active","ping":86},{"user_id":25,"name":"The Squid Gamer‚Ñ¢","steam_id":76561198340621517,"connected_time":2486000000000,"state":"active","ping":162},{"user_id":26,"name":"DMM","steam_id":76561198065426171,"connected_time":2483000000000,"state":"active","ping":175},{"user_id":64,"name":"sp :/","steam_id":76561198082337619,"connected_time":3000000000,"state":"spawning","ping":62}]},{"server_id":400,"name":"Uncletopia | Atlanta | 3 | All Maps","name_short":"atl-3","host":"atl-1.us.uncletopia.com","port":27035,"enabled":true,"region":"us-east","cc":"us","latitude":33.753746,"longitude":-84.38633,"reserved":0,"last_update":"0001-01-01T00:00:00Z","name_a2s":"Uncletopia | Atlanta | 3 | All Maps","protocol":17,"map":"pl_frontier_final","folder":"tf","game":"Team Fortress","app_id":440,"player_count":0,"max_players":24,"Bots":0,"server_type":"Dedicated","server_os":"Linux","password":true,"vac":true,"version":"7695204","steam_id":85568392924515187,"keywords":["nocrits","nodmgspread","payload","uncletopia"],"game_id":440,"stv_port":0,"stv_name":"","players":null},{"server_id":401,"name":"Uncletopia | Atlanta | 4 | No Payload","name_short":"atl-4","host":"atl-1.us.uncletopia.com","port":27045,"enabled":true,"region":"us-east","cc":"us","latitude":33.753746,"longitude":-84.38633,"reserved":0,"last_update":"0001-01-01T00:00:00Z","name_a2s":"Uncletopia | Atlanta | 4 | No Payload","protocol":17,"map":"cp_snakewater_final1","folder":"tf","game":"Team Fortress","app_id":440,"player_count":0,"max_players":24,"Bots":0,"server_type":"Dedicated","server_os":"Linux","password":true,"vac":true,"version":"7695204","steam_id":85568392924515188,"keywords":["cp","nocrits","nodmgspread","uncletopia"],"game_id":440,"stv_port":0,"stv_name":"","players":null},{"server_id":2,"name":"Uncletopia | Chicago | 1 | All Maps","name_short":"chi-1","host":"chi-1.us.uncletopia.com","port":27015,"enabled":true,"region":"us-central","cc":"us","latitude":41.881832,"longitude":-87.62318,"reserved":0,"last_update":"0001-01-01T00:00:00Z","name_a2s":"Uncletopia | Chicago | 1 | All Maps","protocol":17,"map":"pl_upward","folder":"tf","game":"Team Fortress","app_id":440,"player_count":24,"max_players":24,"Bots":0,"server_type":"Dedicated","server_os":"Linux","password":true,"vac":true,"version":"7695204","steam_id":85568392924469984,"keywords":["nocrits","nodmgspread","payload","uncletopia"],"game_id":440,"stv_port":27016,"stv_name":"Uncletopia | Chicago | 1 | All Maps | STV","players":[{"user_id":68,"name":"Kuyumiester","steam_id":76561198126835302,"connected_time":1371000000000,"state":"active","ping":63},{"user_id":8,"name":"Ekstra","steam_id":76561199031147010,"connected_time":2430000000000,"state":"active","ping":156},{"user_id":14,"name":"BEN FRANKLYN KNOWS MY NAME","steam_id":76561199007029763,"connected_time":2192000000000,"state":"active","ping":76},{"user_id":73,"name":"Jen Shine","steam_id":76561198127039453,"connected_time":1319000000000,"state":"active","ping":85},{"user_id":7,"name":"McNamJam","steam_id":76561198028128686,"connected_time":2458000000000,"state":"active","ping":105},{"user_id":74,"name":"BIG HOG","steam_id":76561198079923652,"connected_time":1316000000000,"state":"active","ping":84},{"user_id":89,"name":"Yakts","steam_id":76561198115044159,"connected_time":176000000000,"state":"active","ping":89},{"user_id":88,"name":"Death_Esquire","steam_id":76561198372526899,"connected_time":883000000000,"state":"active","ping":61},{"user_id":16,"name":"Mythical Lag","steam_id":76561198347031281,"connected_time":2166000000000,"state":"active","ping":74},{"user_id":94,"name":"Catboy Potemkin","steam_id":76561198078474420,"connected_time":95000000000,"state":"active","ping":62},{"user_id":18,"name":"MissRaptor","steam_id":76561198105613110,"connected_time":2108000000000,"state":"active","ping":66},{"user_id":95,"name":"Money Collector","steam_id":76561198046249467,"connected_time":23000000000,"state":"active","ping":50},{"user_id":20,"name":"Smelowskia","steam_id":76561198084251115,"connected_time":2083000000000,"state":"active","ping":68},{"user_id":21,"name":"Kapu1178","steam_id":76561198107212766,"connected_time":2076000000000,"state":"active","ping":74},{"user_id":91,"name":"frid","steam_id":76561198005806915,"connected_time":170000000000,"state":"active","ping":60},{"user_id":92,"name":"tim","steam_id":76561199187337967,"connected_time":170000000000,"state":"active","ping":61},{"user_id":57,"name":"comet sooicidy","steam_id":76561198025173479,"connected_time":1572000000000,"state":"active","ping":84},{"user_id":28,"name":"women fish me","steam_id":76561198153245906,"connected_time":1927000000000,"state":"active","ping":55},{"user_id":29,"name":"Sera","steam_id":76561198986265728,"connected_time":1923000000000,"state":"active","ping":88},{"user_id":87,"name":"supercharger832","steam_id":76561198871408515,"connected_time":992000000000,"state":"active","ping":163},{"user_id":85,"name":"Bird","steam_id":76561198247484514,"connected_time":1027000000000,"state":"active","ping":71},{"user_id":69,"name":"Chad","steam_id":76561198007048233,"connected_time":1361000000000,"state":"active","ping":95},{"user_id":93,"name":"CoconutRice","steam_id":76561198114909164,"connected_time":147000000000,"state":"active","ping":48},{"user_id":70,"name":"NoShen","steam_id":76561198147434663,"connected_time":1361000000000,"state":"active","ping":68}]},{"server_id":106,"name":"Uncletopia | Chicago | 2 | All Maps","name_short":"chi-2","host":"chi-1.us.uncletopia.com","port":27025,"enabled":true,"region":"us-central","cc":"us","latitude":41.881832,"longitude":-87.62318,"reserved":0,"last_update":"0001-01-01T00:00:00Z","name_a2s":"Uncletopia | Chicago | 2 | All Maps","protocol":17,"map":"cp_process_final","folder":"tf","game":"Team Fortress","app_id":440,"player_count":0,"max_players":24,"Bots":0,"server_type":"Dedicated","server_os":"Linux","password":true,"vac":true,"version":"7695204","steam_id":85568392924469985,"keywords":["cp","nocrits","nodmgspread","uncletopia"],"game_id":440,"stv_port":0,"stv_name":"","players":null},{"server_id":402,"name":"Uncletopia | Chicago | 3 | All Maps","name_short":"chi-3","host":"chi-1.us.uncletopia.com","port":27035,"enabled":true,"region":"us-central","cc":"us","latitude":41.881832,"longitude":-87.62318,"reserved":0,"last_update":"0001-01-01T00:00:00Z","name_a2s":"Uncletopia | Chicago | 3 | All Maps","protocol":17,"map":"pl_upward","folder":"tf","game":"Team Fortress","app_id":440,"player_count":0,"max_players":24,"Bots":0,"server_type":"Dedicated","server_os":"Linux","password":true,"vac":true,"version":"7695204","steam_id":85568392924515191,"keywords":["nocrits","nodmgspread","payload","uncletopia"],"game_id":440,"stv_port":0,"stv_name":"","players":null},{"server_id":403,"name":"Uncletopia | Chicago | 4 | All Maps","name_short":"chi-4","host":"chi-1.us.uncletopia.com","port":27045,"enabled":true,"region":"us-central","cc":"us","latitude":41.881832,"longitude":-87.62318,"reserved":0,"last_update":"0001-01-01T00:00:00Z","name_a2s":"Uncletopia | Chicago | 4 | All Maps","protocol":17,"map":"koth_highpass","folder":"tf","game":"Team Fortress","app_id":440,"player_count":0,"max_players":24,"Bots":0,"server_type":"Dedicated","server_os":"Linux","password":true,"vac":true,"version":"7695204","steam_id":85568392924515193,"keywords":["cp","nocrits","nodmgspread","uncletopia"],"game_id":440,"stv_port":0,"stv_name":"","players":null},{"server_id":36,"name":"Uncletopia | Chicago | 5 | All Maps","name_short":"chi-5","host":"chi-2.us.uncletopia.com","port":27015,"enabled":true,"region":"us-central","cc":"us","latitude":41.881832,"longitude":-87.62318,"reserved":0,"last_update":"0001-01-01T00:00:00Z","name_a2s":"Uncletopia | Chicago | 5 | All Maps","protocol":17,"map":"cp_altitude","folder":"tf","game":"Team Fortress","app_id":440,"player_count":0,"max_players":24,"Bots":0,"server_type":"Dedicated","server_os":"Linux","password":true,"vac":true,"version":"7695204","steam_id":85568392924866362,"keywords":["cp","nocrits","nodmgspread","uncletopia"],"game_id":440,"stv_port":0,"stv_name":"","players":null},{"server_id":37,"name":"Uncletopia | Chicago | 6 | All Maps","name_short":"chi-6","host":"chi-2.us.uncletopia.com","port":27025,"enabled":true,"region":"us-central","cc":"us","latitude":41.881832,"longitude":-87.62318,"reserved":0,"last_update":"0001-01-01T00:00:00Z","name_a2s":"Uncletopia | Chicago | 6 | All Maps","protocol":17,"map":"cp_snakewater_final1","folder":"tf","game":"Team Fortress","app_id":440,"player_count":0,"max_players":24,"Bots":0,"server_type":"Dedicated","server_os":"Linux","password":true,"vac":true,"version":"7695204","steam_id":85568392924866363,"keywords":["cp","nocrits","nodmgspread","uncletopia"],"game_id":440,"stv_port":0,"stv_name":"","players":null},{"server_id":38,"name":"Uncletopia | Chicago | 7 | No Payload","name_short":"chi-7","host":"chi-2.us.uncletopia.com","port":27035,"enabled":true,"region":"us-central","cc":"us","latitude":41.881832,"longitude":-87.62318,"reserved":0,"last_update":"0001-01-01T00:00:00Z","name_a2s":"Uncletopia | Chicago | 7 | No Payload","protocol":17,"map":"cp_altitude","folder":"tf","game":"Team Fortress","app_id":440,"player_count":0,"max_players":24,"Bots":0,"server_type":"Dedicated","server_os":"Linux","password":true,"vac":true,"version":"7695204","steam_id":85568392924866364,"keywords":["cp","nocrits","nodmgspread","uncletopia"],"game_id":440,"stv_port":0,"stv_name":"","players":null},{"server_id":39,"name":"Uncletopia | Chicago | 8 | Community","name_short":"chi-8","host":"chi-2.us.uncletopia.com","port":27045,"enabled":true,"region":"us-central","cc":"us","latitude":41.881832,"longitude":-87.62318,"reserved":0,"last_update":"0001-01-01T00:00:00Z","name_a2s":"Uncletopia | Chicago | 8 | Community","protocol":17,"map":"cp_altitude","folder":"tf","game":"Team Fortress","app_id":440,"player_count":0,"max_players":24,"Bots":0,"server_type":"Dedicated","server_os":"Linux","password":true,"vac":true,"version":"7695204","steam_id":85568392924866365,"keywords":["cp","nocrits","nodmgspread","uncletopia"],"game_id":440,"stv_port":0,"stv_name":"","players":null},{"server_id":8,"name":"Uncletopia | Dallas | 1 | All Maps","name_short":"dal-1","host":"dal-1.us.uncletopia.com","port":27015,"enabled":true,"region":"us-central","cc":"us","latitude":32.779167,"longitude":-96.80889,"reserved":0,"last_update":"0001-01-01T00:00:00Z","name_a2s":"Uncletopia | Dallas | 1 | All Maps","protocol":17,"map":"pl_snowycoast","folder":"tf","game":"Team Fortress","app_id":440,"player_count":0,"max_players":24,"Bots":0,"server_type":"Dedicated","server_os":"Linux","password":true,"vac":true,"version":"7695204","steam_id":85568392924469986,"keywords":["nocrits","nodmgspread","payload","uncletopia"],"game_id":440,"stv_port":0,"stv_name":"","players":null},{"server_id":108,"name":"Uncletopia | Dallas | 2 | All Maps","name_short":"dal-2","host":"dal-1.us.uncletopia.com","port":27025,"enabled":true,"region":"us-central","cc":"us","latitude":32.779167,"longitude":-96.80889,"reserved":0,"last_update":"0001-01-01T00:00:00Z","name_a2s":"Uncletopia | Dallas | 2 | All Maps","protocol":17,"map":"cp_mountainlab","folder":"tf","game":"Team Fortress","app_id":440,"player_count":0,"max_players":24,"Bots":0,"server_type":"Dedicated","server_os":"Linux","password":true,"vac":true,"version":"7695204","steam_id":85568392924469988,"keywords":["cp","nocrits","nodmgspread","uncletopia"],"game_id":440,"stv_port":0,"stv_name":"","players":null},{"server_id":5,"name":"Uncletopia | Frankfurt | 1 | All Maps","name_short":"frk-1","host":"frk-1.de.uncletopia.com","port":27015,"enabled":true,"region":"eu","cc":"de","latitude":50.110924,"longitude":8.682127,"reserved":0,"last_update":"0001-01-01T00:00:00Z","name_a2s":"Uncletopia | Frankfurt | 1 | All Maps","protocol":17,"map":"cp_fastlane","folder":"tf","game":"Team Fortress","app_id":440,"player_count":24,"max_players":24,"Bots":0,"server_type":"Dedicated","server_os":"Linux","password":true,"vac":true,"version":"7695204","steam_id":85568392924469989,"keywords":["cp","nocrits","nodmgspread","uncletopia"],"game_id":440,"stv_port":27016,"stv_name":"Uncletopia | Frankfurt | 1 | All Maps | STV","players":[{"user_id":65,"name":"Dakkafex","steam_id":76561198020254869,"connected_time":842000000000,"state":"active","ping":46},{"user_id":11,"name":"Rodia","steam_id":76561197968293161,"connected_time":2365000000000,"state":"active","ping":62},{"user_id":71,"name":"The Original Aboriginal","steam_id":76561198341886313,"connected_time":381000000000,"state":"active","ping":71},{"user_id":69,"name":"Jeans Plus","steam_id":76561198052125103,"connected_time":818000000000,"state":"active","ping":60},{"user_id":52,"name":"uma","steam_id":76561198147976939,"connected_time":1498000000000,"state":"active","ping":75},{"user_id":9,"name":"Him","steam_id":76561198086400484,"connected_time":2398000000000,"state":"active","ping":80},{"user_id":54,"name":"Phiphler","steam_id":76561197994055715,"connected_time":1329000000000,"state":"active","ping":64},{"user_id":51,"name":"MAKENTAKEN","steam_id":76561199127359587,"connected_time":1609000000000,"state":"active","ping":90},{"user_id":59,"name":"Poodle","steam_id":76561198015483504,"connected_time":1154000000000,"state":"active","ping":67},{"user_id":57,"name":"stonebum","steam_id":76561198057004606,"connected_time":1258000000000,"state":"active","ping":58},{"user_id":34,"name":"Luke SpyWalker","steam_id":76561198008643276,"connected_time":2143000000000,"state":"active","ping":57},{"user_id":21,"name":"burritoeater","steam_id":76561199124197813,"connected_time":2208000000000,"state":"active","ping":72},{"user_id":49,"name":"Caskye","steam_id":76561198165430888,"connected_time":1856000000000,"state":"active","ping":71},{"user_id":70,"name":"Joff-tchoff-tchoffo-tchoffo-tch","steam_id":76561198044167743,"connected_time":744000000000,"state":"active","ping":98},{"user_id":25,"name":"jo bidn' | ETLARTORM","steam_id":76561198869576262,"connected_time":2192000000000,"state":"active","ping":120},{"user_id":26,"name":"Chef On A Cloud","steam_id":76561198077840259,"connected_time":2191000000000,"state":"active","ping":61},{"user_id":61,"name":"Crab","steam_id":76561197968825523,"connected_time":1008000000000,"state":"active","ping":80},{"user_id":75,"name":"Rudebwoyyy","steam_id":76561199387956486,"connected_time":103000000000,"state":"active","ping":55},{"user_id":62,"name":"drippin jimmy","steam_id":76561198219243969,"connected_time":981000000000,"state":"active","ping":58},{"user_id":63,"name":"Lime","steam_id":76561198166474281,"connected_time":981000000000,"state":"active","ping":46},{"user_id":76,"name":"pyromaniac","steam_id":76561198292781255,"connected_time":90000000000,"state":"active","ping":72},{"user_id":35,"name":"Miton","steam_id":76561197970323209,"connected_time":2138000000000,"state":"active","ping":86},{"user_id":36,"name":"schmick","steam_id":76561198039537958,"connected_time":2133000000000,"state":"active","ping":67},{"user_id":74,"name":"gorchfock_20 #","steam_id":76561199026378253,"connected_time":282000000000,"state":"active","ping":51}]},{"server_id":110,"name":"Uncletopia | Frankfurt | 2 | All Maps","name_short":"frk-2","host":"frk-1.de.uncletopia.com","port":27025,"enabled":true,"region":"eu","cc":"de","latitude":50.110924,"longitude":8.682127,"reserved":0,"last_update":"0001-01-01T00:00:00Z","name_a2s":"Uncletopia | Frankfurt | 2 | All Maps","protocol":17,"map":"cp_dustbowl","folder":"tf","game":"Team Fortress","app_id":440,"player_count":24,"max_players":24,"Bots":0,"server_type":"Dedicated","server_os":"Linux","password":true,"vac":true,"version":"7695204","steam_id":85568392924469990,"keywords":["cp","nocrits","nodmgspread","uncletopia"],"game_id":440,"stv_port":27026,"stv_name":"Uncletopia | Frankfurt | 2 | All Maps | STV","players":[{"user_id":29,"name":"pod","steam_id":76561198136259553,"connected_time":1948000000000,"state":"active","ping":80},{"user_id":48,"name":"coffeeloverr.190","steam_id":76561199028497703,"connected_time":543000000000,"state":"active","ping":99},{"user_id":49,"name":"DarkFloy | Bomboclat Player","steam_id":76561198070650206,"connected_time":530000000000,"state":"active","ping":82},{"user_id":5,"name":"Owlet","steam_id":76561198065613974,"connected_time":2664000000000,"state":"active","ping":74},{"user_id":47,"name":"YuraGreek","steam_id":76561198050182252,"connected_time":558000000000,"state":"active","ping":104},{"user_id":45,"name":"beurgeur","steam_id":76561198872426314,"connected_time":576000000000,"state":"active","ping":45},{"user_id":8,"name":"Stepoface","steam_id":76561198091569863,"connected_time":2652000000000,"state":"active","ping":62},{"user_id":50,"name":"wootabs","steam_id":76561198831766743,"connected_time":525000000000,"state":"active","ping":76},{"user_id":51,"name":"joebot","steam_id":76561197975606100,"connected_time":516000000000,"state":"active","ping":147},{"user_id":40,"name":"Sodemo","steam_id":76561198074987146,"connected_time":1156000000000,"state":"active","ping":52},{"user_id":12,"name":"HorizonPear","steam_id":76561198179808389,"connected_time":2637000000000,"state":"active","ping":145},{"user_id":42,"name":"Miiukade","steam_id":76561198089157860,"connected_time":1118000000000,"state":"active","ping":146},{"user_id":14,"name":"meat","steam_id":76561198093290934,"connected_time":2629000000000,"state":"active","ping":52},{"user_id":37,"name":"esteebangus","steam_id":76561198203962355,"connected_time":1401000000000,"state":"active","ping":79},{"user_id":44,"name":"VlkKurc","steam_id":76561198263081309,"connected_time":583000000000,"state":"active","ping":76},{"user_id":52,"name":"Dramagizio","steam_id":76561198047935918,"connected_time":509000000000,"state":"active","ping":47},{"user_id":56,"name":"Sparky","steam_id":76561198036754195,"connected_time":301000000000,"state":"active","ping":41},{"user_id":19,"name":"tacker11","steam_id":76561198886244287,"connected_time":2614000000000,"state":"active","ping":66},{"user_id":21,"name":"SuntanPikachu","steam_id":76561198121242476,"connected_time":2609000000000,"state":"active","ping":73},{"user_id":34,"name":"Nick","steam_id":76561198036109469,"connected_time":1802000000000,"state":"active","ping":104},{"user_id":54,"name":"melonenfanbutschi","steam_id":76561198210388153,"connected_time":499000000000,"state":"active","ping":48},{"user_id":36,"name":"\u003e","steam_id":76561198239927434,"connected_time":1576000000000,"state":"active","ping":86},{"user_id":35,"name":"uncle dane (real)","steam_id":76561198281703666,"connected_time":1802000000000,"state":"active","ping":72},{"user_id":55,"name":"OREO","steam_id":76561198017080006,"connected_time":492000000000,"state":"active","ping":110}]},{"server_id":308,"name":"Uncletopia | Frankfurt | 3 | All Maps","name_short":"frk-3","host":"frk-1.de.uncletopia.com","port":27035,"enabled":true,"region":"eu","cc":"de","latitude":50.110924,"longitude":8.682127,"reserved":0,"last_update":"0001-01-01T00:00:00Z","name_a2s":"Uncletopia | Frankfurt | 3 | All Maps","protocol":17,"map":"pl_borneo","folder":"tf","game":"Team Fortress","app_id":440,"player_count":22,"max_players":24,"Bots":0,"server_type":"Dedicated","server_os":"Linux","password":true,"vac":true,"version":"7695204","steam_id":85568392924504274,"keywords":["nocrits","nodmgspread","payload","uncletopia"],"game_id":440,"stv_port":27036,"stv_name":"Uncletopia | Frankfurt | 3 | All Maps | STV","players":[{"user_id":65,"name":"raj.","steam_id":76561198104339452,"connected_time":1473000000000,"state":"active","ping":63},{"user_id":66,"name":"1ggy","steam_id":76561199051285912,"connected_time":1406000000000,"state":"active","ping":76},{"user_id":7,"name":"Sir Oldryn Shootsalot","steam_id":76561198060264635,"connected_time":2563000000000,"state":"active","ping":45},{"user_id":6,"name":"veteran29","steam_id":76561197993041837,"connected_time":2566000000000,"state":"active","ping":59},{"user_id":8,"name":"Monke","steam_id":76561198066994468,"connected_time":2563000000000,"state":"active","ping":66},{"user_id":75,"name":"wxyz kapƒ±cƒ± izzet","steam_id":76561198241873438,"connected_time":788000000000,"state":"active","ping":78},{"user_id":12,"name":"63756d","steam_id":76561198808699024,"connected_time":2538000000000,"state":"active","ping":54},{"user_id":64,"name":"Te√üla","steam_id":76561198135314499,"connected_time":1505000000000,"state":"active","ping":69},{"user_id":78,"name":"Fan","steam_id":76561198210792815,"connected_time":770000000000,"state":"active","ping":68},{"user_id":86,"name":"camion","steam_id":76561199230091758,"connected_time":461000000000,"state":"active","ping":62},{"user_id":61,"name":"Derezady","steam_id":76561198009870596,"connected_time":1552000000000,"state":"active","ping":67},{"user_id":80,"name":"Cippo95","steam_id":76561198255311582,"connected_time":754000000000,"state":"active","ping":67},{"user_id":21,"name":"Efeca","steam_id":76561198018923829,"connected_time":2503000000000,"state":"active","ping":66},{"user_id":22,"name":"Bubbahüêæ","steam_id":76561198061730609,"connected_time":2496000000000,"state":"active","ping":76},{"user_id":87,"name":"BenJantr_","steam_id":76561198882922635,"connected_time":352000000000,"state":"active","ping":78},{"user_id":72,"name":"Tweek.","steam_id":76561198030958701,"connected_time":977000000000,"state":"active","ping":75},{"user_id":76,"name":"Crome_BOX","steam_id":76561198189948415,"connected_time":787000000000,"state":"active","ping":68},{"user_id":30,"name":"Soldado Pinguim","steam_id":76561198023844456,"connected_time":2470000000000,"state":"active","ping":74},{"user_id":27,"name":"After8","steam_id":76561198090750865,"connected_time":2486000000000,"state":"active","ping":63},{"user_id":31,"name":"Naginacz","steam_id":76561199099232534,"connected_time":2469000000000,"state":"active","ping":67},{"user_id":77,"name":"‚ñ† Jojo part 9","steam_id":76561198153199075,"connected_time":785000000000,"state":"active","ping":65},{"user_id":82,"name":"Jouppi","steam_id":76561198063725468,"connected_time":538000000000,"state":"active","ping":104}]},{"server_id":309,"name":"Uncletopia | Frankfurt | 4 | All Maps","name_short":"frk-4","host":"frk-1.de.uncletopia.com","port":27045,"enabled":true,"region":"eu","cc":"de","latitude":50.110924,"longitude":8.682127,"reserved":0,"last_update":"0001-01-01T00:00:00Z","name_a2s":"Uncletopia | Frankfurt | 4 | All Maps","protocol":17,"map":"pl_swiftwater_final1","folder":"tf","game":"Team Fortress","app_id":440,"player_count":24,"max_players":24,"Bots":0,"server_type":"Dedicated","server_os":"Linux","password":true,"vac":true,"version":"7695204","steam_id":85568392924504275,"keywords":["nocrits","nodmgspread","payload","uncletopia"],"game_id":440,"stv_port":27046,"stv_name":"Uncletopia | Frankfurt | 4 | All Maps | STV","players":[{"user_id":5,"name":"Cousin Carl1bo","steam_id":76561198996113384,"connected_time":1056000000000,"state":"active","ping":55},{"user_id":21,"name":"Source of Sanctuary","steam_id":76561198341075367,"connected_time":496000000000,"state":"active","ping":51},{"user_id":11,"name":"hammond the blithering idiot","steam_id":76561199263384620,"connected_time":746000000000,"state":"active","ping":137},{"user_id":8,"name":"fynulf","steam_id":76561199229324071,"connected_time":879000000000,"state":"active","ping":77},{"user_id":50,"name":"Jandai","steam_id":76561198835623208,"connected_time":116000000000,"state":"active","ping":64},{"user_id":10,"name":"Michael","steam_id":76561198003146906,"connected_time":791000000000,"state":"active","ping":61},{"user_id":12,"name":"Wise Mystical Tree","steam_id":76561198386130519,"connected_time":743000000000,"state":"active","ping":114},{"user_id":13,"name":"Dead BoldKnighT","steam_id":76561198446203170,"connected_time":738000000000,"state":"active","ping":103},{"user_id":14,"name":"small tony","steam_id":76561199141010349,"connected_time":710000000000,"state":"active","ping":82},{"user_id":25,"name":"philip","steam_id":76561198988155064,"connected_time":464000000000,"state":"active","ping":49},{"user_id":16,"name":"Œ© God of Porn Œ©","steam_id":76561198170081058,"connected_time":587000000000,"state":"active","ping":54},{"user_id":17,"name":"Enlightening","steam_id":76561198049680816,"connected_time":580000000000,"state":"active","ping":94},{"user_id":20,"name":"JP","steam_id":76561198274348018,"connected_time":556000000000,"state":"active","ping":53},{"user_id":19,"name":"Lizardly","steam_id":76561198176750238,"connected_time":569000000000,"state":"active","ping":71},{"user_id":22,"name":"Mysty","steam_id":76561198067412614,"connected_time":496000000000,"state":"active","ping":129},{"user_id":23,"name":"MattBlade","steam_id":76561198880395308,"connected_time":479000000000,"state":"active","ping":58},{"user_id":24,"name":"mateomijatovic2009","steam_id":76561199258641054,"connected_time":478000000000,"state":"active","ping":72},{"user_id":26,"name":"Christiano17","steam_id":76561198009049359,"connected_time":462000000000,"state":"active","ping":52},{"user_id":27,"name":"Exe_Red","steam_id":76561198154952759,"connected_time":449000000000,"state":"active","ping":75},{"user_id":29,"name":"don","steam_id":76561198407765292,"connected_time":410000000000,"state":"active","ping":55},{"user_id":31,"name":"Ben Dover","steam_id":76561199197092310,"connected_time":374000000000,"state":"active","ping":51},{"user_id":35,"name":"Donete333","steam_id":76561198409266344,"connected_time":334000000000,"state":"active","ping":75},{"user_id":42,"name":"Miecio04","steam_id":76561198412639639,"connected_time":246000000000,"state":"active","ping":60},{"user_id":48,"name":"dotdotdot","steam_id":76561198057628751,"connected_time":160000000000,"state":"active","ping":62}]},{"server_id":310,"name":"Uncletopia | Frankfurt | 5 | All Maps","name_short":"frk-5","host":"frk-1.de.uncletopia.com","port":27055,"enabled":true,"region":"eu","cc":"de","latitude":50.110924,"longitude":8.682127,"reserved":0,"last_update":"0001-01-01T00:00:00Z","name_a2s":"Uncletopia | Frankfurt | 5 | All Maps","protocol":17,"map":"pl_badwater","folder":"tf","game":"Team Fortress","app_id":440,"player_count":24,"max_players":24,"Bots":0,"server_type":"Dedicated","server_os":"Linux","password":true,"vac":true,"version":"7695204","steam_id":85568392924504277,"keywords":["nocrits","nodmgspread","payload","uncletopia"],"game_id":440,"stv_port":27056,"stv_name":"Uncletopia | Frankfurt | 5 | All Maps | STV","players":[{"user_id":3,"name":"Horseman enjoyer","steam_id":76561199070569941,"connected_time":1565000000000,"state":"active","ping":59},{"user_id":45,"name":"maxi opossum","steam_id":76561198800637336,"connected_time":262000000000,"state":"active","ping":60},{"user_id":50,"name":"Warpzel65","steam_id":76561198799303596,"connected_time":86000000000,"state":"active","ping":106},{"user_id":47,"name":"Daginberth","steam_id":76561198043811437,"connected_time":129000000000,"state":"active","ping":59},{"user_id":51,"name":"Accident","steam_id":76561198115160396,"connected_time":81000000000,"state":"active","ping":75},{"user_id":48,"name":"peruna","steam_id":76561198000721196,"connected_time":113000000000,"state":"active","ping":79},{"user_id":49,"name":"Oceanic | tuesday maybe","steam_id":76561197979741827,"connected_time":110000000000,"state":"active","ping":56},{"user_id":10,"name":"so called 'Free Thinker'","steam_id":76561199024168373,"connected_time":1492000000000,"state":"active","ping":113},{"user_id":53,"name":"ambatukam!!!","steam_id":76561198197304886,"connected_time":57000000000,"state":"active","ping":98},{"user_id":46,"name":"Redmailbox","steam_id":76561198042930322,"connected_time":225000000000,"state":"active","ping":60},{"user_id":54,"name":"Flick","steam_id":76561198001067990,"connected_time":31000000000,"state":"active","ping":61},{"user_id":31,"name":"Mingo","steam_id":76561199191245650,"connected_time":1184000000000,"state":"active","ping":90},{"user_id":16,"name":"Duarte‚Ñ¢","steam_id":76561198131456324,"connected_time":1414000000000,"state":"active","ping":85},{"user_id":35,"name":"penis","steam_id":76561198412197820,"connected_time":1067000000000,"state":"active","ping":84},{"user_id":39,"name":"bL‚óï‚óïF","steam_id":76561198008763784,"connected_time":782000000000,"state":"active","ping":56},{"user_id":43,"name":"Woman type of beat","steam_id":76561198257383813,"connected_time":533000000000,"state":"active","ping":50},{"user_id":21,"name":"Sheerluck Holmes","steam_id":76561198051161936,"connected_time":1374000000000,"state":"active","ping":48},{"user_id":44,"name":"ksg","steam_id":76561198042894236,"connected_time":512000000000,"state":"active","ping":109},{"user_id":23,"name":"disposablesuperbread","steam_id":76561199074703607,"connected_time":1354000000000,"state":"active","ping":65},{"user_id":30,"name":"leaf eater","steam_id":76561198083359604,"connected_time":1209000000000,"state":"active","ping":56},{"user_id":55,"name":"Ascendary","steam_id":76561198036267241,"connected_time":19000000000,"state":"active","ping":72},{"user_id":56,"name":"Food","steam_id":76561198882396998,"connected_time":19000000000,"state":"spawning","ping":62},{"user_id":57,"name":"Gizzey","steam_id":76561198094601362,"connected_time":11000000000,"state":"spawning","ping":77},{"user_id":37,"name":"DEMURE","steam_id":76561198263299590,"connected_time":989000000000,"state":"active","ping":60}]},{"server_id":311,"name":"Uncletopia | Frankfurt | 6 | All Maps","name_short":"frk-6","host":"frk-1.de.uncletopia.com","port":27065,"enabled":true,"region":"eu","cc":"de","latitude":50.110924,"longitude":8.682127,"reserved":0,"last_update":"0001-01-01T00:00:00Z","name_a2s":"Uncletopia | Frankfurt | 6 | All Maps","protocol":17,"map":"pl_badwater","folder":"tf","game":"Team Fortress","app_id":440,"player_count":24,"max_players":24,"Bots":0,"server_type":"Dedicated","server_os":"Linux","password":true,"vac":true,"version":"7695204","steam_id":85568392924504278,"keywords":["nocrits","nodmgspread","payload","uncletopia"],"game_id":440,"stv_port":27066,"stv_name":"Uncletopia | Frankfurt | 6 | All Maps | STV","players":[{"user_id":51,"name":"Ender w","steam_id":76561198160747515,"connected_time":1084000000000,"state":"active","ping":88},{"user_id":50,"name":"DrExplosive","steam_id":76561198063678579,"connected_time":1225000000000,"state":"active","ping":65},{"user_id":40,"name":"Polish Unqualified Politician","steam_id":76561198126398022,"connected_time":2076000000000,"state":"active","ping":75},{"user_id":7,"name":"Oddos","steam_id":76561198032029823,"connected_time":2429000000000,"state":"active","ping":79},{"user_id":36,"name":"Zerfesh","steam_id":76561198117534358,"connected_time":2257000000000,"state":"active","ping":95},{"user_id":56,"name":"Taishi-sama","steam_id":76561198133097235,"connected_time":255000000000,"state":"active","ping":102},{"user_id":18,"name":"Lyell","steam_id":76561198350329389,"connected_time":2345000000000,"state":"active","ping":81},{"user_id":57,"name":"'Poli","steam_id":76561198058710244,"connected_time":161000000000,"state":"active","ping":73},{"user_id":16,"name":"glyph","steam_id":76561197980736364,"connected_time":2356000000000,"state":"active","ping":78},{"user_id":17,"name":"mt","steam_id":76561197961319303,"connected_time":2348000000000,"state":"active","ping":53},{"user_id":45,"name":"--","steam_id":76561199065917088,"connected_time":1380000000000,"state":"active","ping":67},{"user_id":20,"name":"thekoolest88","steam_id":76561199022415672,"connected_time":2329000000000,"state":"active","ping":142},{"user_id":21,"name":"Wardruna96","steam_id":76561199057083828,"connected_time":2329000000000,"state":"active","ping":85},{"user_id":46,"name":"Jerry","steam_id":76561198402363748,"connected_time":1377000000000,"state":"active","ping":54},{"user_id":42,"name":"david.barabas1963","steam_id":76561198075232017,"connected_time":1974000000000,"state":"active","ping":55},{"user_id":24,"name":"Hejnus","steam_id":76561197988395035,"connected_time":2320000000000,"state":"active","ping":78},{"user_id":37,"name":"tzino","steam_id":76561199076883472,"connected_time":2246000000000,"state":"active","ping":78},{"user_id":26,"name":"gagalak","steam_id":76561198089979108,"connected_time":2305000000000,"state":"active","ping":92},{"user_id":58,"name":"Secretive Steve","steam_id":76561198016770338,"connected_time":87000000000,"state":"active","ping":60},{"user_id":52,"name":"Average polish citizen","steam_id":76561198062107879,"connected_time":661000000000,"state":"active","ping":80},{"user_id":53,"name":"Udinese Dion","steam_id":76561198067931573,"connected_time":652000000000,"state":"active","ping":54},{"user_id":33,"name":"Acxsa","steam_id":76561198098979449,"connected_time":2280000000000,"state":"active","ping":73},{"user_id":55,"name":"jijiklidrop","steam_id":76561198042328253,"connected_time":588000000000,"state":"active","ping":67},{"user_id":48,"name":"[T]aKer","steam_id":76561198001778013,"connected_time":1375000000000,"state":"active","ping":53}]},{"server_id":23,"name":"Uncletopia | Frankfurt | 7 | No Payload","name_short":"frk-7","host":"frk-1.de.uncletopia.com","port":27075,"enabled":true,"region":"eu","cc":"de","latitude":50.110924,"longitude":8.682127,"reserved":0,"last_update":"0001-01-01T00:00:00Z","name_a2s":"Uncletopia | Frankfurt | 7 | No Payload","protocol":17,"map":"pl_snowycoast","folder":"tf","game":"Team Fortress","app_id":440,"player_count":0,"max_players":24,"Bots":0,"server_type":"Dedicated","server_os":"Linux","password":true,"vac":true,"version":"7695204","steam_id":85568392924742827,"keywords":["nocrits","nodmgspread","payload","uncletopia"],"game_id":440,"stv_port":0,"stv_name":"","players":null},{"server_id":24,"name":"Uncletopia | Frankfurt | 8 | Community","name_short":"frk-8","host":"frk-1.de.uncletopia.com","port":27085,"enabled":true,"region":"eu","cc":"de","latitude":50.110924,"longitude":8.682127,"reserved":0,"last_update":"0001-01-01T00:00:00Z","name_a2s":"Uncletopia | Frankfurt | 8 | Community","protocol":17,"map":"koth_lakeside_final","folder":"tf","game":"Team Fortress","app_id":440,"player_count":0,"max_players":24,"Bots":0,"server_type":"Dedicated","server_os":"Linux","password":true,"vac":true,"version":"7695204","steam_id":85568392924742828,"keywords":["cp","nocrits","nodmgspread","uncletopia"],"game_id":440,"stv_port":0,"stv_name":"","players":null},{"server_id":202,"name":"Uncletopia | Hong Kong | 1 | All Maps","name_short":"hgk-1","host":"hgk-1.hk.uncletopia.com","port":27015,"enabled":true,"region":"asia","cc":"hk","latitude":22.302711,"longitude":114.177216,"reserved":0,"last_update":"0001-01-01T00:00:00Z","name_a2s":"Uncletopia | Hong Kong | 1 | All Maps","protocol":17,"map":"pl_upward","folder":"tf","game":"Team Fortress","app_id":440,"player_count":0,"max_players":24,"Bots":0,"server_type":"Dedicated","server_os":"Linux","password":true,"vac":true,"version":"7695204","steam_id":85568392924494504,"keywords":["nocrits","nodmgspread","payload","uncletopia"],"game_id":440,"stv_port":0,"stv_name":"","players":null},{"server_id":1,"name":"Uncletopia | Los Angeles | 1 | All Maps","name_short":"lax-1","host":"lax-1.us.uncletopia.com","port":27015,"enabled":true,"region":"us-west","cc":"us","latitude":33.94279,"longitude":-118.41004,"reserved":0,"last_update":"0001-01-01T00:00:00Z","name_a2s":"Uncletopia | Los Angeles | 1 | All Maps","protocol":17,"map":"cp_sunshine","folder":"tf","game":"Team Fortress","app_id":440,"player_count":0,"max_players":24,"Bots":0,"server_type":"Dedicated","server_os":"Linux","password":true,"vac":true,"version":"7695204","steam_id":85568392924469991,"keywords":["cp","nocrits","nodmgspread","uncletopia"],"game_id":440,"stv_port":0,"stv_name":"","players":null},{"server_id":112,"name":"Uncletopia | Los Angeles | 2 | All Maps","name_short":"lax-2","host":"lax-1.us.uncletopia.com","port":27025,"enabled":true,"region":"us-west","cc":"us","latitude":33.94279,"longitude":-118.41004,"reserved":0,"last_update":"0001-01-01T00:00:00Z","name_a2s":"Uncletopia | Los Angeles | 2 | All Maps","protocol":17,"map":"cp_dustbowl","folder":"tf","game":"Team Fortress","app_id":440,"player_count":0,"max_players":24,"Bots":0,"server_type":"Dedicated","server_os":"Linux","password":true,"vac":true,"version":"7695204","steam_id":85568392924469992,"keywords":["cp","nocrits","nodmgspread","uncletopia"],"game_id":440,"stv_port":0,"stv_name":"","players":null},{"server_id":324,"name":"Uncletopia | Los Angeles | 3 | All Maps","name_short":"lax-3","host":"lax-1.us.uncletopia.com","port":27035,"enabled":true,"region":"us-west","cc":"us","latitude":33.94279,"longitude":-118.41004,"reserved":0,"last_update":"0001-01-01T00:00:00Z","name_a2s":"Uncletopia | Los Angeles | 3 | All Maps","protocol":17,"map":"cp_mountainlab","folder":"tf","game":"Team Fortress","app_id":440,"player_count":0,"max_players":24,"Bots":0,"server_type":"Dedicated","server_os":"Linux","password":true,"vac":true,"version":"7695204","steam_id":85568392924510198,"keywords":["cp","nocrits","nodmgspread","uncletopia"],"game_id":440,"stv_port":0,"stv_name":"","players":null},{"server_id":25,"name":"Uncletopia | Los Angeles | 4 | No Payload","name_short":"lax-4","host":"lax-1.us.uncletopia.com","port":27045,"enabled":true,"region":"us-west","cc":"us","latitude":33.94279,"longitude":-118.41004,"reserved":0,"last_update":"0001-01-01T00:00:00Z","name_a2s":"Uncletopia | Los Angeles | 4 | No Payload","protocol":17,"map":"pl_barnblitz","folder":"tf","game":"Team Fortress","app_id":440,"player_count":0,"max_players":24,"Bots":0,"server_type":"Dedicated","server_os":"Linux","password":true,"vac":true,"version":"7695204","steam_id":85568392924510199,"keywords":["nocrits","nodmgspread","payload","uncletopia"],"game_id":440,"stv_port":0,"stv_name":"","players":null},{"server_id":11,"name":"Uncletopia | London | 1 | All Maps","name_short":"lon-1","host":"lon-1.uk.uncletopia.com","port":27015,"enabled":true,"region":"eu","cc":"gb","latitude":51.509865,"longitude":-0.118092,"reserved":0,"last_update":"0001-01-01T00:00:00Z","name_a2s":"Uncletopia | London | 1 | All Maps","protocol":17,"map":"pl_barnblitz","folder":"tf","game":"Team Fortress","app_id":440,"player_count":24,"max_players":24,"Bots":0,"server_type":"Dedicated","server_os":"Linux","password":true,"vac":true,"version":"7695204","steam_id":85568392924367362,"keywords":["nocrits","nodmgspread","payload","uncletopia"],"game_id":440,"stv_port":27016,"stv_name":"Uncletopia | London | 1 | All Maps | STV","players":[{"user_id":51,"name":"[P-roc] Cmm Bert","steam_id":76561198016658674,"connected_time":739000000000,"state":"active","ping":52},{"user_id":52,"name":"waizukaan","steam_id":76561198119210003,"connected_time":734000000000,"state":"active","ping":93},{"user_id":18,"name":"ciliorkun18","steam_id":76561198228942500,"connected_time":2003000000000,"state":"active","ping":89},{"user_id":9,"name":"NonProphet","steam_id":76561198280149820,"connected_time":2161000000000,"state":"active","ping":53},{"user_id":43,"name":"juJu","steam_id":76561198049343793,"connected_time":1503000000000,"state":"active","ping":62},{"user_id":61,"name":"Tea Drinking Conqueror","steam_id":76561198799243030,"connected_time":498000000000,"state":"active","ping":51},{"user_id":67,"name":"123","steam_id":76561198074299986,"connected_time":232000000000,"state":"active","ping":89},{"user_id":64,"name":"jaMie","steam_id":76561198170148783,"connected_time":431000000000,"state":"active","ping":43},{"user_id":16,"name":"Wedur","steam_id":76561199114839314,"connected_time":2070000000000,"state":"active","ping":120},{"user_id":54,"name":"MEDiUM","steam_id":76561198112328561,"connected_time":730000000000,"state":"active","ping":84},{"user_id":19,"name":"‚ú™ J","steam_id":76561198094911581,"connected_time":2000000000000,"state":"active","ping":46},{"user_id":21,"name":"london","steam_id":76561199055749571,"connected_time":1971000000000,"state":"active","ping":119},{"user_id":22,"name":"„Äå‚óÜRaku‚Ä¢ „Äç","steam_id":76561198059283183,"connected_time":1952000000000,"state":"active","ping":79},{"user_id":24,"name":"Datenegassie","steam_id":76561198089417032,"connected_time":1930000000000,"state":"active","ping":60},{"user_id":25,"name":"Wolfinger bbx #Savetf2","steam_id":76561198441826236,"connected_time":1924000000000,"state":"active","ping":55},{"user_id":59,"name":"most sane mentalist","steam_id":76561198310095220,"connected_time":592000000000,"state":"active","ping":31},{"user_id":45,"name":"Mir","steam_id":76561198271925474,"connected_time":1111000000000,"state":"active","ping":63},{"user_id":29,"name":"ZENISHIRA","steam_id":76561198148357250,"connected_time":1872000000000,"state":"active","ping":75},{"user_id":68,"name":"Palex","steam_id":76561198093219465,"connected_time":121000000000,"state":"active","ping":44},{"user_id":40,"name":"Tao","steam_id":76561198036750896,"connected_time":1526000000000,"state":"active","ping":66},{"user_id":50,"name":"Saken","steam_id":76561198049075295,"connected_time":742000000000,"state":"active","ping":69},{"user_id":33,"name":"lavender jones","steam_id":76561198073975078,"connected_time":1823000000000,"state":"active","ping":46},{"user_id":57,"name":"full extent of the jam","steam_id":76561198033728176,"connected_time":719000000000,"state":"active","ping":104},{"user_id":66,"name":"Cillian","steam_id":76561199046965320,"connected_time":431000000000,"state":"active","ping":68}]},{"server_id":114,"name":"Uncletopia | London | 2 | All Maps","name_short":"lon-2","host":"lon-1.uk.uncletopia.com","port":27025,"enabled":true,"region":"eu","cc":"gb","latitude":51.509865,"longitude":-0.118092,"reserved":0,"last_update":"0001-01-01T00:00:00Z","name_a2s":"Uncletopia | London | 2 | All Maps","protocol":17,"map":"cp_sunshine","folder":"tf","game":"Team Fortress","app_id":440,"player_count":0,"max_players":24,"Bots":0,"server_type":"Dedicated","server_os":"Linux","password":true,"vac":true,"version":"7695204","steam_id":85568392924470941,"keywords":["cp","nocrits","nodmgspread","uncletopia"],"game_id":440,"stv_port":0,"stv_name":"","players":null},{"server_id":320,"name":"Uncletopia | London | 3 | All Maps","name_short":"lon-3","host":"lon-1.uk.uncletopia.com","port":27035,"enabled":true,"region":"eu","cc":"gb","latitude":51.509865,"longitude":-0.118092,"reserved":0,"last_update":"0001-01-01T00:00:00Z","name_a2s":"Uncletopia | London | 3 | All Maps","protocol":17,"map":"cp_process_final","folder":"tf","game":"Team Fortress","app_id":440,"player_count":4,"max_players":24,"Bots":0,"server_type":"Dedicated","server_os":"Linux","password":true,"vac":true,"version":"7695204","steam_id":85568392924510192,"keywords":["cp","nocrits","nodmgspread","uncletopia"],"game_id":440,"stv_port":0,"stv_name":"","players":[{"user_id":4,"name":"Yassine","steam_id":76561198140565712,"connected_time":676000000000,"state":"active","ping":52},{"user_id":5,"name":"Reform","steam_id":76561198410662428,"connected_time":209000000000,"state":"active","ping":75},{"user_id":7,"name":"Walter","steam_id":76561199228871811,"connected_time":42000000000,"state":"active","ping":75},{"user_id":8,"name":"Raeews","steam_id":76561198254646517,"connected_time":5000000000,"state":"spawning","ping":58}]},{"server_id":321,"name":"Uncletopia | London | 4 | All Maps","name_short":"lon-4","host":"lon-1.uk.uncletopia.com","port":27045,"enabled":true,"region":"eu","cc":"gb","latitude":51.509865,"longitude":-0.118092,"reserved":0,"last_update":"0001-01-01T00:00:00Z","name_a2s":"Uncletopia | London | 4 | All Maps","protocol":17,"map":"koth_viaduct","folder":"tf","game":"Team Fortress","app_id":440,"player_count":0,"max_players":24,"Bots":0,"server_type":"Dedicated","server_os":"Linux","password":true,"vac":true,"version":"7695204","steam_id":85568392924510193,"keywords":["cp","nocrits","nodmgspread","uncletopia"],"game_id":440,"stv_port":0,"stv_name":"","players":null},{"server_id":21,"name":"Uncletopia | London | 5 | All Maps","name_short":"lon-5","host":"lon-1.uk.uncletopia.com","port":27055,"enabled":true,"region":"eu","cc":"gb","latitude":51.509865,"longitude":-0.118092,"reserved":0,"last_update":"0001-01-01T00:00:00Z","name_a2s":"Uncletopia | London | 5 | All Maps","protocol":17,"map":"koth_cascade","folder":"tf","game":"Team Fortress","app_id":440,"player_count":0,"max_players":24,"Bots":0,"server_type":"Dedicated","server_os":"Linux","password":true,"vac":true,"version":"7695204","steam_id":85568392924742829,"keywords":["cp","nocrits","nodmgspread","uncletopia"],"game_id":440,"stv_port":0,"stv_name":"","players":null},{"server_id":22,"name":"Uncletopia | London | 6 | All Maps","name_short":"lon-6","host":"lon-1.uk.uncletopia.com","port":27065,"enabled":true,"region":"eu","cc":"gb","latitude":51.509865,"longitude":-0.118092,"reserved":0,"last_update":"0001-01-01T00:00:00Z","name_a2s":"Uncletopia | London | 6 | All Maps","protocol":17,"map":"pl_pier","folder":"tf","game":"Team Fortress","app_id":440,"player_count":2,"max_players":24,"Bots":0,"server_type":"Dedicated","server_os":"Linux","password":true,"vac":true,"version":"7695204","steam_id":85568392924742830,"keywords":["nocrits","nodmgspread","payload","uncletopia"],"game_id":440,"stv_port":0,"stv_name":"","players":[{"user_id":3,"name":"c0fi","steam_id":76561199311158552,"connected_time":120000000000,"state":"active","ping":66},{"user_id":4,"name":"Mr Ass","steam_id":76561199262625492,"connected_time":118000000000,"state":"active","ping":85}]},{"server_id":40,"name":"Uncletopia | London | 7 | No Payload","name_short":"lon-7","host":"lon-1.uk.uncletopia.com","port":27075,"enabled":true,"region":"eu","cc":"gb","latitude":51.509865,"longitude":-0.118092,"reserved":0,"last_update":"0001-01-01T00:00:00Z","name_a2s":"Uncletopia | London | 7 | No Payload","protocol":17,"map":"cp_snakewater_final1","folder":"tf","game":"Team Fortress","app_id":440,"player_count":0,"max_players":24,"Bots":0,"server_type":"Dedicated","server_os":"Linux","password":true,"vac":true,"version":"7695204","steam_id":85568392924964314,"keywords":["cp","nocrits","nodmgspread","uncletopia"],"game_id":440,"stv_port":0,"stv_name":"","players":null},{"server_id":41,"name":"Uncletopia | London | 8 | Community","name_short":"lon-8","host":"lon-1.uk.uncletopia.com","port":27085,"enabled":true,"region":"eu","cc":"gb","latitude":51.509865,"longitude":-0.118092,"reserved":0,"last_update":"0001-01-01T00:00:00Z","name_a2s":"Uncletopia | London | 8 | Community","protocol":17,"map":"cp_dustbowl","folder":"tf","game":"Team Fortress","app_id":440,"player_count":2,"max_players":24,"Bots":0,"server_type":"Dedicated","server_os":"Linux","password":true,"vac":true,"version":"7695204","steam_id":85568392924964315,"keywords":["cp","nocrits","nodmgspread","uncletopia"],"game_id":440,"stv_port":0,"stv_name":"","players":[{"user_id":15,"name":"nikals brawltf","steam_id":76561197965607462,"connected_time":121000000000,"state":"active","ping":76},{"user_id":13,"name":"Inhambane, Inhambane, Mozambiqu","steam_id":76561198364050027,"connected_time":283000000000,"state":"active","ping":63}]},{"server_id":300,"name":"Uncletopia | Montr√©al | 1 | All Maps","name_short":"mtl-1","host":"mtl-1.ca.uncletopia.com","port":27015,"enabled":true,"region":"us-east","cc":"ca","latitude":45.50889,"longitude":-73.56167,"reserved":0,"last_update":"0001-01-01T00:00:00Z","name_a2s":"Uncletopia | Montr√©al | 1 | All Maps","protocol":17,"map":"cp_dustbowl","folder":"tf","game":"Team Fortress","app_id":440,"player_count":0,"max_players":24,"Bots":0,"server_type":"Dedicated","server_os":"Linux","password":true,"vac":true,"version":"7695204","steam_id":85568392924500087,"keywords":["cp","nocrits","nodmgspread","uncletopia"],"game_id":440,"stv_port":0,"stv_name":"","players":null},{"server_id":301,"name":"Uncletopia | Montr√©al | 2 | All Maps","name_short":"mtl-2","host":"mtl-1.ca.uncletopia.com","port":27025,"enabled":true,"region":"us-east","cc":"ca","latitude":45.50889,"longitude":-73.56167,"reserved":0,"last_update":"0001-01-01T00:00:00Z","name_a2s":"Uncletopia | Montr√©al | 2 | All Maps","protocol":17,"map":"pl_snowycoast","folder":"tf","game":"Team Fortress","app_id":440,"player_count":0,"max_players":24,"Bots":0,"server_type":"Dedicated","server_os":"Linux","password":true,"vac":true,"version":"7695204","steam_id":85568392924500088,"keywords":["nocrits","nodmgspread","payload","uncletopia"],"game_id":440,"stv_port":0,"stv_name":"","players":null},{"server_id":302,"name":"Uncletopia | Montr√©al | 3 | All Maps","name_short":"mtl-3","host":"mtl-1.ca.uncletopia.com","port":27035,"enabled":true,"region":"us-east","cc":"ca","latitude":45.50889,"longitude":-73.56167,"reserved":0,"last_update":"0001-01-01T00:00:00Z","name_a2s":"Uncletopia | Montr√©al | 3 | All Maps","protocol":17,"map":"koth_viaduct","folder":"tf","game":"Team Fortress","app_id":440,"player_count":0,"max_players":24,"Bots":0,"server_type":"Dedicated","server_os":"Linux","password":true,"vac":true,"version":"7695204","steam_id":85568392924500089,"keywords":["cp","nocrits","nodmgspread","uncletopia"],"game_id":440,"stv_port":0,"stv_name":"","players":null},{"server_id":303,"name":"Uncletopia | Montr√©al | 4 | No Payload","name_short":"mtl-4","host":"mtl-1.ca.uncletopia.com","port":27045,"enabled":true,"region":"us-east","cc":"ca","latitude":45.50889,"longitude":-73.56167,"reserved":0,"last_update":"0001-01-01T00:00:00Z","name_a2s":"Uncletopia | Montr√©al | 4 | No Payload","protocol":17,"map":"cp_dustbowl","folder":"tf","game":"Team Fortress","app_id":440,"player_count":0,"max_players":24,"Bots":0,"server_type":"Dedicated","server_os":"Linux","password":true,"vac":true,"version":"7695204","steam_id":85568392924500090,"keywords":["cp","nocrits","nodmgspread","uncletopia"],"game_id":440,"stv_port":0,"stv_name":"","players":null},{"server_id":13,"name":"Uncletopia | New York City | 1 | All Maps","name_short":"nyc-1","host":"nyc-1.us.uncletopia.com","port":27015,"enabled":true,"region":"us-east","cc":"us","latitude":40.73061,"longitude":-73.93524,"reserved":0,"last_update":"0001-01-01T00:00:00Z","name_a2s":"Uncletopia | New York City | 1 | All Maps","protocol":17,"map":"pl_pier","folder":"tf","game":"Team Fortress","app_id":440,"player_count":0,"max_players":24,"Bots":0,"server_type":"Dedicated","server_os":"Linux","password":true,"vac":true,"version":"7695204","steam_id":85568392924469993,"keywords":["nocrits","nodmgspread","payload","uncletopia"],"game_id":440,"stv_port":27016,"stv_name":"Uncletopia | New York City | 1 | All Maps | STV","players":null},{"server_id":14,"name":"Uncletopia | New York City | 2 | All Maps","name_short":"nyc-2","host":"nyc-1.us.uncletopia.com","port":27025,"enabled":true,"region":"us-east","cc":"us","latitude":40.73061,"longitude":-73.93524,"reserved":0,"last_update":"0001-01-01T00:00:00Z","name_a2s":"Uncletopia | New York City | 2 | All Maps","protocol":17,"map":"pl_upward","folder":"tf","game":"Team Fortress","app_id":440,"player_count":24,"max_players":24,"Bots":0,"server_type":"Dedicated","server_os":"Linux","password":true,"vac":true,"version":"7695204","steam_id":85568392924469994,"keywords":["nocrits","nodmgspread","payload","uncletopia"],"game_id":440,"stv_port":27026,"stv_name":"Uncletopia | New York City | 2 | All Maps | STV","players":[{"user_id":2,"name":"Fudgely","steam_id":76561198039425862,"connected_time":2572000000000,"state":"active","ping":56},{"user_id":5,"name":"Challenger Charles","steam_id":76561198005576553,"connected_time":2243000000000,"state":"active","ping":68},{"user_id":6,"name":"A_Malebolgia","steam_id":76561198097722818,"connected_time":2238000000000,"state":"active","ping":77},{"user_id":7,"name":"Ginger Powder","steam_id":76561198082650449,"connected_time":2201000000000,"state":"active","ping":65},{"user_id":25,"name":"Gabagool","steam_id":76561198365935179,"connected_time":1476000000000,"state":"active","ping":87},{"user_id":9,"name":"CBTgaeming","steam_id":76561199089290128,"connected_time":2163000000000,"state":"active","ping":128},{"user_id":12,"name":"Bysig_ttv #savetf2","steam_id":76561198086422663,"connected_time":1844000000000,"state":"active","ping":99},{"user_id":13,"name":"Albino Jellyfish","steam_id":76561198208561097,"connected_time":1826000000000,"state":"active","ping":41},{"user_id":34,"name":"YungKeet","steam_id":76561198293854963,"connected_time":1341000000000,"state":"active","ping":100},{"user_id":15,"name":"robbob","steam_id":76561198137375391,"connected_time":1713000000000,"state":"active","ping":148},{"user_id":16,"name":"LDM","steam_id":76561198843313898,"connected_time":1657000000000,"state":"active","ping":74},{"user_id":17,"name":"Cyborgnn","steam_id":76561198283586887,"connected_time":1645000000000,"state":"active","ping":74},{"user_id":18,"name":"PP_PhD","steam_id":76561198168851111,"connected_time":1634000000000,"state":"active","ping":123},{"user_id":19,"name":"Communist Killing Candy Cactus\ufffd","steam_id":76561198074980635,"connected_time":1613000000000,"state":"active","ping":135},{"user_id":37,"name":"p i n e ‚Üü ‚Üü","steam_id":76561198058199952,"connected_time":350000000000,"state":"active","ping":48},{"user_id":21,"name":"floppy muppet","steam_id":76561198003076261,"connected_time":1577000000000,"state":"active","ping":98},{"user_id":22,"name":"Splarvis","steam_id":76561198007792525,"connected_time":1564000000000,"state":"active","ping":115},{"user_id":33,"name":"Toest","steam_id":76561198076061844,"connected_time":1354000000000,"state":"active","ping":64},{"user_id":36,"name":"tired","steam_id":76561198073153936,"connected_time":361000000000,"state":"active","ping":71},{"user_id":27,"name":"Incineroar, God's Executioner B","steam_id":76561197994454639,"connected_time":1457000000000,"state":"active","ping":71},{"user_id":39,"name":"‚úø willing victim of a canniba","steam_id":76561198294013916,"connected_time":42000000000,"state":"active","ping":43},{"user_id":29,"name":"Flammenwerfer Enjoyer","steam_id":76561199079034911,"connected_time":1436000000000,"state":"active","ping":57},{"user_id":38,"name":"lfty","steam_id":76561198283841707,"connected_time":207000000000,"state":"active","ping":46},{"user_id":31,"name":"‚ìà Ranger ‚ìà","steam_id":76561198957524134,"connected_time":1418000000000,"state":"active","ping":95}]},{"server_id":15,"name":"Uncletopia | New York City | 3 | All Maps","name_short":"nyc-3","host":"nyc-1.us.uncletopia.com","port":27035,"enabled":true,"region":"us-east","cc":"us","latitude":40.73061,"longitude":-73.93524,"reserved":0,"last_update":"0001-01-01T00:00:00Z","name_a2s":"Uncletopia | New York City | 3 | All Maps","protocol":17,"map":"pl_snowycoast","folder":"tf","game":"Team Fortress","app_id":440,"player_count":6,"max_players":24,"Bots":0,"server_type":"Dedicated","server_os":"Linux","password":true,"vac":true,"version":"7695204","steam_id":85568392924742820,"keywords":["nocrits","nodmgspread","payload","uncletopia"],"game_id":440,"stv_port":0,"stv_name":"","players":[{"user_id":2,"name":"The bellman","steam_id":76561199244819489,"connected_time":758000000000,"state":"active","ping":172},{"user_id":3,"name":"Benvenuti nel mondo dei grandi","steam_id":76561199276035454,"connected_time":706000000000,"state":"active","ping":122},{"user_id":4,"name":"mge me uncle dane noob","steam_id":76561197979090955,"connected_time":680000000000,"state":"active","ping":72},{"user_id":9,"name":"bdkaine1","steam_id":76561198133545467,"connected_time":254000000000,"state":"active","ping":74},{"user_id":12,"name":"PabloDiablo","steam_id":76561198076596803,"connected_time":63000000000,"state":"active","ping":85},{"user_id":13,"name":"soulsmu","steam_id":76561198022663285,"connected_time":54000000000,"state":"spawning","ping":65}]},{"server_id":16,"name":"Uncletopia | New York City | 4 | Community","name_short":"nyc-4","host":"nyc-1.us.uncletopia.com","port":27045,"enabled":true,"region":"us-east","cc":"us","latitude":40.73061,"longitude":-73.93524,"reserved":0,"last_update":"0001-01-01T00:00:00Z","name_a2s":"Uncletopia | New York City | 4 | Community","protocol":17,"map":"pl_barnblitz","folder":"tf","game":"Team Fortress","app_id":440,"player_count":0,"max_players":24,"Bots":0,"server_type":"Dedicated","server_os":"Linux","password":true,"vac":true,"version":"7695204","steam_id":85568392924742821,"keywords":["nocrits","nodmgspread","payload","uncletopia"],"game_id":440,"stv_port":0,"stv_name":"","players":null},{"server_id":142,"name":"Uncletopia | S√£o Paulo | 1 | All Maps","name_short":"sao-1","host":"sao-1.br.uncletopia.com","port":27015,"enabled":true,"region":"sa","cc":"br","latitude":-23.533773,"longitude":-46.62529,"reserved":0,"last_update":"0001-01-01T00:00:00Z","name_a2s":"Uncletopia | S√£o Paulo | 1 | All Maps","protocol":17,"map":"koth_cascade","folder":"tf","game":"Team Fortress","app_id":440,"player_count":0,"max_players":24,"Bots":0,"server_type":"Dedicated","server_os":"Linux","password":true,"vac":true,"version":"7695204","steam_id":85568392924469996,"keywords":["cp","nocrits","nodmgspread","uncletopia"],"game_id":440,"stv_port":0,"stv_name":"","players":null},{"server_id":143,"name":"Uncletopia | S√£o Paulo | 2 | All Maps","name_short":"sao-2","host":"sao-2.br.uncletopia.com","port":27015,"enabled":true,"region":"sa","cc":"br","latitude":-23.533773,"longitude":-46.62529,"reserved":0,"last_update":"0001-01-01T00:00:00Z","name_a2s":"Uncletopia | S√£o Paulo | 2 | All Maps","protocol":17,"map":"cp_snakewater_final1","folder":"tf","game":"Team Fortress","app_id":440,"player_count":0,"max_players":24,"Bots":0,"server_type":"Dedicated","server_os":"Linux","password":true,"vac":true,"version":"7695204","steam_id":85568392924485349,"keywords":["cp","nocrits","nodmgspread","uncletopia"],"game_id":440,"stv_port":0,"stv_name":"","players":null},{"server_id":7,"name":"Uncletopia | Seattle | 1 | All Maps","name_short":"sea-1","host":"sea-1.us.uncletopia.com","port":27015,"enabled":true,"region":"us-west","cc":"us","latitude":47.608013,"longitude":-122.33517,"reserved":0,"last_update":"0001-01-01T00:00:00Z","name_a2s":"Uncletopia | Seattle | 1 | All Maps","protocol":17,"map":"pl_snowycoast","folder":"tf","game":"Team Fortress","app_id":440,"player_count":0,"max_players":24,"Bots":0,"server_type":"Dedicated","server_os":"Linux","password":true,"vac":true,"version":"7695204","steam_id":85568392924469997,"keywords":["nocrits","nodmgspread","payload","uncletopia"],"game_id":440,"stv_port":0,"stv_name":"","players":null},{"server_id":119,"name":"Uncletopia | Seattle | 2 | All Maps","name_short":"sea-2","host":"sea-1.us.uncletopia.com","port":27025,"enabled":true,"region":"us-west","cc":"us","latitude":47.608013,"longitude":-122.33517,"reserved":0,"last_update":"0001-01-01T00:00:00Z","name_a2s":"Uncletopia | Seattle | 2 | All Maps","protocol":17,"map":"pl_upward","folder":"tf","game":"Team Fortress","app_id":440,"player_count":23,"max_players":24,"Bots":0,"server_type":"Dedicated","server_os":"Linux","password":true,"vac":true,"version":"7695204","steam_id":85568392924469998,"keywords":["nocrits","nodmgspread","payload","uncletopia"],"game_id":440,"stv_port":27026,"stv_name":"Uncletopia | Seattle | 2 | All Maps | STV","players":[{"user_id":48,"name":"Lemon_Boy","steam_id":76561199023562349,"connected_time":273000000000,"state":"active","ping":77},{"user_id":35,"name":"Provocator","steam_id":76561197961830410,"connected_time":520000000000,"state":"active","ping":127},{"user_id":4,"name":"dust","steam_id":76561198045218909,"connected_time":2450000000000,"state":"active","ping":39},{"user_id":38,"name":"Fillmore From Cars","steam_id":76561198175511286,"connected_time":430000000000,"state":"active","ping":73},{"user_id":53,"name":"Thequirka (bad player)","steam_id":76561198968058652,"connected_time":134000000000,"state":"active","ping":47},{"user_id":17,"name":"Wulfric","steam_id":76561198439961614,"connected_time":1218000000000,"state":"active","ping":89},{"user_id":21,"name":"Toastedtoast222","steam_id":76561198120756409,"connected_time":915000000000,"state":"active","ping":45},{"user_id":19,"name":"ThePriceIsRice","steam_id":76561198079069543,"connected_time":1004000000000,"state":"active","ping":59},{"user_id":56,"name":"Timon's high on crack cocaine!","steam_id":76561198180396430,"connected_time":104000000000,"state":"active","ping":122},{"user_id":49,"name":"jennco","steam_id":76561198212421513,"connected_time":240000000000,"state":"active","ping":75},{"user_id":23,"name":"Klone","steam_id":76561198854485605,"connected_time":854000000000,"state":"active","ping":70},{"user_id":24,"name":"primordialheath","steam_id":76561199386942638,"connected_time":838000000000,"state":"active","ping":108},{"user_id":25,"name":"PyrorproGaming1","steam_id":76561199083393828,"connected_time":822000000000,"state":"active","ping":173},{"user_id":58,"name":"a crazy hobo","steam_id":76561198289650060,"connected_time":1000000000,"state":"spawning","ping":74},{"user_id":37,"name":"Vhee","steam_id":76561198032525780,"connected_time":454000000000,"state":"active","ping":94},{"user_id":45,"name":"Allister","steam_id":76561197999823352,"connected_time":339000000000,"state":"active","ping":110},{"user_id":32,"name":"GUITAR GAMING!!!","steam_id":76561198199604767,"connected_time":581000000000,"state":"active","ping":54},{"user_id":55,"name":"sora","steam_id":76561198094256973,"connected_time":119000000000,"state":"active","ping":62},{"user_id":40,"name":"DistantJragon","steam_id":76561198117563641,"connected_time":407000000000,"state":"active","ping":93},{"user_id":50,"name":"wiwu","steam_id":76561198180189799,"connected_time":234000000000,"state":"active","ping":37},{"user_id":57,"name":"EatSomeBEES","steam_id":76561198047334307,"connected_time":100000000000,"state":"active","ping":64},{"user_id":43,"name":"abaddon_amog","steam_id":76561198268581959,"connected_time":365000000000,"state":"active","ping":54},{"user_id":51,"name":"The Demon On Welfare","steam_id":76561198064892701,"connected_time":223000000000,"state":"active","ping":109}]},{"server_id":17,"name":"Uncletopia | San Francisco | 1 | All Maps","name_short":"sfo-1","host":"sfo-1.us.uncletopia.com","port":27015,"enabled":true,"region":"us-west","cc":"us","latitude":37.77397,"longitude":-122.4313,"reserved":0,"last_update":"0001-01-01T00:00:00Z","name_a2s":"Uncletopia | San Francisco | 1 | All Maps","protocol":17,"map":"cp_sunshine","folder":"tf","game":"Team Fortress","app_id":440,"player_count":0,"max_players":24,"Bots":0,"server_type":"Dedicated","server_os":"Linux","password":true,"vac":true,"version":"7695204","steam_id":85568392924469999,"keywords":["cp","nocrits","nodmgspread","uncletopia"],"game_id":440,"stv_port":0,"stv_name":"","players":null},{"server_id":18,"name":"Uncletopia | San Francisco | 2 | All Maps","name_short":"sfo-2","host":"sfo-1.us.uncletopia.com","port":27025,"enabled":true,"region":"us-west","cc":"us","latitude":37.77397,"longitude":-122.4313,"reserved":0,"last_update":"0001-01-01T00:00:00Z","name_a2s":"Uncletopia | San Francisco | 2 | All Maps","protocol":17,"map":"pl_upward","folder":"tf","game":"Team Fortress","app_id":440,"player_count":23,"max_players":24,"Bots":0,"server_type":"Dedicated","server_os":"Linux","password":true,"vac":true,"version":"7695204","steam_id":85568392924470000,"keywords":["nocrits","nodmgspread","payload","uncletopia"],"game_id":440,"stv_port":27026,"stv_name":"Uncletopia | San Francisco | 2 | All Maps | STV","players":[{"user_id":52,"name":"TBBTLY","steam_id":76561198872492988,"connected_time":18000000000,"state":"spawning","ping":60},{"user_id":4,"name":"Super Mighty G","steam_id":76561198020932806,"connected_time":2410000000000,"state":"active","ping":51},{"user_id":8,"name":"Mom","steam_id":76561198207936000,"connected_time":2183000000000,"state":"active","ping":40},{"user_id":48,"name":"MoisesNP","steam_id":76561198027957879,"connected_time":558000000000,"state":"active","ping":92},{"user_id":27,"name":"[TBW]Iku Nagae","steam_id":76561198254052062,"connected_time":1191000000000,"state":"active","ping":96},{"user_id":25,"name":"namenafe","steam_id":76561198106279222,"connected_time":1209000000000,"state":"active","ping":82},{"user_id":53,"name":"WAVE CHECK","steam_id":76561198054769467,"connected_time":16000000000,"state":"spawning","ping":50},{"user_id":49,"name":"roln","steam_id":76561198041066271,"connected_time":364000000000,"state":"active","ping":70},{"user_id":20,"name":"Snapdragron","steam_id":76561198348485302,"connected_time":1424000000000,"state":"active","ping":133},{"user_id":21,"name":"Soap","steam_id":76561198074619142,"connected_time":1320000000000,"state":"active","ping":94},{"user_id":22,"name":"PotatoeChisps","steam_id":76561198142556383,"connected_time":1302000000000,"state":"active","ping":112},{"user_id":23,"name":"Lovedaddy","steam_id":76561198006569710,"connected_time":1264000000000,"state":"active","ping":114},{"user_id":54,"name":"watchfull","steam_id":76561198433266742,"connected_time":15000000000,"state":"spawning","ping":83},{"user_id":26,"name":"Zkmyre","steam_id":76561198107349847,"connected_time":1206000000000,"state":"active","ping":109},{"user_id":32,"name":"Honorable Chairman Meow","steam_id":76561198059060552,"connected_time":1041000000000,"state":"active","ping":89},{"user_id":29,"name":"ZeeerZowowowBwow","steam_id":76561198018404265,"connected_time":1176000000000,"state":"active","ping":49},{"user_id":31,"name":"R3PurpleOwl","steam_id":76561198049212557,"connected_time":1085000000000,"state":"active","ping":61},{"user_id":33,"name":"bomb","steam_id":76561198312179067,"connected_time":1020000000000,"state":"active","ping":77},{"user_id":35,"name":"Fluff Butt","steam_id":76561199008334604,"connected_time":971000000000,"state":"active","ping":117},{"user_id":44,"name":"ShuhTeau","steam_id":76561198092117021,"connected_time":726000000000,"state":"active","ping":185},{"user_id":43,"name":"BayanTheBear","steam_id":76561198134537476,"connected_time":798000000000,"state":"active","ping":105},{"user_id":46,"name":"∆ê’≤—µ’æ","steam_id":76561198099470277,"connected_time":707000000000,"state":"active","ping":126},{"user_id":47,"name":"Antreuse","steam_id":76561198219721132,"connected_time":679000000000,"state":"active","ping":48}]},{"server_id":19,"name":"Uncletopia | San Francisco | 3 | No Payload","name_short":"sfo-3","host":"sfo-1.us.uncletopia.com","port":27035,"enabled":true,"region":"us-west","cc":"us","latitude":37.77397,"longitude":-122.4313,"reserved":0,"last_update":"0001-01-01T00:00:00Z","name_a2s":"Uncletopia | San Francisco | 3 | No Payload","protocol":17,"map":"cp_snakewater_final1","folder":"tf","game":"Team Fortress","app_id":440,"player_count":0,"max_players":24,"Bots":0,"server_type":"Dedicated","server_os":"Linux","password":true,"vac":true,"version":"7695204","steam_id":85568392924742824,"keywords":["cp","nocrits","nodmgspread","uncletopia"],"game_id":440,"stv_port":0,"stv_name":"","players":null},{"server_id":20,"name":"Uncletopia | San Francisco | 4 | Community","name_short":"sfo-4","host":"sfo-1.us.uncletopia.com","port":27045,"enabled":true,"region":"us-west","cc":"us","latitude":37.77397,"longitude":-122.4313,"reserved":0,"last_update":"0001-01-01T00:00:00Z","name_a2s":"Uncletopia | San Francisco | 4 | Community","protocol":17,"map":"koth_highpass","folder":"tf","game":"Team Fortress","app_id":440,"player_count":0,"max_players":24,"Bots":0,"server_type":"Dedicated","server_os":"Linux","password":true,"vac":true,"version":"7695204","steam_id":85568392924742826,"keywords":["cp","nocrits","nodmgspread","uncletopia"],"game_id":440,"stv_port":0,"stv_name":"","players":null},{"server_id":141,"name":"Uncletopia | Sydney | 1 | All Maps","name_short":"syd-1","host":"syd-1.au.uncletopia.com","port":27015,"enabled":true,"region":"au","cc":"au","latitude":-33.865143,"longitude":151.2099,"reserved":0,"last_update":"0001-01-01T00:00:00Z","name_a2s":"Uncletopia | Sydney | 1 | All Maps","protocol":17,"map":"pl_swiftwater_final1","folder":"tf","game":"Team Fortress","app_id":440,"player_count":0,"max_players":24,"Bots":0,"server_type":"Dedicated","server_os":"Linux","password":true,"vac":true,"version":"7695204","steam_id":85568392924470001,"keywords":["nocrits","nodmgspread","payload","uncletopia"],"game_id":440,"stv_port":0,"stv_name":"","players":null},{"server_id":123,"name":"Uncletopia | Sydney | 2 | All Maps","name_short":"syd-2","host":"syd-1.au.uncletopia.com","port":27025,"enabled":true,"region":"au","cc":"au","latitude":-33.865143,"longitude":151.2099,"reserved":0,"last_update":"0001-01-01T00:00:00Z","name_a2s":"Uncletopia | Sydney | 2 | All Maps","protocol":17,"map":"cp_process_final","folder":"tf","game":"Team Fortress","app_id":440,"player_count":0,"max_players":24,"Bots":0,"server_type":"Dedicated","server_os":"Linux","password":true,"vac":true,"version":"7695204","steam_id":85568392924470002,"keywords":["cp","nocrits","nodmgspread","uncletopia"],"game_id":440,"stv_port":0,"stv_name":"","players":null},{"server_id":395,"name":"Uncletopia | Sydney | 3 | All Maps","name_short":"syd-3","host":"syd-1.au.uncletopia.com","port":27035,"enabled":true,"region":"au","cc":"au","latitude":-33.865143,"longitude":151.2099,"reserved":0,"last_update":"0001-01-01T00:00:00Z","name_a2s":"Uncletopia | Sydney | 3 | All Maps","protocol":17,"map":"pl_upward","folder":"tf","game":"Team Fortress","app_id":440,"player_count":0,"max_players":24,"Bots":0,"server_type":"Dedicated","server_os":"Linux","password":true,"vac":true,"version":"7695204","steam_id":85568392925194467,"keywords":["nocrits","nodmgspread","payload","uncletopia"],"game_id":440,"stv_port":0,"stv_name":"","players":null},{"server_id":396,"name":"Uncletopia | Sydney | 4 | All Maps","name_short":"syd-4","host":"syd-1.au.uncletopia.com","port":27045,"enabled":true,"region":"au","cc":"au","latitude":-33.865143,"longitude":151.2099,"reserved":0,"last_update":"0001-01-01T00:00:00Z","name_a2s":"Uncletopia | Sydney | 4 | All Maps","protocol":17,"map":"koth_viaduct","folder":"tf","game":"Team Fortress","app_id":440,"player_count":0,"max_players":24,"Bots":0,"server_type":"Dedicated","server_os":"Linux","password":true,"vac":true,"version":"7695204","steam_id":85568392925397958,"keywords":["cp","nocrits","nodmgspread","uncletopia"],"game_id":440,"stv_port":27046,"stv_name":"Uncletopia | Sydney | 4 | All Maps | STV","players":null},{"server_id":58,"name":"Uncletopia | Sydney | 5 | No Payload","name_short":"syd-5","host":"syd-1.au.uncletopia.com","port":27055,"enabled":true,"region":"au","cc":"au","latitude":-33.865143,"longitude":151.2099,"reserved":0,"last_update":"0001-01-01T00:00:00Z","name_a2s":"Uncletopia | Sydney | 5 | No Payload","protocol":17,"map":"koth_viaduct","folder":"tf","game":"Team Fortress","app_id":440,"player_count":0,"max_players":24,"Bots":0,"server_type":"Dedicated","server_os":"Linux","password":true,"vac":true,"version":"7695204","steam_id":85568392925397959,"keywords":["cp","nocrits","nodmgspread","uncletopia"],"game_id":440,"stv_port":0,"stv_name":"","players":null},{"server_id":59,"name":"Uncletopia | Sydney | 6 | Community","name_short":"syd-6","host":"syd-1.au.uncletopia.com","port":27065,"enabled":true,"region":"au","cc":"au","latitude":-33.865143,"longitude":151.2099,"reserved":0,"last_update":"0001-01-01T00:00:00Z","name_a2s":"Uncletopia | Sydney | 6 | Community","protocol":17,"map":"pl_barnblitz","folder":"tf","game":"Team Fortress","app_id":440,"player_count":0,"max_players":24,"Bots":0,"server_type":"Dedicated","server_os":"Linux","password":true,"vac":true,"version":"7695204","steam_id":85568392925397960,"keywords":["nocrits","nodmgspread","payload","uncletopia"],"game_id":440,"stv_port":0,"stv_name":"","players":null},{"server_id":49,"name":"Uncletopia | Warsaw | 1 | All Maps","name_short":"waw-1","host":"waw-1.pl.uncletopia.com","port":27015,"enabled":true,"region":"eu","cc":"pl","latitude":52.2297,"longitude":21.017532,"reserved":0,"last_update":"0001-01-01T00:00:00Z","name_a2s":"Uncletopia | Warsaw | 1 | All Maps","protocol":17,"map":"pl_frontier_final","folder":"tf","game":"Team Fortress","app_id":440,"player_count":19,"max_players":24,"Bots":0,"server_type":"Dedicated","server_os":"Linux","password":true,"vac":true,"version":"7695204","steam_id":85568392925397850,"keywords":["nocrits","nodmgspread","payload","uncletopia"],"game_id":440,"stv_port":0,"stv_name":"","players":[{"user_id":3,"name":"Eating Moist and Delicious cake","steam_id":76561198067204908,"connected_time":1050000000000,"state":"active","ping":87},{"user_id":4,"name":"least weird romanian","steam_id":76561198170609049,"connected_time":1019000000000,"state":"active","ping":94},{"user_id":5,"name":"moist and delish","steam_id":76561198097507847,"connected_time":1013000000000,"state":"active","ping":92},{"user_id":10,"name":"Mr.Cupcake","steam_id":76561198152711174,"connected_time":381000000000,"state":"active","ping":44},{"user_id":8,"name":"kuciapka","steam_id":76561198086309264,"connected_time":746000000000,"state":"active","ping":27},{"user_id":9,"name":"Acid","steam_id":76561198102110680,"connected_time":444000000000,"state":"active","ping":66},{"user_id":11,"name":"Ankle pain","steam_id":76561199105755048,"connected_time":354000000000,"state":"active","ping":70},{"user_id":12,"name":"reprak 13","steam_id":76561198145142128,"connected_time":341000000000,"state":"active","ping":57},{"user_id":13,"name":"Laxslow","steam_id":76561198065361846,"connected_time":316000000000,"state":"active","ping":82},{"user_id":22,"name":"chrissy","steam_id":76561198096547662,"connected_time":126000000000,"state":"active","ping":82},{"user_id":15,"name":"Rob Rotten","steam_id":76561198170543542,"connected_time":203000000000,"state":"active","ping":131},{"user_id":16,"name":"Walter H. White","steam_id":76561198079386295,"connected_time":175000000000,"state":"active","ping":85},{"user_id":17,"name":"Kale","steam_id":76561198189843906,"connected_time":173000000000,"state":"active","ping":78},{"user_id":18,"name":"plant cringe rice","steam_id":76561198147277460,"connected_time":170000000000,"state":"active","ping":75},{"user_id":19,"name":"Memphis","steam_id":76561198045039038,"connected_time":165000000000,"state":"active","ping":98},{"user_id":20,"name":"Lars \"Lasse\" Olsson","steam_id":76561198052088053,"connected_time":160000000000,"state":"active","ping":72},{"user_id":21,"name":"Denialman (Muted)","steam_id":76561198309182092,"connected_time":150000000000,"state":"active","ping":75},{"user_id":23,"name":"cybersex ‚ôø","steam_id":76561198838162094,"connected_time":98000000000,"state":"active","ping":64},{"user_id":26,"name":"CUJOH","steam_id":76561198023211417,"connected_time":21000000000,"state":"active","ping":78}]},{"server_id":50,"name":"Uncletopia | Warsaw | 2 | All Maps","name_short":"waw-2","host":"waw-1.pl.uncletopia.com","port":27025,"enabled":true,"region":"eu","cc":"pl","latitude":52.2297,"longitude":21.017532,"reserved":0,"last_update":"0001-01-01T00:00:00Z","name_a2s":"Uncletopia | Warsaw | 2 | All Maps","protocol":17,"map":"cp_snakewater_final1","folder":"tf","game":"Team Fortress","app_id":440,"player_count":0,"max_players":24,"Bots":0,"server_type":"Dedicated","server_os":"Linux","password":true,"vac":true,"version":"7695204","steam_id":85568392925397851,"keywords":["cp","nocrits","nodmgspread","uncletopia"],"game_id":440,"stv_port":0,"stv_name":"","players":null},{"server_id":51,"name":"Uncletopia | Warsaw | 3 | All Maps","name_short":"waw-3","host":"waw-1.pl.uncletopia.com","port":27035,"enabled":true,"region":"eu","cc":"pl","latitude":52.2297,"longitude":21.017532,"reserved":0,"last_update":"0001-01-01T00:00:00Z","name_a2s":"Uncletopia | Warsaw | 3 | All Maps","protocol":17,"map":"cp_altitude","folder":"tf","game":"Team Fortress","app_id":440,"player_count":0,"max_players":24,"Bots":0,"server_type":"Dedicated","server_os":"Linux","password":true,"vac":true,"version":"7695204","steam_id":85568392925397852,"keywords":["cp","nocrits","nodmgspread","uncletopia"],"game_id":440,"stv_port":27036,"stv_name":"Uncletopia | Warsaw | 3 | All Maps | STV","players":null},{"server_id":52,"name":"Uncletopia | Warsaw | 4 | All Maps","name_short":"waw-4","host":"waw-1.pl.uncletopia.com","port":27045,"enabled":true,"region":"eu","cc":"pl","latitude":52.2297,"longitude":21.017532,"reserved":0,"last_update":"0001-01-01T00:00:00Z","name_a2s":"Uncletopia | Warsaw | 4 | All Maps","protocol":17,"map":"cp_altitude","folder":"tf","game":"Team Fortress","app_id":440,"player_count":0,"max_players":24,"Bots":0,"server_type":"Dedicated","server_os":"Linux","password":true,"vac":true,"version":"7695204","steam_id":85568392925397853,"keywords":["cp","nocrits","nodmgspread","uncletopia"],"game_id":440,"stv_port":0,"stv_name":"","players":null},{"server_id":53,"name":"Uncletopia | Warsaw | 5 | No Payload","name_short":"waw-5","host":"waw-1.pl.uncletopia.com","port":27055,"enabled":true,"region":"eu","cc":"pl","latitude":52.2297,"longitude":21.017532,"reserved":0,"last_update":"0001-01-01T00:00:00Z","name_a2s":"Uncletopia | Warsaw | 5 | No Payload","protocol":17,"map":"pl_badwater","folder":"tf","game":"Team Fortress","app_id":440,"player_count":0,"max_players":24,"Bots":0,"server_type":"Dedicated","server_os":"Linux","password":true,"vac":true,"version":"7695204","steam_id":85568392925397854,"keywords":["nocrits","nodmgspread","payload","uncletopia"],"game_id":440,"stv_port":0,"stv_name":"","players":null},{"server_id":54,"name":"Uncletopia | Warsaw | 6 | Community","name_short":"waw-6","host":"waw-1.pl.uncletopia.com","port":27065,"enabled":true,"region":"eu","cc":"pl","latitude":52.2297,"longitude":21.017532,"reserved":0,"last_update":"0001-01-01T00:00:00Z","name_a2s":"Uncletopia | Warsaw | 6 | Community","protocol":17,"map":"workshop/pl_eruption_b8c.ugc2865677281","folder":"tf","game":"Team Fortress","app_id":440,"player_count":0,"max_players":24,"Bots":0,"server_type":"Dedicated","server_os":"Linux","password":true,"vac":true,"version":"7695204","steam_id":85568392925397856,"keywords":["nocrits","nodmgspread","payload","uncletopia"],"game_id":440,"stv_port":27066,"stv_name":"Uncletopia | Warsaw | 6 | Community | STV","players":null}]}