{"status":true,"message":"","result":[{"server_id":9,"name":"Uncletopia | Atlanta | 1 | All Maps","name_short":"atl-1","host":"atl-1.us.uncletopia.com","port":27015,"enabled":true,"region":"us-east","cc":"us","latitude":33.753746,"longitude":-84.38633,"reserved":0,"last_update":"0001-01-01T00:00:00Z","name_a2s":"Uncletopia | Atlanta | 1 | All Maps","protocol":17,"map":"cp_dustbowl","folder":"tf","game":"Team Fortress","app_id":440,"player_count":24,"max_players":24,"Bots":0,"server_type":"Dedicated","server_os":"Linux","password":true,"vac":true,"version":"7961495","steam_id":85568392924469982,"keywords":["cp","nocrits","nodmgspread","uncletopia"],"game_id":440,"stv_port":27016,"stv_name":"Uncletopia | Atlanta | 1 | All Maps | STV","players":[{"user_id":308,"name":"Intro Bonito","steam_id":76561198119478838,"connected_time":14875000000000,"state":"active","ping":48},{"user_id":458,"name":"Comic Relief Fat Guy","steam_id":76561199031172409,"connected_time":462000000000,"state":"active","ping":84},{"user_id":457,"name":"ATL1 | cola","steam_id":76561198374390458,"connected_time":533000000000,"state":"active","ping":60},{"user_id":368,"name":"eish","steam_id":76561198089463603,"connected_time":7073000000000,"state":"active","ping":124},{"user_id":453,"name":"SuperNovaFox","steam_id":76561198052172564,"connected_time":992000000000,"state":"active","ping":77},{"user_id":433,"name":"Toonice","steam_id":76561198402994885,"connected_time":3168000000000,"state":"active","ping":86},{"user_id":459,"name":"Captain Emerald The Changeling","steam_id":76561198320651177,"connected_time":409000000000,"state":"active","ping":76},{"user_id":460,"name":"Singular Rooster","steam_id":76561197983872657,"connected_time":397000000000,"state":"active","ping":55},{"user_id":454,"name":"Thicc_Epsi","steam_id":76561199245421269,"connected_time":877000000000,"state":"active","ping":106},{"user_id":434,"name":"HEE HOO DUSTBOWL!","steam_id":76561199389985063,"connected_time":3142000000000,"state":"active","ping":110},{"user_id":398,"name":"baby yoda","steam_id":76561198052588144,"connected_time":3913000000000,"state":"active","ping":76},{"user_id":399,"name":"Hatter","steam_id":76561198010341986,"connected_time":3902000000000,"state":"active","ping":62},{"user_id":461,"name":"DivineBanana","steam_id":76561198026529731,"connected_time":381000000000,"state":"active","ping":90},{"user_id":462,"name":"Lots0","steam_id":76561198043143145,"connected_time":380000000000,"state":"active","ping":100},{"user_id":440,"name":"ash","steam_id":76561198127890645,"connected_time":2200000000000,"state":"active","ping":72},{"user_id":456,"name":"Vee (very cool)","steam_id":76561198330432889,"connected_time":638000000000,"state":"active","ping":73},{"user_id":387,"name":"Decolour","steam_id":76561199045608372,"connected_time":5521000000000,"state":"active","ping":79},{"user_id":437,"name":"Chrits","steam_id":76561198072082596,"connected_time":2244000000000,"state":"active","ping":89},{"user_id":401,"name":"Isles","steam_id":76561198036162511,"connected_time":3895000000000,"state":"active","ping":64},{"user_id":402,"name":"i love u","steam_id":76561198062768872,"connected_time":3894000000000,"state":"active","ping":104},{"user_id":464,"name":"Invietation","steam_id":76561198070449258,"connected_time":340000000000,"state":"active","ping":66},{"user_id":465,"name":"RMTRE212","steam_id":76561199145573038,"connected_time":330000000000,"state":"active","ping":108},{"user_id":391,"name":"Ojen","steam_id":76561197998414482,"connected_time":4858000000000,"state":"active","ping":83},{"user_id":446,"name":"Avo","steam_id":76561197993340494,"connected_time":1640000000000,"state":"active","ping":55}]},{"server_id":104,"name":"Uncletopia | Atlanta | 2 | All Maps","name_short":"atl-2","host":"atl-1.us.uncletopia.com","port":27025,"enabled":true,"region":"us-east","cc":"us","latitude":33.753746,"longitude":-84.38633,"reserved":0,"last_update":"0001-01-01T00:00:00Z","name_a2s":"Uncletopia | Atlanta | 2 | All Maps","protocol":17,"map":"cp_sunshine","folder":"tf","game":"Team Fortress","app_id":440,"player_count":21,"max_players":24,"Bots":0,"server_type":"Dedicated","server_os":"Linux","password":true,"vac":true,"version":"7961495","steam_id":85568392924469983,"keywords":["cp","nocrits","nodmgspread","uncletopia"],"game_id":440,"stv_port":27026,"stv_name":"Uncletopia | Atlanta | 2 | All Maps | STV","players":[{"user_id":588,"name":"Fried Water?!","steam_id":76561198053164815,"connected_time":7642000000000,"state":"active","ping":67},{"user_id":667,"name":"DbrotLord","steam_id":76561198156461280,"connected_time":292000000000,"state":"active","ping":53},{"user_id":587,"name":"Goldfire","steam_id":76561198061999410,"connected_time":7733000000000,"state":"active","ping":69},{"user_id":666,"name":"noelle","steam_id":76561198098107584,"connected_time":310000000000,"state":"active","ping":65},{"user_id":668,"name":"NightSideProductions | TTV","steam_id":76561198104928747,"connected_time":282000000000,"state":"active","ping":97},{"user_id":665,"name":"cotton","steam_id":76561198018652890,"connected_time":362000000000,"state":"active","ping":60},{"user_id":662,"name":"Fever Dreams","steam_id":76561198116614620,"connected_time":1275000000000,"state":"active","ping":79},{"user_id":670,"name":"Shmovin","steam_id":76561198165355021,"connected_time":257000000000,"state":"active","ping":76},{"user_id":639,"name":"Tomboy Demon Girl","steam_id":76561198308171954,"connected_time":3554000000000,"state":"active","ping":64},{"user_id":671,"name":"sleepy⊹","steam_id":76561199200969139,"connected_time":254000000000,"state":"active","ping":126},{"user_id":609,"name":"Samrizo el Chorizo","steam_id":76561198009838162,"connected_time":6229000000000,"state":"active","ping":69},{"user_id":672,"name":"Chirunomo","steam_id":76561197963956138,"connected_time":246000000000,"state":"active","ping":104},{"user_id":581,"name":"Lutz","steam_id":76561198319233787,"connected_time":7907000000000,"state":"active","ping":116},{"user_id":673,"name":"SH0WTIME","steam_id":76561198365543224,"connected_time":236000000000,"state":"active","ping":111},{"user_id":674,"name":"Caesar","steam_id":76561198113096772,"connected_time":133000000000,"state":"active","ping":132},{"user_id":675,"name":"wool","steam_id":76561198332704108,"connected_time":128000000000,"state":"active","ping":73},{"user_id":630,"name":"Goof!","steam_id":76561198819495430,"connected_time":3948000000000,"state":"active","ping":59},{"user_id":676,"name":"ivan from oblock","steam_id":76561199196918355,"connected_time":116000000000,"state":"active","ping":63},{"user_id":655,"name":"alfredodan","steam_id":76561198025011044,"connected_time":2190000000000,"state":"active","ping":75},{"user_id":677,"name":"CitationMachine","steam_id":76561199340032458,"connected_time":61000000000,"state":"active","ping":55},{"user_id":658,"name":"napstagbo","steam_id":76561198119378766,"connected_time":1472000000000,"state":"active","ping":149}]},{"server_id":400,"name":"Uncletopia | Atlanta | 3 | Stopwatch","name_short":"atl-3","host":"atl-1.us.uncletopia.com","port":27035,"enabled":true,"region":"us-east","cc":"us","latitude":33.753746,"longitude":-84.38633,"reserved":0,"last_update":"0001-01-01T00:00:00Z","name_a2s":"Uncletopia | Atlanta | 3 | Stopwatch","protocol":17,"map":"workshop/koth_clearcut_b15.ugc2107050255","folder":"tf","game":"Team Fortress","app_id":440,"player_count":0,"max_players":24,"Bots":0,"server_type":"Dedicated","server_os":"Linux","password":true,"vac":true,"version":"7961495","steam_id":85568392924515187,"keywords":["cp","nocrits","nodmgspread","uncletopia"],"game_id":440,"stv_port":27036,"stv_name":"Uncletopia | Atlanta | 3 | Stopwatch | STV","players":null},{"server_id":401,"name":"Uncletopia | Atlanta | 4 | Community","name_short":"atl-4","host":"atl-1.us.uncletopia.com","port":27045,"enabled":true,"region":"us-east","cc":"us","latitude":33.753746,"longitude":-84.38633,"reserved":0,"last_update":"0001-01-01T00:00:00Z","name_a2s":"Uncletopia | Atlanta | 4 | Community","protocol":17,"map":"workshop/koth_kemptown_rc1.ugc767410655","folder":"tf","game":"Team Fortress","app_id":440,"player_count":19,"max_players":24,"Bots":0,"server_type":"Dedicated","server_os":"Linux","password":true,"vac":true,"version":"7961495","steam_id":85568392924515188,"keywords":["cp","nocrits","nodmgspread","uncletopia"],"game_id":440,"stv_port":27046,"stv_name":"Uncletopia | Atlanta | 4 | Community | STV","players":[{"user_id":55,"name":"Fishsick lord","steam_id":76561198887904255,"connected_time":2409000000000,"state":"active","ping":79},{"user_id":101,"name":"ItsBrieDude","steam_id":76561198051971306,"connected_time":199000000000,"state":"active","ping":35},{"user_id":104,"name":"BurnN8or101","steam_id":76561198132668224,"connected_time":46000000000,"state":"active","ping":129},{"user_id":58,"name":"Dinner","steam_id":76561198067294811,"connected_time":1985000000000,"state":"active","ping":57},{"user_id":93,"name":"Silvr","steam_id":76561198069368377,"connected_time":478000000000,"state":"active","ping":71},{"user_id":48,"name":"Hipster_Giraffe","steam_id":76561198069701092,"connected_time":3199000000000,"state":"active","ping":82},{"user_id":102,"name":"Professor Shaggy","steam_id":76561198276926724,"connected_time":153000000000,"state":"active","ping":30},{"user_id":74,"name":"gas","steam_id":76561199176290258,"connected_time":1304000000000,"state":"active","ping":49},{"user_id":62,"name":"buzz","steam_id":76561198107899101,"connected_time":1846000000000,"state":"active","ping":79},{"user_id":63,"name":"Froyo Ding Dong","steam_id":76561198379421700,"connected_time":1842000000000,"state":"active","ping":69},{"user_id":65,"name":"Chimpo","steam_id":76561198066228209,"connected_time":1792000000000,"state":"active","ping":79},{"user_id":99,"name":"An Engineer","steam_id":76561198110381643,"connected_time":257000000000,"state":"active","ping":48},{"user_id":87,"name":"Pizza Party","steam_id":76561198165730754,"connected_time":787000000000,"state":"active","ping":73},{"user_id":79,"name":"Snoopist","steam_id":76561198144023761,"connected_time":1182000000000,"state":"active","ping":53},{"user_id":81,"name":"Burial","steam_id":76561198200227585,"connected_time":1009000000000,"state":"active","ping":57},{"user_id":82,"name":"Yazumru","steam_id":76561198375274049,"connected_time":967000000000,"state":"active","ping":76},{"user_id":83,"name":"Dozy","steam_id":76561198444964360,"connected_time":955000000000,"state":"active","ping":96},{"user_id":100,"name":"ShaqtusHD(She/Her)","steam_id":76561199138286233,"connected_time":224000000000,"state":"active","ping":69},{"user_id":91,"name":"canadian birds","steam_id":76561198059466588,"connected_time":716000000000,"state":"active","ping":65}]},{"server_id":2,"name":"Uncletopia | Chicago | 1 | All Maps","name_short":"chi-1","host":"chi-1.us.uncletopia.com","port":27015,"enabled":true,"region":"us-central","cc":"us","latitude":41.881832,"longitude":-87.62318,"reserved":0,"last_update":"0001-01-01T00:00:00Z","name_a2s":"Uncletopia | Chicago | 1 | All Maps","protocol":17,"map":"pl_pier","folder":"tf","game":"Team Fortress","app_id":440,"player_count":24,"max_players":24,"Bots":0,"server_type":"Dedicated","server_os":"Linux","password":true,"vac":true,"version":"7961495","steam_id":85568392924469984,"keywords":["nocrits","nodmgspread","payload","uncletopia"],"game_id":440,"stv_port":27016,"stv_name":"Uncletopia | Chicago | 1 | All Maps | STV","players":[{"user_id":633,"name":"Micro","steam_id":76561198319239296,"connected_time":2068000000000,"state":"active","ping":57},{"user_id":641,"name":"MrPeanutBetter","steam_id":76561199149697526,"connected_time":426000000000,"state":"active","ping":113},{"user_id":627,"name":"ankha world","steam_id":76561199080209996,"connected_time":3007000000000,"state":"active","ping":101},{"user_id":637,"name":"Comradical","steam_id":76561197990808285,"connected_time":1377000000000,"state":"active","ping":85},{"user_id":642,"name":"JavaScript Frappuccino","steam_id":76561198111620153,"connected_time":403000000000,"state":"active","ping":86},{"user_id":643,"name":"ElectronX","steam_id":76561198116034988,"connected_time":354000000000,"state":"active","ping":109},{"user_id":636,"name":"Goredude","steam_id":76561198041048764,"connected_time":2044000000000,"state":"active","ping":60},{"user_id":652,"name":"Stapler","steam_id":76561198099295077,"connected_time":123000000000,"state":"active","ping":98},{"user_id":629,"name":"Duke Skywalker","steam_id":76561199231296521,"connected_time":2966000000000,"state":"active","ping":77},{"user_id":623,"name":"nonagon infinity","steam_id":76561198397662124,"connected_time":3301000000000,"state":"active","ping":85},{"user_id":621,"name":"Lenny Gummy","steam_id":76561198083175190,"connected_time":3404000000000,"state":"active","ping":68},{"user_id":644,"name":"Kapitan Bomba","steam_id":76561199102087660,"connected_time":350000000000,"state":"active","ping":68},{"user_id":645,"name":"bobbymcbobington","steam_id":76561199089411172,"connected_time":312000000000,"state":"active","ping":114},{"user_id":650,"name":"a festive sooley","steam_id":76561198134500189,"connected_time":264000000000,"state":"active","ping":43},{"user_id":632,"name":"Irritated Duck","steam_id":76561198247792076,"connected_time":2513000000000,"state":"active","ping":114},{"user_id":630,"name":"Chuggarocks","steam_id":76561198135650120,"connected_time":2965000000000,"state":"active","ping":93},{"user_id":647,"name":"They could be ********","steam_id":76561198441020995,"connected_time":296000000000,"state":"active","ping":83},{"user_id":638,"name":"ranroll, Ph.D.","steam_id":76561197980733511,"connected_time":1217000000000,"state":"active","ping":63},{"user_id":653,"name":"b-dot","steam_id":76561198160786631,"connected_time":120000000000,"state":"active","ping":64},{"user_id":654,"name":"wise","steam_id":76561198030066204,"connected_time":96000000000,"state":"active","ping":60},{"user_id":639,"name":"Reckless Klondike","steam_id":76561198060904416,"connected_time":477000000000,"state":"active","ping":75},{"user_id":631,"name":"shaderoses","steam_id":76561198070800500,"connected_time":2532000000000,"state":"active","ping":74},{"user_id":581,"name":"Praise_to_the_Flashlight!","steam_id":76561199001728789,"connected_time":5700000000000,"state":"active","ping":61},{"user_id":651,"name":"᲼᲼᲼","steam_id":76561198845246815,"connected_time":233000000000,"state":"active","ping":109}]},{"server_id":106,"name":"Uncletopia | Chicago | 2 | All Maps","name_short":"chi-2","host":"chi-1.us.uncletopia.com","port":27025,"enabled":true,"region":"us-central","cc":"us","latitude":41.881832,"longitude":-87.62318,"reserved":0,"last_update":"0001-01-01T00:00:00Z","name_a2s":"Uncletopia | Chicago | 2 | All Maps","protocol":17,"map":"pl_barnblitz","folder":"tf","game":"Team Fortress","app_id":440,"player_count":24,"max_players":24,"Bots":0,"server_type":"Dedicated","server_os":"Linux","password":true,"vac":true,"version":"7961495","steam_id":85568392924469985,"keywords":["nocrits","nodmgspread","payload","uncletopia"],"game_id":440,"stv_port":27026,"stv_name":"Uncletopia | Chicago | 2 | All Maps | STV","players":[{"user_id":655,"name":"Makowako","steam_id":76561199016565502,"connected_time":1866000000000,"state":"active","ping":77},{"user_id":670,"name":"skid","steam_id":76561198057536994,"connected_time":849000000000,"state":"active","ping":77},{"user_id":679,"name":"Blasterus","steam_id":76561198859486814,"connected_time":647000000000,"state":"active","ping":72},{"user_id":685,"name":"Wan Shi Tong","steam_id":76561198076441225,"connected_time":31000000000,"state":"active","ping":64},{"user_id":674,"name":"God's Goofiest Goober","steam_id":76561197991015780,"connected_time":787000000000,"state":"active","ping":63},{"user_id":678,"name":"Volkan, Pervert Extraordinaire","steam_id":76561198004569575,"connected_time":696000000000,"state":"active","ping":76},{"user_id":660,"name":"Jack \"Hee Ho\" Frost","steam_id":76561198353395198,"connected_time":1520000000000,"state":"active","ping":57},{"user_id":629,"name":"loser","steam_id":76561198259380127,"connected_time":2580000000000,"state":"active","ping":57},{"user_id":623,"name":"randomusername","steam_id":76561199078214700,"connected_time":3291000000000,"state":"active","ping":82},{"user_id":682,"name":"TheConchinator","steam_id":76561199388149092,"connected_time":130000000000,"state":"active","ping":55},{"user_id":651,"name":"basilberry","steam_id":76561198145275937,"connected_time":1955000000000,"state":"active","ping":92},{"user_id":638,"name":"GarbbCan","steam_id":76561198927509821,"connected_time":2375000000000,"state":"active","ping":131},{"user_id":627,"name":"big steve","steam_id":76561199037050183,"connected_time":2853000000000,"state":"active","ping":79},{"user_id":658,"name":"TheGuyWhoPlays","steam_id":76561198277363002,"connected_time":1709000000000,"state":"active","ping":61},{"user_id":616,"name":"Toottoot","steam_id":76561197992404836,"connected_time":3404000000000,"state":"active","ping":45},{"user_id":684,"name":"Dan","steam_id":76561199236719411,"connected_time":60000000000,"state":"active","ping":71},{"user_id":683,"name":"nav","steam_id":76561198872608266,"connected_time":106000000000,"state":"active","ping":78},{"user_id":680,"name":"Aspxts","steam_id":76561199125254746,"connected_time":456000000000,"state":"active","ping":73},{"user_id":667,"name":"1920","steam_id":76561198111669774,"connected_time":1046000000000,"state":"active","ping":51},{"user_id":668,"name":"sue squirt","steam_id":76561198380688967,"connected_time":926000000000,"state":"active","ping":54},{"user_id":645,"name":"chiswola","steam_id":76561198046920142,"connected_time":2182000000000,"state":"active","ping":71},{"user_id":681,"name":"Nobody","steam_id":76561198286486517,"connected_time":321000000000,"state":"active","ping":89},{"user_id":610,"name":"cylinder","steam_id":76561197995609787,"connected_time":5113000000000,"state":"active","ping":54},{"user_id":622,"name":"Kick Down Door 6:00AM TUCK☃RO","steam_id":76561197976146738,"connected_time":3339000000000,"state":"active","ping":80}]},{"server_id":402,"name":"Uncletopia | Chicago | 3 | All Maps","name_short":"chi-3","host":"chi-1.us.uncletopia.com","port":27035,"enabled":true,"region":"us-central","cc":"us","latitude":41.881832,"longitude":-87.62318,"reserved":0,"last_update":"0001-01-01T00:00:00Z","name_a2s":"Uncletopia | Chicago | 3 | All Maps","protocol":17,"map":"cp_steel","folder":"tf","game":"Team Fortress","app_id":440,"player_count":23,"max_players":24,"Bots":0,"server_type":"Dedicated","server_os":"Linux","password":true,"vac":true,"version":"7961495","steam_id":85568392924515191,"keywords":["cp","nocrits","nodmgspread","uncletopia"],"game_id":440,"stv_port":27036,"stv_name":"Uncletopia | Chicago | 3 | All Maps | STV","players":[{"user_id":672,"name":"custodian","steam_id":76561198058793778,"connected_time":2453000000000,"state":"active","ping":67},{"user_id":693,"name":"Ordinary White Salaryman","steam_id":76561198202589758,"connected_time":1393000000000,"state":"active","ping":71},{"user_id":716,"name":"Your Alcoholic Dad","steam_id":76561198214494745,"connected_time":612000000000,"state":"active","ping":54},{"user_id":715,"name":"DolphiN | RGL.gg","steam_id":76561198048614515,"connected_time":618000000000,"state":"active","ping":47},{"user_id":679,"name":"Colin102004","steam_id":76561198202384334,"connected_time":2140000000000,"state":"active","ping":55},{"user_id":705,"name":"Imperator Trajan","steam_id":76561198119382761,"connected_time":1238000000000,"state":"active","ping":82},{"user_id":694,"name":"Tectonic11","steam_id":76561198061169359,"connected_time":1387000000000,"state":"active","ping":64},{"user_id":661,"name":"idk","steam_id":76561199488457138,"connected_time":2805000000000,"state":"active","ping":99},{"user_id":696,"name":"i vape vitamin E","steam_id":76561199047924688,"connected_time":1330000000000,"state":"active","ping":63},{"user_id":697,"name":"SpaceLTN","steam_id":76561198027591265,"connected_time":1322000000000,"state":"active","ping":76},{"user_id":698,"name":"oppenheimer style","steam_id":76561198026664629,"connected_time":1322000000000,"state":"active","ping":49},{"user_id":691,"name":"Marky92","steam_id":76561198044796178,"connected_time":1536000000000,"state":"active","ping":65},{"user_id":699,"name":"Ghasifastliest Gibus","steam_id":76561198053935722,"connected_time":1320000000000,"state":"active","ping":98},{"user_id":706,"name":"Slippin Jimmy","steam_id":76561198039942990,"connected_time":1229000000000,"state":"active","ping":71},{"user_id":700,"name":"leonardo doujinshi","steam_id":76561198025810326,"connected_time":1311000000000,"state":"active","ping":46},{"user_id":701,"name":"Tideflat","steam_id":76561198179850851,"connected_time":1299000000000,"state":"active","ping":100},{"user_id":713,"name":"Barmy","steam_id":76561198111626352,"connected_time":781000000000,"state":"active","ping":85},{"user_id":708,"name":"Lane","steam_id":76561197965828506,"connected_time":1196000000000,"state":"active","ping":45},{"user_id":718,"name":"Little Skull Boi","steam_id":76561198093595888,"connected_time":135000000000,"state":"active","ping":101},{"user_id":717,"name":"Disco Fever","steam_id":76561198069532215,"connected_time":479000000000,"state":"active","ping":73},{"user_id":653,"name":"Carpet enthusiast","steam_id":76561198024040142,"connected_time":3377000000000,"state":"active","ping":92},{"user_id":710,"name":"Soy King","steam_id":76561198263025614,"connected_time":1156000000000,"state":"active","ping":110},{"user_id":712,"name":"John Xina","steam_id":76561198350649871,"connected_time":1034000000000,"state":"active","ping":96}]},{"server_id":403,"name":"Uncletopia | Chicago | 4 | All Maps","name_short":"chi-4","host":"chi-1.us.uncletopia.com","port":27045,"enabled":true,"region":"us-central","cc":"us","latitude":41.881832,"longitude":-87.62318,"reserved":0,"last_update":"0001-01-01T00:00:00Z","name_a2s":"Uncletopia | Chicago | 4 | All Maps","protocol":17,"map":"pl_swiftwater_final1","folder":"tf","game":"Team Fortress","app_id":440,"player_count":24,"max_players":24,"Bots":0,"server_type":"Dedicated","server_os":"Linux","password":true,"vac":true,"version":"7961495","steam_id":85568392924515193,"keywords":["nocrits","nodmgspread","payload","uncletopia"],"game_id":440,"stv_port":27046,"stv_name":"Uncletopia | Chicago | 4 | All Maps | STV","players":[{"user_id":641,"name":"hud_saytext_time 0","steam_id":76561198010327228,"connected_time":844000000000,"state":"active","ping":170},{"user_id":612,"name":"Diarrhea Daniel","steam_id":76561198930116758,"connected_time":3379000000000,"state":"active","ping":75},{"user_id":655,"name":"NiteVisions","steam_id":76561198093618206,"connected_time":177000000000,"state":"active","ping":64},{"user_id":642,"name":"mcdonalds creatura","steam_id":76561198204641019,"connected_time":802000000000,"state":"active","ping":70},{"user_id":647,"name":"the real liam john","steam_id":76561198170840838,"connected_time":673000000000,"state":"active","ping":75},{"user_id":648,"name":"Xzerio","steam_id":76561198004890414,"connected_time":647000000000,"state":"active","ping":49},{"user_id":557,"name":"liam john","steam_id":76561198243965308,"connected_time":6183000000000,"state":"active","ping":73},{"user_id":610,"name":"Mr.Wiffles","steam_id":76561198065608695,"connected_time":3386000000000,"state":"active","ping":78},{"user_id":558,"name":"sooty","steam_id":76561198830243167,"connected_time":6165000000000,"state":"active","ping":67},{"user_id":601,"name":"SpockASD","steam_id":76561198307516731,"connected_time":4444000000000,"state":"active","ping":79},{"user_id":637,"name":"mik-","steam_id":76561198380722433,"connected_time":1003000000000,"state":"active","ping":81},{"user_id":630,"name":"sonikro","steam_id":76561197989428692,"connected_time":1242000000000,"state":"active","ping":47},{"user_id":656,"name":"Doctor_Redstone","steam_id":76561198061947161,"connected_time":151000000000,"state":"active","ping":68},{"user_id":617,"name":"for the king","steam_id":76561197973488858,"connected_time":3073000000000,"state":"active","ping":60},{"user_id":603,"name":"totally not a pile of beans","steam_id":76561198119851931,"connected_time":4388000000000,"state":"active","ping":80},{"user_id":644,"name":"Dexidus","steam_id":76561198021840495,"connected_time":778000000000,"state":"active","ping":63},{"user_id":608,"name":"butterthoughts","steam_id":76561198025120284,"connected_time":3652000000000,"state":"active","ping":76},{"user_id":618,"name":"captainskullet","steam_id":76561198314597170,"connected_time":3063000000000,"state":"active","ping":69},{"user_id":640,"name":"AirCanada #1","steam_id":76561198150212442,"connected_time":965000000000,"state":"active","ping":60},{"user_id":653,"name":"Diplodocus","steam_id":76561198023323121,"connected_time":367000000000,"state":"active","ping":101},{"user_id":657,"name":"Milkmur","steam_id":76561198210043821,"connected_time":68000000000,"state":"active","ping":72},{"user_id":632,"name":"Provocator","steam_id":76561197961830410,"connected_time":1170000000000,"state":"active","ping":77},{"user_id":654,"name":"MrLeftTurn","steam_id":76561198856743969,"connected_time":359000000000,"state":"active","ping":128},{"user_id":651,"name":"Nessie is my Waifu","steam_id":76561198076021620,"connected_time":461000000000,"state":"active","ping":71}]},{"server_id":36,"name":"Uncletopia | Chicago | 5 | All Maps","name_short":"chi-5","host":"chi-2.us.uncletopia.com","port":27015,"enabled":true,"region":"us-central","cc":"us","latitude":41.881832,"longitude":-87.62318,"reserved":0,"last_update":"0001-01-01T00:00:00Z","name_a2s":"Uncletopia | Chicago | 5 | All Maps","protocol":17,"map":"cp_powerhouse","folder":"tf","game":"Team Fortress","app_id":440,"player_count":24,"max_players":24,"Bots":0,"server_type":"Dedicated","server_os":"Linux","password":true,"vac":true,"version":"7961495","steam_id":85568392924866362,"keywords":["cp","nocrits","nodmgspread","uncletopia"],"game_id":440,"stv_port":27016,"stv_name":"Uncletopia | Chicago | 5 | All Maps | STV","players":[{"user_id":343,"name":"Propaniac Gaming ☑","steam_id":76561198133963270,"connected_time":6557000000000,"state":"active","ping":60},{"user_id":431,"name":"ArmyGuyIan","steam_id":76561198120926552,"connected_time":32000000000,"state":"active","ping":59},{"user_id":411,"name":"OniSlays","steam_id":76561198043875292,"connected_time":1813000000000,"state":"active","ping":110},{"user_id":384,"name":"superx","steam_id":76561198044976613,"connected_time":3688000000000,"state":"active","ping":69},{"user_id":429,"name":"Misterwipeout","steam_id":76561198068900320,"connected_time":328000000000,"state":"active","ping":105},{"user_id":391,"name":"alphanerd2","steam_id":76561198029109358,"connected_time":3024000000000,"state":"active","ping":66},{"user_id":400,"name":"helikopter","steam_id":76561198881026292,"connected_time":2698000000000,"state":"active","ping":71},{"user_id":425,"name":"CRYPTO SCENT WITH A DANK MUSK","steam_id":76561198238639174,"connected_time":1423000000000,"state":"active","ping":91},{"user_id":414,"name":"scrapheap","steam_id":76561198202407087,"connected_time":1702000000000,"state":"active","ping":78},{"user_id":408,"name":"Koopinator","steam_id":76561198135747412,"connected_time":2312000000000,"state":"active","ping":65},{"user_id":370,"name":"Person","steam_id":76561198093244204,"connected_time":4501000000000,"state":"active","ping":75},{"user_id":422,"name":"Dieu-Sama","steam_id":76561198002075862,"connected_time":1489000000000,"state":"active","ping":82},{"user_id":412,"name":"The Goose","steam_id":76561199006093549,"connected_time":1744000000000,"state":"active","ping":70},{"user_id":432,"name":"cumscumscumscumscumscumscumscum","steam_id":76561198057861378,"connected_time":14000000000,"state":"spawning","ping":59},{"user_id":427,"name":"ProfessorCagan","steam_id":76561198141372356,"connected_time":672000000000,"state":"active","ping":49},{"user_id":396,"name":"Chairman Meow","steam_id":76561198107795169,"connected_time":2794000000000,"state":"active","ping":115},{"user_id":386,"name":"WhoIsFrosty","steam_id":76561198880588117,"connected_time":3667000000000,"state":"active","ping":56},{"user_id":352,"name":"roast pig with apple in mouth","steam_id":76561198051353647,"connected_time":6126000000000,"state":"active","ping":65},{"user_id":423,"name":"stick","steam_id":76561198049489094,"connected_time":1485000000000,"state":"active","ping":56},{"user_id":401,"name":"Sleepy","steam_id":76561198979389459,"connected_time":2680000000000,"state":"active","ping":204},{"user_id":426,"name":"Slap Nuts","steam_id":76561198117093185,"connected_time":1177000000000,"state":"active","ping":63},{"user_id":405,"name":"[S]Mr. X [No Monitor]","steam_id":76561197963746035,"connected_time":2527000000000,"state":"active","ping":127},{"user_id":387,"name":"PrivateBattery","steam_id":76561198199124362,"connected_time":3592000000000,"state":"active","ping":87},{"user_id":430,"name":"Dante Sparda","steam_id":76561198936412406,"connected_time":283000000000,"state":"active","ping":88}]},{"server_id":37,"name":"Uncletopia | Chicago | 6 | All Maps","name_short":"chi-6","host":"chi-2.us.uncletopia.com","port":27025,"enabled":true,"region":"us-central","cc":"us","latitude":41.881832,"longitude":-87.62318,"reserved":0,"last_update":"0001-01-01T00:00:00Z","name_a2s":"Uncletopia | Chicago | 6 | All Maps","protocol":17,"map":"pl_borneo","folder":"tf","game":"Team Fortress","app_id":440,"player_count":24,"max_players":24,"Bots":0,"server_type":"Dedicated","server_os":"Linux","password":true,"vac":true,"version":"7961495","steam_id":85568392924866363,"keywords":["nocrits","nodmgspread","payload","uncletopia"],"game_id":440,"stv_port":27026,"stv_name":"Uncletopia | Chicago | 6 | All Maps | STV","players":[{"user_id":736,"name":"Vaun","steam_id":76561198034075317,"connected_time":828000000000,"state":"active","ping":80},{"user_id":735,"name":"asimus","steam_id":76561199141433499,"connected_time":909000000000,"state":"active","ping":111},{"user_id":654,"name":"Jinx728","steam_id":76561198849121429,"connected_time":6712000000000,"state":"active","ping":108},{"user_id":761,"name":"Ceige LFT","steam_id":76561198068538473,"connected_time":82000000000,"state":"active","ping":76},{"user_id":752,"name":"MrFrost","steam_id":76561198800061541,"connected_time":497000000000,"state":"active","ping":124},{"user_id":739,"name":"k3ramb1t","steam_id":76561198097880352,"connected_time":759000000000,"state":"active","ping":73},{"user_id":740,"name":"milk then cereal","steam_id":76561198047168548,"connected_time":758000000000,"state":"active","ping":104},{"user_id":697,"name":"RiflingShotgun","steam_id":76561198288209651,"connected_time":2220000000000,"state":"active","ping":45},{"user_id":741,"name":"Larry Cañonga","steam_id":76561198081053203,"connected_time":742000000000,"state":"active","ping":127},{"user_id":757,"name":"kritik","steam_id":76561198075216115,"connected_time":214000000000,"state":"active","ping":153},{"user_id":758,"name":"Acuzik","steam_id":76561198045453400,"connected_time":127000000000,"state":"active","ping":45},{"user_id":759,"name":"Braingoo Hex","steam_id":76561198083094783,"connected_time":120000000000,"state":"active","ping":102},{"user_id":744,"name":"RabbitGaming696","steam_id":76561198334811317,"connected_time":721000000000,"state":"active","ping":102},{"user_id":760,"name":"Comfy Monkey","steam_id":76561197998434936,"connected_time":107000000000,"state":"active","ping":53},{"user_id":708,"name":"i play random (no audio)","steam_id":76561199468748840,"connected_time":2062000000000,"state":"active","ping":77},{"user_id":762,"name":"Fluffeline","steam_id":76561198352909489,"connected_time":7000000000,"state":"spawning","ping":135},{"user_id":746,"name":"A Puppy","steam_id":76561198828184456,"connected_time":673000000000,"state":"active","ping":60},{"user_id":693,"name":"Dirty30Curry","steam_id":76561199071534005,"connected_time":2428000000000,"state":"active","ping":63},{"user_id":748,"name":"Cooki","steam_id":76561198051705314,"connected_time":633000000000,"state":"active","ping":82},{"user_id":711,"name":"jordanddean2016","steam_id":76561198323772677,"connected_time":1968000000000,"state":"active","ping":101},{"user_id":731,"name":"weebsaucey","steam_id":76561199310639403,"connected_time":1228000000000,"state":"active","ping":71},{"user_id":751,"name":"Saul Catman","steam_id":76561199228539914,"connected_time":548000000000,"state":"active","ping":115},{"user_id":714,"name":"Alejandro","steam_id":76561197970051493,"connected_time":1816000000000,"state":"active","ping":115},{"user_id":756,"name":"A Watermelon","steam_id":76561198825990767,"connected_time":291000000000,"state":"active","ping":86}]},{"server_id":38,"name":"Uncletopia | Chicago | 7 | Stopwatch","name_short":"chi-7","host":"chi-2.us.uncletopia.com","port":27035,"enabled":true,"region":"us-central","cc":"us","latitude":41.881832,"longitude":-87.62318,"reserved":0,"last_update":"0001-01-01T00:00:00Z","name_a2s":"Uncletopia | Chicago | 7 | Stopwatch","protocol":17,"map":"workshop/koth_ramjam_rc1.ugc459778887","folder":"tf","game":"Team Fortress","app_id":440,"player_count":13,"max_players":24,"Bots":0,"server_type":"Dedicated","server_os":"Linux","password":true,"vac":true,"version":"7961495","steam_id":85568392924866364,"keywords":["cp","nocrits","nodmgspread","uncletopia"],"game_id":440,"stv_port":27036,"stv_name":"Uncletopia | Chicago | 7 | Stopwatch | STV","players":[{"user_id":383,"name":"Tom Fawkes","steam_id":76561198012158452,"connected_time":297000000000,"state":"active","ping":73},{"user_id":384,"name":"Tockbird","steam_id":76561199437964594,"connected_time":241000000000,"state":"active","ping":115},{"user_id":375,"name":"Eiss","steam_id":76561198343183806,"connected_time":1874000000000,"state":"active","ping":68},{"user_id":386,"name":"Feels Good","steam_id":76561198058030054,"connected_time":109000000000,"state":"active","ping":202},{"user_id":387,"name":"Vignette_","steam_id":76561199501330520,"connected_time":88000000000,"state":"active","ping":58},{"user_id":286,"name":"Red_Hatkins","steam_id":76561198214004105,"connected_time":7165000000000,"state":"active","ping":89},{"user_id":353,"name":"Gibs Degrossi","steam_id":76561198066152609,"connected_time":3886000000000,"state":"active","ping":45},{"user_id":349,"name":"Forty-Bot","steam_id":76561198076693960,"connected_time":3983000000000,"state":"active","ping":67},{"user_id":370,"name":"Chunky Salmon Bites (Pack of 24","steam_id":76561198123530264,"connected_time":2306000000000,"state":"active","ping":85},{"user_id":382,"name":"Sentry Gun Main Man","steam_id":76561198327938247,"connected_time":741000000000,"state":"active","ping":78},{"user_id":338,"name":"Conrad Murray","steam_id":76561198141682876,"connected_time":4555000000000,"state":"active","ping":110},{"user_id":373,"name":"Rayleigh Scattering","steam_id":76561198033103202,"connected_time":2125000000000,"state":"active","ping":78},{"user_id":314,"name":"dyson","steam_id":76561199081837220,"connected_time":6221000000000,"state":"active","ping":73}]},{"server_id":39,"name":"Uncletopia | Chicago | 8 | Community","name_short":"chi-8","host":"chi-2.us.uncletopia.com","port":27045,"enabled":true,"region":"us-central","cc":"us","latitude":41.881832,"longitude":-87.62318,"reserved":0,"last_update":"0001-01-01T00:00:00Z","name_a2s":"Uncletopia | Chicago | 8 | Community","protocol":17,"map":"workshop/cp_glacier_rc6.ugc2905735376","folder":"tf","game":"Team Fortress","app_id":440,"player_count":0,"max_players":24,"Bots":0,"server_type":"Dedicated","server_os":"Linux","password":true,"vac":true,"version":"7961495","steam_id":85568392924866365,"keywords":["cp","nocrits","nodmgspread","uncletopia"],"game_id":440,"stv_port":27046,"stv_name":"Uncletopia | Chicago | 8 | Community | STV","players":null},{"server_id":8,"name":"Uncletopia | Dallas | 1 | All Maps","name_short":"dal-1","host":"dal-1.us.uncletopia.com","port":27015,"enabled":true,"region":"us-central","cc":"us","latitude":32.779167,"longitude":-96.80889,"reserved":0,"last_update":"0001-01-01T00:00:00Z","name_a2s":"Uncletopia | Dallas | 1 | All Maps","protocol":17,"map":"pl_borneo","folder":"tf","game":"Team Fortress","app_id":440,"player_count":24,"max_players":24,"Bots":0,"server_type":"Dedicated","server_os":"Linux","password":true,"vac":true,"version":"7961495","steam_id":85568392924469986,"keywords":["nocrits","nodmgspread","payload","uncletopia"],"game_id":440,"stv_port":27016,"stv_name":"Uncletopia | Dallas | 1 | All Maps | STV","players":[{"user_id":564,"name":"dave","steam_id":76561198135961731,"connected_time":401000000000,"state":"active","ping":64},{"user_id":548,"name":"LampMan","steam_id":76561198079857527,"connected_time":2539000000000,"state":"active","ping":57},{"user_id":555,"name":"Kng","steam_id":76561198993248203,"connected_time":2021000000000,"state":"active","ping":96},{"user_id":545,"name":"ninety9dragonfly","steam_id":76561198363406983,"connected_time":2762000000000,"state":"active","ping":103},{"user_id":537,"name":"Justy","steam_id":76561198044014069,"connected_time":3359000000000,"state":"active","ping":60},{"user_id":556,"name":"Bennet","steam_id":76561198194582382,"connected_time":2015000000000,"state":"active","ping":73},{"user_id":559,"name":"Woody","steam_id":76561198020308956,"connected_time":1725000000000,"state":"active","ping":61},{"user_id":561,"name":"ZILICON","steam_id":76561199044705592,"connected_time":818000000000,"state":"active","ping":116},{"user_id":557,"name":"Voodo133","steam_id":76561198042670351,"connected_time":2010000000000,"state":"active","ping":100},{"user_id":535,"name":"Baby gaming","steam_id":76561198867319323,"connected_time":3538000000000,"state":"active","ping":85},{"user_id":560,"name":"Bigfoot ate my ass","steam_id":76561198071605190,"connected_time":1561000000000,"state":"active","ping":75},{"user_id":558,"name":"CHIKN","steam_id":76561198277792665,"connected_time":1998000000000,"state":"active","ping":79},{"user_id":541,"name":"booper_101","steam_id":76561198003712162,"connected_time":3206000000000,"state":"active","ping":100},{"user_id":519,"name":"Who","steam_id":76561198013049671,"connected_time":4943000000000,"state":"active","ping":91},{"user_id":544,"name":"Jamie Hyneman","steam_id":76561199196036481,"connected_time":3098000000000,"state":"active","ping":64},{"user_id":563,"name":"Tritium","steam_id":76561198043305626,"connected_time":541000000000,"state":"active","ping":98},{"user_id":552,"name":"TrueGuardian32.kick","steam_id":76561198149985253,"connected_time":2050000000000,"state":"active","ping":46},{"user_id":513,"name":"RocketRabbit","steam_id":76561198803062131,"connected_time":5038000000000,"state":"active","ping":72},{"user_id":553,"name":"+","steam_id":76561198262422184,"connected_time":2043000000000,"state":"active","ping":49},{"user_id":495,"name":"I drop babies on purpose","steam_id":76561199013178464,"connected_time":6799000000000,"state":"active","ping":61},{"user_id":549,"name":"Arthur SSJ2","steam_id":76561198043678479,"connected_time":2525000000000,"state":"active","ping":58},{"user_id":543,"name":"lker","steam_id":76561197976975075,"connected_time":3158000000000,"state":"active","ping":59},{"user_id":478,"name":"Ballista","steam_id":76561197983182562,"connected_time":8085000000000,"state":"active","ping":57},{"user_id":554,"name":"Giselle","steam_id":76561198162593640,"connected_time":2043000000000,"state":"active","ping":103}]},{"server_id":108,"name":"Uncletopia | Dallas | 2 | All Maps","name_short":"dal-2","host":"dal-1.us.uncletopia.com","port":27025,"enabled":true,"region":"us-central","cc":"us","latitude":32.779167,"longitude":-96.80889,"reserved":0,"last_update":"0001-01-01T00:00:00Z","name_a2s":"Uncletopia | Dallas | 2 | All Maps","protocol":17,"map":"pl_badwater","folder":"tf","game":"Team Fortress","app_id":440,"player_count":24,"max_players":24,"Bots":0,"server_type":"Dedicated","server_os":"Linux","password":true,"vac":true,"version":"7961495","steam_id":85568392924469988,"keywords":["nocrits","nodmgspread","payload","uncletopia"],"game_id":440,"stv_port":27026,"stv_name":"Uncletopia | Dallas | 2 | All Maps | STV","players":[{"user_id":655,"name":"Alchemist","steam_id":76561198094238189,"connected_time":533000000000,"state":"active","ping":74},{"user_id":658,"name":"sailaser","steam_id":76561198035752229,"connected_time":506000000000,"state":"active","ping":84},{"user_id":602,"name":"Azellea","steam_id":76561198187167935,"connected_time":5122000000000,"state":"active","ping":99},{"user_id":654,"name":"Fyr","steam_id":76561198048507556,"connected_time":536000000000,"state":"active","ping":47},{"user_id":653,"name":"الله أكبر","steam_id":76561197980471844,"connected_time":612000000000,"state":"active","ping":89},{"user_id":627,"name":"Major Woody","steam_id":76561198835541533,"connected_time":3330000000000,"state":"active","ping":58},{"user_id":645,"name":"Poundcake","steam_id":76561198042196918,"connected_time":1517000000000,"state":"active","ping":112},{"user_id":649,"name":"Chanchito Perrito","steam_id":76561198076338104,"connected_time":1284000000000,"state":"active","ping":79},{"user_id":659,"name":"Ticktockman","steam_id":76561198170071647,"connected_time":485000000000,"state":"active","ping":90},{"user_id":657,"name":"mbell1199","steam_id":76561198827517736,"connected_time":525000000000,"state":"active","ping":69},{"user_id":644,"name":"firefly","steam_id":76561198151308698,"connected_time":1687000000000,"state":"active","ping":46},{"user_id":663,"name":"oh god i'm gonna CHUM","steam_id":76561198019210187,"connected_time":328000000000,"state":"active","ping":56},{"user_id":643,"name":"SomeScuffedKid","steam_id":76561198086113234,"connected_time":1778000000000,"state":"active","ping":87},{"user_id":622,"name":"quite the notorious scoundrel","steam_id":76561198163993775,"connected_time":3532000000000,"state":"active","ping":121},{"user_id":641,"name":"water bottle","steam_id":76561198096860013,"connected_time":2140000000000,"state":"active","ping":89},{"user_id":661,"name":"Balerion the Black Dread","steam_id":76561198003728369,"connected_time":443000000000,"state":"active","ping":90},{"user_id":642,"name":"Commodore","steam_id":76561198042112852,"connected_time":1855000000000,"state":"active","ping":85},{"user_id":647,"name":"moomin","steam_id":76561198336244269,"connected_time":1369000000000,"state":"active","ping":99},{"user_id":625,"name":"Get out of here, Stalker.","steam_id":76561198066566813,"connected_time":3373000000000,"state":"active","ping":111},{"user_id":609,"name":"Hunntey","steam_id":76561198093106693,"connected_time":5004000000000,"state":"active","ping":41},{"user_id":601,"name":"Schimzy™","steam_id":76561198806151423,"connected_time":5352000000000,"state":"active","ping":91},{"user_id":652,"name":"kim wexler","steam_id":76561199199795741,"connected_time":620000000000,"state":"active","ping":118},{"user_id":651,"name":"Jimmy McGill","steam_id":76561198135137213,"connected_time":998000000000,"state":"active","ping":40},{"user_id":656,"name":"skellymabob with a knife","steam_id":76561198015526166,"connected_time":533000000000,"state":"active","ping":86}]},{"server_id":404,"name":"Uncletopia | Dallas | 3 | All Maps","name_short":"dal-3","host":"dal-1.us.uncletopia.com","port":27035,"enabled":true,"region":"us-central","cc":"us","latitude":32.779167,"longitude":-96.80889,"reserved":0,"last_update":"0001-01-01T00:00:00Z","name_a2s":"Uncletopia | Dallas | 3 | All Maps","protocol":17,"map":"cp_mountainlab","folder":"tf","game":"Team Fortress","app_id":440,"player_count":25,"max_players":24,"Bots":0,"server_type":"Dedicated","server_os":"Linux","password":true,"vac":true,"version":"7961495","steam_id":85568392924515219,"keywords":["cp","nocrits","nodmgspread","uncletopia"],"game_id":440,"stv_port":27036,"stv_name":"Uncletopia | Dallas | 3 | All Maps | STV","players":[{"user_id":455,"name":"Shitty Pilot","steam_id":76561198042723469,"connected_time":1594000000000,"state":"active","ping":59},{"user_id":465,"name":"Silverstar","steam_id":76561198399525329,"connected_time":743000000000,"state":"active","ping":93},{"user_id":463,"name":"josh","steam_id":76561198110063909,"connected_time":920000000000,"state":"active","ping":73},{"user_id":391,"name":"cycoone","steam_id":76561198059745285,"connected_time":6206000000000,"state":"active","ping":82},{"user_id":409,"name":"myon","steam_id":76561197992528570,"connected_time":4630000000000,"state":"active","ping":171},{"user_id":368,"name":"pizza whore","steam_id":76561199471269566,"connected_time":8025000000000,"state":"active","ping":52},{"user_id":477,"name":"yeeye","steam_id":76561198094306054,"connected_time":96000000000,"state":"active","ping":61},{"user_id":449,"name":"Marc Antony","steam_id":76561198011366517,"connected_time":2342000000000,"state":"active","ping":73},{"user_id":441,"name":"heavy weapons \"guy\"","steam_id":76561198151135298,"connected_time":2542000000000,"state":"active","ping":61},{"user_id":432,"name":"Metbol","steam_id":76561198001362410,"connected_time":2902000000000,"state":"active","ping":67},{"user_id":456,"name":"rAnch","steam_id":76561198024562587,"connected_time":1319000000000,"state":"active","ping":44},{"user_id":467,"name":"The Winter Medic","steam_id":76561198197112922,"connected_time":712000000000,"state":"active","ping":94},{"user_id":442,"name":"doughboy","steam_id":76561198219012928,"connected_time":2531000000000,"state":"active","ping":77},{"user_id":478,"name":"Cpt. Dingle","steam_id":76561198025720199,"connected_time":10000000000,"state":"spawning","ping":112},{"user_id":468,"name":"Frost Paraselene","steam_id":76561198007332517,"connected_time":697000000000,"state":"active","ping":74},{"user_id":475,"name":"npc energy","steam_id":76561198035342207,"connected_time":293000000000,"state":"active","ping":61},{"user_id":470,"name":"Sewer Wizard","steam_id":76561199061404496,"connected_time":578000000000,"state":"active","ping":90},{"user_id":471,"name":"stuffedidiot","steam_id":76561199181513019,"connected_time":574000000000,"state":"active","ping":119},{"user_id":472,"name":"Rat Smacker","steam_id":76561198043629646,"connected_time":558000000000,"state":"active","ping":92},{"user_id":479,"name":"Greasy Guavas","steam_id":76561198089650428,"connected_time":9000000000,"state":"spawning","ping":67},{"user_id":457,"name":"batheman63","steam_id":76561198881818552,"connected_time":1319000000000,"state":"active","ping":103},{"user_id":473,"name":"XxDragon4321xX","steam_id":76561198046705735,"connected_time":527000000000,"state":"active","ping":99},{"user_id":480,"name":"awawa oyoyo awawa oyoyo","steam_id":76561198062263639,"connected_time":8000000000,"state":"spawning","ping":81},{"user_id":436,"name":"The_Skull_boy","steam_id":76561198227692664,"connected_time":2861000000000,"state":"active","ping":100},{"user_id":367,"name":"pizza cuck","steam_id":76561198040455711,"connected_time":8184000000000,"state":"active","ping":69}]},{"server_id":405,"name":"Uncletopia | Dallas | 4 | Community","name_short":"dal-4","host":"dal-1.us.uncletopia.com","port":27045,"enabled":true,"region":"us-central","cc":"us","latitude":32.779167,"longitude":-96.80889,"reserved":0,"last_update":"0001-01-01T00:00:00Z","name_a2s":"Uncletopia | Dallas | 4 | Community","protocol":17,"map":"workshop/koth_slaughter_rc1.ugc1712845210","folder":"tf","game":"Team Fortress","app_id":440,"player_count":0,"max_players":24,"Bots":0,"server_type":"Dedicated","server_os":"Linux","password":true,"vac":true,"version":"7961495","steam_id":85568392924515220,"keywords":["cp","nocrits","nodmgspread","uncletopia"],"game_id":440,"stv_port":27046,"stv_name":"Uncletopia | Dallas | 4 | Community | STV","players":null},{"server_id":5,"name":"Uncletopia | Frankfurt | 1 | All Maps","name_short":"frk-1","host":"frk-1.de.uncletopia.com","port":27015,"enabled":true,"region":"eu","cc":"de","latitude":50.110924,"longitude":8.682127,"reserved":0,"last_update":"0001-01-01T00:00:00Z","name_a2s":"Uncletopia | Frankfurt | 1 | All Maps","protocol":17,"map":"koth_lakeside_final","folder":"tf","game":"Team Fortress","app_id":440,"player_count":0,"max_players":24,"Bots":0,"server_type":"Dedicated","server_os":"Linux","password":true,"vac":true,"version":"7961495","steam_id":85568392924469989,"keywords":["cp","nocrits","nodmgspread","uncletopia"],"game_id":440,"stv_port":27016,"stv_name":"Uncletopia | Frankfurt | 1 | All Maps | STV","players":null},{"server_id":110,"name":"Uncletopia | Frankfurt | 2 | All Maps","name_short":"frk-2","host":"frk-1.de.uncletopia.com","port":27025,"enabled":true,"region":"eu","cc":"de","latitude":50.110924,"longitude":8.682127,"reserved":0,"last_update":"0001-01-01T00:00:00Z","name_a2s":"Uncletopia | Frankfurt | 2 | All Maps","protocol":17,"map":"cp_mountainlab","folder":"tf","game":"Team Fortress","app_id":440,"player_count":0,"max_players":24,"Bots":0,"server_type":"Dedicated","server_os":"Linux","password":true,"vac":true,"version":"7961495","steam_id":85568392924469990,"keywords":["cp","nocrits","nodmgspread","uncletopia"],"game_id":440,"stv_port":27026,"stv_name":"Uncletopia | Frankfurt | 2 | All Maps | STV","players":null},{"server_id":308,"name":"Uncletopia | Frankfurt | 3 | All Maps","name_short":"frk-3","host":"frk-1.de.uncletopia.com","port":27035,"enabled":true,"region":"eu","cc":"de","latitude":50.110924,"longitude":8.682127,"reserved":0,"last_update":"0001-01-01T00:00:00Z","name_a2s":"Uncletopia | Frankfurt | 3 | All Maps","protocol":17,"map":"koth_lakeside_final","folder":"tf","game":"Team Fortress","app_id":440,"player_count":0,"max_players":24,"Bots":0,"server_type":"Dedicated","server_os":"Linux","password":true,"vac":true,"version":"7961495","steam_id":85568392924504274,"keywords":["cp","nocrits","nodmgspread","uncletopia"],"game_id":440,"stv_port":27036,"stv_name":"Uncletopia | Frankfurt | 3 | All Maps | STV","players":null},{"server_id":309,"name":"Uncletopia | Frankfurt | 4 | All Maps","name_short":"frk-4","host":"frk-1.de.uncletopia.com","port":27045,"enabled":true,"region":"eu","cc":"de","latitude":50.110924,"longitude":8.682127,"reserved":0,"last_update":"0001-01-01T00:00:00Z","name_a2s":"Uncletopia | Frankfurt | 4 | All Maps","protocol":17,"map":"koth_viaduct","folder":"tf","game":"Team Fortress","app_id":440,"player_count":0,"max_players":24,"Bots":0,"server_type":"Dedicated","server_os":"Linux","password":true,"vac":true,"version":"7961495","steam_id":85568392924504275,"keywords":["cp","nocrits","nodmgspread","uncletopia"],"game_id":440,"stv_port":27046,"stv_name":"Uncletopia | Frankfurt | 4 | All Maps | STV","players":null},{"server_id":310,"name":"Uncletopia | Frankfurt | 5 | All Maps","name_short":"frk-5","host":"frk-1.de.uncletopia.com","port":27055,"enabled":true,"region":"eu","cc":"de","latitude":50.110924,"longitude":8.682127,"reserved":0,"last_update":"0001-01-01T00:00:00Z","name_a2s":"Uncletopia | Frankfurt | 5 | All Maps","protocol":17,"map":"koth_highpass","folder":"tf","game":"Team Fortress","app_id":440,"player_count":0,"max_players":24,"Bots":0,"server_type":"Dedicated","server_os":"Linux","password":true,"vac":true,"version":"7961495","steam_id":85568392924504277,"keywords":["cp","nocrits","nodmgspread","uncletopia"],"game_id":440,"stv_port":27056,"stv_name":"Uncletopia | Frankfurt | 5 | All Maps | STV","players":null},{"server_id":311,"name":"Uncletopia | Frankfurt | 6 | All Maps","name_short":"frk-6","host":"frk-1.de.uncletopia.com","port":27065,"enabled":true,"region":"eu","cc":"de","latitude":50.110924,"longitude":8.682127,"reserved":0,"last_update":"0001-01-01T00:00:00Z","name_a2s":"Uncletopia | Frankfurt | 6 | All Maps","protocol":17,"map":"koth_highpass","folder":"tf","game":"Team Fortress","app_id":440,"player_count":0,"max_players":24,"Bots":0,"server_type":"Dedicated","server_os":"Linux","password":true,"vac":true,"version":"7961495","steam_id":85568392924504278,"keywords":["cp","nocrits","nodmgspread","uncletopia"],"game_id":440,"stv_port":27066,"stv_name":"Uncletopia | Frankfurt | 6 | All Maps | STV","players":null},{"server_id":23,"name":"Uncletopia | Frankfurt | 7 | Stopwatch","name_short":"frk-7","host":"frk-1.de.uncletopia.com","port":27075,"enabled":true,"region":"eu","cc":"de","latitude":50.110924,"longitude":8.682127,"reserved":0,"last_update":"0001-01-01T00:00:00Z","name_a2s":"Uncletopia | Frankfurt | 7 | Stopwatch","protocol":17,"map":"workshop/koth_bagel_rc6.ugc2514036946","folder":"tf","game":"Team Fortress","app_id":440,"player_count":0,"max_players":24,"Bots":0,"server_type":"Dedicated","server_os":"Linux","password":true,"vac":true,"version":"7961495","steam_id":85568392924742827,"keywords":["cp","nocrits","nodmgspread","uncletopia"],"game_id":440,"stv_port":27076,"stv_name":"Uncletopia | Frankfurt | 7 | Stopwatch | STV","players":null},{"server_id":24,"name":"Uncletopia | Frankfurt | 8 | Community","name_short":"frk-8","host":"frk-1.de.uncletopia.com","port":27085,"enabled":true,"region":"eu","cc":"de","latitude":50.110924,"longitude":8.682127,"reserved":0,"last_update":"0001-01-01T00:00:00Z","name_a2s":"Uncletopia | Frankfurt | 8 | Community","protocol":17,"map":"workshop/koth_ramjam_rc1.ugc459778887","folder":"tf","game":"Team Fortress","app_id":440,"player_count":0,"max_players":24,"Bots":0,"server_type":"Dedicated","server_os":"Linux","password":true,"vac":true,"version":"7961495","steam_id":85568392924742828,"keywords":["cp","nocrits","nodmgspread","uncletopia"],"game_id":440,"stv_port":27086,"stv_name":"Uncletopia | Frankfurt | 8 | Community | STV","players":null},{"server_id":202,"name":"Uncletopia | Hong Kong | 1 | All Maps","name_short":"hgk-1","host":"hgk-1.hk.uncletopia.com","port":27015,"enabled":true,"region":"asia","cc":"hk","latitude":22.302711,"longitude":114.177216,"reserved":0,"last_update":"0001-01-01T00:00:00Z","name_a2s":"Uncletopia | Hong Kong | 1 | All Maps","protocol":17,"map":"pl_barnblitz","folder":"tf","game":"Team Fortress","app_id":440,"player_count":24,"max_players":24,"Bots":0,"server_type":"Dedicated","server_os":"Linux","password":true,"vac":true,"version":"7961495","steam_id":85568392924494504,"keywords":["nocrits","nodmgspread","payload","uncletopia"],"game_id":440,"stv_port":27016,"stv_name":"Uncletopia | Hong Kong | 1 | All Maps | STV","players":[{"user_id":124,"name":"Darknight","steam_id":76561199090139287,"connected_time":1509000000000,"state":"active","ping":87},{"user_id":7,"name":"MS PowerPoint","steam_id":76561198369523192,"connected_time":9800000000000,"state":"active","ping":70},{"user_id":133,"name":"pyroman51","steam_id":76561198074339034,"connected_time":1031000000000,"state":"active","ping":76},{"user_id":101,"name":"Deeznutz69Gamer","steam_id":76561199221531190,"connected_time":3139000000000,"state":"active","ping":104},{"user_id":140,"name":"Someone","steam_id":76561199243091145,"connected_time":124000000000,"state":"active","ping":89},{"user_id":36,"name":"neth","steam_id":76561198217995369,"connected_time":7233000000000,"state":"active","ping":70},{"user_id":130,"name":"IRA car dealership","steam_id":76561199224577498,"connected_time":1229000000000,"state":"active","ping":72},{"user_id":30,"name":"bop","steam_id":76561198855391001,"connected_time":7855000000000,"state":"active","ping":89},{"user_id":136,"name":"heliX","steam_id":76561198828478057,"connected_time":427000000000,"state":"active","ping":65},{"user_id":31,"name":"Nephew Nate","steam_id":76561199137872034,"connected_time":7656000000000,"state":"active","ping":76},{"user_id":113,"name":"Joyfuloki","steam_id":76561199499457047,"connected_time":2807000000000,"state":"active","ping":168},{"user_id":125,"name":"DevAllen","steam_id":76561198830629355,"connected_time":1506000000000,"state":"active","ping":67},{"user_id":121,"name":"Sover blw.tf","steam_id":76561198136347837,"connected_time":2097000000000,"state":"active","ping":82},{"user_id":120,"name":"buy the subaru brz now","steam_id":76561198420018387,"connected_time":2302000000000,"state":"active","ping":36},{"user_id":118,"name":"Hanta","steam_id":76561199031390218,"connected_time":2638000000000,"state":"active","ping":132},{"user_id":126,"name":"ConHoshi","steam_id":76561199387718733,"connected_time":1506000000000,"state":"active","ping":83},{"user_id":129,"name":"Edward Firehands","steam_id":76561199174449723,"connected_time":1430000000000,"state":"active","ping":122},{"user_id":137,"name":"beet juice","steam_id":76561198055553140,"connected_time":275000000000,"state":"active","ping":80},{"user_id":132,"name":"IFEN","steam_id":76561198186914066,"connected_time":1193000000000,"state":"active","ping":54},{"user_id":111,"name":"coming","steam_id":76561198835623050,"connected_time":2872000000000,"state":"active","ping":72},{"user_id":141,"name":"XxVoidGam3rxX","steam_id":76561199500403887,"connected_time":108000000000,"state":"active","ping":133},{"user_id":83,"name":"water tastes good","steam_id":76561199375947670,"connected_time":4192000000000,"state":"active","ping":70},{"user_id":85,"name":"RAHHHHH!!!!!!!","steam_id":76561198324008555,"connected_time":4071000000000,"state":"active","ping":62},{"user_id":86,"name":"蠢脸骑士脸不蠢","steam_id":76561198422372840,"connected_time":4030000000000,"state":"active","ping":56}]},{"server_id":1,"name":"Uncletopia | Los Angeles | 1 | All Maps","name_short":"lax-1","host":"lax-1.us.uncletopia.com","port":27015,"enabled":true,"region":"us-west","cc":"us","latitude":33.94279,"longitude":-118.41004,"reserved":0,"last_update":"0001-01-01T00:00:00Z","name_a2s":"Uncletopia | Los Angeles | 1 | All Maps","protocol":17,"map":"cp_process_final","folder":"tf","game":"Team Fortress","app_id":440,"player_count":23,"max_players":24,"Bots":0,"server_type":"Dedicated","server_os":"Linux","password":true,"vac":true,"version":"7961495","steam_id":85568392924469991,"keywords":["cp","nocrits","nodmgspread","uncletopia"],"game_id":440,"stv_port":27016,"stv_name":"Uncletopia | Los Angeles | 1 | All Maps | STV","players":[{"user_id":508,"name":"darren","steam_id":76561199050155136,"connected_time":5634000000000,"state":"active","ping":46},{"user_id":538,"name":"exx","steam_id":76561198090552145,"connected_time":1684000000000,"state":"active","ping":48},{"user_id":513,"name":"BLØRG","steam_id":76561198036126673,"connected_time":5343000000000,"state":"active","ping":88},{"user_id":541,"name":"POWER OUTER","steam_id":76561199162166709,"connected_time":1477000000000,"state":"active","ping":58},{"user_id":470,"name":"Sterling Nano","steam_id":76561198048580088,"connected_time":7818000000000,"state":"active","ping":68},{"user_id":524,"name":"Grungus","steam_id":76561198047700230,"connected_time":3566000000000,"state":"active","ping":57},{"user_id":514,"name":"Micah","steam_id":76561198006837982,"connected_time":5249000000000,"state":"active","ping":101},{"user_id":547,"name":"TANK DAVIS","steam_id":76561198015327889,"connected_time":221000000000,"state":"active","ping":124},{"user_id":529,"name":"Smelly","steam_id":76561198380507370,"connected_time":3108000000000,"state":"active","ping":87},{"user_id":477,"name":"TheBrocklobster","steam_id":76561198039682984,"connected_time":7583000000000,"state":"active","ping":61},{"user_id":546,"name":"Croxxans","steam_id":76561198853900757,"connected_time":651000000000,"state":"active","ping":65},{"user_id":498,"name":"FunHaver69","steam_id":76561199086723311,"connected_time":5986000000000,"state":"active","ping":69},{"user_id":478,"name":"Fungal","steam_id":76561198078973439,"connected_time":7577000000000,"state":"active","ping":50},{"user_id":548,"name":"Chicago Shoplifter","steam_id":76561197986530028,"connected_time":71000000000,"state":"active","ping":99},{"user_id":501,"name":"Squidlye","steam_id":76561199015857743,"connected_time":5811000000000,"state":"active","ping":93},{"user_id":341,"name":"K-2","steam_id":76561198322606535,"connected_time":16078000000000,"state":"active","ping":72},{"user_id":545,"name":"reem","steam_id":76561198050767193,"connected_time":755000000000,"state":"active","ping":53},{"user_id":536,"name":"SneekiCheekiQbone","steam_id":76561198045077980,"connected_time":2115000000000,"state":"active","ping":45},{"user_id":543,"name":"AAAAAAAAAAAAAAAAAAAAAAAAAAAAAAA","steam_id":76561198125467937,"connected_time":1132000000000,"state":"active","ping":74},{"user_id":544,"name":"SamSmelly","steam_id":76561198045152184,"connected_time":1119000000000,"state":"active","ping":50},{"user_id":532,"name":"Looge","steam_id":76561198155483586,"connected_time":3023000000000,"state":"active","ping":100},{"user_id":523,"name":"window mirage","steam_id":76561199187641532,"connected_time":3708000000000,"state":"active","ping":102},{"user_id":517,"name":"FROYO b4nny","steam_id":76561197970669109,"connected_time":5177000000000,"state":"active","ping":55}]},{"server_id":112,"name":"Uncletopia | Los Angeles | 2 | All Maps","name_short":"lax-2","host":"lax-1.us.uncletopia.com","port":27025,"enabled":true,"region":"us-west","cc":"us","latitude":33.94279,"longitude":-118.41004,"reserved":0,"last_update":"0001-01-01T00:00:00Z","name_a2s":"Uncletopia | Los Angeles | 2 | All Maps","protocol":17,"map":"pl_frontier_final","folder":"tf","game":"Team Fortress","app_id":440,"player_count":20,"max_players":24,"Bots":0,"server_type":"Dedicated","server_os":"Linux","password":true,"vac":true,"version":"7961495","steam_id":85568392924469992,"keywords":["nocrits","nodmgspread","payload","uncletopia"],"game_id":440,"stv_port":27026,"stv_name":"Uncletopia | Los Angeles | 2 | All Maps | STV","players":[{"user_id":272,"name":"Wiener Hole Paper Cut","steam_id":76561198000808203,"connected_time":118000000000,"state":"active","ping":115},{"user_id":259,"name":"ShadowZiki","steam_id":76561198145930013,"connected_time":749000000000,"state":"active","ping":41},{"user_id":278,"name":"Sodomy Saul","steam_id":76561198158486793,"connected_time":19000000000,"state":"spawning","ping":54},{"user_id":256,"name":"A UsedNom","steam_id":76561198402832756,"connected_time":1154000000000,"state":"active","ping":29},{"user_id":213,"name":"thedeadlyamoeba","steam_id":76561198040810178,"connected_time":3790000000000,"state":"active","ping":61},{"user_id":274,"name":"Firedust19","steam_id":76561198153238631,"connected_time":61000000000,"state":"active","ping":64},{"user_id":247,"name":"stubowden","steam_id":76561198421175184,"connected_time":1407000000000,"state":"active","ping":69},{"user_id":238,"name":"Reem0h","steam_id":76561198169848690,"connected_time":1693000000000,"state":"active","ping":115},{"user_id":255,"name":"McSpazatron","steam_id":76561198955942148,"connected_time":1295000000000,"state":"active","ping":84},{"user_id":246,"name":"Cmoon99999","steam_id":76561198928412604,"connected_time":1519000000000,"state":"active","ping":116},{"user_id":275,"name":"Krustytoepaste","steam_id":76561198320265524,"connected_time":58000000000,"state":"active","ping":64},{"user_id":241,"name":"ohnocringe","steam_id":76561199381232082,"connected_time":1661000000000,"state":"active","ping":93},{"user_id":276,"name":"Sticky Rice","steam_id":76561198192311305,"connected_time":57000000000,"state":"active","ping":60},{"user_id":277,"name":"video games","steam_id":76561198334059206,"connected_time":36000000000,"state":"active","ping":62},{"user_id":244,"name":"Shadoe","steam_id":76561198218577281,"connected_time":1563000000000,"state":"active","ping":95},{"user_id":245,"name":"bluefoxx118","steam_id":76561198182884975,"connected_time":1551000000000,"state":"active","ping":105},{"user_id":279,"name":"dispen_sir","steam_id":76561199500927779,"connected_time":6000000000,"state":"spawning","ping":227},{"user_id":249,"name":"moosein","steam_id":76561198354272434,"connected_time":1379000000000,"state":"active","ping":113},{"user_id":269,"name":"Quaalude","steam_id":76561198100177449,"connected_time":263000000000,"state":"active","ping":89},{"user_id":270,"name":"(Speaks in Spanish)","steam_id":76561198198704538,"connected_time":260000000000,"state":"active","ping":59}]},{"server_id":324,"name":"Uncletopia | Los Angeles | 3 | All Maps","name_short":"lax-3","host":"lax-1.us.uncletopia.com","port":27035,"enabled":true,"region":"us-west","cc":"us","latitude":33.94279,"longitude":-118.41004,"reserved":0,"last_update":"0001-01-01T00:00:00Z","name_a2s":"Uncletopia | Los Angeles | 3 | All Maps","protocol":17,"map":"pl_borneo","folder":"tf","game":"Team Fortress","app_id":440,"player_count":24,"max_players":24,"Bots":0,"server_type":"Dedicated","server_os":"Linux","password":true,"vac":true,"version":"7961495","steam_id":85568392924510198,"keywords":["nocrits","nodmgspread","payload","uncletopia"],"game_id":440,"stv_port":27036,"stv_name":"Uncletopia | Los Angeles | 3 | All Maps | STV","players":[{"user_id":362,"name":"Doppelgänger","steam_id":76561198036730436,"connected_time":1889000000000,"state":"active","ping":89},{"user_id":366,"name":"MaDeuce","steam_id":76561198110732835,"connected_time":1573000000000,"state":"active","ping":96},{"user_id":354,"name":"DerpyNate","steam_id":76561198100249037,"connected_time":2930000000000,"state":"active","ping":92},{"user_id":355,"name":"Dongus","steam_id":76561197979056451,"connected_time":2781000000000,"state":"active","ping":76},{"user_id":370,"name":"Sweater-Fan","steam_id":76561199389567214,"connected_time":1133000000000,"state":"active","ping":99},{"user_id":371,"name":"self sufficient kitten","steam_id":76561197960592612,"connected_time":795000000000,"state":"active","ping":75},{"user_id":367,"name":"nobody","steam_id":76561198294634769,"connected_time":1448000000000,"state":"active","ping":60},{"user_id":380,"name":"tardis_946","steam_id":76561199090388860,"connected_time":108000000000,"state":"active","ping":47},{"user_id":349,"name":"Hazeyboi","steam_id":76561198130687838,"connected_time":3127000000000,"state":"active","ping":94},{"user_id":299,"name":"Kamin","steam_id":76561198255299559,"connected_time":6851000000000,"state":"active","ping":102},{"user_id":382,"name":"monkey squirts","steam_id":76561197983101644,"connected_time":0,"state":"spawning","ping":0},{"user_id":378,"name":"Maid 'n' China","steam_id":76561198423392976,"connected_time":207000000000,"state":"active","ping":59},{"user_id":373,"name":"☢(XJ)","steam_id":76561198102189618,"connected_time":780000000000,"state":"active","ping":35},{"user_id":377,"name":"Alice in Rubberland","steam_id":76561198087328346,"connected_time":344000000000,"state":"active","ping":99},{"user_id":369,"name":"Flyawaycheese","steam_id":76561198883837701,"connected_time":1305000000000,"state":"active","ping":61},{"user_id":381,"name":"Dwake","steam_id":76561198121943676,"connected_time":78000000000,"state":"active","ping":55},{"user_id":328,"name":"Gnome Observer","steam_id":76561198969136257,"connected_time":4563000000000,"state":"active","ping":52},{"user_id":340,"name":"Texas","steam_id":76561198053276976,"connected_time":3609000000000,"state":"active","ping":68},{"user_id":351,"name":"snail2646","steam_id":76561198061411251,"connected_time":3121000000000,"state":"active","ping":97},{"user_id":352,"name":"❤ Ashley ❤","steam_id":76561198056428303,"connected_time":3121000000000,"state":"active","ping":52},{"user_id":345,"name":"Spread Joy, Not Hate","steam_id":76561198053117503,"connected_time":3491000000000,"state":"active","ping":91},{"user_id":302,"name":"Overmeme","steam_id":76561199455124144,"connected_time":6679000000000,"state":"active","ping":94},{"user_id":376,"name":"TüCold","steam_id":76561198111278197,"connected_time":465000000000,"state":"active","ping":60},{"user_id":353,"name":"Maximum Flame","steam_id":76561198073682529,"connected_time":3121000000000,"state":"active","ping":91}]},{"server_id":25,"name":"Uncletopia | Los Angeles | 4 | Stopwatch","name_short":"lax-4","host":"lax-1.us.uncletopia.com","port":27045,"enabled":true,"region":"us-west","cc":"us","latitude":33.94279,"longitude":-118.41004,"reserved":0,"last_update":"0001-01-01T00:00:00Z","name_a2s":"Uncletopia | Los Angeles | 4 | Stopwatch","protocol":17,"map":"workshop/pl_vigil_rc10.ugc1266210012","folder":"tf","game":"Team Fortress","app_id":440,"player_count":24,"max_players":24,"Bots":0,"server_type":"Dedicated","server_os":"Linux","password":true,"vac":true,"version":"7961495","steam_id":85568392924510199,"keywords":["nocrits","nodmgspread","payload","uncletopia"],"game_id":440,"stv_port":27046,"stv_name":"Uncletopia | Los Angeles | 4 | Stopwatch | STV","players":[{"user_id":60,"name":"Gum Choomer","steam_id":76561198077846788,"connected_time":5186000000000,"state":"active","ping":118},{"user_id":107,"name":"walrooos","steam_id":76561198024521839,"connected_time":1637000000000,"state":"active","ping":46},{"user_id":114,"name":"fire","steam_id":76561198044354279,"connected_time":1178000000000,"state":"active","ping":46},{"user_id":32,"name":"ThunderBrand","steam_id":76561198054499446,"connected_time":6915000000000,"state":"active","ping":58},{"user_id":103,"name":"thatfoolralph","steam_id":76561199210333385,"connected_time":1796000000000,"state":"active","ping":52},{"user_id":110,"name":"Pyrotek⁴","steam_id":76561198072747672,"connected_time":1523000000000,"state":"active","ping":45},{"user_id":123,"name":"CleanerCode","steam_id":76561197992636028,"connected_time":741000000000,"state":"active","ping":86},{"user_id":108,"name":"The Fiend","steam_id":76561198461862257,"connected_time":1631000000000,"state":"active","ping":85},{"user_id":86,"name":"arkei-mgtg (I♥ZONING)","steam_id":76561198013113138,"connected_time":2979000000000,"state":"active","ping":55},{"user_id":91,"name":"cielael","steam_id":76561198043971956,"connected_time":2529000000000,"state":"active","ping":46},{"user_id":31,"name":"Babish Gaming","steam_id":76561198038213022,"connected_time":7049000000000,"state":"active","ping":111},{"user_id":92,"name":"naturia","steam_id":76561198092317849,"connected_time":2512000000000,"state":"active","ping":45},{"user_id":34,"name":"FlashyLily","steam_id":76561198110050476,"connected_time":6888000000000,"state":"active","ping":69},{"user_id":35,"name":"CleverRuse","steam_id":76561197984113729,"connected_time":6875000000000,"state":"active","ping":111},{"user_id":63,"name":"framp down","steam_id":76561198006316527,"connected_time":4899000000000,"state":"active","ping":59},{"user_id":115,"name":"type \"bad med\" to kick","steam_id":76561198076402476,"connected_time":1093000000000,"state":"active","ping":73},{"user_id":125,"name":"Gerbias","steam_id":76561198001002427,"connected_time":511000000000,"state":"active","ping":65},{"user_id":42,"name":"Timetronjonsilver531","steam_id":76561198111158966,"connected_time":6582000000000,"state":"active","ping":88},{"user_id":118,"name":"Vilgax8714","steam_id":76561199144886323,"connected_time":995000000000,"state":"active","ping":75},{"user_id":109,"name":"Type Three Dabeetus","steam_id":76561198062710038,"connected_time":1630000000000,"state":"active","ping":63},{"user_id":121,"name":"kljg","steam_id":76561198104401807,"connected_time":792000000000,"state":"active","ping":89},{"user_id":70,"name":"CALsHero09","steam_id":76561198155881095,"connected_time":4335000000000,"state":"active","ping":87},{"user_id":116,"name":"Luna Crying","steam_id":76561198152593322,"connected_time":1029000000000,"state":"active","ping":47},{"user_id":122,"name":"twink gaming","steam_id":76561199117379404,"connected_time":750000000000,"state":"active","ping":61}]},{"server_id":11,"name":"Uncletopia | London | 1 | All Maps","name_short":"lon-1","host":"lon-1.uk.uncletopia.com","port":27015,"enabled":true,"region":"eu","cc":"gb","latitude":51.509865,"longitude":-0.118092,"reserved":0,"last_update":"0001-01-01T00:00:00Z","name_a2s":"Uncletopia | London | 1 | All Maps","protocol":17,"map":"pl_borneo","folder":"tf","game":"Team Fortress","app_id":440,"player_count":19,"max_players":24,"Bots":0,"server_type":"Dedicated","server_os":"Linux","password":true,"vac":true,"version":"7961495","steam_id":85568392924367362,"keywords":["nocrits","nodmgspread","payload","uncletopia"],"game_id":440,"stv_port":27016,"stv_name":"Uncletopia | London | 1 | All Maps | STV","players":[{"user_id":896,"name":"beebo","steam_id":76561199120277007,"connected_time":458000000000,"state":"active","ping":45},{"user_id":884,"name":"SmolJak","steam_id":76561199057045168,"connected_time":1765000000000,"state":"active","ping":53},{"user_id":872,"name":"Clown :o)","steam_id":76561198074657015,"connected_time":2913000000000,"state":"active","ping":66},{"user_id":873,"name":"lepicah","steam_id":76561198797345502,"connected_time":2901000000000,"state":"active","ping":54},{"user_id":876,"name":"Sinnamonsters","steam_id":76561198423422354,"connected_time":2435000000000,"state":"active","ping":135},{"user_id":880,"name":"gay little cunt","steam_id":76561198359806726,"connected_time":1908000000000,"state":"active","ping":57},{"user_id":881,"name":"Creasman","steam_id":76561198875379322,"connected_time":1882000000000,"state":"active","ping":123},{"user_id":886,"name":"Shadow","steam_id":76561198080524596,"connected_time":1567000000000,"state":"active","ping":44},{"user_id":899,"name":"Dave Mustaine Gaming","steam_id":76561198397464159,"connected_time":131000000000,"state":"active","ping":240},{"user_id":889,"name":"sex tf2","steam_id":76561199245598679,"connected_time":1220000000000,"state":"active","ping":120},{"user_id":890,"name":"RIBS GROW BACK","steam_id":76561198123659806,"connected_time":1183000000000,"state":"active","ping":99},{"user_id":891,"name":"federal agent","steam_id":76561198136278172,"connected_time":1168000000000,"state":"active","ping":147},{"user_id":893,"name":"Life Is Short Eat Your Dessert","steam_id":76561198267964050,"connected_time":1051000000000,"state":"active","ping":138},{"user_id":897,"name":"Raybony","steam_id":76561198063396438,"connected_time":255000000000,"state":"active","ping":30},{"user_id":900,"name":"Mr Pillow","steam_id":76561199087858584,"connected_time":122000000000,"state":"active","ping":178},{"user_id":898,"name":"yodel","steam_id":76561198138777659,"connected_time":162000000000,"state":"active","ping":65},{"user_id":901,"name":"Fialure5","steam_id":76561199204629124,"connected_time":45000000000,"state":"active","ping":170},{"user_id":902,"name":"Scoundrel","steam_id":76561198056672372,"connected_time":34000000000,"state":"active","ping":119},{"user_id":903,"name":"God's Drunkest Driver","steam_id":76561199174579733,"connected_time":24000000000,"state":"active","ping":120}]},{"server_id":114,"name":"Uncletopia | London | 2 | All Maps","name_short":"lon-2","host":"lon-1.uk.uncletopia.com","port":27025,"enabled":true,"region":"eu","cc":"gb","latitude":51.509865,"longitude":-0.118092,"reserved":0,"last_update":"0001-01-01T00:00:00Z","name_a2s":"Uncletopia | London | 2 | All Maps","protocol":17,"map":"cp_steel","folder":"tf","game":"Team Fortress","app_id":440,"player_count":22,"max_players":24,"Bots":0,"server_type":"Dedicated","server_os":"Linux","password":true,"vac":true,"version":"7961495","steam_id":85568392924470941,"keywords":["cp","nocrits","nodmgspread","uncletopia"],"game_id":440,"stv_port":27026,"stv_name":"Uncletopia | London | 2 | All Maps | STV","players":[{"user_id":939,"name":"pezza","steam_id":76561197995173247,"connected_time":12680000000000,"state":"active","ping":55},{"user_id":1099,"name":"Coca162","steam_id":76561198230656540,"connected_time":2394000000000,"state":"active","ping":83},{"user_id":1103,"name":"goblin","steam_id":76561198170334258,"connected_time":2261000000000,"state":"active","ping":75},{"user_id":1116,"name":"lawn","steam_id":76561198001243486,"connected_time":907000000000,"state":"active","ping":34},{"user_id":1052,"name":"jones","steam_id":76561198044434971,"connected_time":4866000000000,"state":"active","ping":71},{"user_id":1075,"name":"jerkwaterberg","steam_id":76561198134165667,"connected_time":4349000000000,"state":"active","ping":50},{"user_id":1129,"name":"kbbq","steam_id":76561198346638308,"connected_time":359000000000,"state":"active","ping":57},{"user_id":1085,"name":"stun","steam_id":76561198276681691,"connected_time":3357000000000,"state":"active","ping":46},{"user_id":1130,"name":"quantumexistenc3","steam_id":76561199379634118,"connected_time":308000000000,"state":"active","ping":59},{"user_id":1069,"name":"Alduin's Wings","steam_id":76561198341180949,"connected_time":4455000000000,"state":"active","ping":55},{"user_id":1125,"name":"Kreld","steam_id":76561198047794615,"connected_time":483000000000,"state":"active","ping":86},{"user_id":1084,"name":"turbo terry","steam_id":76561198307037169,"connected_time":3368000000000,"state":"active","ping":51},{"user_id":1123,"name":"FCT crash enjoyer","steam_id":76561198397898616,"connected_time":555000000000,"state":"active","ping":46},{"user_id":1104,"name":"Lemmy","steam_id":76561199038870751,"connected_time":2187000000000,"state":"active","ping":56},{"user_id":1126,"name":"Chillyroom","steam_id":76561198861912968,"connected_time":480000000000,"state":"active","ping":192},{"user_id":1109,"name":"Hisense U7QF","steam_id":76561199224563150,"connected_time":1849000000000,"state":"active","ping":136},{"user_id":1127,"name":"Visphiric","steam_id":76561198071938027,"connected_time":470000000000,"state":"active","ping":42},{"user_id":1074,"name":"siriusplay116","steam_id":76561199403847433,"connected_time":4358000000000,"state":"active","ping":55},{"user_id":1096,"name":"The Duke","steam_id":76561198063644325,"connected_time":2482000000000,"state":"active","ping":52},{"user_id":1113,"name":"myffdii","steam_id":76561198067677196,"connected_time":1698000000000,"state":"active","ping":53},{"user_id":1054,"name":"Bubsy 3D","steam_id":76561197988942314,"connected_time":4851000000000,"state":"active","ping":36},{"user_id":1089,"name":"Uncle Dane's Evil Twin","steam_id":76561198012410589,"connected_time":3011000000000,"state":"active","ping":69}]},{"server_id":320,"name":"Uncletopia | London | 3 | All Maps","name_short":"lon-3","host":"lon-1.uk.uncletopia.com","port":27035,"enabled":true,"region":"eu","cc":"gb","latitude":51.509865,"longitude":-0.118092,"reserved":0,"last_update":"0001-01-01T00:00:00Z","name_a2s":"Uncletopia | London | 3 | All Maps","protocol":17,"map":"cp_sunshine","folder":"tf","game":"Team Fortress","app_id":440,"player_count":0,"max_players":24,"Bots":0,"server_type":"Dedicated","server_os":"Linux","password":true,"vac":true,"version":"7961495","steam_id":85568392924510192,"keywords":["cp","nocrits","nodmgspread","uncletopia"],"game_id":440,"stv_port":27036,"stv_name":"Uncletopia | London | 3 | All Maps | STV","players":null},{"server_id":321,"name":"Uncletopia | London | 4 | All Maps","name_short":"lon-4","host":"lon-1.uk.uncletopia.com","port":27045,"enabled":true,"region":"eu","cc":"gb","latitude":51.509865,"longitude":-0.118092,"reserved":0,"last_update":"0001-01-01T00:00:00Z","name_a2s":"Uncletopia | London | 4 | All Maps","protocol":17,"map":"koth_lakeside_final","folder":"tf","game":"Team Fortress","app_id":440,"player_count":0,"max_players":24,"Bots":0,"server_type":"Dedicated","server_os":"Linux","password":true,"vac":true,"version":"7961495","steam_id":85568392924510193,"keywords":["cp","nocrits","nodmgspread","uncletopia"],"game_id":440,"stv_port":27046,"stv_name":"Uncletopia | London | 4 | All Maps | STV","players":null},{"server_id":21,"name":"Uncletopia | London | 5 | All Maps","name_short":"lon-5","host":"lon-1.uk.uncletopia.com","port":27055,"enabled":true,"region":"eu","cc":"gb","latitude":51.509865,"longitude":-0.118092,"reserved":0,"last_update":"0001-01-01T00:00:00Z","name_a2s":"Uncletopia | London | 5 | All Maps","protocol":17,"map":"koth_cascade","folder":"tf","game":"Team Fortress","app_id":440,"player_count":0,"max_players":24,"Bots":0,"server_type":"Dedicated","server_os":"Linux","password":true,"vac":true,"version":"7961495","steam_id":85568392924742829,"keywords":["cp","nocrits","nodmgspread","uncletopia"],"game_id":440,"stv_port":27056,"stv_name":"Uncletopia | London | 5 | All Maps | STV","players":null},{"server_id":22,"name":"Uncletopia | London | 6 | All Maps","name_short":"lon-6","host":"lon-1.uk.uncletopia.com","port":27065,"enabled":true,"region":"eu","cc":"gb","latitude":51.509865,"longitude":-0.118092,"reserved":0,"last_update":"0001-01-01T00:00:00Z","name_a2s":"Uncletopia | London | 6 | All Maps","protocol":17,"map":"cp_sunshine","folder":"tf","game":"Team Fortress","app_id":440,"player_count":0,"max_players":24,"Bots":0,"server_type":"Dedicated","server_os":"Linux","password":true,"vac":true,"version":"7961495","steam_id":85568392924742830,"keywords":["cp","nocrits","nodmgspread","uncletopia"],"game_id":440,"stv_port":27066,"stv_name":"Uncletopia | London | 6 | All Maps | STV","players":null},{"server_id":40,"name":"Uncletopia | London | 7 | Stopwatch","name_short":"lon-7","host":"lon-1.uk.uncletopia.com","port":27075,"enabled":true,"region":"eu","cc":"gb","latitude":51.509865,"longitude":-0.118092,"reserved":0,"last_update":"0001-01-01T00:00:00Z","name_a2s":"Uncletopia | London | 7 | Stopwatch","protocol":17,"map":"cp_gullywash_final1","folder":"tf","game":"Team Fortress","app_id":440,"player_count":0,"max_players":24,"Bots":0,"server_type":"Dedicated","server_os":"Linux","password":true,"vac":true,"version":"7961495","steam_id":85568392924964314,"keywords":["cp","nocrits","nodmgspread","uncletopia"],"game_id":440,"stv_port":27076,"stv_name":"Uncletopia | London | 7 | Stopwatch | STV","players":null},{"server_id":41,"name":"Uncletopia | London | 8 | Community","name_short":"lon-8","host":"lon-1.uk.uncletopia.com","port":27085,"enabled":true,"region":"eu","cc":"gb","latitude":51.509865,"longitude":-0.118092,"reserved":0,"last_update":"0001-01-01T00:00:00Z","name_a2s":"Uncletopia | London | 8 | Community","protocol":17,"map":"workshop/koth_ramjam_rc1.ugc459778887","folder":"tf","game":"Team Fortress","app_id":440,"player_count":0,"max_players":24,"Bots":0,"server_type":"Dedicated","server_os":"Linux","password":true,"vac":true,"version":"7961495","steam_id":85568392924964315,"keywords":["cp","nocrits","nodmgspread","uncletopia"],"game_id":440,"stv_port":27086,"stv_name":"Uncletopia | London | 8 | Community | STV","players":null},{"server_id":300,"name":"Uncletopia | Montréal | 1 | One Thousand Uncles","name_short":"mtl-1","host":"mtl-1.ca.uncletopia.com","port":27015,"enabled":true,"region":"us-east","cc":"ca","latitude":45.50889,"longitude":-73.56167,"reserved":0,"last_update":"0001-01-01T00:00:00Z","name_a2s":"","protocol":0,"map":"","folder":"","game":"","app_id":0,"player_count":3,"max_players":0,"Bots":0,"server_type":"","server_os":"","password":false,"vac":false,"version":"","steam_id":0,"keywords":null,"game_id":0,"stv_port":0,"stv_name":"","players":[{"user_id":462,"name":"Mr.Kingboo","steam_id":76561198141543180,"connected_time":555000000000,"state":"active","ping":60},{"user_id":463,"name":"Markus Velafi","steam_id":76561198063193924,"connected_time":529000000000,"state":"active","ping":50},{"user_id":464,"name":"James Theory","steam_id":76561198070605795,"connected_time":517000000000,"state":"active","ping":63}]},{"server_id":301,"name":"Uncletopia | Montréal | 2 | One Thousand Uncles","name_short":"mtl-2","host":"mtl-1.ca.uncletopia.com","port":27025,"enabled":true,"region":"us-east","cc":"ca","latitude":45.50889,"longitude":-73.56167,"reserved":0,"last_update":"0001-01-01T00:00:00Z","name_a2s":"","protocol":0,"map":"","folder":"","game":"","app_id":0,"player_count":0,"max_players":0,"Bots":0,"server_type":"","server_os":"","password":false,"vac":false,"version":"","steam_id":0,"keywords":null,"game_id":0,"stv_port":0,"stv_name":"","players":null},{"server_id":302,"name":"Uncletopia | Montréal | 3 | One Thousand Uncles","name_short":"mtl-3","host":"mtl-1.ca.uncletopia.com","port":27035,"enabled":true,"region":"us-east","cc":"ca","latitude":45.50889,"longitude":-73.56167,"reserved":0,"last_update":"0001-01-01T00:00:00Z","name_a2s":"","protocol":0,"map":"","folder":"","game":"","app_id":0,"player_count":12,"max_players":0,"Bots":0,"server_type":"","server_os":"","password":false,"vac":false,"version":"","steam_id":0,"keywords":null,"game_id":0,"stv_port":0,"stv_name":"","players":[{"user_id":653,"name":"Bubtit","steam_id":76561199138751788,"connected_time":1680000000000,"state":"active","ping":55},{"user_id":644,"name":"Girl who stinks good","steam_id":76561198195512819,"connected_time":2861000000000,"state":"active","ping":116},{"user_id":596,"name":"TheGhostThatWas","steam_id":76561198055836483,"connected_time":6640000000000,"state":"active","ping":64},{"user_id":659,"name":"Garyyyyyyyyyyyyyyyyyyyyyyyyy","steam_id":76561199027127108,"connected_time":773000000000,"state":"active","ping":95},{"user_id":622,"name":"pipebombrater","steam_id":76561199029030831,"connected_time":4559000000000,"state":"active","ping":73},{"user_id":654,"name":"curi promedio","steam_id":76561199212700053,"connected_time":1579000000000,"state":"active","ping":144},{"user_id":658,"name":"air","steam_id":76561198040005914,"connected_time":897000000000,"state":"active","ping":57},{"user_id":625,"name":"ArcticRescue","steam_id":76561198055362404,"connected_time":3091000000000,"state":"active","ping":47},{"user_id":655,"name":"Өchpochmak","steam_id":76561198434212101,"connected_time":1518000000000,"state":"active","ping":59},{"user_id":648,"name":"dog","steam_id":76561198263873491,"connected_time":2044000000000,"state":"active","ping":67},{"user_id":649,"name":"Captian Wobbs","steam_id":76561198142884936,"connected_time":2023000000000,"state":"active","ping":82},{"user_id":656,"name":"RacoonGamer","steam_id":76561198100907657,"connected_time":1406000000000,"state":"active","ping":47}]},{"server_id":13,"name":"Uncletopia | New York City | 1 | All Maps","name_short":"nyc-1","host":"nyc-1.us.uncletopia.com","port":27015,"enabled":true,"region":"us-east","cc":"us","latitude":40.73061,"longitude":-73.93524,"reserved":0,"last_update":"0001-01-01T00:00:00Z","name_a2s":"Uncletopia | New York City | 1 | All Maps","protocol":17,"map":"cp_dustbowl","folder":"tf","game":"Team Fortress","app_id":440,"player_count":24,"max_players":24,"Bots":0,"server_type":"Dedicated","server_os":"Linux","password":true,"vac":true,"version":"7961495","steam_id":85568392924469993,"keywords":["cp","nocrits","nodmgspread","uncletopia"],"game_id":440,"stv_port":27016,"stv_name":"Uncletopia | New York City | 1 | All Maps | STV","players":[{"user_id":673,"name":"BadLuck","steam_id":76561198096452401,"connected_time":2827000000000,"state":"active","ping":80},{"user_id":670,"name":"Pluto","steam_id":76561198351543811,"connected_time":3072000000000,"state":"active","ping":147},{"user_id":550,"name":"googa","steam_id":76561198133130452,"connected_time":10796000000000,"state":"active","ping":42},{"user_id":667,"name":"Catscout","steam_id":76561198140893643,"connected_time":3249000000000,"state":"active","ping":105},{"user_id":687,"name":"Yuzu","steam_id":76561198417913035,"connected_time":1483000000000,"state":"active","ping":74},{"user_id":688,"name":"Broadway Rose","steam_id":76561198046083342,"connected_time":1435000000000,"state":"active","ping":40},{"user_id":698,"name":"Dustin Bones","steam_id":76561198019314474,"connected_time":677000000000,"state":"active","ping":77},{"user_id":608,"name":"The Colonel","steam_id":76561198081280583,"connected_time":6926000000000,"state":"active","ping":59},{"user_id":697,"name":"erf","steam_id":76561198078203677,"connected_time":734000000000,"state":"active","ping":52},{"user_id":689,"name":"Herdez Hot Salsa","steam_id":76561197991740906,"connected_time":1434000000000,"state":"active","ping":68},{"user_id":701,"name":"Riled Up","steam_id":76561198105397473,"connected_time":460000000000,"state":"active","ping":70},{"user_id":700,"name":"eve","steam_id":76561198209455624,"connected_time":527000000000,"state":"active","ping":71},{"user_id":696,"name":"Runny Eggs","steam_id":76561198006785882,"connected_time":839000000000,"state":"active","ping":76},{"user_id":564,"name":"HUESO","steam_id":76561198276383681,"connected_time":9454000000000,"state":"active","ping":82},{"user_id":653,"name":"i hate my bitchmade son","steam_id":76561198044034546,"connected_time":4114000000000,"state":"active","ping":61},{"user_id":690,"name":"Manu","steam_id":76561198145330934,"connected_time":1412000000000,"state":"active","ping":121},{"user_id":694,"name":"bajookieland patriot","steam_id":76561198994524569,"connected_time":1333000000000,"state":"active","ping":71},{"user_id":674,"name":"ndvr","steam_id":76561199379200102,"connected_time":2736000000000,"state":"active","ping":55},{"user_id":685,"name":"Classy","steam_id":76561198128415840,"connected_time":1497000000000,"state":"active","ping":55},{"user_id":672,"name":"DeDMeeT (Fae/They)","steam_id":76561198135686475,"connected_time":2844000000000,"state":"active","ping":121},{"user_id":680,"name":"vv","steam_id":76561198134813102,"connected_time":2102000000000,"state":"active","ping":61},{"user_id":702,"name":"Parth Makeo","steam_id":76561198002516581,"connected_time":373000000000,"state":"active","ping":44},{"user_id":668,"name":"Ember The Femboy","steam_id":76561198139630565,"connected_time":3246000000000,"state":"active","ping":129},{"user_id":666,"name":"Gentoo Linux Gaming","steam_id":76561197999657118,"connected_time":3440000000000,"state":"active","ping":75}]},{"server_id":14,"name":"Uncletopia | New York City | 2 | All Maps","name_short":"nyc-2","host":"nyc-1.us.uncletopia.com","port":27025,"enabled":true,"region":"us-east","cc":"us","latitude":40.73061,"longitude":-73.93524,"reserved":0,"last_update":"0001-01-01T00:00:00Z","name_a2s":"Uncletopia | New York City | 2 | All Maps","protocol":17,"map":"pl_snowycoast","folder":"tf","game":"Team Fortress","app_id":440,"player_count":24,"max_players":24,"Bots":0,"server_type":"Dedicated","server_os":"Linux","password":true,"vac":true,"version":"7961495","steam_id":85568392924469994,"keywords":["nocrits","nodmgspread","payload","uncletopia"],"game_id":440,"stv_port":27026,"stv_name":"Uncletopia | New York City | 2 | All Maps | STV","players":[{"user_id":686,"name":"NovaSc6ut","steam_id":76561198277163301,"connected_time":369000000000,"state":"active","ping":74},{"user_id":631,"name":"Blade Racer","steam_id":76561198155896703,"connected_time":4430000000000,"state":"active","ping":52},{"user_id":682,"name":"alphatwo","steam_id":76561198012511255,"connected_time":589000000000,"state":"active","ping":70},{"user_id":664,"name":"Cousin Balki","steam_id":76561198070496395,"connected_time":2458000000000,"state":"active","ping":76},{"user_id":685,"name":"Napalm","steam_id":76561198134101711,"connected_time":386000000000,"state":"active","ping":76},{"user_id":641,"name":"Synell","steam_id":76561198053232523,"connected_time":3721000000000,"state":"active","ping":69},{"user_id":672,"name":"Sin°","steam_id":76561198952843442,"connected_time":1550000000000,"state":"active","ping":81},{"user_id":646,"name":"Fish Fisherman","steam_id":76561198018656022,"connected_time":3364000000000,"state":"active","ping":47},{"user_id":679,"name":"G2 DamDam","steam_id":76561198173095997,"connected_time":1304000000000,"state":"active","ping":54},{"user_id":668,"name":"Reflector","steam_id":76561198078999855,"connected_time":1634000000000,"state":"active","ping":77},{"user_id":665,"name":"Pomegranate88","steam_id":76561198056385456,"connected_time":2334000000000,"state":"active","ping":60},{"user_id":673,"name":"AlexLovesYou","steam_id":76561199163263543,"connected_time":1543000000000,"state":"active","ping":90},{"user_id":678,"name":"grog","steam_id":76561198066436850,"connected_time":1438000000000,"state":"active","ping":80},{"user_id":687,"name":"Prsm","steam_id":76561198053344995,"connected_time":369000000000,"state":"active","ping":36},{"user_id":684,"name":"PoopBob","steam_id":76561198066733892,"connected_time":516000000000,"state":"active","ping":72},{"user_id":675,"name":"Wique","steam_id":76561198071217597,"connected_time":1531000000000,"state":"active","ping":73},{"user_id":659,"name":"MAXIMUS","steam_id":76561198085809453,"connected_time":2568000000000,"state":"active","ping":87},{"user_id":660,"name":"com lag","steam_id":76561198019019392,"connected_time":2559000000000,"state":"active","ping":74},{"user_id":689,"name":"Lin","steam_id":76561198143746480,"connected_time":318000000000,"state":"active","ping":131},{"user_id":661,"name":"Santamen","steam_id":76561198119478199,"connected_time":2543000000000,"state":"active","ping":47},{"user_id":662,"name":"C Papi","steam_id":76561198027779564,"connected_time":2534000000000,"state":"active","ping":61},{"user_id":590,"name":"aisu","steam_id":76561198043768507,"connected_time":6455000000000,"state":"active","ping":90},{"user_id":680,"name":"Bob Weaver","steam_id":76561197960450046,"connected_time":914000000000,"state":"active","ping":57},{"user_id":677,"name":"HemoTox","steam_id":76561197999713466,"connected_time":1475000000000,"state":"active","ping":74}]},{"server_id":15,"name":"Uncletopia | New York City | 3 | Stopwatch","name_short":"nyc-3","host":"nyc-1.us.uncletopia.com","port":27035,"enabled":true,"region":"us-east","cc":"us","latitude":40.73061,"longitude":-73.93524,"reserved":0,"last_update":"0001-01-01T00:00:00Z","name_a2s":"Uncletopia | New York City | 3 | Stopwatch","protocol":17,"map":"workshop/pl_barnblitz_pro7.ugc582280235","folder":"tf","game":"Team Fortress","app_id":440,"player_count":1,"max_players":24,"Bots":0,"server_type":"Dedicated","server_os":"Linux","password":true,"vac":true,"version":"7961495","steam_id":85568392924742820,"keywords":["nocrits","nodmgspread","payload","uncletopia"],"game_id":440,"stv_port":27036,"stv_name":"Uncletopia | New York City | 3 | Stopwatch | STV","players":[{"user_id":238,"name":"Gruncle PUXXY's Menstrual Shows","steam_id":76561197995465137,"connected_time":14000000000,"state":"spawning","ping":123}]},{"server_id":16,"name":"Uncletopia | New York City | 4 | Community","name_short":"nyc-4","host":"nyc-1.us.uncletopia.com","port":27045,"enabled":true,"region":"us-east","cc":"us","latitude":40.73061,"longitude":-73.93524,"reserved":0,"last_update":"0001-01-01T00:00:00Z","name_a2s":"Uncletopia | New York City | 4 | Community","protocol":17,"map":"workshop/koth_synthetic_rc6a.ugc1549817316","folder":"tf","game":"Team Fortress","app_id":440,"player_count":0,"max_players":24,"Bots":0,"server_type":"Dedicated","server_os":"Linux","password":true,"vac":true,"version":"7961495","steam_id":85568392924742821,"keywords":["cp","nocrits","nodmgspread","uncletopia"],"game_id":440,"stv_port":27046,"stv_name":"Uncletopia | New York City | 4 | Community | STV","players":null},{"server_id":142,"name":"Uncletopia | São Paulo | 1 | All Maps","name_short":"sao-1","host":"sao-1.br.uncletopia.com","port":27015,"enabled":true,"region":"sa","cc":"br","latitude":-23.533773,"longitude":-46.62529,"reserved":0,"last_update":"0001-01-01T00:00:00Z","name_a2s":"Uncletopia | São Paulo | 1 | All Maps","protocol":17,"map":"koth_viaduct","folder":"tf","game":"Team Fortress","app_id":440,"player_count":0,"max_players":24,"Bots":0,"server_type":"Dedicated","server_os":"Linux","password":true,"vac":true,"version":"7961495","steam_id":85568392924469996,"keywords":["cp","nocrits","nodmgspread","uncletopia"],"game_id":440,"stv_port":27016,"stv_name":"Uncletopia | São Paulo | 1 | All Maps | STV","players":null},{"server_id":143,"name":"Uncletopia | São Paulo | 2 | Community","name_short":"sao-2","host":"sao-2.br.uncletopia.com","port":27015,"enabled":true,"region":"sa","cc":"br","latitude":-23.533773,"longitude":-46.62529,"reserved":0,"last_update":"0001-01-01T00:00:00Z","name_a2s":"Uncletopia | São Paulo | 2 | Community","protocol":17,"map":"workshop/cp_hazyfort_rc6.ugc1365963729","folder":"tf","game":"Team Fortress","app_id":440,"player_count":0,"max_players":24,"Bots":0,"server_type":"Dedicated","server_os":"Linux","password":true,"vac":true,"version":"7961495","steam_id":85568392924485349,"keywords":["cp","nocrits","nodmgspread","uncletopia"],"game_id":440,"stv_port":27016,"stv_name":"Uncletopia | São Paulo | 2 | Community | STV","players":null},{"server_id":7,"name":"Uncletopia | Seattle | 1 | All Maps","name_short":"sea-1","host":"sea-1.us.uncletopia.com","port":27015,"enabled":true,"region":"us-west","cc":"us","latitude":47.608013,"longitude":-122.33517,"reserved":0,"last_update":"0001-01-01T00:00:00Z","name_a2s":"Uncletopia | Seattle | 1 | All Maps","protocol":17,"map":"pl_goldrush","folder":"tf","game":"Team Fortress","app_id":440,"player_count":24,"max_players":24,"Bots":0,"server_type":"Dedicated","server_os":"Linux","password":true,"vac":true,"version":"7961495","steam_id":85568392924469997,"keywords":["nocrits","nodmgspread","payload","uncletopia"],"game_id":440,"stv_port":27016,"stv_name":"Uncletopia | Seattle | 1 | All Maps | STV","players":[{"user_id":485,"name":"wrench","steam_id":76561198137242573,"connected_time":161000000000,"state":"active","ping":51},{"user_id":472,"name":"fungi","steam_id":76561198169755734,"connected_time":265000000000,"state":"active","ping":65},{"user_id":480,"name":"Mitchell","steam_id":76561197972922328,"connected_time":256000000000,"state":"active","ping":61},{"user_id":483,"name":"Nom Skirrett","steam_id":76561198014600788,"connected_time":234000000000,"state":"active","ping":67},{"user_id":411,"name":"TROY","steam_id":76561197983852176,"connected_time":4804000000000,"state":"active","ping":75},{"user_id":473,"name":"Forty","steam_id":76561198257410181,"connected_time":263000000000,"state":"active","ping":50},{"user_id":401,"name":"ShiningForce","steam_id":76561198026039048,"connected_time":5999000000000,"state":"active","ping":74},{"user_id":486,"name":"mub","steam_id":76561197961943948,"connected_time":161000000000,"state":"active","ping":48},{"user_id":487,"name":"Drone #0432 (they/it)","steam_id":76561198027321950,"connected_time":145000000000,"state":"active","ping":44},{"user_id":476,"name":"Bendidy","steam_id":76561198041964300,"connected_time":260000000000,"state":"active","ping":61},{"user_id":468,"name":"mega","steam_id":76561198089520959,"connected_time":583000000000,"state":"active","ping":97},{"user_id":448,"name":"gimp daddy","steam_id":76561198981518998,"connected_time":2925000000000,"state":"active","ping":55},{"user_id":482,"name":"jayeskae","steam_id":76561198144220801,"connected_time":249000000000,"state":"active","ping":45},{"user_id":430,"name":"imasheep","steam_id":76561198210322871,"connected_time":4080000000000,"state":"active","ping":91},{"user_id":464,"name":"Athena","steam_id":76561198249736590,"connected_time":1880000000000,"state":"active","ping":52},{"user_id":424,"name":"Hasterberg","steam_id":76561198968097614,"connected_time":4394000000000,"state":"active","ping":94},{"user_id":484,"name":"jorts","steam_id":76561199041179985,"connected_time":220000000000,"state":"active","ping":60},{"user_id":477,"name":"Cosmo","steam_id":76561199085643398,"connected_time":260000000000,"state":"active","ping":79},{"user_id":491,"name":"Drapph","steam_id":76561199384213314,"connected_time":17000000000,"state":"active","ping":97},{"user_id":427,"name":"Haydob13","steam_id":76561198110378191,"connected_time":4340000000000,"state":"active","ping":51},{"user_id":455,"name":"cheesebro","steam_id":76561198002072852,"connected_time":2362000000000,"state":"active","ping":72},{"user_id":433,"name":"Puskinti","steam_id":76561198032120688,"connected_time":3954000000000,"state":"active","ping":55},{"user_id":478,"name":"Be Gay, Do Crimes, Smoke Weed!","steam_id":76561198092419868,"connected_time":260000000000,"state":"active","ping":93},{"user_id":456,"name":"StudioMania (#SAVETF2)","steam_id":76561198211315795,"connected_time":2341000000000,"state":"active","ping":116}]},{"server_id":119,"name":"Uncletopia | Seattle | 2 | All Maps","name_short":"sea-2","host":"sea-1.us.uncletopia.com","port":27025,"enabled":true,"region":"us-west","cc":"us","latitude":47.608013,"longitude":-122.33517,"reserved":0,"last_update":"0001-01-01T00:00:00Z","name_a2s":"Uncletopia | Seattle | 2 | All Maps","protocol":17,"map":"cp_process_final","folder":"tf","game":"Team Fortress","app_id":440,"player_count":24,"max_players":24,"Bots":0,"server_type":"Dedicated","server_os":"Linux","password":true,"vac":true,"version":"7961495","steam_id":85568392924469998,"keywords":["cp","nocrits","nodmgspread","uncletopia"],"game_id":440,"stv_port":27026,"stv_name":"Uncletopia | Seattle | 2 | All Maps | STV","players":[{"user_id":408,"name":"RedNeckMatt","steam_id":76561198025831435,"connected_time":1462000000000,"state":"active","ping":111},{"user_id":386,"name":"D.A.V.I.D","steam_id":76561199443570634,"connected_time":2836000000000,"state":"active","ping":60},{"user_id":387,"name":"femmescout","steam_id":76561198250928638,"connected_time":2795000000000,"state":"active","ping":66},{"user_id":409,"name":"Tommy Pickles (Very Cool)","steam_id":76561198391261463,"connected_time":1275000000000,"state":"active","ping":95},{"user_id":406,"name":"BradB.","steam_id":76561199163905036,"connected_time":1503000000000,"state":"active","ping":119},{"user_id":411,"name":"ArchmageF","steam_id":76561197992246851,"connected_time":1029000000000,"state":"active","ping":60},{"user_id":353,"name":"MrYadaization","steam_id":76561198050770818,"connected_time":4555000000000,"state":"active","ping":53},{"user_id":428,"name":"[BBC] myr","steam_id":76561198200786939,"connected_time":335000000000,"state":"active","ping":41},{"user_id":430,"name":"Pneumo.","steam_id":76561197987911883,"connected_time":145000000000,"state":"active","ping":64},{"user_id":400,"name":"beastbitesbag;becomebereft","steam_id":76561197972601902,"connected_time":2225000000000,"state":"active","ping":86},{"user_id":382,"name":"Venk","steam_id":76561198251131422,"connected_time":2866000000000,"state":"active","ping":75},{"user_id":370,"name":"don't get mad","steam_id":76561198064662875,"connected_time":3535000000000,"state":"active","ping":62},{"user_id":377,"name":"♥ Osana Najimi ♥ (Soupcan)","steam_id":76561198056269538,"connected_time":2916000000000,"state":"active","ping":46},{"user_id":399,"name":"albert581_gaming","steam_id":76561198219209367,"connected_time":2343000000000,"state":"active","ping":57},{"user_id":359,"name":"Trouser Snivy","steam_id":76561198073788829,"connected_time":4201000000000,"state":"active","ping":62},{"user_id":337,"name":"CashGordon","steam_id":76561197975594096,"connected_time":5748000000000,"state":"active","ping":40},{"user_id":395,"name":"ballslol","steam_id":76561198071578435,"connected_time":2657000000000,"state":"active","ping":56},{"user_id":365,"name":"trackpad gaming | f2p","steam_id":76561198840414371,"connected_time":3786000000000,"state":"active","ping":51},{"user_id":427,"name":"Wub","steam_id":76561198087940571,"connected_time":349000000000,"state":"active","ping":104},{"user_id":429,"name":"fragadelphia","steam_id":76561198066116363,"connected_time":264000000000,"state":"active","ping":46},{"user_id":333,"name":"Femboy Bowsette™","steam_id":76561198028183029,"connected_time":5956000000000,"state":"active","ping":115},{"user_id":426,"name":"NayrTheMayor","steam_id":76561198853726475,"connected_time":446000000000,"state":"active","ping":53},{"user_id":398,"name":"Koishi","steam_id":76561198054541054,"connected_time":2443000000000,"state":"active","ping":103},{"user_id":407,"name":"R5-D4","steam_id":76561198025196439,"connected_time":1501000000000,"state":"active","ping":54}]},{"server_id":406,"name":"Uncletopia | Seattle | 3 | Stopwatch","name_short":"sea-3","host":"sea-1.us.uncletopia.com","port":27035,"enabled":true,"region":"us-west","cc":"us","latitude":47.608013,"longitude":-122.33517,"reserved":0,"last_update":"0001-01-01T00:00:00Z","name_a2s":"Uncletopia | Seattle | 3 | Stopwatch","protocol":17,"map":"workshop/koth_product_final.ugc454272353","folder":"tf","game":"Team Fortress","app_id":440,"player_count":0,"max_players":24,"Bots":0,"server_type":"Dedicated","server_os":"Linux","password":true,"vac":true,"version":"7961495","steam_id":85568392924515217,"keywords":["cp","nocrits","nodmgspread","uncletopia"],"game_id":440,"stv_port":27036,"stv_name":"Uncletopia | Seattle | 3 | Stopwatch | STV","players":null},{"server_id":17,"name":"Uncletopia | San Francisco | 1 | All Maps","name_short":"sfo-1","host":"sfo-1.us.uncletopia.com","port":27015,"enabled":true,"region":"us-west","cc":"us","latitude":37.77397,"longitude":-122.4313,"reserved":0,"last_update":"0001-01-01T00:00:00Z","name_a2s":"Uncletopia | San Francisco | 1 | All Maps","protocol":17,"map":"pl_thundermountain","folder":"tf","game":"Team Fortress","app_id":440,"player_count":24,"max_players":24,"Bots":0,"server_type":"Dedicated","server_os":"Linux","password":true,"vac":true,"version":"7961495","steam_id":85568392924469999,"keywords":["nocrits","nodmgspread","payload","uncletopia"],"game_id":440,"stv_port":27016,"stv_name":"Uncletopia | San Francisco | 1 | All Maps | STV","players":[{"user_id":270,"name":"Lucky","steam_id":76561198124910662,"connected_time":882000000000,"state":"active","ping":59},{"user_id":263,"name":"Sábado Gigante","steam_id":76561197994685971,"connected_time":1804000000000,"state":"active","ping":61},{"user_id":265,"name":"Rafl","steam_id":76561198055222756,"connected_time":1516000000000,"state":"active","ping":81},{"user_id":276,"name":"SAntOrGrav","steam_id":76561199444957686,"connected_time":596000000000,"state":"active","ping":97},{"user_id":273,"name":"› We Are You.j2 [NO SOUND]","steam_id":76561197995242200,"connected_time":759000000000,"state":"active","ping":52},{"user_id":200,"name":"AstroRips","steam_id":76561198827617571,"connected_time":6863000000000,"state":"active","ping":69},{"user_id":277,"name":"vanillain","steam_id":76561198058617608,"connected_time":593000000000,"state":"active","ping":71},{"user_id":252,"name":"Lickity Split","steam_id":76561198132051047,"connected_time":3240000000000,"state":"active","ping":88},{"user_id":236,"name":"Igrium","steam_id":76561198119549811,"connected_time":4221000000000,"state":"active","ping":58},{"user_id":216,"name":"MasterGeek.MX","steam_id":76561198063355220,"connected_time":5569000000000,"state":"active","ping":126},{"user_id":274,"name":"Antwan","steam_id":76561198246200638,"connected_time":701000000000,"state":"active","ping":77},{"user_id":195,"name":"Mom","steam_id":76561198207936000,"connected_time":6948000000000,"state":"active","ping":43},{"user_id":246,"name":"Snörk Pjörklet","steam_id":76561198022556859,"connected_time":3699000000000,"state":"active","ping":91},{"user_id":238,"name":"Dunder","steam_id":76561198263280104,"connected_time":4153000000000,"state":"active","ping":50},{"user_id":253,"name":"SoldMyKidneyForCollege","steam_id":76561198096329559,"connected_time":3193000000000,"state":"active","ping":51},{"user_id":225,"name":"Jovo","steam_id":76561197993265970,"connected_time":5268000000000,"state":"active","ping":60},{"user_id":254,"name":"O-Daesu","steam_id":76561198025796732,"connected_time":3121000000000,"state":"active","ping":129},{"user_id":193,"name":"The_Pacific_gamer","steam_id":76561198089491446,"connected_time":7004000000000,"state":"active","ping":70},{"user_id":262,"name":"God's Drunkest Driver","steam_id":76561198418288939,"connected_time":2389000000000,"state":"active","ping":65},{"user_id":247,"name":"Pixelated Pussy","steam_id":76561198002511088,"connected_time":3682000000000,"state":"active","ping":70},{"user_id":199,"name":"Gwuf","steam_id":76561198091503282,"connected_time":6913000000000,"state":"active","ping":85},{"user_id":278,"name":"ClosetBotany","steam_id":76561198088324821,"connected_time":434000000000,"state":"active","ping":61},{"user_id":271,"name":"Dagoth Ur","steam_id":76561198115714484,"connected_time":778000000000,"state":"active","ping":90},{"user_id":257,"name":"Crylec","steam_id":76561198092755279,"connected_time":2964000000000,"state":"active","ping":134}]},{"server_id":18,"name":"Uncletopia | San Francisco | 2 | All Maps","name_short":"sfo-2","host":"sfo-1.us.uncletopia.com","port":27025,"enabled":true,"region":"us-west","cc":"us","latitude":37.77397,"longitude":-122.4313,"reserved":0,"last_update":"0001-01-01T00:00:00Z","name_a2s":"Uncletopia | San Francisco | 2 | All Maps","protocol":17,"map":"cp_process_final","folder":"tf","game":"Team Fortress","app_id":440,"player_count":24,"max_players":24,"Bots":0,"server_type":"Dedicated","server_os":"Linux","password":true,"vac":true,"version":"7961495","steam_id":85568392924470000,"keywords":["cp","nocrits","nodmgspread","uncletopia"],"game_id":440,"stv_port":27026,"stv_name":"Uncletopia | San Francisco | 2 | All Maps | STV","players":[{"user_id":415,"name":"TruthHut","steam_id":76561198093452436,"connected_time":1165000000000,"state":"active","ping":67},{"user_id":378,"name":"Happytoe","steam_id":76561198001295503,"connected_time":3493000000000,"state":"active","ping":58},{"user_id":374,"name":"John Quincy Adams","steam_id":76561198069735882,"connected_time":4395000000000,"state":"active","ping":120},{"user_id":362,"name":"Not pawky","steam_id":76561198148738849,"connected_time":5150000000000,"state":"active","ping":47},{"user_id":410,"name":"Jack","steam_id":76561199135213338,"connected_time":1549000000000,"state":"active","ping":68},{"user_id":418,"name":"MayKaye","steam_id":76561199016092265,"connected_time":1029000000000,"state":"active","ping":71},{"user_id":432,"name":"Toasterduds","steam_id":76561198163477584,"connected_time":58000000000,"state":"active","ping":56},{"user_id":430,"name":"Gm_Sweet","steam_id":76561199445091548,"connected_time":199000000000,"state":"active","ping":71},{"user_id":402,"name":"Beta Fish","steam_id":76561198073504861,"connected_time":2181000000000,"state":"active","ping":101},{"user_id":425,"name":"Sanic","steam_id":76561198083124962,"connected_time":901000000000,"state":"active","ping":98},{"user_id":416,"name":"crankshaft","steam_id":76561197992798282,"connected_time":1146000000000,"state":"active","ping":48},{"user_id":434,"name":"Ian","steam_id":76561198159334435,"connected_time":38000000000,"state":"active","ping":180},{"user_id":417,"name":"b","steam_id":76561198156336213,"connected_time":1113000000000,"state":"active","ping":59},{"user_id":307,"name":"||:♩♩♩♪:|| Opplydead","steam_id":76561198028630334,"connected_time":8077000000000,"state":"active","ping":54},{"user_id":375,"name":"TeriyakiDynamite","steam_id":76561198050049346,"connected_time":4394000000000,"state":"active","ping":71},{"user_id":406,"name":"Birby","steam_id":76561198884009768,"connected_time":2054000000000,"state":"active","ping":49},{"user_id":412,"name":"Rav3 p4rty (feat. Kranky Kranky","steam_id":76561198975450630,"connected_time":1537000000000,"state":"active","ping":72},{"user_id":413,"name":"Run 'n gun","steam_id":76561198081173302,"connected_time":1418000000000,"state":"active","ping":55},{"user_id":426,"name":"fortzei","steam_id":76561198210920541,"connected_time":825000000000,"state":"active","ping":73},{"user_id":391,"name":"Risky","steam_id":76561198231029328,"connected_time":2735000000000,"state":"active","ping":53},{"user_id":421,"name":"LordKirby","steam_id":76561198006938286,"connected_time":980000000000,"state":"active","ping":85},{"user_id":397,"name":"beefskewer","steam_id":76561198049992949,"connected_time":2554000000000,"state":"active","ping":55},{"user_id":414,"name":"Major_Pippy","steam_id":76561198004482878,"connected_time":1374000000000,"state":"active","ping":66},{"user_id":428,"name":"Jutsu","steam_id":76561198058671945,"connected_time":324000000000,"state":"active","ping":120}]},{"server_id":19,"name":"Uncletopia | San Francisco | 3 | Stopwatch","name_short":"sfo-3","host":"sfo-1.us.uncletopia.com","port":27035,"enabled":true,"region":"us-west","cc":"us","latitude":37.77397,"longitude":-122.4313,"reserved":0,"last_update":"0001-01-01T00:00:00Z","name_a2s":"Uncletopia | San Francisco | 3 | Stopwatch","protocol":17,"map":"workshop/koth_clearcut_b15.ugc2107050255","folder":"tf","game":"Team Fortress","app_id":440,"player_count":0,"max_players":24,"Bots":0,"server_type":"Dedicated","server_os":"Linux","password":true,"vac":true,"version":"7961495","steam_id":85568392924742824,"keywords":["cp","nocrits","nodmgspread","uncletopia"],"game_id":440,"stv_port":27036,"stv_name":"Uncletopia | San Francisco | 3 | Stopwatch | STV","players":null},{"server_id":20,"name":"Uncletopia | San Francisco | 4 | Community","name_short":"sfo-4","host":"sfo-1.us.uncletopia.com","port":27045,"enabled":true,"region":"us-west","cc":"us","latitude":37.77397,"longitude":-122.4313,"reserved":0,"last_update":"0001-01-01T00:00:00Z","name_a2s":"Uncletopia | San Francisco | 4 | Community","protocol":17,"map":"workshop/cp_coilblaze_rc7.ugc1272700588","folder":"tf","game":"Team Fortress","app_id":440,"player_count":0,"max_players":24,"Bots":0,"server_type":"Dedicated","server_os":"Linux","password":true,"vac":true,"version":"7961495","steam_id":85568392924742826,"keywords":["cp","nocrits","nodmgspread","uncletopia"],"game_id":440,"stv_port":27046,"stv_name":"Uncletopia | San Francisco | 4 | Community | STV","players":null},{"server_id":141,"name":"Uncletopia | Sydney | 1 | All Maps","name_short":"syd-1","host":"syd-1.au.uncletopia.com","port":27015,"enabled":true,"region":"au","cc":"au","latitude":-33.865143,"longitude":151.2099,"reserved":0,"last_update":"0001-01-01T00:00:00Z","name_a2s":"Uncletopia | Sydney | 1 | All Maps","protocol":17,"map":"koth_cascade","folder":"tf","game":"Team Fortress","app_id":440,"player_count":0,"max_players":24,"Bots":0,"server_type":"Dedicated","server_os":"Linux","password":true,"vac":true,"version":"7961495","steam_id":85568392924470001,"keywords":["cp","nocrits","nodmgspread","uncletopia"],"game_id":440,"stv_port":27016,"stv_name":"Uncletopia | Sydney | 1 | All Maps | STV","players":null},{"server_id":123,"name":"Uncletopia | Sydney | 2 | All Maps","name_short":"syd-2","host":"syd-1.au.uncletopia.com","port":27025,"enabled":true,"region":"au","cc":"au","latitude":-33.865143,"longitude":151.2099,"reserved":0,"last_update":"0001-01-01T00:00:00Z","name_a2s":"Uncletopia | Sydney | 2 | All Maps","protocol":17,"map":"cp_mountainlab","folder":"tf","game":"Team Fortress","app_id":440,"player_count":0,"max_players":24,"Bots":0,"server_type":"Dedicated","server_os":"Linux","password":true,"vac":true,"version":"7961495","steam_id":85568392924470002,"keywords":["cp","nocrits","nodmgspread","uncletopia"],"game_id":440,"stv_port":27026,"stv_name":"Uncletopia | Sydney | 2 | All Maps | STV","players":null},{"server_id":395,"name":"Uncletopia | Sydney | 3 | All Maps","name_short":"syd-3","host":"syd-1.au.uncletopia.com","port":27035,"enabled":true,"region":"au","cc":"au","latitude":-33.865143,"longitude":151.2099,"reserved":0,"last_update":"0001-01-01T00:00:00Z","name_a2s":"Uncletopia | Sydney | 3 | All Maps","protocol":17,"map":"pl_frontier_final","folder":"tf","game":"Team Fortress","app_id":440,"player_count":0,"max_players":24,"Bots":0,"server_type":"Dedicated","server_os":"Linux","password":true,"vac":true,"version":"7961495","steam_id":85568392925194467,"keywords":["nocrits","nodmgspread","payload","uncletopia"],"game_id":440,"stv_port":27036,"stv_name":"Uncletopia | Sydney | 3 | All Maps | STV","players":null},{"server_id":396,"name":"Uncletopia | Sydney | 4 | All Maps","name_short":"syd-4","host":"syd-1.au.uncletopia.com","port":27045,"enabled":true,"region":"au","cc":"au","latitude":-33.865143,"longitude":151.2099,"reserved":0,"last_update":"0001-01-01T00:00:00Z","name_a2s":"Uncletopia | Sydney | 4 | All Maps","protocol":17,"map":"pl_pier","folder":"tf","game":"Team Fortress","app_id":440,"player_count":0,"max_players":24,"Bots":0,"server_type":"Dedicated","server_os":"Linux","password":true,"vac":true,"version":"7961495","steam_id":85568392925397958,"keywords":["nocrits","nodmgspread","payload","uncletopia"],"game_id":440,"stv_port":27046,"stv_name":"Uncletopia | Sydney | 4 | All Maps | STV","players":null},{"server_id":58,"name":"Uncletopia | Sydney | 5 | Stopwatch","name_short":"syd-5","host":"syd-1.au.uncletopia.com","port":27055,"enabled":true,"region":"au","cc":"au","latitude":-33.865143,"longitude":151.2099,"reserved":0,"last_update":"0001-01-01T00:00:00Z","name_a2s":"Uncletopia | Sydney | 5 | Stopwatch","protocol":17,"map":"pl_frontier_final","folder":"tf","game":"Team Fortress","app_id":440,"player_count":0,"max_players":24,"Bots":0,"server_type":"Dedicated","server_os":"Linux","password":true,"vac":true,"version":"7961495","steam_id":85568392925397959,"keywords":["nocrits","nodmgspread","payload","uncletopia"],"game_id":440,"stv_port":27056,"stv_name":"Uncletopia | Sydney | 5 | Stopwatch | STV","players":null},{"server_id":59,"name":"Uncletopia | Sydney | 6 | Community","name_short":"syd-6","host":"syd-1.au.uncletopia.com","port":27065,"enabled":true,"region":"au","cc":"au","latitude":-33.865143,"longitude":151.2099,"reserved":0,"last_update":"0001-01-01T00:00:00Z","name_a2s":"Uncletopia | Sydney | 6 | Community","protocol":17,"map":"cp_sunshine","folder":"tf","game":"Team Fortress","app_id":440,"player_count":0,"max_players":24,"Bots":0,"server_type":"Dedicated","server_os":"Linux","password":true,"vac":true,"version":"7961495","steam_id":85568392925397960,"keywords":["cp","nocrits","nodmgspread","uncletopia"],"game_id":440,"stv_port":27066,"stv_name":"Uncletopia | Sydney | 6 | Community | STV","players":null},{"server_id":49,"name":"Uncletopia | Warsaw | 1 | One Thousand Uncles","name_short":"waw-1","host":"waw-1.pl.uncletopia.com","port":27015,"enabled":true,"region":"eu","cc":"pl","latitude":52.2297,"longitude":21.017532,"reserved":0,"last_update":"0001-01-01T00:00:00Z","name_a2s":"Uncletopia | Warsaw | 1 | One Thousand Uncles","protocol":17,"map":"pl_snowycoast","folder":"tf","game":"Team Fortress","app_id":440,"player_count":0,"max_players":32,"Bots":0,"server_type":"Dedicated","server_os":"Linux","password":true,"vac":true,"version":"7961495","steam_id":85568392925397850,"keywords":["alltalk","danepve","increased_maxplayers","nocrits","norespawntime","payload","uncletopia"],"game_id":440,"stv_port":0,"stv_name":"","players":null},{"server_id":50,"name":"Uncletopia | Warsaw | 2 | One Thousand Uncles","name_short":"waw-2","host":"waw-1.pl.uncletopia.com","port":27025,"enabled":true,"region":"eu","cc":"pl","latitude":52.2297,"longitude":21.017532,"reserved":0,"last_update":"0001-01-01T00:00:00Z","name_a2s":"Uncletopia | Warsaw | 2 | One Thousand Uncles","protocol":17,"map":"cp_mossrock","folder":"tf","game":"Team Fortress","app_id":440,"player_count":0,"max_players":32,"Bots":0,"server_type":"Dedicated","server_os":"Linux","password":true,"vac":true,"version":"7961495","steam_id":85568392925397851,"keywords":["alltalk","cp","danepve","increased_maxplayers","nocrits","norespawntime","uncletopia"],"game_id":440,"stv_port":0,"stv_name":"","players":null},{"server_id":51,"name":"Uncletopia | Warsaw | 3 | All Maps","name_short":"waw-3","host":"waw-1.pl.uncletopia.com","port":27035,"enabled":true,"region":"eu","cc":"pl","latitude":52.2297,"longitude":21.017532,"reserved":0,"last_update":"0001-01-01T00:00:00Z","name_a2s":"Uncletopia | Warsaw | 3 | All Maps","protocol":17,"map":"cp_sunshine","folder":"tf","game":"Team Fortress","app_id":440,"player_count":0,"max_players":24,"Bots":0,"server_type":"Dedicated","server_os":"Linux","password":true,"vac":true,"version":"7961495","steam_id":85568392925397852,"keywords":["cp","nocrits","nodmgspread","uncletopia"],"game_id":440,"stv_port":27036,"stv_name":"Uncletopia | Warsaw | 3 | All Maps | STV","players":null},{"server_id":52,"name":"Uncletopia | Warsaw | 4 | All Maps","name_short":"waw-4","host":"waw-1.pl.uncletopia.com","port":27045,"enabled":true,"region":"eu","cc":"pl","latitude":52.2297,"longitude":21.017532,"reserved":0,"last_update":"0001-01-01T00:00:00Z","name_a2s":"Uncletopia | Warsaw | 4 | All Maps","protocol":17,"map":"cp_dustbowl","folder":"tf","game":"Team Fortress","app_id":440,"player_count":0,"max_players":24,"Bots":0,"server_type":"Dedicated","server_os":"Linux","password":true,"vac":true,"version":"7961495","steam_id":85568392925397853,"keywords":["cp","nocrits","nodmgspread","uncletopia"],"game_id":440,"stv_port":27046,"stv_name":"Uncletopia | Warsaw | 4 | All Maps | STV","players":null},{"server_id":53,"name":"Uncletopia | Warsaw | 5 | Stopwatch","name_short":"waw-5","host":"waw-1.pl.uncletopia.com","port":27055,"enabled":true,"region":"eu","cc":"pl","latitude":52.2297,"longitude":21.017532,"reserved":0,"last_update":"0001-01-01T00:00:00Z","name_a2s":"Uncletopia | Warsaw | 5 | Stopwatch","protocol":17,"map":"workshop/koth_ashville_final.ugc2130459942","folder":"tf","game":"Team Fortress","app_id":440,"player_count":0,"max_players":24,"Bots":0,"server_type":"Dedicated","server_os":"Linux","password":true,"vac":true,"version":"7961495","steam_id":85568392925397854,"keywords":["cp","nocrits","nodmgspread","uncletopia"],"game_id":440,"stv_port":27056,"stv_name":"Uncletopia | Warsaw | 5 | Stopwatch | STV","players":null},{"server_id":54,"name":"Uncletopia | Warsaw | 6 | Community","name_short":"waw-6","host":"waw-1.pl.uncletopia.com","port":27065,"enabled":true,"region":"eu","cc":"pl","latitude":52.2297,"longitude":21.017532,"reserved":0,"last_update":"0001-01-01T00:00:00Z","name_a2s":"Uncletopia | Warsaw | 6 | Community","protocol":17,"map":"workshop/cp_mannbase_rc2a.ugc1900737467","folder":"tf","game":"Team Fortress","app_id":440,"player_count":0,"max_players":24,"Bots":0,"server_type":"Dedicated","server_os":"Linux","password":true,"vac":true,"version":"7961495","steam_id":85568392925397856,"keywords":["cp","nocrits","nodmgspread","uncletopia"],"game_id":440,"stv_port":27066,"stv_name":"Uncletopia | Warsaw | 6 | Community | STV","players":null}]}