{"status":true,"message":"","result":[{"server_id":9,"name":"Uncletopia | Atlanta | 1 | All Maps","name_short":"atl-1","host":"atl-1.us.uncletopia.com","port":27015,"enabled":true,"region":"us-east","cc":"us","latitude":33.753746,"longitude":-84.38633,"reserved":0,"last_update":"0001-01-01T00:00:00Z","name_a2s":"Uncletopia | Atlanta | 1 | All Maps","protocol":17,"map":"pl_upward","folder":"tf","game":"Team Fortress","app_id":440,"player_count":24,"max_players":24,"Bots":0,"server_type":"Dedicated","server_os":"Linux","password":true,"vac":true,"version":"7757534","steam_id":85568392924469982,"keywords":["nocrits","nodmgspread","payload","uncletopia"],"game_id":440,"stv_port":27016,"stv_name":"Uncletopia | Atlanta | 1 | All Maps | STV","players":[{"user_id":216,"name":"Actually retarded","steam_id":76561198276513608,"connected_time":685000000000,"state":"active","ping":165},{"user_id":188,"name":"puppy boy","steam_id":76561198255639473,"connected_time":4561000000000,"state":"active","ping":73},{"user_id":214,"name":"the opposition","steam_id":76561198246064626,"connected_time":725000000000,"state":"active","ping":78},{"user_id":123,"name":"5'2 in real life","steam_id":76561198103496593,"connected_time":10264000000000,"state":"active","ping":47},{"user_id":173,"name":"Lilith","steam_id":76561198125102885,"connected_time":5739000000000,"state":"active","ping":61},{"user_id":219,"name":"Ursus Ludius","steam_id":76561198025470722,"connected_time":154000000000,"state":"active","ping":87},{"user_id":186,"name":"abomination","steam_id":76561198167974713,"connected_time":4797000000000,"state":"active","ping":53},{"user_id":157,"name":"Ashes!","steam_id":76561197998475441,"connected_time":7107000000000,"state":"active","ping":76},{"user_id":209,"name":"Just PYE","steam_id":76561199439622967,"connected_time":1797000000000,"state":"active","ping":72},{"user_id":201,"name":"Brown_Dream","steam_id":76561198975766145,"connected_time":2985000000000,"state":"active","ping":74},{"user_id":142,"name":"Liinde","steam_id":76561198140837602,"connected_time":8433000000000,"state":"active","ping":82},{"user_id":204,"name":"Quansen","steam_id":76561198151594550,"connected_time":2528000000000,"state":"active","ping":61},{"user_id":215,"name":"basil","steam_id":76561198075758026,"connected_time":712000000000,"state":"active","ping":61},{"user_id":191,"name":"i feed for scouts","steam_id":76561198172454407,"connected_time":4217000000000,"state":"active","ping":87},{"user_id":210,"name":"TurtledoveJones","steam_id":76561198010200051,"connected_time":1365000000000,"state":"active","ping":75},{"user_id":189,"name":"bendera","steam_id":76561197965486503,"connected_time":4224000000000,"state":"active","ping":81},{"user_id":208,"name":"You Want Me","steam_id":76561198135492119,"connected_time":2082000000000,"state":"active","ping":73},{"user_id":218,"name":"ImNotPete","steam_id":76561199354935347,"connected_time":374000000000,"state":"active","ping":94},{"user_id":200,"name":"SEWER RODENT","steam_id":76561198858984051,"connected_time":3474000000000,"state":"active","ping":77},{"user_id":152,"name":"I can't heal","steam_id":76561198039763676,"connected_time":7629000000000,"state":"active","ping":46},{"user_id":212,"name":"Rat Bastard","steam_id":76561198153443658,"connected_time":1037000000000,"state":"active","ping":70},{"user_id":207,"name":"cass","steam_id":76561198074502046,"connected_time":2308000000000,"state":"active","ping":52},{"user_id":213,"name":"ATL1 | Pango","steam_id":76561198069811545,"connected_time":822000000000,"state":"active","ping":45},{"user_id":197,"name":"approx. 72 bees","steam_id":76561198078782043,"connected_time":4058000000000,"state":"active","ping":48}]},{"server_id":104,"name":"Uncletopia | Atlanta | 2 | All Maps","name_short":"atl-2","host":"atl-1.us.uncletopia.com","port":27025,"enabled":true,"region":"us-east","cc":"us","latitude":33.753746,"longitude":-84.38633,"reserved":0,"last_update":"0001-01-01T00:00:00Z","name_a2s":"Uncletopia | Atlanta | 2 | All Maps","protocol":17,"map":"koth_cascade","folder":"tf","game":"Team Fortress","app_id":440,"player_count":24,"max_players":24,"Bots":0,"server_type":"Dedicated","server_os":"Linux","password":true,"vac":true,"version":"7757534","steam_id":85568392924469983,"keywords":["cp","nocrits","nodmgspread","uncletopia"],"game_id":440,"stv_port":27026,"stv_name":"Uncletopia | Atlanta | 2 | All Maps | STV","players":[{"user_id":26,"name":"KingJigglypuff","steam_id":76561198038173986,"connected_time":2172000000000,"state":"active","ping":75},{"user_id":27,"name":"_Data_Drain_","steam_id":76561198024875402,"connected_time":2156000000000,"state":"active","ping":81},{"user_id":30,"name":"Plunge (orange)","steam_id":76561198454673850,"connected_time":2026000000000,"state":"active","ping":88},{"user_id":37,"name":"Goth Hatsune Miku","steam_id":76561198880610797,"connected_time":1725000000000,"state":"active","ping":101},{"user_id":31,"name":"skele","steam_id":76561198799726010,"connected_time":2016000000000,"state":"active","ping":95},{"user_id":32,"name":"jeff falling down the stairs","steam_id":76561199001735092,"connected_time":1969000000000,"state":"active","ping":103},{"user_id":59,"name":"Virg","steam_id":76561198397721937,"connected_time":75000000000,"state":"active","ping":87},{"user_id":35,"name":"Ethan Pineapple","steam_id":76561198110455745,"connected_time":1889000000000,"state":"active","ping":98},{"user_id":41,"name":"Hard Soap","steam_id":76561198267905614,"connected_time":1408000000000,"state":"active","ping":72},{"user_id":60,"name":"Deep Peepus","steam_id":76561198205395757,"connected_time":24000000000,"state":"spawning","ping":675},{"user_id":42,"name":"Sprinklze","steam_id":76561198163562681,"connected_time":1354000000000,"state":"active","ping":54},{"user_id":43,"name":"TechSec (REAL)","steam_id":76561198294412292,"connected_time":1314000000000,"state":"active","ping":91},{"user_id":44,"name":"TechnoBear2099","steam_id":76561198238863596,"connected_time":1264000000000,"state":"active","ping":73},{"user_id":45,"name":"Superfan","steam_id":76561199038072811,"connected_time":1239000000000,"state":"active","ping":92},{"user_id":46,"name":"Zapp","steam_id":76561198848066843,"connected_time":1226000000000,"state":"active","ping":89},{"user_id":47,"name":"edwrd","steam_id":76561199061380038,"connected_time":1197000000000,"state":"active","ping":46},{"user_id":48,"name":"Infinity","steam_id":76561199134919099,"connected_time":1196000000000,"state":"active","ping":77},{"user_id":49,"name":"SeaBass","steam_id":76561198278914206,"connected_time":1187000000000,"state":"active","ping":67},{"user_id":57,"name":"LightingStars","steam_id":76561199136979007,"connected_time":988000000000,"state":"active","ping":87},{"user_id":51,"name":"All Tomorrow's Parties","steam_id":76561197995936212,"connected_time":1115000000000,"state":"active","ping":73},{"user_id":58,"name":"DESPOMING","steam_id":76561198997380708,"connected_time":582000000000,"state":"active","ping":117},{"user_id":53,"name":"gamerlegend47","steam_id":76561198122776598,"connected_time":1090000000000,"state":"active","ping":56},{"user_id":54,"name":"Shattered Glass","steam_id":76561198116835391,"connected_time":1041000000000,"state":"active","ping":86},{"user_id":56,"name":"NerfPlayeR135","steam_id":76561198012588199,"connected_time":1011000000000,"state":"active","ping":62}]},{"server_id":400,"name":"Uncletopia | Atlanta | 3 | Community","name_short":"atl-3","host":"atl-1.us.uncletopia.com","port":27035,"enabled":true,"region":"us-east","cc":"us","latitude":33.753746,"longitude":-84.38633,"reserved":0,"last_update":"0001-01-01T00:00:00Z","name_a2s":"Uncletopia | Atlanta | 3 | Community","protocol":17,"map":"workshop/koth_ashville_final.ugc2130459942","folder":"tf","game":"Team Fortress","app_id":440,"player_count":0,"max_players":24,"Bots":0,"server_type":"Dedicated","server_os":"Linux","password":true,"vac":true,"version":"7757534","steam_id":85568392924515187,"keywords":["cp","nocrits","nodmgspread","uncletopia"],"game_id":440,"stv_port":27036,"stv_name":"Uncletopia | Atlanta | 3 | Community | STV","players":null},{"server_id":401,"name":"Uncletopia | Atlanta | 4 | No Payload","name_short":"atl-4","host":"atl-1.us.uncletopia.com","port":27045,"enabled":true,"region":"us-east","cc":"us","latitude":33.753746,"longitude":-84.38633,"reserved":0,"last_update":"0001-01-01T00:00:00Z","name_a2s":"","protocol":0,"map":"","folder":"","game":"","app_id":0,"player_count":0,"max_players":0,"Bots":0,"server_type":"","server_os":"","password":false,"vac":false,"version":"","steam_id":0,"keywords":null,"game_id":0,"stv_port":0,"stv_name":"","players":null},{"server_id":2,"name":"Uncletopia | Chicago | 1 | All Maps","name_short":"chi-1","host":"chi-1.us.uncletopia.com","port":27015,"enabled":true,"region":"us-central","cc":"us","latitude":41.881832,"longitude":-87.62318,"reserved":0,"last_update":"0001-01-01T00:00:00Z","name_a2s":"Uncletopia | Chicago | 1 | All Maps","protocol":17,"map":"cp_steel","folder":"tf","game":"Team Fortress","app_id":440,"player_count":24,"max_players":24,"Bots":0,"server_type":"Dedicated","server_os":"Linux","password":true,"vac":true,"version":"7757534","steam_id":85568392924469984,"keywords":["cp","nocrits","nodmgspread","uncletopia"],"game_id":440,"stv_port":27016,"stv_name":"Uncletopia | Chicago | 1 | All Maps | STV","players":[{"user_id":370,"name":"Razz","steam_id":76561198158027533,"connected_time":1298000000000,"state":"active","ping":40},{"user_id":345,"name":"stupid ape","steam_id":76561198350027075,"connected_time":2982000000000,"state":"active","ping":61},{"user_id":379,"name":"Devorous","steam_id":76561198098418776,"connected_time":571000000000,"state":"active","ping":86},{"user_id":386,"name":"Biosock Infiknit","steam_id":76561198072693794,"connected_time":404000000000,"state":"active","ping":58},{"user_id":302,"name":"p i n e ‚Üü ‚Üü","steam_id":76561198058199952,"connected_time":8241000000000,"state":"active","ping":70},{"user_id":382,"name":"bentleyzain1","steam_id":76561198880448734,"connected_time":473000000000,"state":"active","ping":59},{"user_id":380,"name":"Reaper","steam_id":76561198435826103,"connected_time":508000000000,"state":"active","ping":63},{"user_id":381,"name":"Overly Expressive","steam_id":76561198042576581,"connected_time":503000000000,"state":"active","ping":75},{"user_id":377,"name":"BOR XOR","steam_id":76561198063294776,"connected_time":701000000000,"state":"active","ping":75},{"user_id":369,"name":"PKBEAST_7","steam_id":76561198177136537,"connected_time":1428000000000,"state":"active","ping":88},{"user_id":383,"name":"kitsu ‚ô•","steam_id":76561198091741658,"connected_time":463000000000,"state":"active","ping":70},{"user_id":298,"name":"Salad","steam_id":76561198842089895,"connected_time":9029000000000,"state":"active","ping":60},{"user_id":362,"name":"‚∏ª‚∏ª‚∏ª‚∏ª‚∏ª‚∏ª‚∏ª‚∏ª‚∏ª‚∏ª","steam_id":76561197964427372,"connected_time":1857000000000,"state":"active","ping":121},{"user_id":364,"name":"7th Pain bayi monyet","steam_id":76561198057780531,"connected_time":1713000000000,"state":"active","ping":166},{"user_id":237,"name":"JestinJester","steam_id":76561198411846094,"connected_time":12245000000000,"state":"active","ping":69},{"user_id":366,"name":"mio","steam_id":76561198239286750,"connected_time":1598000000000,"state":"active","ping":70},{"user_id":358,"name":"SpazHero","steam_id":76561198021130008,"connected_time":1915000000000,"state":"active","ping":85},{"user_id":348,"name":"Yukon Cornelius","steam_id":76561198261512781,"connected_time":2767000000000,"state":"active","ping":63},{"user_id":384,"name":"hack fraud","steam_id":76561198015036066,"connected_time":418000000000,"state":"active","ping":92},{"user_id":356,"name":"Induce Salt","steam_id":76561198116645978,"connected_time":1932000000000,"state":"active","ping":54},{"user_id":373,"name":"RedMustrd","steam_id":76561199246218857,"connected_time":1282000000000,"state":"active","ping":79},{"user_id":387,"name":"Weehawky","steam_id":76561198012833523,"connected_time":325000000000,"state":"active","ping":99},{"user_id":327,"name":"[DEEP] Danmar33","steam_id":76561198056453091,"connected_time":5659000000000,"state":"active","ping":51},{"user_id":340,"name":"DocLucky","steam_id":76561199093899249,"connected_time":3300000000000,"state":"active","ping":162}]},{"server_id":106,"name":"Uncletopia | Chicago | 2 | All Maps","name_short":"chi-2","host":"chi-1.us.uncletopia.com","port":27025,"enabled":true,"region":"us-central","cc":"us","latitude":41.881832,"longitude":-87.62318,"reserved":0,"last_update":"0001-01-01T00:00:00Z","name_a2s":"Uncletopia | Chicago | 2 | All Maps","protocol":17,"map":"pl_badwater","folder":"tf","game":"Team Fortress","app_id":440,"player_count":24,"max_players":24,"Bots":0,"server_type":"Dedicated","server_os":"Linux","password":true,"vac":true,"version":"7757534","steam_id":85568392924469985,"keywords":["nocrits","nodmgspread","payload","uncletopia"],"game_id":440,"stv_port":27026,"stv_name":"Uncletopia | Chicago | 2 | All Maps | STV","players":[{"user_id":367,"name":"PeachFlavoredBleach","steam_id":76561198116226449,"connected_time":557000000000,"state":"active","ping":59},{"user_id":354,"name":"old birb man","steam_id":76561199410269097,"connected_time":1055000000000,"state":"active","ping":127},{"user_id":355,"name":"nois3v","steam_id":76561199205224843,"connected_time":1045000000000,"state":"active","ping":144},{"user_id":356,"name":"upside down cat","steam_id":76561198028288349,"connected_time":1045000000000,"state":"active","ping":86},{"user_id":368,"name":"AverageJoe","steam_id":76561198313420109,"connected_time":526000000000,"state":"active","ping":51},{"user_id":359,"name":"Jeeper","steam_id":76561198155583692,"connected_time":992000000000,"state":"active","ping":85},{"user_id":341,"name":"flange","steam_id":76561198040182692,"connected_time":1378000000000,"state":"active","ping":121},{"user_id":369,"name":"Cielchi","steam_id":76561198020696265,"connected_time":372000000000,"state":"active","ping":61},{"user_id":366,"name":"lobotomite sniper player","steam_id":76561198046526036,"connected_time":610000000000,"state":"active","ping":101},{"user_id":334,"name":"Squiliam","steam_id":76561198025278006,"connected_time":1638000000000,"state":"active","ping":68},{"user_id":332,"name":"gamers aren't real","steam_id":76561198113748347,"connected_time":1782000000000,"state":"active","ping":86},{"user_id":348,"name":"Joe Biden","steam_id":76561198238699798,"connected_time":1281000000000,"state":"active","ping":91},{"user_id":342,"name":"Grify","steam_id":76561198012292317,"connected_time":1370000000000,"state":"active","ping":87},{"user_id":343,"name":"psy","steam_id":76561198013195018,"connected_time":1348000000000,"state":"active","ping":74},{"user_id":370,"name":"titan","steam_id":76561198197388678,"connected_time":21000000000,"state":"active","ping":91},{"user_id":325,"name":"Lynx","steam_id":76561198322363286,"connected_time":2176000000000,"state":"active","ping":88},{"user_id":362,"name":"I'm Only 4 Inches","steam_id":76561198055542546,"connected_time":828000000000,"state":"active","ping":59},{"user_id":363,"name":"Flyfriend28","steam_id":76561198131983415,"connected_time":656000000000,"state":"active","ping":69},{"user_id":344,"name":"Whys there a level 3 there?","steam_id":76561198309696109,"connected_time":1345000000000,"state":"active","ping":79},{"user_id":349,"name":"battle clown","steam_id":76561198045788371,"connected_time":1271000000000,"state":"active","ping":63},{"user_id":360,"name":"ColonelCommie","steam_id":76561198958460901,"connected_time":991000000000,"state":"active","ping":73},{"user_id":327,"name":"HE‚ÄôS IN THE GODDAMN WALLS","steam_id":76561198363267009,"connected_time":1923000000000,"state":"active","ping":69},{"user_id":321,"name":"izzydex","steam_id":76561199101531034,"connected_time":2459000000000,"state":"active","ping":58},{"user_id":340,"name":"ryghehn","steam_id":76561198195359229,"connected_time":1458000000000,"state":"active","ping":90}]},{"server_id":402,"name":"Uncletopia | Chicago | 3 | All Maps","name_short":"chi-3","host":"chi-1.us.uncletopia.com","port":27035,"enabled":true,"region":"us-central","cc":"us","latitude":41.881832,"longitude":-87.62318,"reserved":0,"last_update":"0001-01-01T00:00:00Z","name_a2s":"Uncletopia | Chicago | 3 | All Maps","protocol":17,"map":"cp_dustbowl","folder":"tf","game":"Team Fortress","app_id":440,"player_count":24,"max_players":24,"Bots":0,"server_type":"Dedicated","server_os":"Linux","password":true,"vac":true,"version":"7757534","steam_id":85568392924515191,"keywords":["cp","nocrits","nodmgspread","uncletopia"],"game_id":440,"stv_port":27036,"stv_name":"Uncletopia | Chicago | 3 | All Maps | STV","players":[{"user_id":122,"name":"lwyr","steam_id":76561198007982579,"connected_time":378000000000,"state":"active","ping":58},{"user_id":94,"name":"Albino Jellyfish","steam_id":76561198208561097,"connected_time":2307000000000,"state":"active","ping":66},{"user_id":81,"name":"Vishi","steam_id":76561198028710179,"connected_time":4257000000000,"state":"active","ping":130},{"user_id":95,"name":"GatoSeiko","steam_id":76561198001001360,"connected_time":2298000000000,"state":"active","ping":172},{"user_id":111,"name":"corporation","steam_id":76561198281612642,"connected_time":806000000000,"state":"active","ping":92},{"user_id":62,"name":"ARGON Soulidity","steam_id":76561198429603550,"connected_time":5209000000000,"state":"active","ping":70},{"user_id":125,"name":"Duke","steam_id":76561197998669973,"connected_time":137000000000,"state":"active","ping":47},{"user_id":113,"name":"El Bondin","steam_id":76561198820792434,"connected_time":800000000000,"state":"active","ping":100},{"user_id":96,"name":"creeeeeee","steam_id":76561198392539722,"connected_time":2295000000000,"state":"active","ping":79},{"user_id":124,"name":"rlty","steam_id":76561198009395055,"connected_time":236000000000,"state":"active","ping":62},{"user_id":29,"name":"Brokayo","steam_id":76561198053802723,"connected_time":6338000000000,"state":"active","ping":82},{"user_id":80,"name":"HighJingo","steam_id":76561198846814390,"connected_time":4279000000000,"state":"active","ping":76},{"user_id":116,"name":"tsaide","steam_id":76561198384120999,"connected_time":705000000000,"state":"active","ping":73},{"user_id":105,"name":"s3529","steam_id":76561198049189516,"connected_time":1730000000000,"state":"active","ping":118},{"user_id":115,"name":"DDMM5008","steam_id":76561198013373274,"connected_time":768000000000,"state":"active","ping":75},{"user_id":123,"name":"Matlock","steam_id":76561198012092071,"connected_time":347000000000,"state":"active","ping":79},{"user_id":118,"name":"Nonsense will NOT be tolerated","steam_id":76561198020092031,"connected_time":688000000000,"state":"active","ping":79},{"user_id":119,"name":"The Announcer's Feet","steam_id":76561199443456893,"connected_time":682000000000,"state":"active","ping":76},{"user_id":92,"name":"Herdex","steam_id":76561198092575778,"connected_time":2628000000000,"state":"active","ping":76},{"user_id":100,"name":"b3afy","steam_id":76561198084208649,"connected_time":2251000000000,"state":"active","ping":90},{"user_id":121,"name":"Chunk Stuffer","steam_id":76561198856508573,"connected_time":612000000000,"state":"active","ping":58},{"user_id":109,"name":"Wakadactyl","steam_id":76561198143217984,"connected_time":1336000000000,"state":"active","ping":67},{"user_id":108,"name":"Project_Counter","steam_id":76561198152786076,"connected_time":1471000000000,"state":"active","ping":76},{"user_id":55,"name":"INHUMAN MOOSE","steam_id":76561198044496997,"connected_time":5573000000000,"state":"active","ping":77}]},{"server_id":403,"name":"Uncletopia | Chicago | 4 | All Maps","name_short":"chi-4","host":"chi-1.us.uncletopia.com","port":27045,"enabled":true,"region":"us-central","cc":"us","latitude":41.881832,"longitude":-87.62318,"reserved":0,"last_update":"0001-01-01T00:00:00Z","name_a2s":"Uncletopia | Chicago | 4 | All Maps","protocol":17,"map":"cp_freight_final1","folder":"tf","game":"Team Fortress","app_id":440,"player_count":24,"max_players":24,"Bots":0,"server_type":"Dedicated","server_os":"Linux","password":true,"vac":true,"version":"7757534","steam_id":85568392924515193,"keywords":["cp","nocrits","nodmgspread","uncletopia"],"game_id":440,"stv_port":27046,"stv_name":"Uncletopia | Chicago | 4 | All Maps | STV","players":[{"user_id":304,"name":"TimeCalm","steam_id":76561197991345488,"connected_time":300000000000,"state":"active","ping":76},{"user_id":281,"name":"lukamine","steam_id":76561198166827208,"connected_time":2059000000000,"state":"active","ping":90},{"user_id":253,"name":"Cousin Corn on the Cob","steam_id":76561198049837377,"connected_time":3868000000000,"state":"active","ping":46},{"user_id":277,"name":"maS","steam_id":76561198033846407,"connected_time":2172000000000,"state":"active","ping":59},{"user_id":255,"name":"Olimar","steam_id":76561197993812175,"connected_time":3771000000000,"state":"active","ping":73},{"user_id":291,"name":"minnesota beach mouse","steam_id":76561198133234284,"connected_time":1164000000000,"state":"active","ping":61},{"user_id":269,"name":"Skinny Pete","steam_id":76561198801608576,"connected_time":2867000000000,"state":"active","ping":73},{"user_id":302,"name":"HOGRIDER GAMING","steam_id":76561199015941904,"connected_time":415000000000,"state":"active","ping":72},{"user_id":307,"name":"autumnal.messenger","steam_id":76561199345816635,"connected_time":84000000000,"state":"active","ping":103},{"user_id":219,"name":"Shadowstone67","steam_id":76561198199459430,"connected_time":5547000000000,"state":"active","ping":72},{"user_id":295,"name":"THE ONE PIECE PALESTINE","steam_id":76561198329087915,"connected_time":856000000000,"state":"active","ping":100},{"user_id":300,"name":"shaoer","steam_id":76561198071376804,"connected_time":502000000000,"state":"active","ping":76},{"user_id":232,"name":"moe5x","steam_id":76561198316877833,"connected_time":4991000000000,"state":"active","ping":130},{"user_id":272,"name":"bugbread*","steam_id":76561198082480100,"connected_time":2613000000000,"state":"active","ping":60},{"user_id":298,"name":"Imagina","steam_id":76561198044300818,"connected_time":760000000000,"state":"active","ping":86},{"user_id":285,"name":"the cum wizard","steam_id":76561198046098856,"connected_time":1440000000000,"state":"active","ping":60},{"user_id":244,"name":"Trove","steam_id":76561198110970476,"connected_time":4438000000000,"state":"active","ping":60},{"user_id":252,"name":"SexySpectacles","steam_id":76561198211449103,"connected_time":4033000000000,"state":"active","ping":61},{"user_id":261,"name":"NUt","steam_id":76561198031007966,"connected_time":3237000000000,"state":"active","ping":67},{"user_id":308,"name":"Furry Saul Goodman","steam_id":76561198069580305,"connected_time":82000000000,"state":"active","ping":48},{"user_id":306,"name":"clio","steam_id":76561198141700569,"connected_time":158000000000,"state":"active","ping":75},{"user_id":275,"name":"MikeLovesRabbit","steam_id":76561197997742625,"connected_time":2471000000000,"state":"active","ping":65},{"user_id":267,"name":"delusional schizophrenic","steam_id":76561198323435040,"connected_time":3047000000000,"state":"active","ping":60},{"user_id":305,"name":"helloworldprogram","steam_id":76561198200927231,"connected_time":290000000000,"state":"active","ping":123}]},{"server_id":36,"name":"Uncletopia | Chicago | 5 | All Maps","name_short":"chi-5","host":"chi-2.us.uncletopia.com","port":27015,"enabled":true,"region":"us-central","cc":"us","latitude":41.881832,"longitude":-87.62318,"reserved":0,"last_update":"0001-01-01T00:00:00Z","name_a2s":"Uncletopia | Chicago | 5 | All Maps","protocol":17,"map":"koth_cascade","folder":"tf","game":"Team Fortress","app_id":440,"player_count":0,"max_players":24,"Bots":0,"server_type":"Dedicated","server_os":"Linux","password":true,"vac":true,"version":"7757534","steam_id":85568392924866362,"keywords":["cp","nocrits","nodmgspread","uncletopia"],"game_id":440,"stv_port":27016,"stv_name":"Uncletopia | Chicago | 5 | All Maps | STV","players":null},{"server_id":37,"name":"Uncletopia | Chicago | 6 | All Maps","name_short":"chi-6","host":"chi-2.us.uncletopia.com","port":27025,"enabled":true,"region":"us-central","cc":"us","latitude":41.881832,"longitude":-87.62318,"reserved":0,"last_update":"0001-01-01T00:00:00Z","name_a2s":"Uncletopia | Chicago | 6 | All Maps","protocol":17,"map":"pl_badwater","folder":"tf","game":"Team Fortress","app_id":440,"player_count":4,"max_players":24,"Bots":0,"server_type":"Dedicated","server_os":"Linux","password":true,"vac":true,"version":"7757534","steam_id":85568392924866363,"keywords":["nocrits","nodmgspread","payload","uncletopia"],"game_id":440,"stv_port":27026,"stv_name":"Uncletopia | Chicago | 6 | All Maps | STV","players":[{"user_id":17,"name":"DB1","steam_id":76561199172642819,"connected_time":3151000000000,"state":"active","ping":68},{"user_id":18,"name":"The Wrong Trousers","steam_id":76561198797647275,"connected_time":3015000000000,"state":"active","ping":63},{"user_id":35,"name":"TheRussianator","steam_id":76561198283923511,"connected_time":358000000000,"state":"active","ping":71},{"user_id":34,"name":"theRainyMute","steam_id":76561198127625760,"connected_time":970000000000,"state":"active","ping":62}]},{"server_id":38,"name":"Uncletopia | Chicago | 7 | Stopwatch Beta","name_short":"chi-7","host":"chi-2.us.uncletopia.com","port":27035,"enabled":true,"region":"us-central","cc":"us","latitude":41.881832,"longitude":-87.62318,"reserved":0,"last_update":"0001-01-01T00:00:00Z","name_a2s":"Uncletopia | Chicago | 7 | Stopwatch Beta","protocol":17,"map":"workshop/koth_ashville_final.ugc2130459942","folder":"tf","game":"Team Fortress","app_id":440,"player_count":0,"max_players":24,"Bots":0,"server_type":"Dedicated","server_os":"Linux","password":true,"vac":true,"version":"7757534","steam_id":85568392924866364,"keywords":["cp","nocrits","nodmgspread","uncletopia"],"game_id":440,"stv_port":27036,"stv_name":"Uncletopia | Chicago | 7 | Stopwatch Beta | STV","players":null},{"server_id":39,"name":"Uncletopia | Chicago | 8 | Community","name_short":"chi-8","host":"chi-2.us.uncletopia.com","port":27045,"enabled":true,"region":"us-central","cc":"us","latitude":41.881832,"longitude":-87.62318,"reserved":0,"last_update":"0001-01-01T00:00:00Z","name_a2s":"Uncletopia | Chicago | 8 | Community","protocol":17,"map":"koth_cascade","folder":"tf","game":"Team Fortress","app_id":440,"player_count":0,"max_players":24,"Bots":0,"server_type":"Dedicated","server_os":"Linux","password":true,"vac":true,"version":"7757534","steam_id":85568392924866365,"keywords":["cp","nocrits","nodmgspread","uncletopia"],"game_id":440,"stv_port":27046,"stv_name":"Uncletopia | Chicago | 8 | Community | STV","players":null},{"server_id":8,"name":"Uncletopia | Dallas | 1 | All Maps","name_short":"dal-1","host":"dal-1.us.uncletopia.com","port":27015,"enabled":true,"region":"us-central","cc":"us","latitude":32.779167,"longitude":-96.80889,"reserved":0,"last_update":"0001-01-01T00:00:00Z","name_a2s":"Uncletopia | Dallas | 1 | All Maps","protocol":17,"map":"pl_badwater","folder":"tf","game":"Team Fortress","app_id":440,"player_count":23,"max_players":24,"Bots":0,"server_type":"Dedicated","server_os":"Linux","password":true,"vac":true,"version":"7757534","steam_id":85568392924469986,"keywords":["nocrits","nodmgspread","payload","uncletopia"],"game_id":440,"stv_port":27016,"stv_name":"Uncletopia | Dallas | 1 | All Maps | STV","players":[{"user_id":285,"name":"bolainassr0","steam_id":76561199079078845,"connected_time":1030000000000,"state":"active","ping":99},{"user_id":265,"name":"-+","steam_id":76561198125261443,"connected_time":1979000000000,"state":"active","ping":118},{"user_id":288,"name":"Speedy","steam_id":76561198873086850,"connected_time":509000000000,"state":"active","ping":101},{"user_id":292,"name":"ÔºîÔºê Ôº¶Ôº∞Ôº≥","steam_id":76561198272394965,"connected_time":273000000000,"state":"active","ping":149},{"user_id":291,"name":"BigMommaGart","steam_id":76561198280306683,"connected_time":316000000000,"state":"active","ping":49},{"user_id":234,"name":"peppino pizza towr","steam_id":76561198301598124,"connected_time":4622000000000,"state":"active","ping":105},{"user_id":252,"name":"you've been deuced on!","steam_id":76561198236028020,"connected_time":3224000000000,"state":"active","ping":105},{"user_id":289,"name":"merge without looking","steam_id":76561198056702628,"connected_time":504000000000,"state":"active","ping":37},{"user_id":283,"name":"Bill","steam_id":76561198151834921,"connected_time":1104000000000,"state":"active","ping":88},{"user_id":246,"name":"Broadsword","steam_id":76561198011160411,"connected_time":4153000000000,"state":"active","ping":90},{"user_id":258,"name":"crypt","steam_id":76561198280142450,"connected_time":2325000000000,"state":"active","ping":45},{"user_id":300,"name":"HatManZ1","steam_id":76561199177173758,"connected_time":14000000000,"state":"active","ping":180},{"user_id":245,"name":"Eden","steam_id":76561198081284664,"connected_time":4279000000000,"state":"active","ping":75},{"user_id":264,"name":"Water Wraith","steam_id":76561198155872356,"connected_time":2002000000000,"state":"active","ping":75},{"user_id":277,"name":"Bush.exe","steam_id":76561198124385307,"connected_time":1503000000000,"state":"active","ping":86},{"user_id":255,"name":"BULLSHIT MATADOR","steam_id":76561198044488913,"connected_time":2953000000000,"state":"active","ping":69},{"user_id":273,"name":"DoomoPelota","steam_id":76561198326462587,"connected_time":1617000000000,"state":"active","ping":105},{"user_id":294,"name":"Moth13","steam_id":76561199116006136,"connected_time":237000000000,"state":"active","ping":87},{"user_id":298,"name":"Stag Beetle","steam_id":76561199086655413,"connected_time":111000000000,"state":"active","ping":118},{"user_id":287,"name":"IVY","steam_id":76561198062892174,"connected_time":649000000000,"state":"active","ping":91},{"user_id":296,"name":"Matt9moons[EMEA$]","steam_id":76561198111982890,"connected_time":202000000000,"state":"active","ping":45},{"user_id":282,"name":"The Angel of Death","steam_id":76561198026079349,"connected_time":1110000000000,"state":"active","ping":128},{"user_id":290,"name":"CopperBox","steam_id":76561198068217248,"connected_time":395000000000,"state":"active","ping":72}]},{"server_id":108,"name":"Uncletopia | Dallas | 2 | All Maps","name_short":"dal-2","host":"dal-1.us.uncletopia.com","port":27025,"enabled":true,"region":"us-central","cc":"us","latitude":32.779167,"longitude":-96.80889,"reserved":0,"last_update":"0001-01-01T00:00:00Z","name_a2s":"Uncletopia | Dallas | 2 | All Maps","protocol":17,"map":"koth_cascade","folder":"tf","game":"Team Fortress","app_id":440,"player_count":18,"max_players":24,"Bots":0,"server_type":"Dedicated","server_os":"Linux","password":true,"vac":true,"version":"7757534","steam_id":85568392924469988,"keywords":["cp","nocrits","nodmgspread","uncletopia"],"game_id":440,"stv_port":27026,"stv_name":"Uncletopia | Dallas | 2 | All Maps | STV","players":[{"user_id":17,"name":"Dapper Bubble","steam_id":76561198094007434,"connected_time":1044000000000,"state":"active","ping":46},{"user_id":18,"name":"Weezer","steam_id":76561198983123535,"connected_time":840000000000,"state":"active","ping":84},{"user_id":37,"name":"Tomoscones","steam_id":76561198813586588,"connected_time":9000000000,"state":"active","ping":172},{"user_id":20,"name":"Gardvord","steam_id":76561198120715753,"connected_time":800000000000,"state":"active","ping":163},{"user_id":21,"name":"Dr. Sawbones","steam_id":76561198426930604,"connected_time":787000000000,"state":"active","ping":92},{"user_id":22,"name":"Lily Blade #savetf2","steam_id":76561198173244242,"connected_time":740000000000,"state":"active","ping":97},{"user_id":28,"name":"loboto gaming","steam_id":76561199088321574,"connected_time":588000000000,"state":"active","ping":102},{"user_id":38,"name":"MeontoMaru","steam_id":76561198030415152,"connected_time":1000000000,"state":"spawning","ping":54},{"user_id":29,"name":"Chaotic Rushu","steam_id":76561198170054407,"connected_time":382000000000,"state":"active","ping":101},{"user_id":26,"name":"üÖúüÖîüÖîüÖöüÖ¢üÖ£üÖî\ufffd\ufffd\ufffd","steam_id":76561197999748343,"connected_time":680000000000,"state":"active","ping":35},{"user_id":27,"name":"sopping wet beast","steam_id":76561198995121468,"connected_time":635000000000,"state":"active","ping":94},{"user_id":30,"name":"Dr. Quack","steam_id":76561198260753684,"connected_time":318000000000,"state":"active","ping":82},{"user_id":31,"name":"Sky Tree","steam_id":76561198027103242,"connected_time":309000000000,"state":"active","ping":70},{"user_id":32,"name":"ribbonborn","steam_id":76561198001195423,"connected_time":152000000000,"state":"active","ping":72},{"user_id":33,"name":"Fox","steam_id":76561198063507627,"connected_time":152000000000,"state":"active","ping":32},{"user_id":34,"name":"heida","steam_id":76561198298468550,"connected_time":119000000000,"state":"active","ping":99},{"user_id":35,"name":"A√º","steam_id":76561199031241776,"connected_time":88000000000,"state":"active","ping":50},{"user_id":36,"name":"Gammaplex","steam_id":76561198981228176,"connected_time":69000000000,"state":"active","ping":75}]},{"server_id":5,"name":"Uncletopia | Frankfurt | 1 | All Maps","name_short":"frk-1","host":"frk-1.de.uncletopia.com","port":27015,"enabled":true,"region":"eu","cc":"de","latitude":50.110924,"longitude":8.682127,"reserved":0,"last_update":"0001-01-01T00:00:00Z","name_a2s":"Uncletopia | Frankfurt | 1 | All Maps","protocol":17,"map":"pl_upward","folder":"tf","game":"Team Fortress","app_id":440,"player_count":24,"max_players":24,"Bots":0,"server_type":"Dedicated","server_os":"Linux","password":true,"vac":true,"version":"7757534","steam_id":85568392924469989,"keywords":["nocrits","nodmgspread","payload","uncletopia"],"game_id":440,"stv_port":27016,"stv_name":"Uncletopia | Frankfurt | 1 | All Maps | STV","players":[{"user_id":56,"name":"GMsU | AuxiliusM","steam_id":76561198071903356,"connected_time":7217000000000,"state":"active","ping":39},{"user_id":121,"name":"skeleton_archer_1","steam_id":76561198407636430,"connected_time":585000000000,"state":"active","ping":91},{"user_id":78,"name":"Soerlssoelss√∂en","steam_id":76561197993060585,"connected_time":5186000000000,"state":"active","ping":70},{"user_id":92,"name":"pablo","steam_id":76561198089285014,"connected_time":3919000000000,"state":"active","ping":79},{"user_id":118,"name":"FUKTARD2005","steam_id":76561198839121591,"connected_time":847000000000,"state":"active","ping":62},{"user_id":116,"name":"H1SM43L","steam_id":76561198133168564,"connected_time":1059000000000,"state":"active","ping":56},{"user_id":120,"name":"Cookies and Bakies","steam_id":76561198017442928,"connected_time":766000000000,"state":"active","ping":60},{"user_id":117,"name":"moser23","steam_id":76561197960543171,"connected_time":991000000000,"state":"active","ping":41},{"user_id":103,"name":"GMsU | DaLuigi","steam_id":76561198054486188,"connected_time":2420000000000,"state":"active","ping":46},{"user_id":113,"name":"G6 sherlock","steam_id":76561198802967796,"connected_time":1345000000000,"state":"active","ping":120},{"user_id":106,"name":"Hamtastic","steam_id":76561198879769410,"connected_time":2351000000000,"state":"active","ping":84},{"user_id":40,"name":"walluu","steam_id":76561198121830870,"connected_time":7436000000000,"state":"active","ping":75},{"user_id":97,"name":"„ÉÜ„Ç§„É´„Çπ","steam_id":76561198022403271,"connected_time":3327000000000,"state":"active","ping":46},{"user_id":122,"name":"BSantos57","steam_id":76561198000597094,"connected_time":583000000000,"state":"active","ping":92},{"user_id":108,"name":"Shelk0","steam_id":76561198153349968,"connected_time":2331000000000,"state":"active","ping":89},{"user_id":114,"name":"jerf(god i want estrogen)","steam_id":76561199213901239,"connected_time":1159000000000,"state":"active","ping":60},{"user_id":98,"name":"Technic","steam_id":76561198128096130,"connected_time":3302000000000,"state":"active","ping":45},{"user_id":115,"name":"boudgra","steam_id":76561198035380064,"connected_time":1072000000000,"state":"active","ping":49},{"user_id":119,"name":"possiblename","steam_id":76561199064350902,"connected_time":844000000000,"state":"active","ping":103},{"user_id":80,"name":"Ansari","steam_id":76561198074982971,"connected_time":5185000000000,"state":"active","ping":48},{"user_id":100,"name":"dirty","steam_id":76561197995572935,"connected_time":2560000000000,"state":"active","ping":78},{"user_id":59,"name":"‚ô• Aura ‚ô•","steam_id":76561198066258544,"connected_time":7081000000000,"state":"active","ping":58},{"user_id":124,"name":"Momo","steam_id":76561199215198193,"connected_time":122000000000,"state":"active","ping":160},{"user_id":111,"name":"GMsU | Acoul","steam_id":76561198229222992,"connected_time":1420000000000,"state":"active","ping":48}]},{"server_id":110,"name":"Uncletopia | Frankfurt | 2 | All Maps","name_short":"frk-2","host":"frk-1.de.uncletopia.com","port":27025,"enabled":true,"region":"eu","cc":"de","latitude":50.110924,"longitude":8.682127,"reserved":0,"last_update":"0001-01-01T00:00:00Z","name_a2s":"Uncletopia | Frankfurt | 2 | All Maps","protocol":17,"map":"pl_snowycoast","folder":"tf","game":"Team Fortress","app_id":440,"player_count":20,"max_players":24,"Bots":0,"server_type":"Dedicated","server_os":"Linux","password":true,"vac":true,"version":"7757534","steam_id":85568392924469990,"keywords":["nocrits","nodmgspread","payload","uncletopia"],"game_id":440,"stv_port":27026,"stv_name":"Uncletopia | Frankfurt | 2 | All Maps | STV","players":[{"user_id":385,"name":"Uncle Sam","steam_id":76561198001991775,"connected_time":1665000000000,"state":"active","ping":45},{"user_id":399,"name":"Jokudami","steam_id":76561198346604154,"connected_time":32000000000,"state":"active","ping":41},{"user_id":398,"name":"Primus","steam_id":76561198124927367,"connected_time":117000000000,"state":"active","ping":180},{"user_id":396,"name":"danny","steam_id":76561198056930504,"connected_time":222000000000,"state":"active","ping":48},{"user_id":351,"name":"HilldogGaming","steam_id":76561198082209322,"connected_time":3666000000000,"state":"active","ping":90},{"user_id":400,"name":"Kowakum","steam_id":76561197998125950,"connected_time":3000000000,"state":"spawning","ping":87},{"user_id":397,"name":"‚Ñ¢‚Åß‚Åß‰πÉ»ΩOOD PRINCŒû","steam_id":76561198137835796,"connected_time":132000000000,"state":"active","ping":56},{"user_id":387,"name":"Cosmetic brain","steam_id":76561198055936410,"connected_time":1661000000000,"state":"active","ping":76},{"user_id":155,"name":"New","steam_id":76561198402195911,"connected_time":14164000000000,"state":"active","ping":114},{"user_id":377,"name":"LIGHTWEIGHT BABY","steam_id":76561198002761980,"connected_time":1910000000000,"state":"active","ping":60},{"user_id":327,"name":"Husk","steam_id":76561198271808519,"connected_time":4865000000000,"state":"active","ping":55},{"user_id":395,"name":"Wolny Kurdystan","steam_id":76561198259696668,"connected_time":388000000000,"state":"active","ping":74},{"user_id":393,"name":"Dark_Prelate","steam_id":76561199065671442,"connected_time":1388000000000,"state":"active","ping":59},{"user_id":375,"name":"twitch.tv/red_naxela","steam_id":76561197998803950,"connected_time":1936000000000,"state":"active","ping":49},{"user_id":379,"name":"üÉî Nugg1t(sme/lly)","steam_id":76561198065652251,"connected_time":1805000000000,"state":"active","ping":45},{"user_id":382,"name":"Francisco","steam_id":76561198074614581,"connected_time":1716000000000,"state":"active","ping":76},{"user_id":388,"name":"Digital Love","steam_id":76561198048250715,"connected_time":1644000000000,"state":"active","ping":57},{"user_id":392,"name":"meriones","steam_id":76561198034234373,"connected_time":1472000000000,"state":"active","ping":60},{"user_id":390,"name":"yarn power","steam_id":76561198015593908,"connected_time":1631000000000,"state":"active","ping":151},{"user_id":341,"name":"I'm past the point of insanity","steam_id":76561198800954471,"connected_time":4145000000000,"state":"active","ping":80}]},{"server_id":308,"name":"Uncletopia | Frankfurt | 3 | All Maps","name_short":"frk-3","host":"frk-1.de.uncletopia.com","port":27035,"enabled":true,"region":"eu","cc":"de","latitude":50.110924,"longitude":8.682127,"reserved":0,"last_update":"0001-01-01T00:00:00Z","name_a2s":"Uncletopia | Frankfurt | 3 | All Maps","protocol":17,"map":"pl_upward","folder":"tf","game":"Team Fortress","app_id":440,"player_count":24,"max_players":24,"Bots":0,"server_type":"Dedicated","server_os":"Linux","password":true,"vac":true,"version":"7757534","steam_id":85568392924504274,"keywords":["nocrits","nodmgspread","payload","uncletopia"],"game_id":440,"stv_port":27036,"stv_name":"Uncletopia | Frankfurt | 3 | All Maps | STV","players":[{"user_id":231,"name":"L1nuS050","steam_id":76561199017922842,"connected_time":14000000000,"state":"active","ping":84},{"user_id":225,"name":"Portal2Player","steam_id":76561198062870114,"connected_time":798000000000,"state":"active","ping":150},{"user_id":202,"name":"tf2 snake","steam_id":76561198193971167,"connected_time":2414000000000,"state":"active","ping":59},{"user_id":214,"name":"‚òÅ Lou1smeister ‚òÅ","steam_id":76561198004032968,"connected_time":1481000000000,"state":"active","ping":73},{"user_id":197,"name":"After8","steam_id":76561198090750865,"connected_time":2938000000000,"state":"active","ping":65},{"user_id":224,"name":"duane allman (real)","steam_id":76561198059699043,"connected_time":911000000000,"state":"active","ping":74},{"user_id":143,"name":"Piox","steam_id":76561198125689157,"connected_time":5794000000000,"state":"active","ping":79},{"user_id":206,"name":"Mr.Schnittlauch","steam_id":76561198295868113,"connected_time":2061000000000,"state":"active","ping":67},{"user_id":187,"name":"Benzo Fury","steam_id":76561198025259336,"connected_time":3115000000000,"state":"active","ping":54},{"user_id":213,"name":"jameso","steam_id":76561198064042970,"connected_time":1484000000000,"state":"active","ping":142},{"user_id":203,"name":"SkullBurner","steam_id":76561198357531846,"connected_time":2319000000000,"state":"active","ping":78},{"user_id":198,"name":"glyph","steam_id":76561197980736364,"connected_time":2829000000000,"state":"active","ping":75},{"user_id":204,"name":"sachmoe2","steam_id":76561199217925107,"connected_time":2305000000000,"state":"active","ping":175},{"user_id":169,"name":"Pomson 6000 enjoyer","steam_id":76561198798657045,"connected_time":4213000000000,"state":"active","ping":75},{"user_id":141,"name":"Waltcha","steam_id":76561198007691468,"connected_time":5826000000000,"state":"active","ping":61},{"user_id":211,"name":"Lord of the Thumbs","steam_id":76561198203140640,"connected_time":1754000000000,"state":"active","ping":67},{"user_id":227,"name":"michal jarek","steam_id":76561199028388329,"connected_time":739000000000,"state":"active","ping":60},{"user_id":209,"name":"You slumber","steam_id":76561198344639692,"connected_time":1895000000000,"state":"active","ping":92},{"user_id":226,"name":"adamŒî","steam_id":76561199007826093,"connected_time":794000000000,"state":"active","ping":74},{"user_id":228,"name":"hananamanna","steam_id":76561198006570285,"connected_time":496000000000,"state":"active","ping":114},{"user_id":207,"name":"FoOzTV","steam_id":76561197998636728,"connected_time":2032000000000,"state":"active","ping":76},{"user_id":215,"name":"Lemon","steam_id":76561198188535947,"connected_time":1479000000000,"state":"active","ping":84},{"user_id":180,"name":"Random Romain","steam_id":76561198355825319,"connected_time":3676000000000,"state":"active","ping":79},{"user_id":230,"name":"conterebuffoa64","steam_id":76561198960377141,"connected_time":95000000000,"state":"active","ping":68}]},{"server_id":309,"name":"Uncletopia | Frankfurt | 4 | All Maps","name_short":"frk-4","host":"frk-1.de.uncletopia.com","port":27045,"enabled":true,"region":"eu","cc":"de","latitude":50.110924,"longitude":8.682127,"reserved":0,"last_update":"0001-01-01T00:00:00Z","name_a2s":"Uncletopia | Frankfurt | 4 | All Maps","protocol":17,"map":"koth_lakeside_final","folder":"tf","game":"Team Fortress","app_id":440,"player_count":0,"max_players":24,"Bots":0,"server_type":"Dedicated","server_os":"Linux","password":true,"vac":true,"version":"7757534","steam_id":85568392924504275,"keywords":["cp","nocrits","nodmgspread","uncletopia"],"game_id":440,"stv_port":27046,"stv_name":"Uncletopia | Frankfurt | 4 | All Maps | STV","players":null},{"server_id":310,"name":"Uncletopia | Frankfurt | 5 | All Maps","name_short":"frk-5","host":"frk-1.de.uncletopia.com","port":27055,"enabled":true,"region":"eu","cc":"de","latitude":50.110924,"longitude":8.682127,"reserved":0,"last_update":"0001-01-01T00:00:00Z","name_a2s":"Uncletopia | Frankfurt | 5 | All Maps","protocol":17,"map":"pl_snowycoast","folder":"tf","game":"Team Fortress","app_id":440,"player_count":23,"max_players":24,"Bots":0,"server_type":"Dedicated","server_os":"Linux","password":true,"vac":true,"version":"7757534","steam_id":85568392924504277,"keywords":["nocrits","nodmgspread","payload","uncletopia"],"game_id":440,"stv_port":27056,"stv_name":"Uncletopia | Frankfurt | 5 | All Maps | STV","players":[{"user_id":509,"name":"mmlock","steam_id":76561198069516191,"connected_time":1585000000000,"state":"active","ping":45},{"user_id":530,"name":"The one True Mads","steam_id":76561197999204692,"connected_time":397000000000,"state":"active","ping":73},{"user_id":535,"name":"ArmedWithWings","steam_id":76561198154615474,"connected_time":216000000000,"state":"active","ping":86},{"user_id":458,"name":"fallingpencil","steam_id":76561199230233148,"connected_time":5144000000000,"state":"active","ping":64},{"user_id":529,"name":"Dani","steam_id":76561198381243318,"connected_time":406000000000,"state":"active","ping":85},{"user_id":519,"name":"big hoops","steam_id":76561198004703799,"connected_time":562000000000,"state":"active","ping":45},{"user_id":520,"name":"Popop","steam_id":76561198004793795,"connected_time":535000000000,"state":"active","ping":48},{"user_id":522,"name":"Der Geist des Hans Rosling","steam_id":76561198049231109,"connected_time":500000000000,"state":"active","ping":58},{"user_id":515,"name":"Worm","steam_id":76561199192245921,"connected_time":717000000000,"state":"active","ping":136},{"user_id":523,"name":"pitbull gaming","steam_id":76561198052412362,"connected_time":491000000000,"state":"active","ping":62},{"user_id":527,"name":"MechoPuh","steam_id":76561198855209440,"connected_time":424000000000,"state":"active","ping":60},{"user_id":540,"name":"spooky buisness","steam_id":76561199065599888,"connected_time":45000000000,"state":"spawning","ping":53},{"user_id":516,"name":"Reymi Stereo","steam_id":76561198091214227,"connected_time":646000000000,"state":"active","ping":56},{"user_id":531,"name":"TJ1212","steam_id":76561199013575313,"connected_time":390000000000,"state":"active","ping":61},{"user_id":533,"name":"poopcorn","steam_id":76561198435246575,"connected_time":348000000000,"state":"active","ping":61},{"user_id":536,"name":"H-say","steam_id":76561198177400362,"connected_time":208000000000,"state":"active","ping":98},{"user_id":537,"name":"syms","steam_id":76561198066679812,"connected_time":192000000000,"state":"active","ping":75},{"user_id":538,"name":"Endi","steam_id":76561198914938199,"connected_time":183000000000,"state":"active","ping":97},{"user_id":454,"name":"finbar","steam_id":76561198056812396,"connected_time":5455000000000,"state":"active","ping":86},{"user_id":492,"name":"Redbull Enema","steam_id":76561198012737089,"connected_time":3307000000000,"state":"active","ping":96},{"user_id":539,"name":"MaplePome","steam_id":76561199226615022,"connected_time":137000000000,"state":"active","ping":67},{"user_id":541,"name":"Dispenser (Lopata)","steam_id":76561198820264239,"connected_time":20000000000,"state":"active","ping":111},{"user_id":497,"name":"Laura ‚ù§","steam_id":76561198975652501,"connected_time":3048000000000,"state":"active","ping":102}]},{"server_id":311,"name":"Uncletopia | Frankfurt | 6 | All Maps","name_short":"frk-6","host":"frk-1.de.uncletopia.com","port":27065,"enabled":true,"region":"eu","cc":"de","latitude":50.110924,"longitude":8.682127,"reserved":0,"last_update":"0001-01-01T00:00:00Z","name_a2s":"Uncletopia | Frankfurt | 6 | All Maps","protocol":17,"map":"cp_metalworks","folder":"tf","game":"Team Fortress","app_id":440,"player_count":21,"max_players":24,"Bots":0,"server_type":"Dedicated","server_os":"Linux","password":true,"vac":true,"version":"7757534","steam_id":85568392924504278,"keywords":["cp","nocrits","nodmgspread","uncletopia"],"game_id":440,"stv_port":27066,"stv_name":"Uncletopia | Frankfurt | 6 | All Maps | STV","players":[{"user_id":41,"name":"Kapitan Polska","steam_id":76561197968069413,"connected_time":1293000000000,"state":"active","ping":72},{"user_id":70,"name":"Nitro","steam_id":76561198093891507,"connected_time":9000000000,"state":"spawning","ping":98},{"user_id":42,"name":"Lag","steam_id":76561198159360376,"connected_time":1145000000000,"state":"active","ping":53},{"user_id":54,"name":"JohkupohkuXD","steam_id":76561198391108762,"connected_time":637000000000,"state":"active","ping":90},{"user_id":55,"name":"–°–ê–ù–Ø –í–û–î–Ü–õ–ê","steam_id":76561198343380238,"connected_time":623000000000,"state":"active","ping":76},{"user_id":19,"name":"Balls","steam_id":76561198086400484,"connected_time":2525000000000,"state":"active","ping":80},{"user_id":61,"name":"BR!CK","steam_id":76561199445356088,"connected_time":414000000000,"state":"active","ping":58},{"user_id":21,"name":"barosans FR","steam_id":76561198038109099,"connected_time":2504000000000,"state":"active","ping":50},{"user_id":53,"name":"Siemens Desiro","steam_id":76561199203076508,"connected_time":799000000000,"state":"active","ping":65},{"user_id":45,"name":"Freddy Fazbear Gaming","steam_id":76561198299179114,"connected_time":1110000000000,"state":"active","ping":87},{"user_id":46,"name":"Magirby","steam_id":76561198818777390,"connected_time":1062000000000,"state":"active","ping":109},{"user_id":47,"name":"Dr.Ludwig Sex (F2P)","steam_id":76561199230379349,"connected_time":1028000000000,"state":"active","ping":61},{"user_id":65,"name":"kitty gaming","steam_id":76561198060648946,"connected_time":312000000000,"state":"active","ping":59},{"user_id":62,"name":"porridge","steam_id":76561198044585737,"connected_time":405000000000,"state":"active","ping":59},{"user_id":60,"name":"A Real Lawyer","steam_id":76561199097235523,"connected_time":483000000000,"state":"active","ping":81},{"user_id":63,"name":"Daredevil Comet","steam_id":76561198144550710,"connected_time":358000000000,"state":"active","ping":64},{"user_id":64,"name":"Meta","steam_id":76561198413073432,"connected_time":345000000000,"state":"active","ping":63},{"user_id":66,"name":"weebaru","steam_id":76561198004991633,"connected_time":311000000000,"state":"active","ping":47},{"user_id":67,"name":"Local Ohio opps","steam_id":76561198858124788,"connected_time":285000000000,"state":"active","ping":96},{"user_id":68,"name":"DooWooD","steam_id":76561198335810106,"connected_time":240000000000,"state":"active","ping":76},{"user_id":69,"name":"Ostara","steam_id":76561198200054489,"connected_time":204000000000,"state":"active","ping":70}]},{"server_id":23,"name":"Uncletopia | Frankfurt | 7 | Stopwatch Beta","name_short":"frk-7","host":"frk-1.de.uncletopia.com","port":27075,"enabled":true,"region":"eu","cc":"de","latitude":50.110924,"longitude":8.682127,"reserved":0,"last_update":"0001-01-01T00:00:00Z","name_a2s":"Uncletopia | Frankfurt | 7 | Stopwatch Beta","protocol":17,"map":"cp_granary","folder":"tf","game":"Team Fortress","app_id":440,"player_count":0,"max_players":24,"Bots":0,"server_type":"Dedicated","server_os":"Linux","password":true,"vac":true,"version":"7757534","steam_id":85568392924742827,"keywords":["cp","nocrits","nodmgspread","uncletopia"],"game_id":440,"stv_port":27076,"stv_name":"Uncletopia | Frankfurt | 7 | Stopwatch Beta | STV","players":null},{"server_id":24,"name":"Uncletopia | Frankfurt | 8 | Community","name_short":"frk-8","host":"frk-1.de.uncletopia.com","port":27085,"enabled":true,"region":"eu","cc":"de","latitude":50.110924,"longitude":8.682127,"reserved":0,"last_update":"0001-01-01T00:00:00Z","name_a2s":"Uncletopia | Frankfurt | 8 | Community","protocol":17,"map":"koth_lakeside_final","folder":"tf","game":"Team Fortress","app_id":440,"player_count":0,"max_players":24,"Bots":0,"server_type":"Dedicated","server_os":"Linux","password":true,"vac":true,"version":"7757534","steam_id":85568392924742828,"keywords":["cp","nocrits","nodmgspread","uncletopia"],"game_id":440,"stv_port":27086,"stv_name":"Uncletopia | Frankfurt | 8 | Community | STV","players":null},{"server_id":202,"name":"Uncletopia | Hong Kong | 1 | All Maps","name_short":"hgk-1","host":"hgk-1.hk.uncletopia.com","port":27015,"enabled":true,"region":"asia","cc":"hk","latitude":22.302711,"longitude":114.177216,"reserved":0,"last_update":"0001-01-01T00:00:00Z","name_a2s":"Uncletopia | Hong Kong | 1 | All Maps","protocol":17,"map":"plr_hightower","folder":"tf","game":"Team Fortress","app_id":440,"player_count":0,"max_players":24,"Bots":0,"server_type":"Dedicated","server_os":"Linux","password":true,"vac":true,"version":"7757534","steam_id":85568392924494504,"keywords":["nocrits","nodmgspread","payload","uncletopia"],"game_id":440,"stv_port":27016,"stv_name":"Uncletopia | Hong Kong | 1 | All Maps | STV","players":null},{"server_id":1,"name":"Uncletopia | Los Angeles | 1 | All Maps","name_short":"lax-1","host":"lax-1.us.uncletopia.com","port":27015,"enabled":true,"region":"us-west","cc":"us","latitude":33.94279,"longitude":-118.41004,"reserved":0,"last_update":"0001-01-01T00:00:00Z","name_a2s":"Uncletopia | Los Angeles | 1 | All Maps","protocol":17,"map":"koth_lakeside_final","folder":"tf","game":"Team Fortress","app_id":440,"player_count":0,"max_players":24,"Bots":0,"server_type":"Dedicated","server_os":"Linux","password":true,"vac":true,"version":"7757534","steam_id":85568392924469991,"keywords":["cp","nocrits","nodmgspread","uncletopia"],"game_id":440,"stv_port":27016,"stv_name":"Uncletopia | Los Angeles | 1 | All Maps | STV","players":null},{"server_id":112,"name":"Uncletopia | Los Angeles | 2 | All Maps","name_short":"lax-2","host":"lax-1.us.uncletopia.com","port":27025,"enabled":true,"region":"us-west","cc":"us","latitude":33.94279,"longitude":-118.41004,"reserved":0,"last_update":"0001-01-01T00:00:00Z","name_a2s":"Uncletopia | Los Angeles | 2 | All Maps","protocol":17,"map":"koth_viaduct","folder":"tf","game":"Team Fortress","app_id":440,"player_count":17,"max_players":24,"Bots":0,"server_type":"Dedicated","server_os":"Linux","password":true,"vac":true,"version":"7757534","steam_id":85568392924469992,"keywords":["cp","nocrits","nodmgspread","uncletopia"],"game_id":440,"stv_port":27026,"stv_name":"Uncletopia | Los Angeles | 2 | All Maps | STV","players":[{"user_id":388,"name":"MogulSoap","steam_id":76561198043610132,"connected_time":246000000000,"state":"active","ping":82},{"user_id":383,"name":"InZaneAsylum","steam_id":76561198195832065,"connected_time":838000000000,"state":"active","ping":129},{"user_id":389,"name":"Êó©‰∏äÂ•ΩCHINA#1WARRIORÂÜ∞Ê∑á\ufffd\ufffd","steam_id":76561198964722163,"connected_time":97000000000,"state":"active","ping":69},{"user_id":390,"name":"no vc no c","steam_id":76561197989503095,"connected_time":54000000000,"state":"active","ping":157},{"user_id":386,"name":"June","steam_id":76561198141803658,"connected_time":630000000000,"state":"active","ping":44},{"user_id":372,"name":"Phlogging Solly","steam_id":76561198020580071,"connected_time":1587000000000,"state":"active","ping":43},{"user_id":391,"name":"Grammer","steam_id":76561197977007845,"connected_time":9000000000,"state":"spawning","ping":112},{"user_id":370,"name":"goongremlin","steam_id":76561198278196215,"connected_time":1714000000000,"state":"active","ping":62},{"user_id":360,"name":"scarecrow (evil)","steam_id":76561198082979347,"connected_time":2135000000000,"state":"active","ping":117},{"user_id":357,"name":"‚§£RASCAL","steam_id":76561198269038647,"connected_time":2164000000000,"state":"active","ping":54},{"user_id":373,"name":"Gabe","steam_id":76561198081153719,"connected_time":1577000000000,"state":"active","ping":67},{"user_id":381,"name":"ps3moira","steam_id":76561198190739809,"connected_time":921000000000,"state":"active","ping":57},{"user_id":368,"name":"ForAPessimistImPrettyOptimistic","steam_id":76561198170128009,"connected_time":1908000000000,"state":"active","ping":60},{"user_id":307,"name":"picea","steam_id":76561198134664196,"connected_time":5824000000000,"state":"active","ping":61},{"user_id":308,"name":"PinguEnjoyer6","steam_id":76561199186723516,"connected_time":5802000000000,"state":"active","ping":32},{"user_id":384,"name":"1 Worst Steve Fox","steam_id":76561198263405297,"connected_time":830000000000,"state":"active","ping":61},{"user_id":377,"name":"TSM CHIPOTLEDEMON","steam_id":76561199231993886,"connected_time":1497000000000,"state":"active","ping":47}]},{"server_id":324,"name":"Uncletopia | Los Angeles | 3 | All Maps","name_short":"lax-3","host":"lax-1.us.uncletopia.com","port":27035,"enabled":true,"region":"us-west","cc":"us","latitude":33.94279,"longitude":-118.41004,"reserved":0,"last_update":"0001-01-01T00:00:00Z","name_a2s":"Uncletopia | Los Angeles | 3 | All Maps","protocol":17,"map":"pl_barnblitz","folder":"tf","game":"Team Fortress","app_id":440,"player_count":0,"max_players":24,"Bots":0,"server_type":"Dedicated","server_os":"Linux","password":true,"vac":true,"version":"7757534","steam_id":85568392924510198,"keywords":["nocrits","nodmgspread","payload","uncletopia"],"game_id":440,"stv_port":27036,"stv_name":"Uncletopia | Los Angeles | 3 | All Maps | STV","players":null},{"server_id":25,"name":"Uncletopia | Los Angeles | 4 | Stopwatch Beta","name_short":"lax-4","host":"lax-1.us.uncletopia.com","port":27045,"enabled":true,"region":"us-west","cc":"us","latitude":33.94279,"longitude":-118.41004,"reserved":0,"last_update":"0001-01-01T00:00:00Z","name_a2s":"Uncletopia | Los Angeles | 4 | Stopwatch Beta","protocol":17,"map":"pl_swiftwater_final1","folder":"tf","game":"Team Fortress","app_id":440,"player_count":0,"max_players":24,"Bots":0,"server_type":"Dedicated","server_os":"Linux","password":true,"vac":true,"version":"7757534","steam_id":85568392924510199,"keywords":["nocrits","nodmgspread","payload","uncletopia"],"game_id":440,"stv_port":27046,"stv_name":"Uncletopia | Los Angeles | 4 | Stopwatch Beta | STV","players":null},{"server_id":11,"name":"Uncletopia | London | 1 | All Maps","name_short":"lon-1","host":"lon-1.uk.uncletopia.com","port":27015,"enabled":true,"region":"eu","cc":"gb","latitude":51.509865,"longitude":-0.118092,"reserved":0,"last_update":"0001-01-01T00:00:00Z","name_a2s":"Uncletopia | London | 1 | All Maps","protocol":17,"map":"koth_harvest_final","folder":"tf","game":"Team Fortress","app_id":440,"player_count":24,"max_players":24,"Bots":0,"server_type":"Dedicated","server_os":"Linux","password":true,"vac":true,"version":"7757534","steam_id":85568392924367362,"keywords":["cp","nocrits","nodmgspread","uncletopia"],"game_id":440,"stv_port":27016,"stv_name":"Uncletopia | London | 1 | All Maps | STV","players":[{"user_id":620,"name":"dec","steam_id":76561198009660168,"connected_time":424000000000,"state":"active","ping":52},{"user_id":614,"name":"Neil Breen","steam_id":76561198132625124,"connected_time":741000000000,"state":"active","ping":132},{"user_id":578,"name":"Bonca","steam_id":76561198137503531,"connected_time":2867000000000,"state":"active","ping":72},{"user_id":595,"name":"Vollys","steam_id":76561198018077773,"connected_time":1647000000000,"state":"active","ping":72},{"user_id":580,"name":"nedilya","steam_id":76561198039692077,"connected_time":2755000000000,"state":"active","ping":65},{"user_id":611,"name":"Desj","steam_id":76561198114212636,"connected_time":866000000000,"state":"active","ping":58},{"user_id":517,"name":"Lyra","steam_id":76561198043601838,"connected_time":7717000000000,"state":"active","ping":64},{"user_id":598,"name":"Bigguysal","steam_id":76561198171204223,"connected_time":1400000000000,"state":"active","ping":66},{"user_id":547,"name":"killer of noob, winner of game","steam_id":76561198190583242,"connected_time":5072000000000,"state":"active","ping":71},{"user_id":599,"name":"Myrmodion","steam_id":76561198054746247,"connected_time":1392000000000,"state":"active","ping":74},{"user_id":624,"name":"Sneikijs","steam_id":76561198052549308,"connected_time":65000000000,"state":"active","ping":43},{"user_id":596,"name":"Oregon 1927","steam_id":76561199026097466,"connected_time":1441000000000,"state":"active","ping":77},{"user_id":600,"name":"Dogwalker","steam_id":76561197985561055,"connected_time":1378000000000,"state":"active","ping":68},{"user_id":593,"name":"Aaron","steam_id":76561197990046953,"connected_time":1848000000000,"state":"active","ping":79},{"user_id":579,"name":"Dr. Funkenstein","steam_id":76561197977816210,"connected_time":2849000000000,"state":"active","ping":47},{"user_id":625,"name":"Katie","steam_id":76561198056193753,"connected_time":51000000000,"state":"active","ping":38},{"user_id":584,"name":"Lightbulb Monkey","steam_id":76561198045033173,"connected_time":2301000000000,"state":"active","ping":52},{"user_id":621,"name":"powej","steam_id":76561198056381418,"connected_time":321000000000,"state":"active","ping":43},{"user_id":626,"name":"Starlordryan","steam_id":76561198267509154,"connected_time":28000000000,"state":"active","ping":72},{"user_id":616,"name":"aGryphoN","steam_id":76561198245175308,"connected_time":660000000000,"state":"active","ping":60},{"user_id":619,"name":"Mapavri","steam_id":76561198370196400,"connected_time":491000000000,"state":"active","ping":88},{"user_id":623,"name":"Sirzen","steam_id":76561198170155434,"connected_time":261000000000,"state":"active","ping":49},{"user_id":608,"name":"KLAMA  ‚ù§","steam_id":76561198351549661,"connected_time":995000000000,"state":"active","ping":83},{"user_id":610,"name":"random_player691","steam_id":76561199209946306,"connected_time":918000000000,"state":"active","ping":50}]},{"server_id":114,"name":"Uncletopia | London | 2 | All Maps","name_short":"lon-2","host":"lon-1.uk.uncletopia.com","port":27025,"enabled":true,"region":"eu","cc":"gb","latitude":51.509865,"longitude":-0.118092,"reserved":0,"last_update":"0001-01-01T00:00:00Z","name_a2s":"Uncletopia | London | 2 | All Maps","protocol":17,"map":"koth_viaduct","folder":"tf","game":"Team Fortress","app_id":440,"player_count":23,"max_players":24,"Bots":0,"server_type":"Dedicated","server_os":"Linux","password":true,"vac":true,"version":"7757534","steam_id":85568392924470941,"keywords":["cp","nocrits","nodmgspread","uncletopia"],"game_id":440,"stv_port":27026,"stv_name":"Uncletopia | London | 2 | All Maps | STV","players":[{"user_id":630,"name":".::[SerafeTTiN]::.","steam_id":76561198009471724,"connected_time":2225000000000,"state":"active","ping":100},{"user_id":657,"name":"Alpaca","steam_id":76561198071132354,"connected_time":547000000000,"state":"active","ping":106},{"user_id":590,"name":"DrExplosive","steam_id":76561198063678579,"connected_time":5932000000000,"state":"active","ping":49},{"user_id":534,"name":"night.s","steam_id":76561198326287823,"connected_time":9597000000000,"state":"active","ping":79},{"user_id":635,"name":"Dwevy","steam_id":76561198090379437,"connected_time":1729000000000,"state":"active","ping":58},{"user_id":636,"name":"thinking about caterpillars","steam_id":76561198069649097,"connected_time":1721000000000,"state":"active","ping":47},{"user_id":605,"name":"TylowStar","steam_id":76561198357107806,"connected_time":4254000000000,"state":"active","ping":75},{"user_id":637,"name":"Spoodie","steam_id":76561198981267180,"connected_time":1717000000000,"state":"active","ping":70},{"user_id":606,"name":"Max Andrew","steam_id":76561198158955194,"connected_time":4186000000000,"state":"active","ping":61},{"user_id":660,"name":"Plastic Baggins","steam_id":76561198039836567,"connected_time":311000000000,"state":"active","ping":47},{"user_id":651,"name":"Umberto Bossi","steam_id":76561198136150267,"connected_time":813000000000,"state":"active","ping":64},{"user_id":639,"name":"soldier tf2","steam_id":76561198372186715,"connected_time":1680000000000,"state":"active","ping":105},{"user_id":616,"name":"Lukas","steam_id":76561198009118452,"connected_time":3337000000000,"state":"active","ping":68},{"user_id":633,"name":"British Disapproval","steam_id":76561198001375260,"connected_time":2046000000000,"state":"active","ping":60},{"user_id":640,"name":"closest","steam_id":76561199077480807,"connected_time":1678000000000,"state":"active","ping":52},{"user_id":584,"name":"Wardruna96","steam_id":76561199057083828,"connected_time":6720000000000,"state":"active","ping":85},{"user_id":659,"name":"Flash","steam_id":76561198067379855,"connected_time":367000000000,"state":"active","ping":50},{"user_id":654,"name":"M√âZ","steam_id":76561198167504701,"connected_time":725000000000,"state":"active","ping":80},{"user_id":496,"name":"It's a me Malario","steam_id":76561198176546013,"connected_time":12411000000000,"state":"active","ping":45},{"user_id":594,"name":"disc0rd","steam_id":76561197985965776,"connected_time":5790000000000,"state":"active","ping":60},{"user_id":661,"name":"Campty","steam_id":76561198810134666,"connected_time":297000000000,"state":"active","ping":55},{"user_id":644,"name":"rich.kidd","steam_id":76561198025177982,"connected_time":1618000000000,"state":"active","ping":71},{"user_id":620,"name":"Umbro","steam_id":76561198087930438,"connected_time":3305000000000,"state":"active","ping":81}]},{"server_id":320,"name":"Uncletopia | London | 3 | All Maps","name_short":"lon-3","host":"lon-1.uk.uncletopia.com","port":27035,"enabled":true,"region":"eu","cc":"gb","latitude":51.509865,"longitude":-0.118092,"reserved":0,"last_update":"0001-01-01T00:00:00Z","name_a2s":"Uncletopia | London | 3 | All Maps","protocol":17,"map":"pl_swiftwater_final1","folder":"tf","game":"Team Fortress","app_id":440,"player_count":23,"max_players":24,"Bots":0,"server_type":"Dedicated","server_os":"Linux","password":true,"vac":true,"version":"7757534","steam_id":85568392924510192,"keywords":["nocrits","nodmgspread","payload","uncletopia"],"game_id":440,"stv_port":27036,"stv_name":"Uncletopia | London | 3 | All Maps | STV","players":[{"user_id":418,"name":"Lyla \u003c3","steam_id":76561198356692614,"connected_time":170000000000,"state":"active","ping":59},{"user_id":401,"name":"Lessoz","steam_id":76561199211572036,"connected_time":1578000000000,"state":"active","ping":90},{"user_id":409,"name":"SolidSalt","steam_id":76561198334789026,"connected_time":518000000000,"state":"active","ping":41},{"user_id":408,"name":"FADe","steam_id":76561197960400908,"connected_time":533000000000,"state":"active","ping":44},{"user_id":416,"name":"AproX","steam_id":76561198880652045,"connected_time":193000000000,"state":"active","ping":87},{"user_id":415,"name":"Travious","steam_id":76561198004141491,"connected_time":227000000000,"state":"active","ping":49},{"user_id":391,"name":"TITUS","steam_id":76561198017404328,"connected_time":2036000000000,"state":"active","ping":100},{"user_id":422,"name":"4ngle_grinder","steam_id":76561199196369031,"connected_time":6000000000,"state":"spawning","ping":127},{"user_id":410,"name":"gGABEsz","steam_id":76561198117199068,"connected_time":510000000000,"state":"active","ping":70},{"user_id":419,"name":"Mandele","steam_id":76561199183213205,"connected_time":156000000000,"state":"active","ping":99},{"user_id":362,"name":"Your Average F2P","steam_id":76561199403752637,"connected_time":5064000000000,"state":"active","ping":52},{"user_id":352,"name":"SpaceCake","steam_id":76561198151394497,"connected_time":5900000000000,"state":"active","ping":88},{"user_id":392,"name":"SparklyCherries","steam_id":76561198102969924,"connected_time":2028000000000,"state":"active","ping":52},{"user_id":420,"name":"ejch","steam_id":76561198050434553,"connected_time":147000000000,"state":"active","ping":42},{"user_id":400,"name":"Nope.avi","steam_id":76561198396687651,"connected_time":1698000000000,"state":"active","ping":93},{"user_id":405,"name":"dagaminking","steam_id":76561198144209072,"connected_time":1369000000000,"state":"active","ping":40},{"user_id":394,"name":"Qwerty","steam_id":76561198023525894,"connected_time":2020000000000,"state":"active","ping":84},{"user_id":421,"name":"xd","steam_id":76561198978983122,"connected_time":117000000000,"state":"active","ping":76},{"user_id":398,"name":"Zakvins","steam_id":76561198012032303,"connected_time":1880000000000,"state":"active","ping":81},{"user_id":411,"name":"Grillem Dafoe","steam_id":76561198306874574,"connected_time":476000000000,"state":"active","ping":61},{"user_id":342,"name":"DeSepp","steam_id":76561198063149086,"connected_time":6717000000000,"state":"active","ping":67},{"user_id":396,"name":"Skinny101","steam_id":76561197985599360,"connected_time":1966000000000,"state":"active","ping":55},{"user_id":345,"name":"Dragco","steam_id":76561198133902802,"connected_time":6464000000000,"state":"active","ping":73}]},{"server_id":321,"name":"Uncletopia | London | 4 | All Maps","name_short":"lon-4","host":"lon-1.uk.uncletopia.com","port":27045,"enabled":true,"region":"eu","cc":"gb","latitude":51.509865,"longitude":-0.118092,"reserved":0,"last_update":"0001-01-01T00:00:00Z","name_a2s":"Uncletopia | London | 4 | All Maps","protocol":17,"map":"pl_pier","folder":"tf","game":"Team Fortress","app_id":440,"player_count":23,"max_players":24,"Bots":0,"server_type":"Dedicated","server_os":"Linux","password":true,"vac":true,"version":"7757534","steam_id":85568392924510193,"keywords":["nocrits","nodmgspread","payload","uncletopia"],"game_id":440,"stv_port":27046,"stv_name":"Uncletopia | London | 4 | All Maps | STV","players":[{"user_id":276,"name":"LordTrap.exe","steam_id":76561198318089716,"connected_time":1395000000000,"state":"active","ping":44},{"user_id":289,"name":"S'all good, man","steam_id":76561198363882056,"connected_time":627000000000,"state":"active","ping":43},{"user_id":257,"name":"Saint","steam_id":76561198003296382,"connected_time":2707000000000,"state":"active","ping":73},{"user_id":198,"name":"S164","steam_id":76561198802694108,"connected_time":5510000000000,"state":"active","ping":86},{"user_id":291,"name":"willo","steam_id":76561198034442999,"connected_time":211000000000,"state":"active","ping":56},{"user_id":278,"name":"Spotmonkey","steam_id":76561198003994092,"connected_time":1361000000000,"state":"active","ping":60},{"user_id":267,"name":"hawkblob","steam_id":76561198803720565,"connected_time":1960000000000,"state":"active","ping":63},{"user_id":273,"name":"Ultimis","steam_id":76561198217182993,"connected_time":1516000000000,"state":"active","ping":75},{"user_id":283,"name":"Wuffington","steam_id":76561198033762881,"connected_time":1006000000000,"state":"active","ping":49},{"user_id":269,"name":"Artha","steam_id":76561198198453253,"connected_time":1598000000000,"state":"active","ping":86},{"user_id":254,"name":"Ecton","steam_id":76561198025103720,"connected_time":2810000000000,"state":"active","ping":56},{"user_id":290,"name":"lunaire","steam_id":76561198163344452,"connected_time":316000000000,"state":"active","ping":93},{"user_id":211,"name":"mmm delicious bullets","steam_id":76561198254664484,"connected_time":4852000000000,"state":"active","ping":67},{"user_id":224,"name":"Engi-Nearing","steam_id":76561199221172552,"connected_time":4304000000000,"state":"active","ping":51},{"user_id":287,"name":"Ran33","steam_id":76561197991474499,"connected_time":692000000000,"state":"active","ping":83},{"user_id":275,"name":"Sandman","steam_id":76561198168348965,"connected_time":1415000000000,"state":"active","ping":134},{"user_id":284,"name":"Kamina","steam_id":76561198079299570,"connected_time":908000000000,"state":"active","ping":81},{"user_id":286,"name":"plazma","steam_id":76561198886594048,"connected_time":777000000000,"state":"active","ping":110},{"user_id":270,"name":"Oak","steam_id":76561198067315672,"connected_time":1556000000000,"state":"active","ping":47},{"user_id":288,"name":"mt","steam_id":76561197961319303,"connected_time":664000000000,"state":"active","ping":61},{"user_id":264,"name":"–ü–∞–∂–∏–ª–æ–π","steam_id":76561198420600577,"connected_time":2141000000000,"state":"active","ping":97},{"user_id":240,"name":"Lyell","steam_id":76561198350329389,"connected_time":3504000000000,"state":"active","ping":75}]},{"server_id":21,"name":"Uncletopia | London | 5 | All Maps","name_short":"lon-5","host":"lon-1.uk.uncletopia.com","port":27055,"enabled":true,"region":"eu","cc":"gb","latitude":51.509865,"longitude":-0.118092,"reserved":0,"last_update":"0001-01-01T00:00:00Z","name_a2s":"Uncletopia | London | 5 | All Maps","protocol":17,"map":"pl_upward","folder":"tf","game":"Team Fortress","app_id":440,"player_count":24,"max_players":24,"Bots":0,"server_type":"Dedicated","server_os":"Linux","password":true,"vac":true,"version":"7757534","steam_id":85568392924742829,"keywords":["nocrits","nodmgspread","payload","uncletopia"],"game_id":440,"stv_port":27056,"stv_name":"Uncletopia | London | 5 | All Maps | STV","players":[{"user_id":391,"name":"PASTAMANIA!","steam_id":76561197967858558,"connected_time":1869000000000,"state":"active","ping":43},{"user_id":408,"name":"Mimic","steam_id":76561198064890253,"connected_time":398000000000,"state":"active","ping":126},{"user_id":395,"name":"ChPerette","steam_id":76561198060004887,"connected_time":1741000000000,"state":"active","ping":43},{"user_id":393,"name":"gabagool","steam_id":76561198307111838,"connected_time":1828000000000,"state":"active","ping":46},{"user_id":386,"name":"S√úLEYMAN √áAKIR","steam_id":76561199068170005,"connected_time":1990000000000,"state":"active","ping":97},{"user_id":323,"name":"free uber","steam_id":76561198198581079,"connected_time":6535000000000,"state":"active","ping":63},{"user_id":363,"name":"akakez","steam_id":76561198095432821,"connected_time":3122000000000,"state":"active","ping":112},{"user_id":371,"name":"Noob_with_source","steam_id":76561198870362103,"connected_time":2567000000000,"state":"active","ping":59},{"user_id":410,"name":"grim reaper god","steam_id":76561199394194512,"connected_time":159000000000,"state":"active","ping":59},{"user_id":387,"name":"w4gthp0h","steam_id":76561198133193445,"connected_time":1967000000000,"state":"active","ping":70},{"user_id":403,"name":"X-tis","steam_id":76561198043837480,"connected_time":1038000000000,"state":"active","ping":64},{"user_id":348,"name":"einfinity","steam_id":76561197992776372,"connected_time":4836000000000,"state":"active","ping":98},{"user_id":402,"name":"PizzaPete123","steam_id":76561198089478290,"connected_time":1357000000000,"state":"active","ping":43},{"user_id":383,"name":"Anax Alter","steam_id":76561198110249546,"connected_time":2109000000000,"state":"active","ping":123},{"user_id":392,"name":"Fat Pigeon","steam_id":76561198817940142,"connected_time":1868000000000,"state":"active","ping":46},{"user_id":411,"name":"DavidTheGamer38","steam_id":76561199381012938,"connected_time":121000000000,"state":"active","ping":86},{"user_id":406,"name":"Utazo","steam_id":76561198075772298,"connected_time":712000000000,"state":"active","ping":77},{"user_id":405,"name":"Deva Path","steam_id":76561198085763542,"connected_time":783000000000,"state":"active","ping":76},{"user_id":407,"name":"Mach :)","steam_id":76561198952487564,"connected_time":459000000000,"state":"active","ping":147},{"user_id":404,"name":"Topme","steam_id":76561198091734693,"connected_time":797000000000,"state":"active","ping":66},{"user_id":361,"name":"The Entire Canadian Army","steam_id":76561198014636282,"connected_time":3738000000000,"state":"active","ping":171},{"user_id":283,"name":"Zerfesh","steam_id":76561198117534358,"connected_time":9979000000000,"state":"active","ping":98},{"user_id":398,"name":"Big Al","steam_id":76561198079585198,"connected_time":1589000000000,"state":"active","ping":56},{"user_id":400,"name":"Spliffendor","steam_id":76561198144020209,"connected_time":1584000000000,"state":"active","ping":53}]},{"server_id":22,"name":"Uncletopia | London | 6 | All Maps","name_short":"lon-6","host":"lon-1.uk.uncletopia.com","port":27065,"enabled":true,"region":"eu","cc":"gb","latitude":51.509865,"longitude":-0.118092,"reserved":0,"last_update":"0001-01-01T00:00:00Z","name_a2s":"Uncletopia | London | 6 | All Maps","protocol":17,"map":"ctf_2fort","folder":"tf","game":"Team Fortress","app_id":440,"player_count":0,"max_players":24,"Bots":0,"server_type":"Dedicated","server_os":"Linux","password":true,"vac":true,"version":"7757534","steam_id":85568392924742830,"keywords":["ctf","nocrits","nodmgspread","uncletopia"],"game_id":440,"stv_port":27066,"stv_name":"Uncletopia | London | 6 | All Maps | STV","players":null},{"server_id":40,"name":"Uncletopia | London | 7 | No Payload","name_short":"lon-7","host":"lon-1.uk.uncletopia.com","port":27075,"enabled":true,"region":"eu","cc":"gb","latitude":51.509865,"longitude":-0.118092,"reserved":0,"last_update":"0001-01-01T00:00:00Z","name_a2s":"Uncletopia | London | 7 | No Payload","protocol":17,"map":"koth_lakeside_final","folder":"tf","game":"Team Fortress","app_id":440,"player_count":5,"max_players":24,"Bots":0,"server_type":"Dedicated","server_os":"Linux","password":true,"vac":true,"version":"7757534","steam_id":85568392924964314,"keywords":["cp","nocrits","nodmgspread","uncletopia"],"game_id":440,"stv_port":27076,"stv_name":"Uncletopia | London | 7 | No Payload | STV","players":[{"user_id":7,"name":"ran is running","steam_id":76561199443185667,"connected_time":1784000000000,"state":"active","ping":147},{"user_id":8,"name":"justin_ (f2p) (real)","steam_id":76561198839843428,"connected_time":1777000000000,"state":"active","ping":123},{"user_id":9,"name":"Joshua","steam_id":76561198159409260,"connected_time":1530000000000,"state":"active","ping":82},{"user_id":10,"name":"Datenegassie","steam_id":76561198089417032,"connected_time":1123000000000,"state":"active","ping":71},{"user_id":12,"name":"Warpzel65","steam_id":76561198799303596,"connected_time":127000000000,"state":"active","ping":139}]},{"server_id":41,"name":"Uncletopia | London | 8 | Community","name_short":"lon-8","host":"lon-1.uk.uncletopia.com","port":27085,"enabled":true,"region":"eu","cc":"gb","latitude":51.509865,"longitude":-0.118092,"reserved":0,"last_update":"0001-01-01T00:00:00Z","name_a2s":"Uncletopia | London | 8 | Community","protocol":17,"map":"workshop/pl_highwood_b13.ugc1769496557","folder":"tf","game":"Team Fortress","app_id":440,"player_count":22,"max_players":24,"Bots":0,"server_type":"Dedicated","server_os":"Linux","password":true,"vac":true,"version":"7757534","steam_id":85568392924964315,"keywords":["nocrits","nodmgspread","payload","uncletopia"],"game_id":440,"stv_port":27086,"stv_name":"Uncletopia | London | 8 | Community | STV","players":[{"user_id":13,"name":"TSx* Osa__PL","steam_id":76561198027016799,"connected_time":2661000000000,"state":"active","ping":77},{"user_id":14,"name":"TSx* {Demon-Angel}","steam_id":76561198151486463,"connected_time":2645000000000,"state":"active","ping":87},{"user_id":15,"name":"TSx* Bargal","steam_id":76561198040266872,"connected_time":2639000000000,"state":"active","ping":86},{"user_id":16,"name":"Aregularhuman","steam_id":76561198343319848,"connected_time":2472000000000,"state":"active","ping":54},{"user_id":17,"name":"TSx* Naxer","steam_id":76561198011986779,"connected_time":2406000000000,"state":"active","ping":76},{"user_id":18,"name":"Black Sheep","steam_id":76561198042244701,"connected_time":2053000000000,"state":"active","ping":56},{"user_id":50,"name":"Painkiller (real)‚òë","steam_id":76561199036837091,"connected_time":298000000000,"state":"active","ping":85},{"user_id":51,"name":"Mari Christmas","steam_id":76561197997020707,"connected_time":142000000000,"state":"active","ping":56},{"user_id":46,"name":"Johan","steam_id":76561199380849468,"connected_time":875000000000,"state":"active","ping":62},{"user_id":48,"name":"Clitorina","steam_id":76561198077570815,"connected_time":742000000000,"state":"active","ping":43},{"user_id":52,"name":"Mau","steam_id":76561198003382595,"connected_time":130000000000,"state":"active","ping":45},{"user_id":25,"name":"Cak3","steam_id":76561198012633295,"connected_time":1540000000000,"state":"active","ping":60},{"user_id":27,"name":"Healslut Manwhore","steam_id":76561198114164702,"connected_time":1449000000000,"state":"active","ping":112},{"user_id":49,"name":"da number one gamer","steam_id":76561199049633351,"connected_time":378000000000,"state":"active","ping":69},{"user_id":29,"name":"Grumtsior","steam_id":76561198043563111,"connected_time":1331000000000,"state":"active","ping":75},{"user_id":30,"name":"‚ú™ m_br3","steam_id":76561198044981990,"connected_time":1317000000000,"state":"active","ping":76},{"user_id":32,"name":"madhead200","steam_id":76561198119498666,"connected_time":1265000000000,"state":"active","ping":83},{"user_id":33,"name":"Artur ‚òª","steam_id":76561198264297604,"connected_time":1227000000000,"state":"active","ping":76},{"user_id":34,"name":"Dispenser","steam_id":76561198130195469,"connected_time":1199000000000,"state":"active","ping":83},{"user_id":42,"name":"sinkuchan","steam_id":76561198054012474,"connected_time":1086000000000,"state":"active","ping":44},{"user_id":47,"name":"rob","steam_id":76561198122211848,"connected_time":854000000000,"state":"active","ping":92},{"user_id":43,"name":"mobile sentry","steam_id":76561198393136197,"connected_time":1081000000000,"state":"active","ping":129}]},{"server_id":300,"name":"Uncletopia | Montr√©al | 1 | All Maps","name_short":"mtl-1","host":"mtl-1.ca.uncletopia.com","port":27015,"enabled":true,"region":"us-east","cc":"ca","latitude":45.50889,"longitude":-73.56167,"reserved":0,"last_update":"0001-01-01T00:00:00Z","name_a2s":"Uncletopia | Montr√©al | 1 | All Maps","protocol":17,"map":"koth_cascade","folder":"tf","game":"Team Fortress","app_id":440,"player_count":0,"max_players":24,"Bots":0,"server_type":"Dedicated","server_os":"Linux","password":true,"vac":true,"version":"7757534","steam_id":85568392924500087,"keywords":["cp","nocrits","nodmgspread","uncletopia"],"game_id":440,"stv_port":27016,"stv_name":"Uncletopia | Montr√©al | 1 | All Maps | STV","players":null},{"server_id":301,"name":"Uncletopia | Montr√©al | 2 | All Maps","name_short":"mtl-2","host":"mtl-1.ca.uncletopia.com","port":27025,"enabled":true,"region":"us-east","cc":"ca","latitude":45.50889,"longitude":-73.56167,"reserved":0,"last_update":"0001-01-01T00:00:00Z","name_a2s":"Uncletopia | Montr√©al | 2 | All Maps","protocol":17,"map":"pl_borneo","folder":"tf","game":"Team Fortress","app_id":440,"player_count":17,"max_players":24,"Bots":0,"server_type":"Dedicated","server_os":"Linux","password":true,"vac":true,"version":"7757534","steam_id":85568392924500088,"keywords":["nocrits","nodmgspread","payload","uncletopia"],"game_id":440,"stv_port":27026,"stv_name":"Uncletopia | Montr√©al | 2 | All Maps | STV","players":[{"user_id":31,"name":"dayker2468","steam_id":76561199228876237,"connected_time":1298000000000,"state":"active","ping":77},{"user_id":38,"name":"SeductiveOctopus","steam_id":76561198011036516,"connected_time":980000000000,"state":"active","ping":131},{"user_id":54,"name":"The Thneed","steam_id":76561198060445334,"connected_time":214000000000,"state":"active","ping":104},{"user_id":13,"name":"Raizen","steam_id":76561199092445367,"connected_time":3854000000000,"state":"active","ping":44},{"user_id":32,"name":"Sprit ‚ô•","steam_id":76561198268780781,"connected_time":1231000000000,"state":"active","ping":60},{"user_id":34,"name":"brandoncg04","steam_id":76561199189398427,"connected_time":1087000000000,"state":"active","ping":60},{"user_id":27,"name":"Try Gardening","steam_id":76561198120311340,"connected_time":1981000000000,"state":"active","ping":64},{"user_id":55,"name":"steelzepplin","steam_id":76561197993182335,"connected_time":160000000000,"state":"active","ping":107},{"user_id":45,"name":"Spicy Tamale","steam_id":76561198284847234,"connected_time":576000000000,"state":"active","ping":70},{"user_id":35,"name":"The idiot sponge man","steam_id":76561198831912024,"connected_time":1077000000000,"state":"active","ping":76},{"user_id":40,"name":"Recursive Gamer","steam_id":76561198042102952,"connected_time":820000000000,"state":"active","ping":81},{"user_id":56,"name":"m3lody","steam_id":76561199474189433,"connected_time":107000000000,"state":"active","ping":121},{"user_id":57,"name":"faxxy","steam_id":76561198079621240,"connected_time":48000000000,"state":"active","ping":59},{"user_id":48,"name":"DR.MYater","steam_id":76561198084479633,"connected_time":481000000000,"state":"active","ping":131},{"user_id":49,"name":"gabagool","steam_id":76561198882758067,"connected_time":474000000000,"state":"active","ping":54},{"user_id":50,"name":"Charged","steam_id":76561199127215130,"connected_time":469000000000,"state":"active","ping":179},{"user_id":51,"name":"Mystery","steam_id":76561199385233153,"connected_time":463000000000,"state":"active","ping":46}]},{"server_id":302,"name":"Uncletopia | Montr√©al | 3 | All Maps","name_short":"mtl-3","host":"mtl-1.ca.uncletopia.com","port":27035,"enabled":true,"region":"us-east","cc":"ca","latitude":45.50889,"longitude":-73.56167,"reserved":0,"last_update":"0001-01-01T00:00:00Z","name_a2s":"Uncletopia | Montr√©al | 3 | All Maps","protocol":17,"map":"cp_process_final","folder":"tf","game":"Team Fortress","app_id":440,"player_count":0,"max_players":24,"Bots":0,"server_type":"Dedicated","server_os":"Linux","password":true,"vac":true,"version":"7757534","steam_id":85568392924500089,"keywords":["cp","nocrits","nodmgspread","uncletopia"],"game_id":440,"stv_port":27036,"stv_name":"Uncletopia | Montr√©al | 3 | All Maps | STV","players":null},{"server_id":303,"name":"Uncletopia | Montr√©al | 4 | No Payload","name_short":"mtl-4","host":"mtl-1.ca.uncletopia.com","port":27045,"enabled":true,"region":"us-east","cc":"ca","latitude":45.50889,"longitude":-73.56167,"reserved":0,"last_update":"0001-01-01T00:00:00Z","name_a2s":"Uncletopia | Montr√©al | 4 | No Payload","protocol":17,"map":"pl_pier","folder":"tf","game":"Team Fortress","app_id":440,"player_count":0,"max_players":24,"Bots":0,"server_type":"Dedicated","server_os":"Linux","password":true,"vac":true,"version":"7757534","steam_id":85568392924500090,"keywords":["nocrits","nodmgspread","payload","uncletopia"],"game_id":440,"stv_port":27046,"stv_name":"Uncletopia | Montr√©al | 4 | No Payload | STV","players":null},{"server_id":13,"name":"Uncletopia | New York City | 1 | All Maps","name_short":"nyc-1","host":"nyc-1.us.uncletopia.com","port":27015,"enabled":true,"region":"us-east","cc":"us","latitude":40.73061,"longitude":-73.93524,"reserved":0,"last_update":"0001-01-01T00:00:00Z","name_a2s":"Uncletopia | New York City | 1 | All Maps","protocol":17,"map":"koth_lakeside_final","folder":"tf","game":"Team Fortress","app_id":440,"player_count":21,"max_players":24,"Bots":0,"server_type":"Dedicated","server_os":"Linux","password":true,"vac":true,"version":"7757534","steam_id":85568392924469993,"keywords":["cp","nocrits","nodmgspread","uncletopia"],"game_id":440,"stv_port":27016,"stv_name":"Uncletopia | New York City | 1 | All Maps | STV","players":[{"user_id":108,"name":"raccoonclint","steam_id":76561199073295092,"connected_time":3572000000000,"state":"active","ping":119},{"user_id":134,"name":"The Gaming Chair Aficionado","steam_id":76561198103183142,"connected_time":1027000000000,"state":"active","ping":146},{"user_id":82,"name":"runger","steam_id":76561198068610136,"connected_time":5128000000000,"state":"active","ping":123},{"user_id":140,"name":"Gaminglast","steam_id":76561198362927765,"connected_time":886000000000,"state":"active","ping":168},{"user_id":105,"name":"cheapdisplay","steam_id":76561199206448493,"connected_time":3684000000000,"state":"active","ping":69},{"user_id":137,"name":"rustyorion","steam_id":76561198439186347,"connected_time":973000000000,"state":"active","ping":115},{"user_id":138,"name":"Bad Rollout","steam_id":76561197971948876,"connected_time":945000000000,"state":"active","ping":73},{"user_id":116,"name":"ToastyBricks","steam_id":76561198180037291,"connected_time":3023000000000,"state":"active","ping":49},{"user_id":148,"name":"„Äê‚äö ”© ‚äö„Äë","steam_id":76561198263895597,"connected_time":296000000000,"state":"active","ping":60},{"user_id":139,"name":"sevanial","steam_id":76561198071532126,"connected_time":890000000000,"state":"active","ping":89},{"user_id":136,"name":"i am heavy weapons guy","steam_id":76561198311704368,"connected_time":1020000000000,"state":"active","ping":46},{"user_id":127,"name":"man behind the slaughter (F2P)","steam_id":76561198854070384,"connected_time":2277000000000,"state":"active","ping":116},{"user_id":141,"name":"Coughdrop Addict [F2P]","steam_id":76561199254281550,"connected_time":884000000000,"state":"active","ping":75},{"user_id":133,"name":"gamesucks123","steam_id":76561198072826791,"connected_time":1640000000000,"state":"active","ping":56},{"user_id":149,"name":"ArrowOmega","steam_id":76561198079364917,"connected_time":163000000000,"state":"active","ping":47},{"user_id":143,"name":"Mr. Morrow","steam_id":76561198011333701,"connected_time":859000000000,"state":"active","ping":101},{"user_id":146,"name":"Lost CS player","steam_id":76561198892387723,"connected_time":615000000000,"state":"active","ping":55},{"user_id":104,"name":"Cryonics","steam_id":76561198314197911,"connected_time":3896000000000,"state":"active","ping":65},{"user_id":130,"name":"PackedGorgon","steam_id":76561198042686806,"connected_time":1781000000000,"state":"active","ping":88},{"user_id":79,"name":"Gremlin #DIEtf2","steam_id":76561198122362904,"connected_time":5269000000000,"state":"active","ping":120},{"user_id":145,"name":"Octovaitor","steam_id":76561198004658451,"connected_time":703000000000,"state":"active","ping":45}]},{"server_id":14,"name":"Uncletopia | New York City | 2 | All Maps","name_short":"nyc-2","host":"nyc-1.us.uncletopia.com","port":27025,"enabled":true,"region":"us-east","cc":"us","latitude":40.73061,"longitude":-73.93524,"reserved":0,"last_update":"0001-01-01T00:00:00Z","name_a2s":"Uncletopia | New York City | 2 | All Maps","protocol":17,"map":"koth_viaduct","folder":"tf","game":"Team Fortress","app_id":440,"player_count":22,"max_players":24,"Bots":0,"server_type":"Dedicated","server_os":"Linux","password":true,"vac":true,"version":"7757534","steam_id":85568392924469994,"keywords":["cp","nocrits","nodmgspread","uncletopia"],"game_id":440,"stv_port":27026,"stv_name":"Uncletopia | New York City | 2 | All Maps | STV","players":[{"user_id":359,"name":"Z4LTte","steam_id":76561198283258068,"connected_time":434000000000,"state":"active","ping":49},{"user_id":335,"name":"Thr33boys","steam_id":76561198035639627,"connected_time":1954000000000,"state":"active","ping":60},{"user_id":367,"name":"Jack Ingov","steam_id":76561198968129815,"connected_time":113000000000,"state":"active","ping":90},{"user_id":305,"name":"who is gavin?","steam_id":76561198069415057,"connected_time":4073000000000,"state":"active","ping":44},{"user_id":362,"name":"Path","steam_id":76561198106831514,"connected_time":303000000000,"state":"active","ping":68},{"user_id":356,"name":"DO NOT call me BART SIMPSON!!","steam_id":76561198069113375,"connected_time":600000000000,"state":"active","ping":58},{"user_id":318,"name":"Delightful MadCat","steam_id":76561198086178426,"connected_time":3274000000000,"state":"active","ping":99},{"user_id":306,"name":"feminized shotgun","steam_id":76561198036965113,"connected_time":4070000000000,"state":"active","ping":33},{"user_id":363,"name":"boat","steam_id":76561198157124609,"connected_time":253000000000,"state":"active","ping":58},{"user_id":351,"name":"A_Malebolgia","steam_id":76561198097722818,"connected_time":734000000000,"state":"active","ping":84},{"user_id":345,"name":"XeN0","steam_id":76561198147259903,"connected_time":1466000000000,"state":"active","ping":36},{"user_id":357,"name":"RadioactiveOilyOafs","steam_id":76561198041901197,"connected_time":544000000000,"state":"active","ping":69},{"user_id":364,"name":"that ass do fart :(","steam_id":76561199138290670,"connected_time":204000000000,"state":"active","ping":73},{"user_id":365,"name":"Zoot","steam_id":76561198004398296,"connected_time":155000000000,"state":"active","ping":60},{"user_id":368,"name":"Venezia","steam_id":76561197994107407,"connected_time":104000000000,"state":"active","ping":43},{"user_id":361,"name":"Justin","steam_id":76561198063394882,"connected_time":330000000000,"state":"active","ping":54},{"user_id":360,"name":"big ol' buford","steam_id":76561198290675957,"connected_time":332000000000,"state":"active","ping":75},{"user_id":369,"name":"Chin","steam_id":76561198247426906,"connected_time":30000000000,"state":"spawning","ping":77},{"user_id":288,"name":"TruffleShuffl","steam_id":76561198833742625,"connected_time":5186000000000,"state":"active","ping":44},{"user_id":355,"name":"Gandalf Gaming","steam_id":76561198368151490,"connected_time":633000000000,"state":"active","ping":44},{"user_id":350,"name":"‚öß Ayla ‚öß","steam_id":76561198119211246,"connected_time":1065000000000,"state":"active","ping":58},{"user_id":343,"name":"Violet42","steam_id":76561198072927887,"connected_time":1581000000000,"state":"active","ping":44}]},{"server_id":15,"name":"Uncletopia | New York City | 3 | Stopwatch Beta","name_short":"nyc-3","host":"nyc-1.us.uncletopia.com","port":27035,"enabled":true,"region":"us-east","cc":"us","latitude":40.73061,"longitude":-73.93524,"reserved":0,"last_update":"0001-01-01T00:00:00Z","name_a2s":"Uncletopia | New York City | 3 | Stopwatch Beta","protocol":17,"map":"workshop/pl_barnblitz_pro7.ugc582280235","folder":"tf","game":"Team Fortress","app_id":440,"player_count":0,"max_players":24,"Bots":0,"server_type":"Dedicated","server_os":"Linux","password":true,"vac":true,"version":"7757534","steam_id":85568392924742820,"keywords":["nocrits","nodmgspread","payload","uncletopia"],"game_id":440,"stv_port":27036,"stv_name":"Uncletopia | New York City | 3 | Stopwatch Beta | STV","players":null},{"server_id":16,"name":"Uncletopia | New York City | 4 | Community","name_short":"nyc-4","host":"nyc-1.us.uncletopia.com","port":27045,"enabled":true,"region":"us-east","cc":"us","latitude":40.73061,"longitude":-73.93524,"reserved":0,"last_update":"0001-01-01T00:00:00Z","name_a2s":"Uncletopia | New York City | 4 | Community","protocol":17,"map":"workshop/koth_trenchfoot_b1a.ugc731436616","folder":"tf","game":"Team Fortress","app_id":440,"player_count":0,"max_players":24,"Bots":0,"server_type":"Dedicated","server_os":"Linux","password":true,"vac":true,"version":"7757534","steam_id":85568392924742821,"keywords":["cp","nocrits","nodmgspread","uncletopia"],"game_id":440,"stv_port":27046,"stv_name":"Uncletopia | New York City | 4 | Community | STV","players":null},{"server_id":142,"name":"Uncletopia | S√£o Paulo | 1 | All Maps","name_short":"sao-1","host":"sao-1.br.uncletopia.com","port":27015,"enabled":true,"region":"sa","cc":"br","latitude":-23.533773,"longitude":-46.62529,"reserved":0,"last_update":"0001-01-01T00:00:00Z","name_a2s":"Uncletopia | S√£o Paulo | 1 | All Maps","protocol":17,"map":"pl_borneo","folder":"tf","game":"Team Fortress","app_id":440,"player_count":0,"max_players":24,"Bots":0,"server_type":"Dedicated","server_os":"Linux","password":true,"vac":true,"version":"7757534","steam_id":85568392924469996,"keywords":["nocrits","nodmgspread","payload","uncletopia"],"game_id":440,"stv_port":27016,"stv_name":"Uncletopia | S√£o Paulo | 1 | All Maps | STV","players":null},{"server_id":143,"name":"Uncletopia | S√£o Paulo | 2 | All Maps","name_short":"sao-2","host":"sao-2.br.uncletopia.com","port":27015,"enabled":true,"region":"sa","cc":"br","latitude":-23.533773,"longitude":-46.62529,"reserved":0,"last_update":"0001-01-01T00:00:00Z","name_a2s":"Uncletopia | S√£o Paulo | 2 | All Maps","protocol":17,"map":"koth_highpass","folder":"tf","game":"Team Fortress","app_id":440,"player_count":0,"max_players":24,"Bots":0,"server_type":"Dedicated","server_os":"Linux","password":true,"vac":true,"version":"7757534","steam_id":85568392924485349,"keywords":["cp","nocrits","nodmgspread","uncletopia"],"game_id":440,"stv_port":27016,"stv_name":"Uncletopia | S√£o Paulo | 2 | All Maps | STV","players":null},{"server_id":7,"name":"Uncletopia | Seattle | 1 | All Maps","name_short":"sea-1","host":"sea-1.us.uncletopia.com","port":27015,"enabled":true,"region":"us-west","cc":"us","latitude":47.608013,"longitude":-122.33517,"reserved":0,"last_update":"0001-01-01T00:00:00Z","name_a2s":"Uncletopia | Seattle | 1 | All Maps","protocol":17,"map":"cp_dustbowl","folder":"tf","game":"Team Fortress","app_id":440,"player_count":20,"max_players":24,"Bots":0,"server_type":"Dedicated","server_os":"Linux","password":true,"vac":true,"version":"7757534","steam_id":85568392924469997,"keywords":["cp","nocrits","nodmgspread","uncletopia"],"game_id":440,"stv_port":27016,"stv_name":"Uncletopia | Seattle | 1 | All Maps | STV","players":[{"user_id":324,"name":"jayeskae","steam_id":76561198144220801,"connected_time":2279000000000,"state":"active","ping":47},{"user_id":321,"name":"mub","steam_id":76561197961943948,"connected_time":2670000000000,"state":"active","ping":44},{"user_id":332,"name":"Persona_Random","steam_id":76561198922937588,"connected_time":1611000000000,"state":"active","ping":77},{"user_id":335,"name":"forest","steam_id":76561198157960257,"connected_time":619000000000,"state":"active","ping":39},{"user_id":275,"name":"Mignyanne :3","steam_id":76561198048754056,"connected_time":6486000000000,"state":"active","ping":62},{"user_id":339,"name":"Ozyruz","steam_id":76561197998785161,"connected_time":310000000000,"state":"active","ping":82},{"user_id":334,"name":"amagicowl","steam_id":76561199060487814,"connected_time":957000000000,"state":"active","ping":57},{"user_id":340,"name":"Bige Rone","steam_id":76561198066718191,"connected_time":274000000000,"state":"active","ping":45},{"user_id":343,"name":"Scent Tree","steam_id":76561198444371121,"connected_time":213000000000,"state":"active","ping":147},{"user_id":344,"name":"Borealis Frost","steam_id":76561199115807272,"connected_time":206000000000,"state":"active","ping":132},{"user_id":346,"name":"SteeperS","steam_id":76561198030555013,"connected_time":72000000000,"state":"active","ping":392},{"user_id":338,"name":"jello","steam_id":76561198149683030,"connected_time":412000000000,"state":"active","ping":60},{"user_id":281,"name":"Grunt","steam_id":76561198200758903,"connected_time":6089000000000,"state":"active","ping":84},{"user_id":345,"name":"Daz","steam_id":76561198041431938,"connected_time":175000000000,"state":"active","ping":121},{"user_id":277,"name":"1dk","steam_id":76561198135104742,"connected_time":6292000000000,"state":"active","ping":45},{"user_id":283,"name":"Cloud","steam_id":76561198272454184,"connected_time":5938000000000,"state":"active","ping":175},{"user_id":328,"name":"longhairedhippie","steam_id":76561199097615100,"connected_time":2200000000000,"state":"active","ping":83},{"user_id":309,"name":"C U Next Tuesday","steam_id":76561198058493492,"connected_time":3892000000000,"state":"active","ping":53},{"user_id":322,"name":"rat gets the cheese","steam_id":76561198031234032,"connected_time":2563000000000,"state":"active","ping":97},{"user_id":325,"name":"Superbacon24","steam_id":76561198121223443,"connected_time":2261000000000,"state":"active","ping":69}]},{"server_id":119,"name":"Uncletopia | Seattle | 2 | All Maps","name_short":"sea-2","host":"sea-1.us.uncletopia.com","port":27025,"enabled":true,"region":"us-west","cc":"us","latitude":47.608013,"longitude":-122.33517,"reserved":0,"last_update":"0001-01-01T00:00:00Z","name_a2s":"Uncletopia | Seattle | 2 | All Maps","protocol":17,"map":"pl_barnblitz","folder":"tf","game":"Team Fortress","app_id":440,"player_count":24,"max_players":24,"Bots":0,"server_type":"Dedicated","server_os":"Linux","password":true,"vac":true,"version":"7757534","steam_id":85568392924469998,"keywords":["nocrits","nodmgspread","payload","uncletopia"],"game_id":440,"stv_port":27026,"stv_name":"Uncletopia | Seattle | 2 | All Maps | STV","players":[{"user_id":12,"name":"Nibotshooter","steam_id":76561199284825579,"connected_time":2580000000000,"state":"active","ping":92},{"user_id":57,"name":"kab789","steam_id":76561198069842202,"connected_time":326000000000,"state":"active","ping":112},{"user_id":55,"name":"U.S. MARINE","steam_id":76561199127423378,"connected_time":517000000000,"state":"active","ping":88},{"user_id":51,"name":"O bez","steam_id":76561198841579939,"connected_time":668000000000,"state":"active","ping":92},{"user_id":46,"name":"Samuel Adams Miller Lite","steam_id":76561198112188509,"connected_time":1077000000000,"state":"active","ping":100},{"user_id":48,"name":"The Pepsi¬Æ Superbowl¬Æ!","steam_id":76561198080828981,"connected_time":726000000000,"state":"active","ping":74},{"user_id":41,"name":"TheTruthOfTheCessationOfDukkha","steam_id":76561198214370515,"connected_time":1274000000000,"state":"active","ping":118},{"user_id":26,"name":"Rubber_Duck","steam_id":76561198073118825,"connected_time":1680000000000,"state":"active","ping":87},{"user_id":52,"name":"PadrePockets","steam_id":76561197993251606,"connected_time":632000000000,"state":"active","ping":128},{"user_id":21,"name":"Little Linguine","steam_id":76561198816986370,"connected_time":1865000000000,"state":"active","ping":62},{"user_id":27,"name":"branmuffin1653","steam_id":76561199100765965,"connected_time":1619000000000,"state":"active","ping":149},{"user_id":47,"name":"trackpad gaming | f2p","steam_id":76561198840414371,"connected_time":1073000000000,"state":"active","ping":51},{"user_id":24,"name":"Feldspaten","steam_id":76561199122059102,"connected_time":1759000000000,"state":"active","ping":68},{"user_id":25,"name":"Fluffy \u003c3 [HUGS]","steam_id":76561198119444962,"connected_time":1741000000000,"state":"active","ping":62},{"user_id":28,"name":"TheMagicMrWaffle","steam_id":76561198104357256,"connected_time":1563000000000,"state":"active","ping":73},{"user_id":31,"name":"FlamingManiac","steam_id":76561198361996837,"connected_time":1517000000000,"state":"active","ping":129},{"user_id":56,"name":"Dauntless Duelist","steam_id":76561198025056018,"connected_time":461000000000,"state":"active","ping":52},{"user_id":33,"name":"ROGUE-PLANET","steam_id":76561198116023052,"connected_time":1455000000000,"state":"active","ping":83},{"user_id":34,"name":"ReDiculous22","steam_id":76561198038391383,"connected_time":1410000000000,"state":"active","ping":90},{"user_id":53,"name":"[chef] iron","steam_id":76561197970888616,"connected_time":619000000000,"state":"active","ping":75},{"user_id":36,"name":"Lesbian Futa Mommy","steam_id":76561198130479030,"connected_time":1396000000000,"state":"active","ping":66},{"user_id":59,"name":"Highphin","steam_id":76561198986584680,"connected_time":142000000000,"state":"active","ping":111},{"user_id":58,"name":"128gb sd card","steam_id":76561198043636749,"connected_time":321000000000,"state":"active","ping":104},{"user_id":43,"name":"XeoniX","steam_id":76561197961717287,"connected_time":1258000000000,"state":"active","ping":137}]},{"server_id":406,"name":"Uncletopia | Seattle | 3 | Stopwatch Beta","name_short":"sea-3","host":"sea-1.us.uncletopia.com","port":27035,"enabled":true,"region":"us-west","cc":"us","latitude":47.608013,"longitude":-122.33517,"reserved":0,"last_update":"0001-01-01T00:00:00Z","name_a2s":"Uncletopia | Seattle | 3 | Stopwatch Beta","protocol":17,"map":"cp_dustbowl","folder":"tf","game":"Team Fortress","app_id":440,"player_count":0,"max_players":24,"Bots":0,"server_type":"Dedicated","server_os":"Linux","password":true,"vac":true,"version":"7757534","steam_id":85568392924515217,"keywords":["cp","nocrits","nodmgspread","uncletopia"],"game_id":440,"stv_port":27036,"stv_name":"Uncletopia | Seattle | 3 | Stopwatch Beta | STV","players":null},{"server_id":17,"name":"Uncletopia | San Francisco | 1 | All Maps","name_short":"sfo-1","host":"sfo-1.us.uncletopia.com","port":27015,"enabled":true,"region":"us-west","cc":"us","latitude":37.77397,"longitude":-122.4313,"reserved":0,"last_update":"0001-01-01T00:00:00Z","name_a2s":"Uncletopia | San Francisco | 1 | All Maps","protocol":17,"map":"cp_altitude","folder":"tf","game":"Team Fortress","app_id":440,"player_count":0,"max_players":24,"Bots":0,"server_type":"Dedicated","server_os":"Linux","password":true,"vac":true,"version":"7757534","steam_id":85568392924469999,"keywords":["cp","nocrits","nodmgspread","uncletopia"],"game_id":440,"stv_port":27016,"stv_name":"Uncletopia | San Francisco | 1 | All Maps | STV","players":null},{"server_id":18,"name":"Uncletopia | San Francisco | 2 | All Maps","name_short":"sfo-2","host":"sfo-1.us.uncletopia.com","port":27025,"enabled":true,"region":"us-west","cc":"us","latitude":37.77397,"longitude":-122.4313,"reserved":0,"last_update":"0001-01-01T00:00:00Z","name_a2s":"Uncletopia | San Francisco | 2 | All Maps","protocol":17,"map":"cp_snakewater_final1","folder":"tf","game":"Team Fortress","app_id":440,"player_count":0,"max_players":24,"Bots":0,"server_type":"Dedicated","server_os":"Linux","password":true,"vac":true,"version":"7757534","steam_id":85568392924470000,"keywords":["cp","nocrits","nodmgspread","uncletopia"],"game_id":440,"stv_port":27026,"stv_name":"Uncletopia | San Francisco | 2 | All Maps | STV","players":null},{"server_id":19,"name":"Uncletopia | San Francisco | 3 | Stopwatch Beta","name_short":"sfo-3","host":"sfo-1.us.uncletopia.com","port":27035,"enabled":true,"region":"us-west","cc":"us","latitude":37.77397,"longitude":-122.4313,"reserved":0,"last_update":"0001-01-01T00:00:00Z","name_a2s":"Uncletopia | San Francisco | 3 | Stopwatch Beta","protocol":17,"map":"koth_lakeside_final","folder":"tf","game":"Team Fortress","app_id":440,"player_count":0,"max_players":24,"Bots":0,"server_type":"Dedicated","server_os":"Linux","password":true,"vac":true,"version":"7757534","steam_id":85568392924742824,"keywords":["cp","nocrits","nodmgspread","uncletopia"],"game_id":440,"stv_port":27036,"stv_name":"Uncletopia | San Francisco | 3 | Stopwatch Beta | STV","players":null},{"server_id":20,"name":"Uncletopia | San Francisco | 4 | Community","name_short":"sfo-4","host":"sfo-1.us.uncletopia.com","port":27045,"enabled":true,"region":"us-west","cc":"us","latitude":37.77397,"longitude":-122.4313,"reserved":0,"last_update":"0001-01-01T00:00:00Z","name_a2s":"Uncletopia | San Francisco | 4 | Community","protocol":17,"map":"workshop/cp_fulgur_rc2a.ugc2068252300","folder":"tf","game":"Team Fortress","app_id":440,"player_count":0,"max_players":24,"Bots":0,"server_type":"Dedicated","server_os":"Linux","password":true,"vac":true,"version":"7757534","steam_id":85568392924742826,"keywords":["cp","nocrits","nodmgspread","uncletopia"],"game_id":440,"stv_port":27046,"stv_name":"Uncletopia | San Francisco | 4 | Community | STV","players":null},{"server_id":141,"name":"Uncletopia | Sydney | 1 | All Maps","name_short":"syd-1","host":"syd-1.au.uncletopia.com","port":27015,"enabled":true,"region":"au","cc":"au","latitude":-33.865143,"longitude":151.2099,"reserved":0,"last_update":"0001-01-01T00:00:00Z","name_a2s":"Uncletopia | Sydney | 1 | All Maps","protocol":17,"map":"koth_viaduct","folder":"tf","game":"Team Fortress","app_id":440,"player_count":0,"max_players":24,"Bots":0,"server_type":"Dedicated","server_os":"Linux","password":true,"vac":true,"version":"7757534","steam_id":85568392924470001,"keywords":["cp","nocrits","nodmgspread","uncletopia"],"game_id":440,"stv_port":27016,"stv_name":"Uncletopia | Sydney | 1 | All Maps | STV","players":null},{"server_id":123,"name":"Uncletopia | Sydney | 2 | All Maps","name_short":"syd-2","host":"syd-1.au.uncletopia.com","port":27025,"enabled":true,"region":"au","cc":"au","latitude":-33.865143,"longitude":151.2099,"reserved":0,"last_update":"0001-01-01T00:00:00Z","name_a2s":"Uncletopia | Sydney | 2 | All Maps","protocol":17,"map":"koth_viaduct","folder":"tf","game":"Team Fortress","app_id":440,"player_count":0,"max_players":24,"Bots":0,"server_type":"Dedicated","server_os":"Linux","password":true,"vac":true,"version":"7757534","steam_id":85568392924470002,"keywords":["cp","nocrits","nodmgspread","uncletopia"],"game_id":440,"stv_port":27026,"stv_name":"Uncletopia | Sydney | 2 | All Maps | STV","players":null},{"server_id":395,"name":"Uncletopia | Sydney | 3 | All Maps","name_short":"syd-3","host":"syd-1.au.uncletopia.com","port":27035,"enabled":true,"region":"au","cc":"au","latitude":-33.865143,"longitude":151.2099,"reserved":0,"last_update":"0001-01-01T00:00:00Z","name_a2s":"Uncletopia | Sydney | 3 | All Maps","protocol":17,"map":"pl_swiftwater_final1","folder":"tf","game":"Team Fortress","app_id":440,"player_count":0,"max_players":24,"Bots":0,"server_type":"Dedicated","server_os":"Linux","password":true,"vac":true,"version":"7757534","steam_id":85568392925194467,"keywords":["nocrits","nodmgspread","payload","uncletopia"],"game_id":440,"stv_port":27036,"stv_name":"Uncletopia | Sydney | 3 | All Maps | STV","players":null},{"server_id":396,"name":"Uncletopia | Sydney | 4 | All Maps","name_short":"syd-4","host":"syd-1.au.uncletopia.com","port":27045,"enabled":true,"region":"au","cc":"au","latitude":-33.865143,"longitude":151.2099,"reserved":0,"last_update":"0001-01-01T00:00:00Z","name_a2s":"Uncletopia | Sydney | 4 | All Maps","protocol":17,"map":"koth_highpass","folder":"tf","game":"Team Fortress","app_id":440,"player_count":0,"max_players":24,"Bots":0,"server_type":"Dedicated","server_os":"Linux","password":true,"vac":true,"version":"7757534","steam_id":85568392925397958,"keywords":["cp","nocrits","nodmgspread","uncletopia"],"game_id":440,"stv_port":27046,"stv_name":"Uncletopia | Sydney | 4 | All Maps | STV","players":null},{"server_id":58,"name":"Uncletopia | Sydney | 5 | Stopwatch Beta","name_short":"syd-5","host":"syd-1.au.uncletopia.com","port":27055,"enabled":true,"region":"au","cc":"au","latitude":-33.865143,"longitude":151.2099,"reserved":0,"last_update":"0001-01-01T00:00:00Z","name_a2s":"Uncletopia | Sydney | 5 | Stopwatch Beta","protocol":17,"map":"koth_cascade","folder":"tf","game":"Team Fortress","app_id":440,"player_count":0,"max_players":24,"Bots":0,"server_type":"Dedicated","server_os":"Linux","password":true,"vac":true,"version":"7757534","steam_id":85568392925397959,"keywords":["cp","nocrits","nodmgspread","uncletopia"],"game_id":440,"stv_port":27056,"stv_name":"Uncletopia | Sydney | 5 | Stopwatch Beta | STV","players":null},{"server_id":59,"name":"Uncletopia | Sydney | 6 | Community","name_short":"syd-6","host":"syd-1.au.uncletopia.com","port":27065,"enabled":true,"region":"au","cc":"au","latitude":-33.865143,"longitude":151.2099,"reserved":0,"last_update":"0001-01-01T00:00:00Z","name_a2s":"Uncletopia | Sydney | 6 | Community","protocol":17,"map":"cp_snakewater_final1","folder":"tf","game":"Team Fortress","app_id":440,"player_count":0,"max_players":24,"Bots":0,"server_type":"Dedicated","server_os":"Linux","password":true,"vac":true,"version":"7757534","steam_id":85568392925397960,"keywords":["cp","nocrits","nodmgspread","uncletopia"],"game_id":440,"stv_port":27066,"stv_name":"Uncletopia | Sydney | 6 | Community | STV","players":null},{"server_id":49,"name":"Uncletopia | Warsaw | 1 | All Maps","name_short":"waw-1","host":"waw-1.pl.uncletopia.com","port":27015,"enabled":true,"region":"eu","cc":"pl","latitude":52.2297,"longitude":21.017532,"reserved":0,"last_update":"0001-01-01T00:00:00Z","name_a2s":"","protocol":0,"map":"","folder":"","game":"","app_id":0,"player_count":0,"max_players":0,"Bots":0,"server_type":"","server_os":"","password":false,"vac":false,"version":"","steam_id":0,"keywords":null,"game_id":0,"stv_port":0,"stv_name":"","players":null},{"server_id":50,"name":"Uncletopia | Warsaw | 2 | All Maps","name_short":"waw-2","host":"waw-1.pl.uncletopia.com","port":27025,"enabled":true,"region":"eu","cc":"pl","latitude":52.2297,"longitude":21.017532,"reserved":0,"last_update":"0001-01-01T00:00:00Z","name_a2s":"Uncletopia | Warsaw | 2 | All Maps","protocol":17,"map":"koth_viaduct","folder":"tf","game":"Team Fortress","app_id":440,"player_count":0,"max_players":24,"Bots":0,"server_type":"Dedicated","server_os":"Linux","password":true,"vac":true,"version":"7757534","steam_id":85568392925397851,"keywords":["cp","nocrits","nodmgspread","uncletopia"],"game_id":440,"stv_port":27026,"stv_name":"Uncletopia | Warsaw | 2 | All Maps | STV","players":null},{"server_id":51,"name":"Uncletopia | Warsaw | 3 | All Maps","name_short":"waw-3","host":"waw-1.pl.uncletopia.com","port":27035,"enabled":true,"region":"eu","cc":"pl","latitude":52.2297,"longitude":21.017532,"reserved":0,"last_update":"0001-01-01T00:00:00Z","name_a2s":"Uncletopia | Warsaw | 3 | All Maps","protocol":17,"map":"pl_snowycoast","folder":"tf","game":"Team Fortress","app_id":440,"player_count":0,"max_players":24,"Bots":0,"server_type":"Dedicated","server_os":"Linux","password":true,"vac":true,"version":"7757534","steam_id":85568392925397852,"keywords":["nocrits","nodmgspread","payload","uncletopia"],"game_id":440,"stv_port":27036,"stv_name":"Uncletopia | Warsaw | 3 | All Maps | STV","players":null},{"server_id":52,"name":"Uncletopia | Warsaw | 4 | All Maps","name_short":"waw-4","host":"waw-1.pl.uncletopia.com","port":27045,"enabled":true,"region":"eu","cc":"pl","latitude":52.2297,"longitude":21.017532,"reserved":0,"last_update":"0001-01-01T00:00:00Z","name_a2s":"Uncletopia | Warsaw | 4 | All Maps","protocol":17,"map":"koth_lakeside_final","folder":"tf","game":"Team Fortress","app_id":440,"player_count":0,"max_players":24,"Bots":0,"server_type":"Dedicated","server_os":"Linux","password":true,"vac":true,"version":"7757534","steam_id":85568392925397853,"keywords":["cp","nocrits","nodmgspread","uncletopia"],"game_id":440,"stv_port":27046,"stv_name":"Uncletopia | Warsaw | 4 | All Maps | STV","players":null},{"server_id":53,"name":"Uncletopia | Warsaw | 5 | Stopwatch Beta","name_short":"waw-5","host":"waw-1.pl.uncletopia.com","port":27055,"enabled":true,"region":"eu","cc":"pl","latitude":52.2297,"longitude":21.017532,"reserved":0,"last_update":"0001-01-01T00:00:00Z","name_a2s":"Uncletopia | Warsaw | 5 | Stopwatch Beta","protocol":17,"map":"pl_borneo","folder":"tf","game":"Team Fortress","app_id":440,"player_count":0,"max_players":24,"Bots":0,"server_type":"Dedicated","server_os":"Linux","password":true,"vac":true,"version":"7757534","steam_id":85568392925397854,"keywords":["nocrits","nodmgspread","payload","uncletopia"],"game_id":440,"stv_port":27056,"stv_name":"Uncletopia | Warsaw | 5 | Stopwatch Beta | STV","players":null},{"server_id":54,"name":"Uncletopia | Warsaw | 6 | Community","name_short":"waw-6","host":"waw-1.pl.uncletopia.com","port":27065,"enabled":true,"region":"eu","cc":"pl","latitude":52.2297,"longitude":21.017532,"reserved":0,"last_update":"0001-01-01T00:00:00Z","name_a2s":"Uncletopia | Warsaw | 6 | Community","protocol":17,"map":"koth_lakeside_final","folder":"tf","game":"Team Fortress","app_id":440,"player_count":0,"max_players":24,"Bots":0,"server_type":"Dedicated","server_os":"Linux","password":true,"vac":true,"version":"7757534","steam_id":85568392925397856,"keywords":["cp","nocrits","nodmgspread","uncletopia"],"game_id":440,"stv_port":27066,"stv_name":"Uncletopia | Warsaw | 6 | Community | STV","players":null}]}