{"status":true,"message":"","result":[{"server_id":9,"name":"Uncletopia | Atlanta | 1 | All Maps","name_short":"atl-1","host":"atl-1.us.uncletopia.com","port":27015,"enabled":true,"region":"us-east","cc":"us","latitude":33.753746,"longitude":-84.38633,"reserved":0,"last_update":"0001-01-01T00:00:00Z","name_a2s":"Uncletopia | Atlanta | 1 | All Maps","protocol":17,"map":"pl_upward","folder":"tf","game":"Team Fortress","app_id":440,"player_count":24,"max_players":24,"Bots":0,"server_type":"Dedicated","server_os":"Linux","password":true,"vac":true,"version":"7961495","steam_id":85568392924469982,"keywords":["nocrits","nodmgspread","payload","uncletopia"],"game_id":440,"stv_port":27016,"stv_name":"Uncletopia | Atlanta | 1 | All Maps | STV","players":null},{"server_id":104,"name":"Uncletopia | Atlanta | 2 | All Maps","name_short":"atl-2","host":"atl-1.us.uncletopia.com","port":27025,"enabled":true,"region":"us-east","cc":"us","latitude":33.753746,"longitude":-84.38633,"reserved":0,"last_update":"0001-01-01T00:00:00Z","name_a2s":"Uncletopia | Atlanta | 2 | All Maps","protocol":17,"map":"pl_frontier_final","folder":"tf","game":"Team Fortress","app_id":440,"player_count":24,"max_players":24,"Bots":0,"server_type":"Dedicated","server_os":"Linux","password":true,"vac":true,"version":"7961495","steam_id":85568392924469983,"keywords":["nocrits","nodmgspread","payload","uncletopia"],"game_id":440,"stv_port":27026,"stv_name":"Uncletopia | Atlanta | 2 | All Maps | STV","players":null},{"server_id":400,"name":"Uncletopia | Atlanta | 3 | All Maps","name_short":"atl-3","host":"atl-1.us.uncletopia.com","port":27035,"enabled":true,"region":"us-east","cc":"us","latitude":33.753746,"longitude":-84.38633,"reserved":0,"last_update":"0001-01-01T00:00:00Z","name_a2s":"Uncletopia | Atlanta | 3 | All Maps","protocol":17,"map":"koth_lakeside_final","folder":"tf","game":"Team Fortress","app_id":440,"player_count":1,"max_players":24,"Bots":0,"server_type":"Dedicated","server_os":"Linux","password":true,"vac":true,"version":"7961495","steam_id":85568392924515187,"keywords":["cp","nocrits","nodmgspread","uncletopia"],"game_id":440,"stv_port":27036,"stv_name":"Uncletopia | Atlanta | 3 | All Maps | STV","players":null},{"server_id":401,"name":"Uncletopia | Atlanta | 4 | Community","name_short":"atl-4","host":"atl-1.us.uncletopia.com","port":27045,"enabled":true,"region":"us-east","cc":"us","latitude":33.753746,"longitude":-84.38633,"reserved":0,"last_update":"0001-01-01T00:00:00Z","name_a2s":"Uncletopia | Atlanta | 4 | Community","protocol":17,"map":"pl_highwood_b13","folder":"tf","game":"Team Fortress","app_id":440,"player_count":0,"max_players":24,"Bots":0,"server_type":"Dedicated","server_os":"Linux","password":true,"vac":true,"version":"7961495","steam_id":85568392924515188,"keywords":["nocrits","nodmgspread","payload","uncletopia"],"game_id":440,"stv_port":27046,"stv_name":"Uncletopia | Atlanta | 4 | Community | STV","players":null},{"server_id":2,"name":"Uncletopia | Chicago | 1 | All Maps","name_short":"chi-1","host":"chi-1.us.uncletopia.com","port":27015,"enabled":true,"region":"us-central","cc":"us","latitude":41.881832,"longitude":-87.62318,"reserved":0,"last_update":"0001-01-01T00:00:00Z","name_a2s":"Uncletopia | Chicago | 1 | All Maps","protocol":17,"map":"pl_pier","folder":"tf","game":"Team Fortress","app_id":440,"player_count":24,"max_players":24,"Bots":0,"server_type":"Dedicated","server_os":"Linux","password":true,"vac":true,"version":"7961495","steam_id":85568392924469984,"keywords":["nocrits","nodmgspread","payload","uncletopia"],"game_id":440,"stv_port":27016,"stv_name":"Uncletopia | Chicago | 1 | All Maps | STV","players":[{"user_id":212,"name":"duster","steam_id":76561198148357768,"connected_time":2920000000000,"state":"active","ping":61},{"user_id":241,"name":"Eelektross the Boss","steam_id":76561198055964807,"connected_time":1067000000000,"state":"active","ping":64},{"user_id":237,"name":"local man","steam_id":76561198074946673,"connected_time":1382000000000,"state":"active","ping":59},{"user_id":222,"name":"Mank","steam_id":76561198189421005,"connected_time":2525000000000,"state":"active","ping":45},{"user_id":244,"name":"Fuegan Ra","steam_id":76561198287923849,"connected_time":455000000000,"state":"active","ping":48},{"user_id":243,"name":"Rein","steam_id":76561198300340427,"connected_time":518000000000,"state":"active","ping":62},{"user_id":211,"name":"phantom","steam_id":76561197963860777,"connected_time":2941000000000,"state":"active","ping":68},{"user_id":223,"name":"Spy Gaming","steam_id":76561198453295613,"connected_time":2203000000000,"state":"active","ping":114},{"user_id":210,"name":"ZombieMaster428","steam_id":76561198085251146,"connected_time":3242000000000,"state":"active","ping":75},{"user_id":226,"name":"ReDiculous22","steam_id":76561198038391383,"connected_time":2104000000000,"state":"active","ping":64},{"user_id":170,"name":"Gram Tokers Count Doinkula","steam_id":76561198112811565,"connected_time":7055000000000,"state":"active","ping":74},{"user_id":216,"name":"muck","steam_id":76561198120437909,"connected_time":2873000000000,"state":"active","ping":62},{"user_id":180,"name":"Chub","steam_id":76561198380637611,"connected_time":6672000000000,"state":"active","ping":99},{"user_id":206,"name":"Thatoneguybunchanumbers","steam_id":76561198028039160,"connected_time":3808000000000,"state":"active","ping":85},{"user_id":178,"name":"SharpStabbyThing","steam_id":76561199059465912,"connected_time":6839000000000,"state":"active","ping":96},{"user_id":230,"name":"Maid 'n' China","steam_id":76561198423392976,"connected_time":1959000000000,"state":"active","ping":101},{"user_id":227,"name":"paypur -rng","steam_id":76561198214370515,"connected_time":2102000000000,"state":"active","ping":62},{"user_id":245,"name":"Your Local Queer Librarian","steam_id":76561198013077080,"connected_time":381000000000,"state":"active","ping":60},{"user_id":194,"name":"Raccoon Wizard","steam_id":76561198072562591,"connected_time":4846000000000,"state":"active","ping":90},{"user_id":242,"name":"Rafl","steam_id":76561198055222756,"connected_time":927000000000,"state":"active","ping":69},{"user_id":239,"name":"Cliffigriff","steam_id":76561198121924499,"connected_time":1321000000000,"state":"active","ping":84},{"user_id":234,"name":"Kuber_Streamz","steam_id":76561198046008453,"connected_time":1615000000000,"state":"active","ping":54},{"user_id":220,"name":"Lythyum","steam_id":76561198142828523,"connected_time":2805000000000,"state":"active","ping":58},{"user_id":195,"name":"Mario","steam_id":76561198321794277,"connected_time":4702000000000,"state":"active","ping":72}]},{"server_id":106,"name":"Uncletopia | Chicago | 2 | All Maps","name_short":"chi-2","host":"chi-1.us.uncletopia.com","port":27025,"enabled":true,"region":"us-central","cc":"us","latitude":41.881832,"longitude":-87.62318,"reserved":0,"last_update":"0001-01-01T00:00:00Z","name_a2s":"Uncletopia | Chicago | 2 | All Maps","protocol":17,"map":"pl_upward","folder":"tf","game":"Team Fortress","app_id":440,"player_count":24,"max_players":24,"Bots":0,"server_type":"Dedicated","server_os":"Linux","password":true,"vac":true,"version":"7961495","steam_id":85568392924469985,"keywords":["nocrits","nodmgspread","payload","uncletopia"],"game_id":440,"stv_port":27026,"stv_name":"Uncletopia | Chicago | 2 | All Maps | STV","players":[{"user_id":92,"name":"i suffer from ligma","steam_id":76561199158496518,"connected_time":13273000000000,"state":"active","ping":142},{"user_id":240,"name":"Rusted Cake","steam_id":76561198209755931,"connected_time":821000000000,"state":"active","ping":101},{"user_id":252,"name":"El Gato Paranoico","steam_id":76561198116567116,"connected_time":416000000000,"state":"active","ping":92},{"user_id":254,"name":"cheeseball","steam_id":76561198107078963,"connected_time":162000000000,"state":"active","ping":105},{"user_id":110,"name":"The strongest ⑨ ball","steam_id":76561198126760743,"connected_time":9546000000000,"state":"active","ping":75},{"user_id":224,"name":"HK™","steam_id":76561198196793415,"connected_time":2034000000000,"state":"active","ping":103},{"user_id":107,"name":"Uwu Micster","steam_id":76561198843890616,"connected_time":10178000000000,"state":"active","ping":87},{"user_id":255,"name":"cowboy","steam_id":76561199079124758,"connected_time":101000000000,"state":"active","ping":62},{"user_id":171,"name":"GruntRule","steam_id":76561198039987143,"connected_time":6165000000000,"state":"active","ping":83},{"user_id":175,"name":"Elon Tusk","steam_id":76561198977359400,"connected_time":5355000000000,"state":"active","ping":77},{"user_id":249,"name":"urine trouble","steam_id":76561199013266640,"connected_time":486000000000,"state":"active","ping":41},{"user_id":247,"name":"psyk0smurf","steam_id":76561199077856919,"connected_time":670000000000,"state":"active","ping":65},{"user_id":234,"name":"kitchen goblin","steam_id":76561198271710504,"connected_time":1094000000000,"state":"active","ping":54},{"user_id":228,"name":"Smooth, Refreshing Bleach™","steam_id":76561197981060504,"connected_time":1628000000000,"state":"active","ping":48},{"user_id":250,"name":"Plain Toast","steam_id":76561198451580251,"connected_time":460000000000,"state":"active","ping":75},{"user_id":226,"name":"Plasmie{ylo}","steam_id":76561198083513154,"connected_time":1759000000000,"state":"active","ping":72},{"user_id":245,"name":"如願","steam_id":76561198038486613,"connected_time":775000000000,"state":"active","ping":61},{"user_id":222,"name":"Shaunt","steam_id":76561198171551057,"connected_time":2056000000000,"state":"active","ping":53},{"user_id":77,"name":"A Puppy","steam_id":76561198828184456,"connected_time":13834000000000,"state":"active","ping":57},{"user_id":251,"name":"Allotrope","steam_id":76561197998450103,"connected_time":453000000000,"state":"active","ping":47},{"user_id":244,"name":"\u003c/3","steam_id":76561198054390505,"connected_time":798000000000,"state":"active","ping":53},{"user_id":207,"name":"indi","steam_id":76561198045917538,"connected_time":3520000000000,"state":"active","ping":48},{"user_id":185,"name":"Abyssmal Shock","steam_id":76561198141099093,"connected_time":4923000000000,"state":"active","ping":98},{"user_id":242,"name":"Sacknana","steam_id":76561199001811226,"connected_time":809000000000,"state":"active","ping":70}]},{"server_id":402,"name":"Uncletopia | Chicago | 3 | All Maps","name_short":"chi-3","host":"chi-1.us.uncletopia.com","port":27035,"enabled":true,"region":"us-central","cc":"us","latitude":41.881832,"longitude":-87.62318,"reserved":0,"last_update":"0001-01-01T00:00:00Z","name_a2s":"Uncletopia | Chicago | 3 | All Maps","protocol":17,"map":"cp_sunshine","folder":"tf","game":"Team Fortress","app_id":440,"player_count":24,"max_players":24,"Bots":0,"server_type":"Dedicated","server_os":"Linux","password":true,"vac":true,"version":"7961495","steam_id":85568392924515191,"keywords":["cp","nocrits","nodmgspread","uncletopia"],"game_id":440,"stv_port":27036,"stv_name":"Uncletopia | Chicago | 3 | All Maps | STV","players":[{"user_id":206,"name":"NvAka","steam_id":76561199044781490,"connected_time":5071000000000,"state":"active","ping":68},{"user_id":228,"name":"Wade Wilson","steam_id":76561197992006342,"connected_time":1988000000000,"state":"active","ping":110},{"user_id":226,"name":"TheSnipersHat","steam_id":76561198057684066,"connected_time":2191000000000,"state":"active","ping":75},{"user_id":250,"name":"Swifgz","steam_id":76561198162875756,"connected_time":695000000000,"state":"active","ping":61},{"user_id":229,"name":"notuncooldude","steam_id":76561199129819858,"connected_time":1987000000000,"state":"active","ping":121},{"user_id":230,"name":"jfrizzle420","steam_id":76561198105544691,"connected_time":1968000000000,"state":"active","ping":117},{"user_id":251,"name":"mac_cheese","steam_id":76561198071334162,"connected_time":635000000000,"state":"active","ping":90},{"user_id":231,"name":"Sean","steam_id":76561198129453300,"connected_time":1908000000000,"state":"active","ping":55},{"user_id":256,"name":"b","steam_id":76561198156336213,"connected_time":420000000000,"state":"active","ping":75},{"user_id":252,"name":"St. Michael","steam_id":76561198037611052,"connected_time":622000000000,"state":"active","ping":63},{"user_id":189,"name":"acxeu","steam_id":76561198394435000,"connected_time":6241000000000,"state":"active","ping":67},{"user_id":247,"name":"GrimFate","steam_id":76561199011948330,"connected_time":824000000000,"state":"active","ping":92},{"user_id":235,"name":"dicksnip","steam_id":76561198356515396,"connected_time":1892000000000,"state":"active","ping":81},{"user_id":253,"name":"GIGAHAXX","steam_id":76561197993714726,"connected_time":596000000000,"state":"active","ping":59},{"user_id":254,"name":"Rachi","steam_id":76561198083826053,"connected_time":575000000000,"state":"active","ping":59},{"user_id":221,"name":"C4K3","steam_id":76561197996963285,"connected_time":3202000000000,"state":"active","ping":72},{"user_id":248,"name":"Bisque","steam_id":76561198327661850,"connected_time":755000000000,"state":"active","ping":90},{"user_id":237,"name":"Weirdo","steam_id":76561198133961446,"connected_time":1877000000000,"state":"active","ping":59},{"user_id":103,"name":"DinkleBerg","steam_id":76561198891626233,"connected_time":12178000000000,"state":"active","ping":68},{"user_id":238,"name":"JavaScript Frappuccino","steam_id":76561198111620153,"connected_time":1877000000000,"state":"active","ping":92},{"user_id":255,"name":"Blackshadow1996","steam_id":76561198035687291,"connected_time":493000000000,"state":"active","ping":79},{"user_id":144,"name":"pinglefingle","steam_id":76561198216580197,"connected_time":9813000000000,"state":"active","ping":86},{"user_id":239,"name":"squibonacci","steam_id":76561198305870184,"connected_time":1873000000000,"state":"active","ping":109},{"user_id":199,"name":"TheBlue","steam_id":76561198363412851,"connected_time":5925000000000,"state":"active","ping":51}]},{"server_id":403,"name":"Uncletopia | Chicago | 4 | All Maps","name_short":"chi-4","host":"chi-1.us.uncletopia.com","port":27045,"enabled":true,"region":"us-central","cc":"us","latitude":41.881832,"longitude":-87.62318,"reserved":0,"last_update":"0001-01-01T00:00:00Z","name_a2s":"Uncletopia | Chicago | 4 | All Maps","protocol":17,"map":"ctf_doublecross","folder":"tf","game":"Team Fortress","app_id":440,"player_count":24,"max_players":24,"Bots":0,"server_type":"Dedicated","server_os":"Linux","password":true,"vac":true,"version":"7961495","steam_id":85568392924515193,"keywords":["ctf","nocrits","nodmgspread","uncletopia"],"game_id":440,"stv_port":27046,"stv_name":"Uncletopia | Chicago | 4 | All Maps | STV","players":[{"user_id":253,"name":"Goog","steam_id":76561198160550637,"connected_time":2249000000000,"state":"active","ping":48},{"user_id":197,"name":"Mufalito","steam_id":76561198951889482,"connected_time":5063000000000,"state":"active","ping":131},{"user_id":244,"name":"TCH Vape Systems","steam_id":76561198045382189,"connected_time":2774000000000,"state":"active","ping":60},{"user_id":268,"name":"The Great Karizma!","steam_id":76561198346191193,"connected_time":653000000000,"state":"active","ping":100},{"user_id":221,"name":"Dinner","steam_id":76561198067294811,"connected_time":3730000000000,"state":"active","ping":68},{"user_id":269,"name":"YOUR WIFE'S BOYFRIEND","steam_id":76561197996696659,"connected_time":617000000000,"state":"active","ping":84},{"user_id":258,"name":"flippercurve","steam_id":76561199238295034,"connected_time":1938000000000,"state":"active","ping":85},{"user_id":270,"name":"breathing meat donut","steam_id":76561198123566649,"connected_time":597000000000,"state":"active","ping":146},{"user_id":271,"name":"Chloro!","steam_id":76561199393364599,"connected_time":536000000000,"state":"active","ping":88},{"user_id":190,"name":"zpalmtree","steam_id":76561198134307620,"connected_time":5703000000000,"state":"active","ping":72},{"user_id":240,"name":"OrangeSodaMachine","steam_id":76561198079230156,"connected_time":2957000000000,"state":"active","ping":81},{"user_id":252,"name":"7thelden","steam_id":76561198297428761,"connected_time":2570000000000,"state":"active","ping":62},{"user_id":273,"name":"BiggerBoss","steam_id":76561199218135700,"connected_time":373000000000,"state":"active","ping":80},{"user_id":232,"name":"YeshieSirYesSir","steam_id":76561198080214214,"connected_time":3589000000000,"state":"active","ping":40},{"user_id":260,"name":"luigi","steam_id":76561198049476046,"connected_time":1589000000000,"state":"active","ping":66},{"user_id":274,"name":"gimme ur cases","steam_id":76561198054024359,"connected_time":265000000000,"state":"active","ping":46},{"user_id":275,"name":"Joker","steam_id":76561198316220086,"connected_time":226000000000,"state":"active","ping":90},{"user_id":267,"name":"toxx","steam_id":76561198821676830,"connected_time":988000000000,"state":"active","ping":74},{"user_id":276,"name":"monkey squirts","steam_id":76561197983101644,"connected_time":136000000000,"state":"active","ping":91},{"user_id":233,"name":"Fantastic","steam_id":76561198079088978,"connected_time":3566000000000,"state":"active","ping":45},{"user_id":235,"name":"dansal","steam_id":76561197997042510,"connected_time":3460000000000,"state":"active","ping":87},{"user_id":277,"name":"Codo Sapien","steam_id":76561198014206810,"connected_time":125000000000,"state":"active","ping":42},{"user_id":278,"name":"Echolu","steam_id":76561198158613750,"connected_time":112000000000,"state":"active","ping":112},{"user_id":279,"name":"Mer","steam_id":76561198210195105,"connected_time":92000000000,"state":"active","ping":68}]},{"server_id":36,"name":"Uncletopia | Chicago | 5 | All Maps","name_short":"chi-5","host":"chi-2.us.uncletopia.com","port":27015,"enabled":true,"region":"us-central","cc":"us","latitude":41.881832,"longitude":-87.62318,"reserved":0,"last_update":"0001-01-01T00:00:00Z","name_a2s":"Uncletopia | Chicago | 5 | All Maps","protocol":17,"map":"cp_dustbowl","folder":"tf","game":"Team Fortress","app_id":440,"player_count":24,"max_players":24,"Bots":0,"server_type":"Dedicated","server_os":"Linux","password":true,"vac":true,"version":"7961495","steam_id":85568392924866362,"keywords":["cp","nocrits","nodmgspread","uncletopia"],"game_id":440,"stv_port":27016,"stv_name":"Uncletopia | Chicago | 5 | All Maps | STV","players":[{"user_id":232,"name":"vifi269","steam_id":76561198283749166,"connected_time":2453000000000,"state":"active","ping":70},{"user_id":244,"name":"The Doc K","steam_id":76561198035695029,"connected_time":1772000000000,"state":"active","ping":89},{"user_id":256,"name":"MR SKELTAL","steam_id":76561198031089598,"connected_time":848000000000,"state":"active","ping":69},{"user_id":249,"name":"SiltyStar85","steam_id":76561198309175923,"connected_time":1423000000000,"state":"active","ping":92},{"user_id":260,"name":"Amy Sapphire","steam_id":76561198122860452,"connected_time":456000000000,"state":"active","ping":90},{"user_id":262,"name":"Funne Monke","steam_id":76561198147868601,"connected_time":241000000000,"state":"active","ping":71},{"user_id":207,"name":"Mr. DeLarge","steam_id":76561198336820066,"connected_time":4648000000000,"state":"active","ping":113},{"user_id":258,"name":"thorn648","steam_id":76561198012565777,"connected_time":817000000000,"state":"active","ping":71},{"user_id":176,"name":"❤Kogu❤","steam_id":76561198062396512,"connected_time":6625000000000,"state":"active","ping":55},{"user_id":238,"name":"Heavy Lobster","steam_id":76561199437953754,"connected_time":2325000000000,"state":"active","ping":86},{"user_id":242,"name":"Soupcan","steam_id":76561198012807915,"connected_time":1987000000000,"state":"active","ping":77},{"user_id":250,"name":"RusticCarp42989","steam_id":76561198361151865,"connected_time":1418000000000,"state":"active","ping":121},{"user_id":263,"name":"Tripll-L","steam_id":76561197998077437,"connected_time":143000000000,"state":"active","ping":75},{"user_id":247,"name":"Agent Tibbs","steam_id":76561198139418570,"connected_time":1669000000000,"state":"active","ping":69},{"user_id":221,"name":"OHGODBEES!","steam_id":76561198000653374,"connected_time":4072000000000,"state":"active","ping":129},{"user_id":106,"name":"[MRY] Sk-iLite","steam_id":76561198041797350,"connected_time":11818000000000,"state":"active","ping":79},{"user_id":167,"name":"I GOT BLISTERS ON MY FINGERS","steam_id":76561198179888142,"connected_time":7239000000000,"state":"active","ping":59},{"user_id":236,"name":"Sou1Eater7","steam_id":76561198011330131,"connected_time":2373000000000,"state":"active","ping":83},{"user_id":252,"name":"Amoxicilina","steam_id":76561198168486429,"connected_time":1412000000000,"state":"active","ping":116},{"user_id":253,"name":"CheeseCake488","steam_id":76561199407617942,"connected_time":1404000000000,"state":"active","ping":137},{"user_id":239,"name":"ᶜᵃᶜᵃˢᵖʸ","steam_id":76561198140946476,"connected_time":2261000000000,"state":"active","ping":90},{"user_id":243,"name":"salty like Lot's wife","steam_id":76561197998619845,"connected_time":1985000000000,"state":"active","ping":72},{"user_id":261,"name":"4 life","steam_id":76561198175961598,"connected_time":297000000000,"state":"active","ping":117},{"user_id":264,"name":"The Winger","steam_id":76561199130040210,"connected_time":100000000000,"state":"active","ping":106}]},{"server_id":37,"name":"Uncletopia | Chicago | 6 | All Maps","name_short":"chi-6","host":"chi-2.us.uncletopia.com","port":27025,"enabled":true,"region":"us-central","cc":"us","latitude":41.881832,"longitude":-87.62318,"reserved":0,"last_update":"0001-01-01T00:00:00Z","name_a2s":"Uncletopia | Chicago | 6 | All Maps","protocol":17,"map":"cp_dustbowl","folder":"tf","game":"Team Fortress","app_id":440,"player_count":0,"max_players":24,"Bots":0,"server_type":"Dedicated","server_os":"Linux","password":true,"vac":true,"version":"7961495","steam_id":85568392924866363,"keywords":["cp","nocrits","nodmgspread","uncletopia"],"game_id":440,"stv_port":27026,"stv_name":"Uncletopia | Chicago | 6 | All Maps | STV","players":null},{"server_id":38,"name":"Uncletopia | Chicago | 7 | Stopwatch Beta","name_short":"chi-7","host":"chi-2.us.uncletopia.com","port":27035,"enabled":true,"region":"us-central","cc":"us","latitude":41.881832,"longitude":-87.62318,"reserved":0,"last_update":"0001-01-01T00:00:00Z","name_a2s":"Uncletopia | Chicago | 7 | Stopwatch Beta","protocol":17,"map":"pl_borneo","folder":"tf","game":"Team Fortress","app_id":440,"player_count":2,"max_players":24,"Bots":0,"server_type":"Dedicated","server_os":"Linux","password":true,"vac":true,"version":"7961495","steam_id":85568392924866364,"keywords":["nocrits","nodmgspread","payload","uncletopia"],"game_id":440,"stv_port":27036,"stv_name":"Uncletopia | Chicago | 7 | Stopwatch Beta | STV","players":[{"user_id":13,"name":"sicksick50","steam_id":76561198078415931,"connected_time":1583000000000,"state":"active","ping":55},{"user_id":14,"name":"BlackDad","steam_id":76561198374866979,"connected_time":1560000000000,"state":"active","ping":60}]},{"server_id":39,"name":"Uncletopia | Chicago | 8 | Community","name_short":"chi-8","host":"chi-2.us.uncletopia.com","port":27045,"enabled":true,"region":"us-central","cc":"us","latitude":41.881832,"longitude":-87.62318,"reserved":0,"last_update":"0001-01-01T00:00:00Z","name_a2s":"Uncletopia | Chicago | 8 | Community","protocol":17,"map":"workshop/pl_eruption_b9a.ugc2807898013","folder":"tf","game":"Team Fortress","app_id":440,"player_count":4,"max_players":24,"Bots":0,"server_type":"Dedicated","server_os":"Linux","password":true,"vac":true,"version":"7961495","steam_id":85568392924866365,"keywords":["nocrits","nodmgspread","payload","uncletopia"],"game_id":440,"stv_port":27046,"stv_name":"Uncletopia | Chicago | 8 | Community | STV","players":[{"user_id":197,"name":"RayMext","steam_id":76561198158152966,"connected_time":238000000000,"state":"active","ping":182},{"user_id":157,"name":"thai","steam_id":76561198052462287,"connected_time":3905000000000,"state":"active","ping":75},{"user_id":158,"name":"Viennetta","steam_id":76561198044088335,"connected_time":3895000000000,"state":"active","ping":60},{"user_id":191,"name":"Tommy da bird","steam_id":76561198136340711,"connected_time":1177000000000,"state":"active","ping":113}]},{"server_id":8,"name":"Uncletopia | Dallas | 1 | All Maps","name_short":"dal-1","host":"dal-1.us.uncletopia.com","port":27015,"enabled":true,"region":"us-central","cc":"us","latitude":32.779167,"longitude":-96.80889,"reserved":0,"last_update":"0001-01-01T00:00:00Z","name_a2s":"Uncletopia | Dallas | 1 | All Maps","protocol":17,"map":"koth_cascade","folder":"tf","game":"Team Fortress","app_id":440,"player_count":0,"max_players":24,"Bots":0,"server_type":"Dedicated","server_os":"Linux","password":true,"vac":true,"version":"7961495","steam_id":85568392924469986,"keywords":["cp","nocrits","nodmgspread","uncletopia"],"game_id":440,"stv_port":27016,"stv_name":"Uncletopia | Dallas | 1 | All Maps | STV","players":null},{"server_id":108,"name":"Uncletopia | Dallas | 2 | All Maps","name_short":"dal-2","host":"dal-1.us.uncletopia.com","port":27025,"enabled":true,"region":"us-central","cc":"us","latitude":32.779167,"longitude":-96.80889,"reserved":0,"last_update":"0001-01-01T00:00:00Z","name_a2s":"Uncletopia | Dallas | 2 | All Maps","protocol":17,"map":"koth_nucleus","folder":"tf","game":"Team Fortress","app_id":440,"player_count":6,"max_players":24,"Bots":0,"server_type":"Dedicated","server_os":"Linux","password":true,"vac":true,"version":"7961495","steam_id":85568392924469988,"keywords":["cp","nocrits","nodmgspread","uncletopia"],"game_id":440,"stv_port":27026,"stv_name":"Uncletopia | Dallas | 2 | All Maps | STV","players":[{"user_id":212,"name":"Deadline","steam_id":76561199079078845,"connected_time":402000000000,"state":"active","ping":85},{"user_id":213,"name":"Buildy Joe","steam_id":76561198027132093,"connected_time":342000000000,"state":"active","ping":76},{"user_id":215,"name":"Rowdyshark101","steam_id":76561199019123695,"connected_time":197000000000,"state":"active","ping":60},{"user_id":194,"name":"Dwake","steam_id":76561198121943676,"connected_time":3572000000000,"state":"active","ping":85},{"user_id":137,"name":"Ja","steam_id":76561198396340174,"connected_time":8993000000000,"state":"active","ping":82},{"user_id":190,"name":"Moonflower ✦","steam_id":76561198191782483,"connected_time":4001000000000,"state":"active","ping":37}]},{"server_id":404,"name":"Uncletopia | Dallas | 3 | All Maps","name_short":"dal-3","host":"dal-1.us.uncletopia.com","port":27035,"enabled":true,"region":"us-central","cc":"us","latitude":32.779167,"longitude":-96.80889,"reserved":0,"last_update":"0001-01-01T00:00:00Z","name_a2s":"Uncletopia | Dallas | 3 | All Maps","protocol":17,"map":"pl_pier","folder":"tf","game":"Team Fortress","app_id":440,"player_count":0,"max_players":24,"Bots":0,"server_type":"Dedicated","server_os":"Linux","password":true,"vac":true,"version":"7961495","steam_id":85568392924515219,"keywords":["nocrits","nodmgspread","payload","uncletopia"],"game_id":440,"stv_port":27036,"stv_name":"Uncletopia | Dallas | 3 | All Maps | STV","players":null},{"server_id":405,"name":"Uncletopia | Dallas | 4 | Community","name_short":"dal-4","host":"dal-1.us.uncletopia.com","port":27045,"enabled":true,"region":"us-central","cc":"us","latitude":32.779167,"longitude":-96.80889,"reserved":0,"last_update":"0001-01-01T00:00:00Z","name_a2s":"Uncletopia | Dallas | 4 | Community","protocol":17,"map":"koth_lakeside_final","folder":"tf","game":"Team Fortress","app_id":440,"player_count":0,"max_players":24,"Bots":0,"server_type":"Dedicated","server_os":"Linux","password":true,"vac":true,"version":"7961495","steam_id":85568392924515220,"keywords":["cp","nocrits","nodmgspread","uncletopia"],"game_id":440,"stv_port":27046,"stv_name":"Uncletopia | Dallas | 4 | Community | STV","players":null},{"server_id":5,"name":"Uncletopia | Frankfurt | 1 | All Maps","name_short":"frk-1","host":"frk-1.de.uncletopia.com","port":27015,"enabled":true,"region":"eu","cc":"de","latitude":50.110924,"longitude":8.682127,"reserved":0,"last_update":"0001-01-01T00:00:00Z","name_a2s":"Uncletopia | Frankfurt | 1 | All Maps","protocol":17,"map":"pl_upward","folder":"tf","game":"Team Fortress","app_id":440,"player_count":0,"max_players":24,"Bots":0,"server_type":"Dedicated","server_os":"Linux","password":true,"vac":true,"version":"7961495","steam_id":85568392924469989,"keywords":["nocrits","nodmgspread","payload","uncletopia"],"game_id":440,"stv_port":27016,"stv_name":"Uncletopia | Frankfurt | 1 | All Maps | STV","players":null},{"server_id":110,"name":"Uncletopia | Frankfurt | 2 | All Maps","name_short":"frk-2","host":"frk-1.de.uncletopia.com","port":27025,"enabled":true,"region":"eu","cc":"de","latitude":50.110924,"longitude":8.682127,"reserved":0,"last_update":"0001-01-01T00:00:00Z","name_a2s":"Uncletopia | Frankfurt | 2 | All Maps","protocol":17,"map":"pl_frontier_final","folder":"tf","game":"Team Fortress","app_id":440,"player_count":0,"max_players":24,"Bots":0,"server_type":"Dedicated","server_os":"Linux","password":true,"vac":true,"version":"7961495","steam_id":85568392924469990,"keywords":["nocrits","nodmgspread","payload","uncletopia"],"game_id":440,"stv_port":27026,"stv_name":"Uncletopia | Frankfurt | 2 | All Maps | STV","players":null},{"server_id":308,"name":"Uncletopia | Frankfurt | 3 | All Maps","name_short":"frk-3","host":"frk-1.de.uncletopia.com","port":27035,"enabled":true,"region":"eu","cc":"de","latitude":50.110924,"longitude":8.682127,"reserved":0,"last_update":"0001-01-01T00:00:00Z","name_a2s":"Uncletopia | Frankfurt | 3 | All Maps","protocol":17,"map":"koth_viaduct","folder":"tf","game":"Team Fortress","app_id":440,"player_count":0,"max_players":24,"Bots":0,"server_type":"Dedicated","server_os":"Linux","password":true,"vac":true,"version":"7961495","steam_id":85568392924504274,"keywords":["cp","nocrits","nodmgspread","uncletopia"],"game_id":440,"stv_port":27036,"stv_name":"Uncletopia | Frankfurt | 3 | All Maps | STV","players":null},{"server_id":309,"name":"Uncletopia | Frankfurt | 4 | All Maps","name_short":"frk-4","host":"frk-1.de.uncletopia.com","port":27045,"enabled":true,"region":"eu","cc":"de","latitude":50.110924,"longitude":8.682127,"reserved":0,"last_update":"0001-01-01T00:00:00Z","name_a2s":"Uncletopia | Frankfurt | 4 | All Maps","protocol":17,"map":"pl_frontier_final","folder":"tf","game":"Team Fortress","app_id":440,"player_count":0,"max_players":24,"Bots":0,"server_type":"Dedicated","server_os":"Linux","password":true,"vac":true,"version":"7961495","steam_id":85568392924504275,"keywords":["nocrits","nodmgspread","payload","uncletopia"],"game_id":440,"stv_port":27046,"stv_name":"Uncletopia | Frankfurt | 4 | All Maps | STV","players":null},{"server_id":310,"name":"Uncletopia | Frankfurt | 5 | All Maps","name_short":"frk-5","host":"frk-1.de.uncletopia.com","port":27055,"enabled":true,"region":"eu","cc":"de","latitude":50.110924,"longitude":8.682127,"reserved":0,"last_update":"0001-01-01T00:00:00Z","name_a2s":"Uncletopia | Frankfurt | 5 | All Maps","protocol":17,"map":"pl_swiftwater_final1","folder":"tf","game":"Team Fortress","app_id":440,"player_count":0,"max_players":24,"Bots":0,"server_type":"Dedicated","server_os":"Linux","password":true,"vac":true,"version":"7961495","steam_id":85568392924504277,"keywords":["nocrits","nodmgspread","payload","uncletopia"],"game_id":440,"stv_port":27056,"stv_name":"Uncletopia | Frankfurt | 5 | All Maps | STV","players":null},{"server_id":311,"name":"Uncletopia | Frankfurt | 6 | All Maps","name_short":"frk-6","host":"frk-1.de.uncletopia.com","port":27065,"enabled":true,"region":"eu","cc":"de","latitude":50.110924,"longitude":8.682127,"reserved":0,"last_update":"0001-01-01T00:00:00Z","name_a2s":"Uncletopia | Frankfurt | 6 | All Maps","protocol":17,"map":"pl_badwater","folder":"tf","game":"Team Fortress","app_id":440,"player_count":0,"max_players":24,"Bots":0,"server_type":"Dedicated","server_os":"Linux","password":true,"vac":true,"version":"7961495","steam_id":85568392924504278,"keywords":["nocrits","nodmgspread","payload","uncletopia"],"game_id":440,"stv_port":27066,"stv_name":"Uncletopia | Frankfurt | 6 | All Maps | STV","players":null},{"server_id":23,"name":"Uncletopia | Frankfurt | 7 | Stopwatch Beta","name_short":"frk-7","host":"frk-1.de.uncletopia.com","port":27075,"enabled":true,"region":"eu","cc":"de","latitude":50.110924,"longitude":8.682127,"reserved":0,"last_update":"0001-01-01T00:00:00Z","name_a2s":"Uncletopia | Frankfurt | 7 | Stopwatch Beta","protocol":17,"map":"pl_frontier_final","folder":"tf","game":"Team Fortress","app_id":440,"player_count":0,"max_players":24,"Bots":0,"server_type":"Dedicated","server_os":"Linux","password":true,"vac":true,"version":"7961495","steam_id":85568392924742827,"keywords":["nocrits","nodmgspread","payload","uncletopia"],"game_id":440,"stv_port":27076,"stv_name":"Uncletopia | Frankfurt | 7 | Stopwatch Beta | STV","players":null},{"server_id":24,"name":"Uncletopia | Frankfurt | 8 | Community","name_short":"frk-8","host":"frk-1.de.uncletopia.com","port":27085,"enabled":true,"region":"eu","cc":"de","latitude":50.110924,"longitude":8.682127,"reserved":0,"last_update":"0001-01-01T00:00:00Z","name_a2s":"Uncletopia | Frankfurt | 8 | Community","protocol":17,"map":"koth_highpass","folder":"tf","game":"Team Fortress","app_id":440,"player_count":0,"max_players":24,"Bots":0,"server_type":"Dedicated","server_os":"Linux","password":true,"vac":true,"version":"7961495","steam_id":85568392924742828,"keywords":["cp","nocrits","nodmgspread","uncletopia"],"game_id":440,"stv_port":27086,"stv_name":"Uncletopia | Frankfurt | 8 | Community | STV","players":null},{"server_id":202,"name":"Uncletopia | Hong Kong | 1 | All Maps","name_short":"hgk-1","host":"hgk-1.hk.uncletopia.com","port":27015,"enabled":true,"region":"asia","cc":"hk","latitude":22.302711,"longitude":114.177216,"reserved":0,"last_update":"0001-01-01T00:00:00Z","name_a2s":"Uncletopia | Hong Kong | 1 | All Maps","protocol":17,"map":"plr_hightower","folder":"tf","game":"Team Fortress","app_id":440,"player_count":18,"max_players":24,"Bots":0,"server_type":"Dedicated","server_os":"Linux","password":true,"vac":true,"version":"7961495","steam_id":85568392924494504,"keywords":["nocrits","nodmgspread","payload","uncletopia"],"game_id":440,"stv_port":27016,"stv_name":"Uncletopia | Hong Kong | 1 | All Maps | STV","players":[{"user_id":27,"name":"---/-.../..././.-./...-/./.-.","steam_id":76561199085561364,"connected_time":3357000000000,"state":"active","ping":87},{"user_id":38,"name":"Heavy Fingers Guy","steam_id":76561199016545154,"connected_time":2153000000000,"state":"active","ping":44},{"user_id":55,"name":"Loctorious","steam_id":76561199230196794,"connected_time":1005000000000,"state":"active","ping":114},{"user_id":52,"name":"左 辙","steam_id":76561198202460529,"connected_time":1120000000000,"state":"active","ping":96},{"user_id":64,"name":"WhyOwhat","steam_id":76561198137571487,"connected_time":529000000000,"state":"active","ping":109},{"user_id":53,"name":"Orajéed","steam_id":76561199389156980,"connected_time":1096000000000,"state":"active","ping":91},{"user_id":41,"name":"§aveh!","steam_id":76561198141410845,"connected_time":1851000000000,"state":"active","ping":57},{"user_id":33,"name":"Mouse1","steam_id":76561199376399993,"connected_time":2885000000000,"state":"active","ping":88},{"user_id":71,"name":"G6EX LMAOGUY","steam_id":76561198811024417,"connected_time":81000000000,"state":"active","ping":58},{"user_id":65,"name":"Robothater11","steam_id":76561198074762858,"connected_time":405000000000,"state":"active","ping":150},{"user_id":67,"name":"You got a war face?","steam_id":76561198047057420,"connected_time":316000000000,"state":"active","ping":132},{"user_id":46,"name":"wom","steam_id":76561199375834537,"connected_time":1469000000000,"state":"active","ping":74},{"user_id":68,"name":"happyman","steam_id":76561198045585030,"connected_time":220000000000,"state":"active","ping":67},{"user_id":69,"name":"\"SKS\"","steam_id":76561198187995386,"connected_time":201000000000,"state":"active","ping":86},{"user_id":70,"name":"MKLettuce","steam_id":76561198388775895,"connected_time":189000000000,"state":"active","ping":40},{"user_id":72,"name":"swedeng","steam_id":76561198412977998,"connected_time":65000000000,"state":"active","ping":88},{"user_id":74,"name":"Harima [✚]","steam_id":76561198003969420,"connected_time":42000000000,"state":"active","ping":238},{"user_id":76,"name":"royal","steam_id":76561198835403557,"connected_time":24000000000,"state":"active","ping":77}]},{"server_id":1,"name":"Uncletopia | Los Angeles | 1 | All Maps","name_short":"lax-1","host":"lax-1.us.uncletopia.com","port":27015,"enabled":true,"region":"us-west","cc":"us","latitude":33.94279,"longitude":-118.41004,"reserved":0,"last_update":"0001-01-01T00:00:00Z","name_a2s":"Uncletopia | Los Angeles | 1 | All Maps","protocol":17,"map":"pl_snowycoast","folder":"tf","game":"Team Fortress","app_id":440,"player_count":19,"max_players":24,"Bots":0,"server_type":"Dedicated","server_os":"Linux","password":true,"vac":true,"version":"7961495","steam_id":85568392924469991,"keywords":["nocrits","nodmgspread","payload","uncletopia"],"game_id":440,"stv_port":27016,"stv_name":"Uncletopia | Los Angeles | 1 | All Maps | STV","players":[{"user_id":202,"name":"JACK BRUNO","steam_id":76561198027957690,"connected_time":266000000000,"state":"active","ping":61},{"user_id":187,"name":"rose","steam_id":76561197995200743,"connected_time":907000000000,"state":"active","ping":33},{"user_id":200,"name":"✪ Jam","steam_id":76561198101672564,"connected_time":461000000000,"state":"active","ping":32},{"user_id":206,"name":"Fargo","steam_id":76561198044703931,"connected_time":57000000000,"state":"active","ping":75},{"user_id":205,"name":"I'm Gonna Seal Up All my Cracks","steam_id":76561198889997809,"connected_time":72000000000,"state":"active","ping":60},{"user_id":182,"name":"Sol","steam_id":76561198121500201,"connected_time":2165000000000,"state":"active","ping":47},{"user_id":118,"name":"R3S0LVE_","steam_id":76561198389201130,"connected_time":7634000000000,"state":"active","ping":62},{"user_id":196,"name":"Flubdy_","steam_id":76561198073338521,"connected_time":604000000000,"state":"active","ping":88},{"user_id":190,"name":"Denialz","steam_id":76561198311188458,"connected_time":845000000000,"state":"active","ping":95},{"user_id":168,"name":"sola venereum","steam_id":76561198368179166,"connected_time":3311000000000,"state":"active","ping":56},{"user_id":201,"name":"God's Drunkest Driver","steam_id":76561199174579733,"connected_time":442000000000,"state":"active","ping":107},{"user_id":154,"name":"Ice cream sandwich","steam_id":76561198172748357,"connected_time":5633000000000,"state":"active","ping":56},{"user_id":186,"name":"werolat","steam_id":76561197960544784,"connected_time":1468000000000,"state":"active","ping":79},{"user_id":40,"name":"Tako","steam_id":76561199264073138,"connected_time":12508000000000,"state":"active","ping":41},{"user_id":174,"name":"FriskyDemon","steam_id":76561198043684646,"connected_time":3115000000000,"state":"active","ping":68},{"user_id":159,"name":"Valkyr","steam_id":76561198170267349,"connected_time":5062000000000,"state":"active","ping":63},{"user_id":175,"name":"Maniac9","steam_id":76561197960530967,"connected_time":3099000000000,"state":"active","ping":48},{"user_id":193,"name":"Rango","steam_id":76561198104086771,"connected_time":830000000000,"state":"active","ping":45},{"user_id":80,"name":"ii_BlooMoon","steam_id":76561199100597391,"connected_time":10737000000000,"state":"active","ping":57}]},{"server_id":112,"name":"Uncletopia | Los Angeles | 2 | All Maps","name_short":"lax-2","host":"lax-1.us.uncletopia.com","port":27025,"enabled":true,"region":"us-west","cc":"us","latitude":33.94279,"longitude":-118.41004,"reserved":0,"last_update":"0001-01-01T00:00:00Z","name_a2s":"Uncletopia | Los Angeles | 2 | All Maps","protocol":17,"map":"cp_dustbowl","folder":"tf","game":"Team Fortress","app_id":440,"player_count":24,"max_players":24,"Bots":0,"server_type":"Dedicated","server_os":"Linux","password":true,"vac":true,"version":"7961495","steam_id":85568392924469992,"keywords":["cp","nocrits","nodmgspread","uncletopia"],"game_id":440,"stv_port":27026,"stv_name":"Uncletopia | Los Angeles | 2 | All Maps | STV","players":[{"user_id":236,"name":"Cope","steam_id":76561198105929029,"connected_time":2059000000000,"state":"active","ping":67},{"user_id":271,"name":"Antreuse","steam_id":76561198219721132,"connected_time":275000000000,"state":"active","ping":70},{"user_id":225,"name":"Fatpoob","steam_id":76561198056730096,"connected_time":2932000000000,"state":"active","ping":108},{"user_id":204,"name":"Creature","steam_id":76561198194585781,"connected_time":4776000000000,"state":"active","ping":56},{"user_id":270,"name":"JayTheNoob247_","steam_id":76561199348803437,"connected_time":407000000000,"state":"active","ping":112},{"user_id":272,"name":"PurplePhantom05","steam_id":76561199211634272,"connected_time":161000000000,"state":"active","ping":71},{"user_id":259,"name":"MinusSoup918","steam_id":76561198060902773,"connected_time":831000000000,"state":"active","ping":69},{"user_id":234,"name":"El Super Monkey Ball","steam_id":76561198135634819,"connected_time":2091000000000,"state":"active","ping":47},{"user_id":262,"name":"Special Gorilla","steam_id":76561198120705900,"connected_time":632000000000,"state":"active","ping":46},{"user_id":257,"name":"VoodooPapa","steam_id":76561199160439066,"connected_time":904000000000,"state":"active","ping":60},{"user_id":232,"name":"john.","steam_id":76561198982939658,"connected_time":2220000000000,"state":"active","ping":62},{"user_id":273,"name":"Kito","steam_id":76561198032401946,"connected_time":135000000000,"state":"active","ping":83},{"user_id":274,"name":"usedhalfcart","steam_id":76561198072621852,"connected_time":84000000000,"state":"active","ping":75},{"user_id":235,"name":"Bocchi The Rock Johnson","steam_id":76561198216017952,"connected_time":2089000000000,"state":"active","ping":94},{"user_id":266,"name":"Mom","steam_id":76561198207936000,"connected_time":566000000000,"state":"active","ping":45},{"user_id":275,"name":"U ω U","steam_id":76561198118802562,"connected_time":79000000000,"state":"active","ping":64},{"user_id":251,"name":"Your Favorite Fearless Hero","steam_id":76561199127590316,"connected_time":1643000000000,"state":"active","ping":65},{"user_id":264,"name":"woohooren","steam_id":76561198101840527,"connected_time":603000000000,"state":"active","ping":47},{"user_id":267,"name":"Tree","steam_id":76561198195445331,"connected_time":516000000000,"state":"active","ping":69},{"user_id":268,"name":"Wham Mistress","steam_id":76561198115422032,"connected_time":508000000000,"state":"active","ping":54},{"user_id":254,"name":"CPU","steam_id":76561198408076634,"connected_time":1507000000000,"state":"active","ping":90},{"user_id":276,"name":"Arkhaea","steam_id":76561198255626142,"connected_time":27000000000,"state":"spawning","ping":90},{"user_id":205,"name":"Weed Dealer","steam_id":76561198418604400,"connected_time":4772000000000,"state":"active","ping":77},{"user_id":277,"name":"mr. poopy","steam_id":76561198108762862,"connected_time":12000000000,"state":"spawning","ping":65}]},{"server_id":324,"name":"Uncletopia | Los Angeles | 3 | All Maps","name_short":"lax-3","host":"lax-1.us.uncletopia.com","port":27035,"enabled":true,"region":"us-west","cc":"us","latitude":33.94279,"longitude":-118.41004,"reserved":0,"last_update":"0001-01-01T00:00:00Z","name_a2s":"Uncletopia | Los Angeles | 3 | All Maps","protocol":17,"map":"pl_swiftwater_final1","folder":"tf","game":"Team Fortress","app_id":440,"player_count":24,"max_players":24,"Bots":0,"server_type":"Dedicated","server_os":"Linux","password":true,"vac":true,"version":"7961495","steam_id":85568392924510198,"keywords":["nocrits","nodmgspread","payload","uncletopia"],"game_id":440,"stv_port":27036,"stv_name":"Uncletopia | Los Angeles | 3 | All Maps | STV","players":[{"user_id":229,"name":"george washington","steam_id":76561199210541615,"connected_time":3072000000000,"state":"active","ping":108},{"user_id":204,"name":"Wisdom","steam_id":76561198200037217,"connected_time":3936000000000,"state":"active","ping":117},{"user_id":252,"name":"EdxTheFig","steam_id":76561198108650109,"connected_time":928000000000,"state":"active","ping":44},{"user_id":255,"name":"ElectronX","steam_id":76561198116034988,"connected_time":773000000000,"state":"active","ping":45},{"user_id":226,"name":"satiss","steam_id":76561198871594476,"connected_time":3139000000000,"state":"active","ping":96},{"user_id":256,"name":"Chilihuahua","steam_id":76561198004929152,"connected_time":729000000000,"state":"active","ping":77},{"user_id":253,"name":"Loogey03","steam_id":76561198155483586,"connected_time":914000000000,"state":"active","ping":93},{"user_id":201,"name":"monsterkill4567","steam_id":76561198272986367,"connected_time":3950000000000,"state":"active","ping":57},{"user_id":247,"name":"sofa king wee todd ed","steam_id":76561198040741271,"connected_time":1308000000000,"state":"active","ping":103},{"user_id":257,"name":"Sey","steam_id":76561198202263501,"connected_time":717000000000,"state":"active","ping":52},{"user_id":254,"name":"Owl_eyes","steam_id":76561198066199203,"connected_time":893000000000,"state":"active","ping":62},{"user_id":209,"name":"motion","steam_id":76561198935158462,"connected_time":3837000000000,"state":"active","ping":53},{"user_id":240,"name":"BLXCKMXGIC","steam_id":76561198037518646,"connected_time":2623000000000,"state":"active","ping":121},{"user_id":258,"name":"TRASHMASTER3000","steam_id":76561198118546107,"connected_time":714000000000,"state":"active","ping":59},{"user_id":251,"name":"Chalupa Jones","steam_id":76561198335855588,"connected_time":970000000000,"state":"active","ping":52},{"user_id":259,"name":"wafflegun","steam_id":76561199201494068,"connected_time":709000000000,"state":"active","ping":104},{"user_id":248,"name":"just end me now.","steam_id":76561198238664158,"connected_time":1308000000000,"state":"active","ping":119},{"user_id":260,"name":"Bitmap","steam_id":76561198285964424,"connected_time":678000000000,"state":"active","ping":49},{"user_id":249,"name":"nsx","steam_id":76561198232617936,"connected_time":1063000000000,"state":"active","ping":105},{"user_id":214,"name":"TüCold","steam_id":76561198111278197,"connected_time":3678000000000,"state":"active","ping":64},{"user_id":181,"name":"firestabber","steam_id":76561198057055577,"connected_time":6578000000000,"state":"active","ping":76},{"user_id":200,"name":"FROYO b4nny","steam_id":76561197970669109,"connected_time":4201000000000,"state":"active","ping":52},{"user_id":203,"name":"come and see","steam_id":76561198143214992,"connected_time":3947000000000,"state":"active","ping":112},{"user_id":191,"name":"spot_the_cow","steam_id":76561198151135298,"connected_time":5771000000000,"state":"active","ping":36}]},{"server_id":25,"name":"Uncletopia | Los Angeles | 4 | Stopwatch Beta","name_short":"lax-4","host":"lax-1.us.uncletopia.com","port":27045,"enabled":true,"region":"us-west","cc":"us","latitude":33.94279,"longitude":-118.41004,"reserved":0,"last_update":"0001-01-01T00:00:00Z","name_a2s":"Uncletopia | Los Angeles | 4 | Stopwatch Beta","protocol":17,"map":"cp_snakewater_final1","folder":"tf","game":"Team Fortress","app_id":440,"player_count":12,"max_players":24,"Bots":0,"server_type":"Dedicated","server_os":"Linux","password":true,"vac":true,"version":"7961495","steam_id":85568392924510199,"keywords":["cp","nocrits","nodmgspread","uncletopia"],"game_id":440,"stv_port":27046,"stv_name":"Uncletopia | Los Angeles | 4 | Stopwatch Beta | STV","players":[{"user_id":169,"name":"waffles con leche","steam_id":76561198246934872,"connected_time":380000000000,"state":"active","ping":62},{"user_id":118,"name":"fertile moist and well drained","steam_id":76561198031409921,"connected_time":3665000000000,"state":"active","ping":50},{"user_id":173,"name":"no vc no c","steam_id":76561197989503095,"connected_time":142000000000,"state":"active","ping":156},{"user_id":147,"name":"Mr. Noodle","steam_id":76561198025280658,"connected_time":1750000000000,"state":"active","ping":55},{"user_id":168,"name":"territori64 simp","steam_id":76561198385250944,"connected_time":565000000000,"state":"active","ping":46},{"user_id":174,"name":"JoeMamaBigison","steam_id":76561198095124071,"connected_time":70000000000,"state":"active","ping":67},{"user_id":94,"name":"_Draco_","steam_id":76561198255304538,"connected_time":4155000000000,"state":"active","ping":53},{"user_id":132,"name":"times table","steam_id":76561198341452558,"connected_time":2827000000000,"state":"active","ping":62},{"user_id":70,"name":"God's most powerful retard","steam_id":76561198112507004,"connected_time":5343000000000,"state":"active","ping":93},{"user_id":158,"name":"Trips","steam_id":76561198054581597,"connected_time":1173000000000,"state":"active","ping":44},{"user_id":131,"name":"My Beloved","steam_id":76561198427996315,"connected_time":3142000000000,"state":"active","ping":72},{"user_id":80,"name":"riSygneD","steam_id":76561198331618687,"connected_time":4927000000000,"state":"active","ping":30}]},{"server_id":11,"name":"Uncletopia | London | 1 | All Maps","name_short":"lon-1","host":"lon-1.uk.uncletopia.com","port":27015,"enabled":true,"region":"eu","cc":"gb","latitude":51.509865,"longitude":-0.118092,"reserved":0,"last_update":"0001-01-01T00:00:00Z","name_a2s":"Uncletopia | London | 1 | All Maps","protocol":17,"map":"cp_powerhouse","folder":"tf","game":"Team Fortress","app_id":440,"player_count":11,"max_players":24,"Bots":0,"server_type":"Dedicated","server_os":"Linux","password":true,"vac":true,"version":"7961495","steam_id":85568392924367362,"keywords":["cp","nocrits","nodmgspread","uncletopia"],"game_id":440,"stv_port":27016,"stv_name":"Uncletopia | London | 1 | All Maps | STV","players":[{"user_id":3,"name":"yuno appreciator","steam_id":76561198083286511,"connected_time":1825000000000,"state":"active","ping":35},{"user_id":4,"name":"snowycoast","steam_id":76561198346638308,"connected_time":1821000000000,"state":"active","ping":45},{"user_id":5,"name":"Cosmetic brain","steam_id":76561198055936410,"connected_time":1820000000000,"state":"active","ping":74},{"user_id":19,"name":"LS","steam_id":76561198146570384,"connected_time":958000000000,"state":"active","ping":89},{"user_id":17,"name":"nemelex","steam_id":76561198958005865,"connected_time":1057000000000,"state":"active","ping":45},{"user_id":20,"name":"Naiten","steam_id":76561198051894514,"connected_time":794000000000,"state":"active","ping":70},{"user_id":10,"name":"Biscuit","steam_id":76561198034318885,"connected_time":1803000000000,"state":"active","ping":38},{"user_id":26,"name":"Wodaz","steam_id":76561198043263557,"connected_time":216000000000,"state":"active","ping":60},{"user_id":27,"name":"Danjelz","steam_id":76561198018663442,"connected_time":125000000000,"state":"active","ping":61},{"user_id":22,"name":"Rudoss","steam_id":76561198018415787,"connected_time":361000000000,"state":"active","ping":69},{"user_id":28,"name":"thog","steam_id":76561198219901556,"connected_time":83000000000,"state":"active","ping":107}]},{"server_id":114,"name":"Uncletopia | London | 2 | All Maps","name_short":"lon-2","host":"lon-1.uk.uncletopia.com","port":27025,"enabled":true,"region":"eu","cc":"gb","latitude":51.509865,"longitude":-0.118092,"reserved":0,"last_update":"0001-01-01T00:00:00Z","name_a2s":"Uncletopia | London | 2 | All Maps","protocol":17,"map":"pl_borneo","folder":"tf","game":"Team Fortress","app_id":440,"player_count":0,"max_players":24,"Bots":0,"server_type":"Dedicated","server_os":"Linux","password":true,"vac":true,"version":"7961495","steam_id":85568392924470941,"keywords":["nocrits","nodmgspread","payload","uncletopia"],"game_id":440,"stv_port":27026,"stv_name":"Uncletopia | London | 2 | All Maps | STV","players":null},{"server_id":320,"name":"Uncletopia | London | 3 | All Maps","name_short":"lon-3","host":"lon-1.uk.uncletopia.com","port":27035,"enabled":true,"region":"eu","cc":"gb","latitude":51.509865,"longitude":-0.118092,"reserved":0,"last_update":"0001-01-01T00:00:00Z","name_a2s":"Uncletopia | London | 3 | All Maps","protocol":17,"map":"cp_sunshine","folder":"tf","game":"Team Fortress","app_id":440,"player_count":0,"max_players":24,"Bots":0,"server_type":"Dedicated","server_os":"Linux","password":true,"vac":true,"version":"7961495","steam_id":85568392924510192,"keywords":["cp","nocrits","nodmgspread","uncletopia"],"game_id":440,"stv_port":27036,"stv_name":"Uncletopia | London | 3 | All Maps | STV","players":null},{"server_id":321,"name":"Uncletopia | London | 4 | All Maps","name_short":"lon-4","host":"lon-1.uk.uncletopia.com","port":27045,"enabled":true,"region":"eu","cc":"gb","latitude":51.509865,"longitude":-0.118092,"reserved":0,"last_update":"0001-01-01T00:00:00Z","name_a2s":"Uncletopia | London | 4 | All Maps","protocol":17,"map":"cp_mountainlab","folder":"tf","game":"Team Fortress","app_id":440,"player_count":0,"max_players":24,"Bots":0,"server_type":"Dedicated","server_os":"Linux","password":true,"vac":true,"version":"7961495","steam_id":85568392924510193,"keywords":["cp","nocrits","nodmgspread","uncletopia"],"game_id":440,"stv_port":27046,"stv_name":"Uncletopia | London | 4 | All Maps | STV","players":null},{"server_id":21,"name":"Uncletopia | London | 5 | All Maps","name_short":"lon-5","host":"lon-1.uk.uncletopia.com","port":27055,"enabled":true,"region":"eu","cc":"gb","latitude":51.509865,"longitude":-0.118092,"reserved":0,"last_update":"0001-01-01T00:00:00Z","name_a2s":"Uncletopia | London | 5 | All Maps","protocol":17,"map":"pl_upward","folder":"tf","game":"Team Fortress","app_id":440,"player_count":0,"max_players":24,"Bots":0,"server_type":"Dedicated","server_os":"Linux","password":true,"vac":true,"version":"7961495","steam_id":85568392924742829,"keywords":["nocrits","nodmgspread","payload","uncletopia"],"game_id":440,"stv_port":27056,"stv_name":"Uncletopia | London | 5 | All Maps | STV","players":null},{"server_id":22,"name":"Uncletopia | London | 6 | All Maps","name_short":"lon-6","host":"lon-1.uk.uncletopia.com","port":27065,"enabled":true,"region":"eu","cc":"gb","latitude":51.509865,"longitude":-0.118092,"reserved":0,"last_update":"0001-01-01T00:00:00Z","name_a2s":"Uncletopia | London | 6 | All Maps","protocol":17,"map":"koth_lakeside_final","folder":"tf","game":"Team Fortress","app_id":440,"player_count":0,"max_players":24,"Bots":0,"server_type":"Dedicated","server_os":"Linux","password":true,"vac":true,"version":"7961495","steam_id":85568392924742830,"keywords":["cp","nocrits","nodmgspread","uncletopia"],"game_id":440,"stv_port":27066,"stv_name":"Uncletopia | London | 6 | All Maps | STV","players":null},{"server_id":40,"name":"Uncletopia | London | 7 | No Payload","name_short":"lon-7","host":"lon-1.uk.uncletopia.com","port":27075,"enabled":true,"region":"eu","cc":"gb","latitude":51.509865,"longitude":-0.118092,"reserved":0,"last_update":"0001-01-01T00:00:00Z","name_a2s":"Uncletopia | London | 7 | No Payload","protocol":17,"map":"cp_altitude","folder":"tf","game":"Team Fortress","app_id":440,"player_count":0,"max_players":24,"Bots":0,"server_type":"Dedicated","server_os":"Linux","password":true,"vac":true,"version":"7961495","steam_id":85568392924964314,"keywords":["cp","nocrits","nodmgspread","uncletopia"],"game_id":440,"stv_port":27076,"stv_name":"Uncletopia | London | 7 | No Payload | STV","players":null},{"server_id":41,"name":"Uncletopia | London | 8 | Community","name_short":"lon-8","host":"lon-1.uk.uncletopia.com","port":27085,"enabled":true,"region":"eu","cc":"gb","latitude":51.509865,"longitude":-0.118092,"reserved":0,"last_update":"0001-01-01T00:00:00Z","name_a2s":"Uncletopia | London | 8 | Community","protocol":17,"map":"pl_borneo","folder":"tf","game":"Team Fortress","app_id":440,"player_count":0,"max_players":24,"Bots":0,"server_type":"Dedicated","server_os":"Linux","password":true,"vac":true,"version":"7961495","steam_id":85568392924964315,"keywords":["nocrits","nodmgspread","payload","uncletopia"],"game_id":440,"stv_port":27086,"stv_name":"Uncletopia | London | 8 | Community | STV","players":null},{"server_id":300,"name":"Uncletopia | Montréal | 1 | All Maps","name_short":"mtl-1","host":"mtl-1.ca.uncletopia.com","port":27015,"enabled":true,"region":"us-east","cc":"ca","latitude":45.50889,"longitude":-73.56167,"reserved":0,"last_update":"0001-01-01T00:00:00Z","name_a2s":"","protocol":0,"map":"","folder":"","game":"","app_id":0,"player_count":0,"max_players":0,"Bots":0,"server_type":"","server_os":"","password":false,"vac":false,"version":"","steam_id":0,"keywords":null,"game_id":0,"stv_port":0,"stv_name":"","players":null},{"server_id":301,"name":"Uncletopia | Montréal | 2 | All Maps","name_short":"mtl-2","host":"mtl-1.ca.uncletopia.com","port":27025,"enabled":true,"region":"us-east","cc":"ca","latitude":45.50889,"longitude":-73.56167,"reserved":0,"last_update":"0001-01-01T00:00:00Z","name_a2s":"","protocol":0,"map":"","folder":"","game":"","app_id":0,"player_count":0,"max_players":0,"Bots":0,"server_type":"","server_os":"","password":false,"vac":false,"version":"","steam_id":0,"keywords":null,"game_id":0,"stv_port":0,"stv_name":"","players":null},{"server_id":302,"name":"Uncletopia | Montréal | 3 | All Maps","name_short":"mtl-3","host":"mtl-1.ca.uncletopia.com","port":27035,"enabled":true,"region":"us-east","cc":"ca","latitude":45.50889,"longitude":-73.56167,"reserved":0,"last_update":"0001-01-01T00:00:00Z","name_a2s":"","protocol":0,"map":"","folder":"","game":"","app_id":0,"player_count":0,"max_players":0,"Bots":0,"server_type":"","server_os":"","password":false,"vac":false,"version":"","steam_id":0,"keywords":null,"game_id":0,"stv_port":0,"stv_name":"","players":null},{"server_id":303,"name":"Uncletopia | Montréal | 4 | No Payload","name_short":"mtl-4","host":"mtl-1.ca.uncletopia.com","port":27045,"enabled":true,"region":"us-east","cc":"ca","latitude":45.50889,"longitude":-73.56167,"reserved":0,"last_update":"0001-01-01T00:00:00Z","name_a2s":"","protocol":0,"map":"","folder":"","game":"","app_id":0,"player_count":0,"max_players":0,"Bots":0,"server_type":"","server_os":"","password":false,"vac":false,"version":"","steam_id":0,"keywords":null,"game_id":0,"stv_port":0,"stv_name":"","players":null},{"server_id":13,"name":"Uncletopia | New York City | 1 | All Maps","name_short":"nyc-1","host":"nyc-1.us.uncletopia.com","port":27015,"enabled":true,"region":"us-east","cc":"us","latitude":40.73061,"longitude":-73.93524,"reserved":0,"last_update":"0001-01-01T00:00:00Z","name_a2s":"Uncletopia | New York City | 1 | All Maps","protocol":17,"map":"cp_mountainlab","folder":"tf","game":"Team Fortress","app_id":440,"player_count":12,"max_players":24,"Bots":0,"server_type":"Dedicated","server_os":"Linux","password":true,"vac":true,"version":"7961495","steam_id":85568392924469993,"keywords":["cp","nocrits","nodmgspread","uncletopia"],"game_id":440,"stv_port":27016,"stv_name":"Uncletopia | New York City | 1 | All Maps | STV","players":[{"user_id":273,"name":"cat piss","steam_id":76561198119835364,"connected_time":996000000000,"state":"active","ping":100},{"user_id":228,"name":"nice stream u have there","steam_id":76561198151172590,"connected_time":4238000000000,"state":"active","ping":77},{"user_id":265,"name":"Hiryuu","steam_id":76561198025267260,"connected_time":2292000000000,"state":"active","ping":76},{"user_id":271,"name":"IamPerson","steam_id":76561198830689697,"connected_time":1173000000000,"state":"active","ping":42},{"user_id":274,"name":"Crystall","steam_id":76561198346607700,"connected_time":903000000000,"state":"active","ping":53},{"user_id":276,"name":"Welchz","steam_id":76561198061735725,"connected_time":25000000000,"state":"active","ping":92},{"user_id":272,"name":"JEBUS","steam_id":76561198045785165,"connected_time":1123000000000,"state":"active","ping":134},{"user_id":214,"name":"Walmart Employee","steam_id":76561198840373909,"connected_time":4696000000000,"state":"active","ping":96},{"user_id":268,"name":"JC","steam_id":76561198098174583,"connected_time":2116000000000,"state":"active","ping":139},{"user_id":275,"name":"Mathatguy","steam_id":76561198225432188,"connected_time":835000000000,"state":"active","ping":90},{"user_id":112,"name":"Gwen (Limited Huge Cock Edition","steam_id":76561198276385778,"connected_time":9807000000000,"state":"active","ping":113},{"user_id":239,"name":"Golurk with some bitches","steam_id":76561198085888959,"connected_time":3724000000000,"state":"active","ping":60}]},{"server_id":14,"name":"Uncletopia | New York City | 2 | All Maps","name_short":"nyc-2","host":"nyc-1.us.uncletopia.com","port":27025,"enabled":true,"region":"us-east","cc":"us","latitude":40.73061,"longitude":-73.93524,"reserved":0,"last_update":"0001-01-01T00:00:00Z","name_a2s":"Uncletopia | New York City | 2 | All Maps","protocol":17,"map":"pl_barnblitz","folder":"tf","game":"Team Fortress","app_id":440,"player_count":24,"max_players":24,"Bots":0,"server_type":"Dedicated","server_os":"Linux","password":true,"vac":true,"version":"7961495","steam_id":85568392924469994,"keywords":["nocrits","nodmgspread","payload","uncletopia"],"game_id":440,"stv_port":27026,"stv_name":"Uncletopia | New York City | 2 | All Maps | STV","players":[{"user_id":210,"name":"gromit","steam_id":76561198037746805,"connected_time":1551000000000,"state":"active","ping":61},{"user_id":211,"name":"marisa kirisame","steam_id":76561198070327681,"connected_time":1492000000000,"state":"active","ping":67},{"user_id":186,"name":"erf","steam_id":76561198078203677,"connected_time":3339000000000,"state":"active","ping":54},{"user_id":225,"name":"normal","steam_id":76561198133712839,"connected_time":506000000000,"state":"active","ping":49},{"user_id":209,"name":"yuh_aye","steam_id":76561198801125811,"connected_time":1761000000000,"state":"active","ping":71},{"user_id":213,"name":"Kamin","steam_id":76561198255299559,"connected_time":1433000000000,"state":"active","ping":113},{"user_id":155,"name":"Chicken Burger","steam_id":76561198358529311,"connected_time":5057000000000,"state":"active","ping":98},{"user_id":226,"name":"avant","steam_id":76561198104921055,"connected_time":187000000000,"state":"active","ping":80},{"user_id":199,"name":"It's FoolMoon","steam_id":76561198153344375,"connected_time":2567000000000,"state":"active","ping":46},{"user_id":223,"name":"Hot Head","steam_id":76561198856933859,"connected_time":759000000000,"state":"active","ping":129},{"user_id":214,"name":"BLØRG","steam_id":76561198036126673,"connected_time":1414000000000,"state":"active","ping":100},{"user_id":201,"name":"mattt","steam_id":76561199053624086,"connected_time":2551000000000,"state":"active","ping":349},{"user_id":184,"name":"Lucedex","steam_id":76561199233864139,"connected_time":3477000000000,"state":"active","ping":81},{"user_id":175,"name":"Foonut","steam_id":76561198075740574,"connected_time":3838000000000,"state":"active","ping":75},{"user_id":187,"name":"tesagi","steam_id":76561198026664629,"connected_time":3251000000000,"state":"active","ping":52},{"user_id":129,"name":"Thunderous","steam_id":76561198192752793,"connected_time":7310000000000,"state":"active","ping":57},{"user_id":215,"name":"Scat Enthusiast","steam_id":76561198360395339,"connected_time":1407000000000,"state":"active","ping":54},{"user_id":224,"name":"Clear Sights","steam_id":76561198006215683,"connected_time":734000000000,"state":"active","ping":77},{"user_id":221,"name":"Model CHP-3Y","steam_id":76561198107806145,"connected_time":955000000000,"state":"active","ping":66},{"user_id":218,"name":"BradB","steam_id":76561199163905036,"connected_time":1306000000000,"state":"active","ping":82},{"user_id":192,"name":"REDACTED_banana_887","steam_id":76561199224406093,"connected_time":3140000000000,"state":"active","ping":173},{"user_id":219,"name":"sela","steam_id":76561198094830115,"connected_time":1300000000000,"state":"active","ping":122},{"user_id":195,"name":"Two-Teste Tommy","steam_id":76561198064308936,"connected_time":3028000000000,"state":"active","ping":61},{"user_id":220,"name":"Bananaman244","steam_id":76561198095550606,"connected_time":1295000000000,"state":"active","ping":69}]},{"server_id":15,"name":"Uncletopia | New York City | 3 | Stopwatch Beta","name_short":"nyc-3","host":"nyc-1.us.uncletopia.com","port":27035,"enabled":true,"region":"us-east","cc":"us","latitude":40.73061,"longitude":-73.93524,"reserved":0,"last_update":"0001-01-01T00:00:00Z","name_a2s":"Uncletopia | New York City | 3 | Stopwatch Beta","protocol":17,"map":"koth_highpass","folder":"tf","game":"Team Fortress","app_id":440,"player_count":0,"max_players":24,"Bots":0,"server_type":"Dedicated","server_os":"Linux","password":true,"vac":true,"version":"7961495","steam_id":85568392924742820,"keywords":["cp","nocrits","nodmgspread","uncletopia"],"game_id":440,"stv_port":27036,"stv_name":"Uncletopia | New York City | 3 | Stopwatch Beta | STV","players":null},{"server_id":16,"name":"Uncletopia | New York City | 4 | Community","name_short":"nyc-4","host":"nyc-1.us.uncletopia.com","port":27045,"enabled":true,"region":"us-east","cc":"us","latitude":40.73061,"longitude":-73.93524,"reserved":0,"last_update":"0001-01-01T00:00:00Z","name_a2s":"Uncletopia | New York City | 4 | Community","protocol":17,"map":"workshop/koth_bagel_rc6.ugc2514036946","folder":"tf","game":"Team Fortress","app_id":440,"player_count":0,"max_players":24,"Bots":0,"server_type":"Dedicated","server_os":"Linux","password":true,"vac":true,"version":"7961495","steam_id":85568392924742821,"keywords":["cp","nocrits","nodmgspread","uncletopia"],"game_id":440,"stv_port":27046,"stv_name":"Uncletopia | New York City | 4 | Community | STV","players":null},{"server_id":142,"name":"Uncletopia | São Paulo | 1 | All Maps","name_short":"sao-1","host":"sao-1.br.uncletopia.com","port":27015,"enabled":true,"region":"sa","cc":"br","latitude":-23.533773,"longitude":-46.62529,"reserved":0,"last_update":"0001-01-01T00:00:00Z","name_a2s":"Uncletopia | São Paulo | 1 | All Maps","protocol":17,"map":"koth_lakeside_final","folder":"tf","game":"Team Fortress","app_id":440,"player_count":0,"max_players":24,"Bots":0,"server_type":"Dedicated","server_os":"Linux","password":true,"vac":true,"version":"7961495","steam_id":85568392924469996,"keywords":["cp","nocrits","nodmgspread","uncletopia"],"game_id":440,"stv_port":27016,"stv_name":"Uncletopia | São Paulo | 1 | All Maps | STV","players":null},{"server_id":143,"name":"Uncletopia | São Paulo | 2 | Community","name_short":"sao-2","host":"sao-2.br.uncletopia.com","port":27015,"enabled":true,"region":"sa","cc":"br","latitude":-23.533773,"longitude":-46.62529,"reserved":0,"last_update":"0001-01-01T00:00:00Z","name_a2s":"Uncletopia | São Paulo | 2 | Community","protocol":17,"map":"workshop/cp_kalinka_rc6a.ugc1272700588","folder":"tf","game":"Team Fortress","app_id":440,"player_count":0,"max_players":24,"Bots":0,"server_type":"Dedicated","server_os":"Linux","password":true,"vac":true,"version":"7961495","steam_id":85568392924485349,"keywords":["cp","nocrits","nodmgspread","uncletopia"],"game_id":440,"stv_port":27016,"stv_name":"Uncletopia | São Paulo | 2 | Community | STV","players":null},{"server_id":7,"name":"Uncletopia | Seattle | 1 | All Maps","name_short":"sea-1","host":"sea-1.us.uncletopia.com","port":27015,"enabled":true,"region":"us-west","cc":"us","latitude":47.608013,"longitude":-122.33517,"reserved":0,"last_update":"0001-01-01T00:00:00Z","name_a2s":"Uncletopia | Seattle | 1 | All Maps","protocol":17,"map":"pl_barnblitz","folder":"tf","game":"Team Fortress","app_id":440,"player_count":24,"max_players":24,"Bots":0,"server_type":"Dedicated","server_os":"Linux","password":true,"vac":true,"version":"7961495","steam_id":85568392924469997,"keywords":["nocrits","nodmgspread","payload","uncletopia"],"game_id":440,"stv_port":27016,"stv_name":"Uncletopia | Seattle | 1 | All Maps | STV","players":[{"user_id":262,"name":"Hope (Birthday Tomorrow)","steam_id":76561199182558088,"connected_time":387000000000,"state":"active","ping":77},{"user_id":240,"name":"yolginmo","steam_id":76561198157985901,"connected_time":4207000000000,"state":"active","ping":63},{"user_id":241,"name":"TheBeepMann","steam_id":76561198156230733,"connected_time":4077000000000,"state":"active","ping":73},{"user_id":259,"name":"BoyKisser","steam_id":76561199200969139,"connected_time":1716000000000,"state":"active","ping":139},{"user_id":263,"name":"Skabbety","steam_id":76561198168044257,"connected_time":384000000000,"state":"active","ping":45},{"user_id":191,"name":"NEBULA","steam_id":76561198086878595,"connected_time":7553000000000,"state":"active","ping":72},{"user_id":253,"name":"Thunder","steam_id":76561198097721532,"connected_time":2676000000000,"state":"active","ping":76},{"user_id":260,"name":"louise sneeze","steam_id":76561198062451648,"connected_time":1646000000000,"state":"active","ping":89},{"user_id":182,"name":"Pyrotek⁴","steam_id":76561198072747672,"connected_time":8753000000000,"state":"active","ping":75},{"user_id":206,"name":"SnoDot","steam_id":76561198062209970,"connected_time":6752000000000,"state":"active","ping":38},{"user_id":261,"name":"Agent Heavy Bear","steam_id":76561198123395620,"connected_time":975000000000,"state":"active","ping":99},{"user_id":208,"name":"death snail","steam_id":76561198093053238,"connected_time":6743000000000,"state":"active","ping":53},{"user_id":18,"name":"Grand","steam_id":76561198290143399,"connected_time":17845000000000,"state":"active","ping":75},{"user_id":264,"name":"Arsonist Goose","steam_id":76561198147441830,"connected_time":382000000000,"state":"active","ping":69},{"user_id":254,"name":"TeCon","steam_id":76561198049127236,"connected_time":2675000000000,"state":"active","ping":83},{"user_id":255,"name":"Courier711","steam_id":76561198053232343,"connected_time":2672000000000,"state":"active","ping":84},{"user_id":187,"name":"Truffles","steam_id":76561198095868800,"connected_time":8260000000000,"state":"active","ping":115},{"user_id":237,"name":"Grill Skills","steam_id":76561198053575147,"connected_time":4587000000000,"state":"active","ping":78},{"user_id":249,"name":"slushy :))","steam_id":76561198135281802,"connected_time":2771000000000,"state":"active","ping":45},{"user_id":207,"name":"pepe warlord","steam_id":76561198080819197,"connected_time":6752000000000,"state":"active","ping":93},{"user_id":227,"name":"Sly Marbo","steam_id":76561198135271741,"connected_time":4898000000000,"state":"active","ping":53},{"user_id":246,"name":"ratthew","steam_id":76561198418172095,"connected_time":3040000000000,"state":"active","ping":102},{"user_id":257,"name":"thunderous prophet","steam_id":76561198131166135,"connected_time":2349000000000,"state":"active","ping":40},{"user_id":258,"name":"rorywashere /ᐠ - ˕ -マ Ⳋ","steam_id":76561198065825165,"connected_time":2316000000000,"state":"active","ping":110}]},{"server_id":119,"name":"Uncletopia | Seattle | 2 | All Maps","name_short":"sea-2","host":"sea-1.us.uncletopia.com","port":27025,"enabled":true,"region":"us-west","cc":"us","latitude":47.608013,"longitude":-122.33517,"reserved":0,"last_update":"0001-01-01T00:00:00Z","name_a2s":"Uncletopia | Seattle | 2 | All Maps","protocol":17,"map":"cp_powerhouse","folder":"tf","game":"Team Fortress","app_id":440,"player_count":17,"max_players":24,"Bots":0,"server_type":"Dedicated","server_os":"Linux","password":true,"vac":true,"version":"7961495","steam_id":85568392924469998,"keywords":["cp","nocrits","nodmgspread","uncletopia"],"game_id":440,"stv_port":27026,"stv_name":"Uncletopia | Seattle | 2 | All Maps | STV","players":[{"user_id":239,"name":"Ashanti Clan","steam_id":76561198032651105,"connected_time":2477000000000,"state":"active","ping":57},{"user_id":259,"name":"Misha","steam_id":76561198045937454,"connected_time":880000000000,"state":"active","ping":57},{"user_id":254,"name":"TheCowledWiz","steam_id":76561198016735868,"connected_time":1577000000000,"state":"active","ping":46},{"user_id":169,"name":"craftylongsword","steam_id":76561198340102940,"connected_time":7873000000000,"state":"active","ping":56},{"user_id":266,"name":"tanneright","steam_id":76561198327867899,"connected_time":28000000000,"state":"active","ping":119},{"user_id":139,"name":"Vintage TV","steam_id":76561198800334545,"connected_time":9386000000000,"state":"active","ping":66},{"user_id":106,"name":"worker","steam_id":76561198039608940,"connected_time":11382000000000,"state":"active","ping":69},{"user_id":260,"name":"Red Metal","steam_id":76561198362722560,"connected_time":863000000000,"state":"active","ping":44},{"user_id":247,"name":"Dinner ( ➈ ワ ➈)ノ","steam_id":76561197960958054,"connected_time":2103000000000,"state":"active","ping":86},{"user_id":263,"name":"catboy","steam_id":76561198298140571,"connected_time":770000000000,"state":"active","ping":84},{"user_id":233,"name":"G2 DamDam","steam_id":76561198173095997,"connected_time":3254000000000,"state":"active","ping":120},{"user_id":265,"name":"Ena","steam_id":76561198066986108,"connected_time":313000000000,"state":"active","ping":39},{"user_id":253,"name":"Pluto","steam_id":76561198338593690,"connected_time":1595000000000,"state":"active","ping":125},{"user_id":251,"name":"O","steam_id":76561198450073779,"connected_time":1690000000000,"state":"active","ping":47},{"user_id":227,"name":"Mii Guest C, From Wii Sports","steam_id":76561198197964803,"connected_time":3484000000000,"state":"active","ping":65},{"user_id":237,"name":"mub","steam_id":76561197961943948,"connected_time":2858000000000,"state":"active","ping":46},{"user_id":257,"name":"Mia Foxx ❤","steam_id":76561198044337051,"connected_time":949000000000,"state":"active","ping":81}]},{"server_id":406,"name":"Uncletopia | Seattle | 3 | Stopwatch Beta","name_short":"sea-3","host":"sea-1.us.uncletopia.com","port":27035,"enabled":true,"region":"us-west","cc":"us","latitude":47.608013,"longitude":-122.33517,"reserved":0,"last_update":"0001-01-01T00:00:00Z","name_a2s":"Uncletopia | Seattle | 3 | Stopwatch Beta","protocol":17,"map":"koth_highpass","folder":"tf","game":"Team Fortress","app_id":440,"player_count":0,"max_players":24,"Bots":0,"server_type":"Dedicated","server_os":"Linux","password":true,"vac":true,"version":"7961495","steam_id":85568392924515217,"keywords":["cp","nocrits","nodmgspread","uncletopia"],"game_id":440,"stv_port":27036,"stv_name":"Uncletopia | Seattle | 3 | Stopwatch Beta | STV","players":null},{"server_id":17,"name":"Uncletopia | San Francisco | 1 | All Maps","name_short":"sfo-1","host":"sfo-1.us.uncletopia.com","port":27015,"enabled":true,"region":"us-west","cc":"us","latitude":37.77397,"longitude":-122.4313,"reserved":0,"last_update":"0001-01-01T00:00:00Z","name_a2s":"Uncletopia | San Francisco | 1 | All Maps","protocol":17,"map":"pl_barnblitz","folder":"tf","game":"Team Fortress","app_id":440,"player_count":24,"max_players":24,"Bots":0,"server_type":"Dedicated","server_os":"Linux","password":true,"vac":true,"version":"7961495","steam_id":85568392924469999,"keywords":["nocrits","nodmgspread","payload","uncletopia"],"game_id":440,"stv_port":27016,"stv_name":"Uncletopia | San Francisco | 1 | All Maps | STV","players":[{"user_id":251,"name":"Wookiee","steam_id":76561198139642742,"connected_time":359000000000,"state":"active","ping":97},{"user_id":246,"name":"Hector Salamanca","steam_id":76561199103213955,"connected_time":1814000000000,"state":"active","ping":61},{"user_id":210,"name":"hypeoftim","steam_id":76561199195639694,"connected_time":4265000000000,"state":"active","ping":76},{"user_id":241,"name":"shitass | troutsupply.net","steam_id":76561198210572481,"connected_time":2363000000000,"state":"active","ping":59},{"user_id":248,"name":"Omega4D2","steam_id":76561198044097128,"connected_time":1528000000000,"state":"active","ping":139},{"user_id":252,"name":"Speneth The 1st","steam_id":76561198064709947,"connected_time":344000000000,"state":"active","ping":65},{"user_id":253,"name":"Fred","steam_id":76561197983870604,"connected_time":330000000000,"state":"active","ping":65},{"user_id":226,"name":"ohnocringe","steam_id":76561199381232082,"connected_time":3506000000000,"state":"active","ping":94},{"user_id":247,"name":"BreadGod","steam_id":76561198050665205,"connected_time":1567000000000,"state":"active","ping":119},{"user_id":227,"name":"PizzaFratello","steam_id":76561199059951970,"connected_time":3489000000000,"state":"active","ping":91},{"user_id":254,"name":"Stick","steam_id":76561198001509374,"connected_time":247000000000,"state":"active","ping":85},{"user_id":209,"name":"La()VaJ()86","steam_id":76561198247547042,"connected_time":4271000000000,"state":"active","ping":50},{"user_id":231,"name":"minerkid2004","steam_id":76561198044262827,"connected_time":3398000000000,"state":"active","ping":52},{"user_id":221,"name":"miscellaneous","steam_id":76561199436642954,"connected_time":3988000000000,"state":"active","ping":71},{"user_id":200,"name":"Higuma","steam_id":76561198375229012,"connected_time":4885000000000,"state":"active","ping":60},{"user_id":244,"name":"NEXT FUNGUS IS CRAZY...","steam_id":76561198143212864,"connected_time":2001000000000,"state":"active","ping":48},{"user_id":182,"name":"Desert Cross Tortoise Fox","steam_id":76561198030736326,"connected_time":6211000000000,"state":"active","ping":73},{"user_id":234,"name":"WeegeePJ","steam_id":76561199383362382,"connected_time":3336000000000,"state":"active","ping":141},{"user_id":249,"name":"Kazmirl","steam_id":76561198116008410,"connected_time":1411000000000,"state":"active","ping":82},{"user_id":255,"name":"Sunny","steam_id":76561197997343746,"connected_time":229000000000,"state":"active","ping":53},{"user_id":235,"name":"supcupman","steam_id":76561198051513866,"connected_time":3306000000000,"state":"active","ping":65},{"user_id":175,"name":"trans-schizo","steam_id":76561198131833567,"connected_time":6591000000000,"state":"active","ping":68},{"user_id":256,"name":"FearTheJynx","steam_id":76561198136487957,"connected_time":160000000000,"state":"active","ping":105},{"user_id":243,"name":"Aibroc","steam_id":76561199164997748,"connected_time":2290000000000,"state":"active","ping":80}]},{"server_id":18,"name":"Uncletopia | San Francisco | 2 | All Maps","name_short":"sfo-2","host":"sfo-1.us.uncletopia.com","port":27025,"enabled":true,"region":"us-west","cc":"us","latitude":37.77397,"longitude":-122.4313,"reserved":0,"last_update":"0001-01-01T00:00:00Z","name_a2s":"Uncletopia | San Francisco | 2 | All Maps","protocol":17,"map":"koth_lakeside_final","folder":"tf","game":"Team Fortress","app_id":440,"player_count":22,"max_players":24,"Bots":0,"server_type":"Dedicated","server_os":"Linux","password":true,"vac":true,"version":"7961495","steam_id":85568392924470000,"keywords":["cp","nocrits","nodmgspread","uncletopia"],"game_id":440,"stv_port":27026,"stv_name":"Uncletopia | San Francisco | 2 | All Maps | STV","players":[{"user_id":296,"name":"cofferhead","steam_id":76561199191108449,"connected_time":229000000000,"state":"active","ping":56},{"user_id":285,"name":"adapt","steam_id":76561198156181017,"connected_time":610000000000,"state":"active","ping":59},{"user_id":286,"name":"makito","steam_id":76561199025164519,"connected_time":596000000000,"state":"active","ping":70},{"user_id":298,"name":"Kazakami","steam_id":76561198074578849,"connected_time":142000000000,"state":"active","ping":51},{"user_id":288,"name":"Newt","steam_id":76561198842909288,"connected_time":556000000000,"state":"active","ping":114},{"user_id":267,"name":"rico \"tristen\" suave","steam_id":76561198093252989,"connected_time":1480000000000,"state":"active","ping":89},{"user_id":295,"name":"cilo","steam_id":76561198046163502,"connected_time":320000000000,"state":"active","ping":67},{"user_id":261,"name":"branflakess","steam_id":76561198115832989,"connected_time":2025000000000,"state":"active","ping":57},{"user_id":277,"name":"MxProf","steam_id":76561198044519572,"connected_time":929000000000,"state":"active","ping":73},{"user_id":297,"name":"Nez","steam_id":76561197963109059,"connected_time":216000000000,"state":"active","ping":77},{"user_id":280,"name":"Bamboo","steam_id":76561198043139553,"connected_time":852000000000,"state":"active","ping":58},{"user_id":270,"name":"TheLogannator","steam_id":76561198141957314,"connected_time":1412000000000,"state":"active","ping":79},{"user_id":156,"name":"boffo","steam_id":76561198096978718,"connected_time":10984000000000,"state":"active","ping":111},{"user_id":236,"name":"Hektur Salmondchonka","steam_id":76561198136982572,"connected_time":3670000000000,"state":"active","ping":68},{"user_id":276,"name":"HAT-WEARING™ Maggot Gamer Cat","steam_id":76561197973992705,"connected_time":944000000000,"state":"active","ping":63},{"user_id":299,"name":"DesertFroggo","steam_id":76561198015607829,"connected_time":107000000000,"state":"active","ping":114},{"user_id":283,"name":"Sidiain357","steam_id":76561198408865378,"connected_time":757000000000,"state":"active","ping":65},{"user_id":301,"name":"xLeoparrd","steam_id":76561198940657194,"connected_time":78000000000,"state":"active","ping":93},{"user_id":284,"name":"fortzei","steam_id":76561198210920541,"connected_time":713000000000,"state":"active","ping":71},{"user_id":294,"name":"t","steam_id":76561198175988929,"connected_time":352000000000,"state":"active","ping":71},{"user_id":272,"name":"jungus","steam_id":76561198129862008,"connected_time":1389000000000,"state":"active","ping":53},{"user_id":273,"name":"Shrub gaming","steam_id":76561198383996370,"connected_time":1363000000000,"state":"active","ping":91}]},{"server_id":19,"name":"Uncletopia | San Francisco | 3 | Stopwatch Beta","name_short":"sfo-3","host":"sfo-1.us.uncletopia.com","port":27035,"enabled":true,"region":"us-west","cc":"us","latitude":37.77397,"longitude":-122.4313,"reserved":0,"last_update":"0001-01-01T00:00:00Z","name_a2s":"Uncletopia | San Francisco | 3 | Stopwatch Beta","protocol":17,"map":"koth_highpass","folder":"tf","game":"Team Fortress","app_id":440,"player_count":0,"max_players":24,"Bots":0,"server_type":"Dedicated","server_os":"Linux","password":true,"vac":true,"version":"7961495","steam_id":85568392924742824,"keywords":["cp","nocrits","nodmgspread","uncletopia"],"game_id":440,"stv_port":27036,"stv_name":"Uncletopia | San Francisco | 3 | Stopwatch Beta | STV","players":null},{"server_id":20,"name":"Uncletopia | San Francisco | 4 | Community","name_short":"sfo-4","host":"sfo-1.us.uncletopia.com","port":27045,"enabled":true,"region":"us-west","cc":"us","latitude":37.77397,"longitude":-122.4313,"reserved":0,"last_update":"0001-01-01T00:00:00Z","name_a2s":"Uncletopia | San Francisco | 4 | Community","protocol":17,"map":"workshop/cp_mannbase_rc2a.ugc1900737467","folder":"tf","game":"Team Fortress","app_id":440,"player_count":0,"max_players":24,"Bots":0,"server_type":"Dedicated","server_os":"Linux","password":true,"vac":true,"version":"7961495","steam_id":85568392924742826,"keywords":["cp","nocrits","nodmgspread","uncletopia"],"game_id":440,"stv_port":27046,"stv_name":"Uncletopia | San Francisco | 4 | Community | STV","players":null},{"server_id":141,"name":"Uncletopia | Sydney | 1 | All Maps","name_short":"syd-1","host":"syd-1.au.uncletopia.com","port":27015,"enabled":true,"region":"au","cc":"au","latitude":-33.865143,"longitude":151.2099,"reserved":0,"last_update":"0001-01-01T00:00:00Z","name_a2s":"Uncletopia | Sydney | 1 | All Maps","protocol":17,"map":"pl_thundermountain","folder":"tf","game":"Team Fortress","app_id":440,"player_count":24,"max_players":24,"Bots":0,"server_type":"Dedicated","server_os":"Linux","password":true,"vac":true,"version":"7961495","steam_id":85568392924470001,"keywords":["nocrits","nodmgspread","payload","uncletopia"],"game_id":440,"stv_port":27016,"stv_name":"Uncletopia | Sydney | 1 | All Maps | STV","players":[{"user_id":246,"name":"Gaunern","steam_id":76561198075411902,"connected_time":594000000000,"state":"active","ping":52},{"user_id":257,"name":"ToadFungus","steam_id":76561199219667039,"connected_time":210000000000,"state":"active","ping":101},{"user_id":228,"name":"pigeon","steam_id":76561198135180841,"connected_time":2385000000000,"state":"active","ping":45},{"user_id":247,"name":"TheCherry","steam_id":76561198062312012,"connected_time":591000000000,"state":"active","ping":76},{"user_id":230,"name":"P. Ness","steam_id":76561198037664265,"connected_time":2066000000000,"state":"active","ping":60},{"user_id":225,"name":"bread","steam_id":76561199405764106,"connected_time":2585000000000,"state":"active","ping":44},{"user_id":242,"name":"Speedicle","steam_id":76561199081060553,"connected_time":811000000000,"state":"active","ping":64},{"user_id":251,"name":"Original Dog","steam_id":76561198046480594,"connected_time":382000000000,"state":"active","ping":72},{"user_id":261,"name":"Sherpa","steam_id":76561198018913829,"connected_time":82000000000,"state":"active","ping":51},{"user_id":233,"name":"shaymii","steam_id":76561198058562392,"connected_time":1404000000000,"state":"active","ping":85},{"user_id":127,"name":"Pompadouraus","steam_id":76561198327530525,"connected_time":9921000000000,"state":"active","ping":75},{"user_id":262,"name":"lavanderpumpernickle(Del Davis)","steam_id":76561199093611800,"connected_time":74000000000,"state":"active","ping":50},{"user_id":215,"name":"Trotter","steam_id":76561198343965263,"connected_time":3229000000000,"state":"active","ping":63},{"user_id":253,"name":"i\u003c3dabs","steam_id":76561198088648487,"connected_time":273000000000,"state":"active","ping":69},{"user_id":237,"name":"Ᵽ𐌄Ť𐌄Ұ","steam_id":76561199140764838,"connected_time":956000000000,"state":"active","ping":59},{"user_id":245,"name":"jono","steam_id":76561198059701670,"connected_time":657000000000,"state":"active","ping":45},{"user_id":250,"name":"bottle","steam_id":76561199013895986,"connected_time":465000000000,"state":"active","ping":82},{"user_id":178,"name":"Aith","steam_id":76561198150790590,"connected_time":5763000000000,"state":"active","ping":60},{"user_id":231,"name":"Sexy Turtle","steam_id":76561198256865969,"connected_time":1704000000000,"state":"active","ping":44},{"user_id":248,"name":"Cyan","steam_id":76561199123867057,"connected_time":574000000000,"state":"active","ping":60},{"user_id":254,"name":"DÄNK D0PER$ØN","steam_id":76561198127257666,"connected_time":270000000000,"state":"active","ping":58},{"user_id":255,"name":"Luca","steam_id":76561198169931370,"connected_time":266000000000,"state":"active","ping":38},{"user_id":249,"name":"Sover blw.tf","steam_id":76561198136347837,"connected_time":572000000000,"state":"active","ping":129},{"user_id":256,"name":"lofty","steam_id":76561198380588357,"connected_time":262000000000,"state":"active","ping":64}]},{"server_id":123,"name":"Uncletopia | Sydney | 2 | All Maps","name_short":"syd-2","host":"syd-1.au.uncletopia.com","port":27025,"enabled":true,"region":"au","cc":"au","latitude":-33.865143,"longitude":151.2099,"reserved":0,"last_update":"0001-01-01T00:00:00Z","name_a2s":"Uncletopia | Sydney | 2 | All Maps","protocol":17,"map":"koth_suijin","folder":"tf","game":"Team Fortress","app_id":440,"player_count":6,"max_players":24,"Bots":0,"server_type":"Dedicated","server_os":"Linux","password":true,"vac":true,"version":"7961495","steam_id":85568392924470002,"keywords":["cp","nocrits","nodmgspread","uncletopia"],"game_id":440,"stv_port":27026,"stv_name":"Uncletopia | Sydney | 2 | All Maps | STV","players":[{"user_id":106,"name":"DIY Miracle","steam_id":76561198046228152,"connected_time":1484000000000,"state":"active","ping":69},{"user_id":101,"name":"TheMilkMan","steam_id":76561198276204055,"connected_time":2025000000000,"state":"active","ping":67},{"user_id":113,"name":"Master LitFam","steam_id":76561199056106183,"connected_time":432000000000,"state":"active","ping":64},{"user_id":108,"name":"payn.","steam_id":76561199277321828,"connected_time":1044000000000,"state":"active","ping":72},{"user_id":110,"name":"Preemt (purposely misspelled)","steam_id":76561199216819073,"connected_time":907000000000,"state":"active","ping":61},{"user_id":114,"name":"cakey","steam_id":76561198173746761,"connected_time":341000000000,"state":"active","ping":45}]},{"server_id":395,"name":"Uncletopia | Sydney | 3 | All Maps","name_short":"syd-3","host":"syd-1.au.uncletopia.com","port":27035,"enabled":true,"region":"au","cc":"au","latitude":-33.865143,"longitude":151.2099,"reserved":0,"last_update":"0001-01-01T00:00:00Z","name_a2s":"Uncletopia | Sydney | 3 | All Maps","protocol":17,"map":"cp_mountainlab","folder":"tf","game":"Team Fortress","app_id":440,"player_count":0,"max_players":24,"Bots":0,"server_type":"Dedicated","server_os":"Linux","password":true,"vac":true,"version":"7961495","steam_id":85568392925194467,"keywords":["cp","nocrits","nodmgspread","uncletopia"],"game_id":440,"stv_port":27036,"stv_name":"Uncletopia | Sydney | 3 | All Maps | STV","players":null},{"server_id":396,"name":"Uncletopia | Sydney | 4 | All Maps","name_short":"syd-4","host":"syd-1.au.uncletopia.com","port":27045,"enabled":true,"region":"au","cc":"au","latitude":-33.865143,"longitude":151.2099,"reserved":0,"last_update":"0001-01-01T00:00:00Z","name_a2s":"Uncletopia | Sydney | 4 | All Maps","protocol":17,"map":"pl_barnblitz","folder":"tf","game":"Team Fortress","app_id":440,"player_count":0,"max_players":24,"Bots":0,"server_type":"Dedicated","server_os":"Linux","password":true,"vac":true,"version":"7961495","steam_id":85568392925397958,"keywords":["nocrits","nodmgspread","payload","uncletopia"],"game_id":440,"stv_port":27046,"stv_name":"Uncletopia | Sydney | 4 | All Maps | STV","players":null},{"server_id":58,"name":"Uncletopia | Sydney | 5 | Stopwatch Beta","name_short":"syd-5","host":"syd-1.au.uncletopia.com","port":27055,"enabled":true,"region":"au","cc":"au","latitude":-33.865143,"longitude":151.2099,"reserved":0,"last_update":"0001-01-01T00:00:00Z","name_a2s":"Uncletopia | Sydney | 5 | Stopwatch Beta","protocol":17,"map":"workshop/koth_bagel_rc6.ugc2514036946","folder":"tf","game":"Team Fortress","app_id":440,"player_count":0,"max_players":24,"Bots":0,"server_type":"Dedicated","server_os":"Linux","password":true,"vac":true,"version":"7961495","steam_id":85568392925397959,"keywords":["cp","nocrits","nodmgspread","uncletopia"],"game_id":440,"stv_port":27056,"stv_name":"Uncletopia | Sydney | 5 | Stopwatch Beta | STV","players":null},{"server_id":59,"name":"Uncletopia | Sydney | 6 | Community","name_short":"syd-6","host":"syd-1.au.uncletopia.com","port":27065,"enabled":true,"region":"au","cc":"au","latitude":-33.865143,"longitude":151.2099,"reserved":0,"last_update":"0001-01-01T00:00:00Z","name_a2s":"Uncletopia | Sydney | 6 | Community","protocol":17,"map":"pl_swiftwater_final1","folder":"tf","game":"Team Fortress","app_id":440,"player_count":0,"max_players":24,"Bots":0,"server_type":"Dedicated","server_os":"Linux","password":true,"vac":true,"version":"7961495","steam_id":85568392925397960,"keywords":["nocrits","nodmgspread","payload","uncletopia"],"game_id":440,"stv_port":27066,"stv_name":"Uncletopia | Sydney | 6 | Community | STV","players":null},{"server_id":49,"name":"Uncletopia | Warsaw | 1 | All Maps","name_short":"waw-1","host":"waw-1.pl.uncletopia.com","port":27015,"enabled":true,"region":"eu","cc":"pl","latitude":52.2297,"longitude":21.017532,"reserved":0,"last_update":"0001-01-01T00:00:00Z","name_a2s":"Uncletopia | Warsaw | 1 | All Maps","protocol":17,"map":"cp_sunshine","folder":"tf","game":"Team Fortress","app_id":440,"player_count":0,"max_players":24,"Bots":0,"server_type":"Dedicated","server_os":"Linux","password":true,"vac":true,"version":"7961495","steam_id":85568392925397850,"keywords":["cp","nocrits","nodmgspread","uncletopia"],"game_id":440,"stv_port":27016,"stv_name":"Uncletopia | Warsaw | 1 | All Maps | STV","players":null},{"server_id":50,"name":"Uncletopia | Warsaw | 2 | All Maps","name_short":"waw-2","host":"waw-1.pl.uncletopia.com","port":27025,"enabled":true,"region":"eu","cc":"pl","latitude":52.2297,"longitude":21.017532,"reserved":0,"last_update":"0001-01-01T00:00:00Z","name_a2s":"Uncletopia | Warsaw | 2 | All Maps","protocol":17,"map":"pl_badwater","folder":"tf","game":"Team Fortress","app_id":440,"player_count":0,"max_players":24,"Bots":0,"server_type":"Dedicated","server_os":"Linux","password":true,"vac":true,"version":"7961495","steam_id":85568392925397851,"keywords":["nocrits","nodmgspread","payload","uncletopia"],"game_id":440,"stv_port":27026,"stv_name":"Uncletopia | Warsaw | 2 | All Maps | STV","players":null},{"server_id":51,"name":"Uncletopia | Warsaw | 3 | All Maps","name_short":"waw-3","host":"waw-1.pl.uncletopia.com","port":27035,"enabled":true,"region":"eu","cc":"pl","latitude":52.2297,"longitude":21.017532,"reserved":0,"last_update":"0001-01-01T00:00:00Z","name_a2s":"Uncletopia | Warsaw | 3 | All Maps","protocol":17,"map":"cp_process_final","folder":"tf","game":"Team Fortress","app_id":440,"player_count":0,"max_players":24,"Bots":0,"server_type":"Dedicated","server_os":"Linux","password":true,"vac":true,"version":"7961495","steam_id":85568392925397852,"keywords":["cp","nocrits","nodmgspread","uncletopia"],"game_id":440,"stv_port":27036,"stv_name":"Uncletopia | Warsaw | 3 | All Maps | STV","players":null},{"server_id":52,"name":"Uncletopia | Warsaw | 4 | All Maps","name_short":"waw-4","host":"waw-1.pl.uncletopia.com","port":27045,"enabled":true,"region":"eu","cc":"pl","latitude":52.2297,"longitude":21.017532,"reserved":0,"last_update":"0001-01-01T00:00:00Z","name_a2s":"Uncletopia | Warsaw | 4 | All Maps","protocol":17,"map":"pl_badwater","folder":"tf","game":"Team Fortress","app_id":440,"player_count":0,"max_players":24,"Bots":0,"server_type":"Dedicated","server_os":"Linux","password":true,"vac":true,"version":"7961495","steam_id":85568392925397853,"keywords":["nocrits","nodmgspread","payload","uncletopia"],"game_id":440,"stv_port":27046,"stv_name":"Uncletopia | Warsaw | 4 | All Maps | STV","players":null},{"server_id":53,"name":"Uncletopia | Warsaw | 5 | Stopwatch Beta","name_short":"waw-5","host":"waw-1.pl.uncletopia.com","port":27055,"enabled":true,"region":"eu","cc":"pl","latitude":52.2297,"longitude":21.017532,"reserved":0,"last_update":"0001-01-01T00:00:00Z","name_a2s":"Uncletopia | Warsaw | 5 | Stopwatch Beta","protocol":17,"map":"pl_snowycoast","folder":"tf","game":"Team Fortress","app_id":440,"player_count":0,"max_players":24,"Bots":0,"server_type":"Dedicated","server_os":"Linux","password":true,"vac":true,"version":"7961495","steam_id":85568392925397854,"keywords":["nocrits","nodmgspread","payload","uncletopia"],"game_id":440,"stv_port":27056,"stv_name":"Uncletopia | Warsaw | 5 | Stopwatch Beta | STV","players":null},{"server_id":54,"name":"Uncletopia | Warsaw | 6 | Community","name_short":"waw-6","host":"waw-1.pl.uncletopia.com","port":27065,"enabled":true,"region":"eu","cc":"pl","latitude":52.2297,"longitude":21.017532,"reserved":0,"last_update":"0001-01-01T00:00:00Z","name_a2s":"Uncletopia | Warsaw | 6 | Community","protocol":17,"map":"pl_borneo","folder":"tf","game":"Team Fortress","app_id":440,"player_count":0,"max_players":24,"Bots":0,"server_type":"Dedicated","server_os":"Linux","password":true,"vac":true,"version":"7961495","steam_id":85568392925397856,"keywords":["nocrits","nodmgspread","payload","uncletopia"],"game_id":440,"stv_port":27066,"stv_name":"Uncletopia | Warsaw | 6 | Community | STV","players":null}]}