{"status":true,"message":"","result":[{"server_id":9,"name":"Uncletopia | Atlanta | 1 | All Maps","name_short":"atl-1","host":"atl-1.us.uncletopia.com","port":27015,"enabled":true,"region":"us-east","cc":"us","latitude":33.753746,"longitude":-84.38633,"reserved":0,"last_update":"0001-01-01T00:00:00Z","name_a2s":"Uncletopia | Atlanta | 1 | All Maps","protocol":17,"map":"pl_upward","folder":"tf","game":"Team Fortress","app_id":440,"player_count":22,"max_players":24,"Bots":0,"server_type":"Dedicated","server_os":"Linux","password":true,"vac":true,"version":"7757534","steam_id":85568392924469982,"keywords":["nocrits","nodmgspread","payload","uncletopia"],"game_id":440,"stv_port":27016,"stv_name":"Uncletopia | Atlanta | 1 | All Maps | STV","players":[{"user_id":9,"name":"Mayor McCheese","steam_id":76561198055417680,"connected_time":2895000000000,"state":"active","ping":60},{"user_id":10,"name":"bad","steam_id":76561198083700067,"connected_time":2862000000000,"state":"active","ping":54},{"user_id":11,"name":"Dat Boi","steam_id":76561198024552120,"connected_time":2861000000000,"state":"active","ping":52},{"user_id":18,"name":"yellow diamonds","steam_id":76561198046913048,"connected_time":2378000000000,"state":"active","ping":89},{"user_id":59,"name":"CamelyKonas","steam_id":76561198097672992,"connected_time":400000000000,"state":"active","ping":75},{"user_id":68,"name":"XXL","steam_id":76561198026875270,"connected_time":10000000000,"state":"spawning","ping":72},{"user_id":66,"name":"caberknight tf2","steam_id":76561199273882768,"connected_time":43000000000,"state":"active","ping":62},{"user_id":20,"name":"Oatmeal","steam_id":76561199378924674,"connected_time":2305000000000,"state":"active","ping":93},{"user_id":57,"name":"Doppelpunkt","steam_id":76561198102137730,"connected_time":464000000000,"state":"active","ping":45},{"user_id":24,"name":"yeetmaster","steam_id":76561199079257062,"connected_time":1999000000000,"state":"active","ping":73},{"user_id":58,"name":"Razor Blade","steam_id":76561198069735882,"connected_time":439000000000,"state":"active","ping":49},{"user_id":69,"name":"Pirate duck","steam_id":76561198373484722,"connected_time":2000000000,"state":"spawning","ping":235},{"user_id":42,"name":"Tempus Fugit - Memento Mori","steam_id":76561198047672832,"connected_time":1302000000000,"state":"spawning","ping":51},{"user_id":52,"name":"Temmie500","steam_id":76561199067942631,"connected_time":688000000000,"state":"active","ping":90},{"user_id":29,"name":"Nova‚ô•","steam_id":76561198436555608,"connected_time":1877000000000,"state":"active","ping":84},{"user_id":30,"name":"Osrio","steam_id":76561198083428069,"connected_time":1870000000000,"state":"active","ping":105},{"user_id":31,"name":"Twattat","steam_id":76561198074563850,"connected_time":1845000000000,"state":"active","ping":86},{"user_id":64,"name":"Potato Person","steam_id":76561198010373482,"connected_time":249000000000,"state":"active","ping":69},{"user_id":60,"name":"Ulrich Stern","steam_id":76561198101739682,"connected_time":369000000000,"state":"spawning","ping":75},{"user_id":67,"name":"IamLightning","steam_id":76561198193881559,"connected_time":41000000000,"state":"active","ping":48},{"user_id":46,"name":"indi","steam_id":76561198045917538,"connected_time":947000000000,"state":"active","ping":60},{"user_id":40,"name":"Tony Rigatoni","steam_id":76561198040602075,"connected_time":1568000000000,"state":"active","ping":86}]},{"server_id":104,"name":"Uncletopia | Atlanta | 2 | All Maps","name_short":"atl-2","host":"atl-1.us.uncletopia.com","port":27025,"enabled":true,"region":"us-east","cc":"us","latitude":33.753746,"longitude":-84.38633,"reserved":0,"last_update":"0001-01-01T00:00:00Z","name_a2s":"Uncletopia | Atlanta | 2 | All Maps","protocol":17,"map":"cp_dustbowl","folder":"tf","game":"Team Fortress","app_id":440,"player_count":0,"max_players":24,"Bots":0,"server_type":"Dedicated","server_os":"Linux","password":true,"vac":true,"version":"7757534","steam_id":85568392924469983,"keywords":["cp","nocrits","nodmgspread","uncletopia"],"game_id":440,"stv_port":27026,"stv_name":"Uncletopia | Atlanta | 2 | All Maps | STV","players":null},{"server_id":400,"name":"Uncletopia | Atlanta | 3 | Community","name_short":"atl-3","host":"atl-1.us.uncletopia.com","port":27035,"enabled":true,"region":"us-east","cc":"us","latitude":33.753746,"longitude":-84.38633,"reserved":0,"last_update":"0001-01-01T00:00:00Z","name_a2s":"Uncletopia | Atlanta | 3 | Community","protocol":17,"map":"workshop/koth_bagel_rc6.ugc2514036946","folder":"tf","game":"Team Fortress","app_id":440,"player_count":8,"max_players":24,"Bots":0,"server_type":"Dedicated","server_os":"Linux","password":true,"vac":true,"version":"7757534","steam_id":85568392924515187,"keywords":["cp","nocrits","nodmgspread","uncletopia"],"game_id":440,"stv_port":27036,"stv_name":"Uncletopia | Atlanta | 3 | Community | STV","players":[{"user_id":4,"name":"luigifan","steam_id":76561199428693962,"connected_time":3811000000000,"state":"active","ping":51},{"user_id":5,"name":"ligma certified sussy balls 201","steam_id":76561197979090955,"connected_time":3078000000000,"state":"active","ping":59},{"user_id":14,"name":"William Wallace","steam_id":76561199343316814,"connected_time":526000000000,"state":"active","ping":58},{"user_id":18,"name":"name420","steam_id":76561198129374525,"connected_time":161000000000,"state":"active","ping":45},{"user_id":15,"name":"mari_","steam_id":76561198137855741,"connected_time":311000000000,"state":"active","ping":64},{"user_id":11,"name":"Ltn. What's-his-Nuts","steam_id":76561198133834262,"connected_time":1404000000000,"state":"active","ping":68},{"user_id":16,"name":"Warrenator","steam_id":76561198132094572,"connected_time":239000000000,"state":"active","ping":69},{"user_id":17,"name":"confused","steam_id":76561198018654093,"connected_time":208000000000,"state":"active","ping":60}]},{"server_id":401,"name":"Uncletopia | Atlanta | 4 | No Payload","name_short":"atl-4","host":"atl-1.us.uncletopia.com","port":27045,"enabled":true,"region":"us-east","cc":"us","latitude":33.753746,"longitude":-84.38633,"reserved":0,"last_update":"0001-01-01T00:00:00Z","name_a2s":"","protocol":0,"map":"","folder":"","game":"","app_id":0,"player_count":0,"max_players":0,"Bots":0,"server_type":"","server_os":"","password":false,"vac":false,"version":"","steam_id":0,"keywords":null,"game_id":0,"stv_port":0,"stv_name":"","players":null},{"server_id":2,"name":"Uncletopia | Chicago | 1 | All Maps","name_short":"chi-1","host":"chi-1.us.uncletopia.com","port":27015,"enabled":true,"region":"us-central","cc":"us","latitude":41.881832,"longitude":-87.62318,"reserved":0,"last_update":"0001-01-01T00:00:00Z","name_a2s":"Uncletopia | Chicago | 1 | All Maps","protocol":17,"map":"cp_snakewater_final1","folder":"tf","game":"Team Fortress","app_id":440,"player_count":24,"max_players":24,"Bots":0,"server_type":"Dedicated","server_os":"Linux","password":true,"vac":true,"version":"7757534","steam_id":85568392924469984,"keywords":["cp","nocrits","nodmgspread","uncletopia"],"game_id":440,"stv_port":27016,"stv_name":"Uncletopia | Chicago | 1 | All Maps | STV","players":[{"user_id":77,"name":"H0wlr","steam_id":76561198012332824,"connected_time":1260000000000,"state":"active","ping":58},{"user_id":63,"name":"Zymiren","steam_id":76561198054985471,"connected_time":2409000000000,"state":"active","ping":92},{"user_id":15,"name":"CJspellsfish","steam_id":76561198277342368,"connected_time":5155000000000,"state":"active","ping":76},{"user_id":64,"name":"qwerg","steam_id":76561198107191794,"connected_time":2316000000000,"state":"active","ping":72},{"user_id":82,"name":"BumbusêêòBumbi","steam_id":76561198054195319,"connected_time":910000000000,"state":"active","ping":107},{"user_id":20,"name":"tone","steam_id":76561198006505587,"connected_time":4900000000000,"state":"active","ping":82},{"user_id":87,"name":"Commodore Fox05","steam_id":76561198400161840,"connected_time":349000000000,"state":"active","ping":90},{"user_id":89,"name":"poiuytrewqwqwqwqwqwqwqwqwqwqwqw","steam_id":76561199105253001,"connected_time":53000000000,"state":"active","ping":73},{"user_id":85,"name":"Chap","steam_id":76561198294226443,"connected_time":814000000000,"state":"active","ping":136},{"user_id":66,"name":"Romo","steam_id":76561198243101572,"connected_time":2306000000000,"state":"active","ping":80},{"user_id":67,"name":"three cats in a tenchcoat","steam_id":76561199267535506,"connected_time":2301000000000,"state":"active","ping":59},{"user_id":62,"name":"Aramane has NO chill","steam_id":76561197970034459,"connected_time":2421000000000,"state":"active","ping":59},{"user_id":78,"name":"MoanfulMilk","steam_id":76561199229169396,"connected_time":1177000000000,"state":"active","ping":62},{"user_id":74,"name":"Prymtime","steam_id":76561198156140502,"connected_time":1570000000000,"state":"active","ping":56},{"user_id":68,"name":"Doom Cart","steam_id":76561198158543955,"connected_time":2283000000000,"state":"active","ping":54},{"user_id":79,"name":"cold spaghetti","steam_id":76561198983037944,"connected_time":946000000000,"state":"active","ping":80},{"user_id":61,"name":"scotch tape","steam_id":76561199389314894,"connected_time":2584000000000,"state":"active","ping":59},{"user_id":70,"name":"Womp","steam_id":76561198245103000,"connected_time":2099000000000,"state":"active","ping":70},{"user_id":80,"name":"Kars","steam_id":76561198845612670,"connected_time":943000000000,"state":"active","ping":90},{"user_id":88,"name":"HE‚ÄôS IN THE GODDAMN WALLS","steam_id":76561198363267009,"connected_time":151000000000,"state":"active","ping":67},{"user_id":45,"name":"catface","steam_id":76561198096347625,"connected_time":3838000000000,"state":"active","ping":75},{"user_id":86,"name":"cokersworld","steam_id":76561198039731344,"connected_time":757000000000,"state":"active","ping":162},{"user_id":60,"name":"BarrowBaron","steam_id":76561198013633236,"connected_time":2842000000000,"state":"active","ping":69},{"user_id":76,"name":"Extinct","steam_id":76561199013696367,"connected_time":1291000000000,"state":"active","ping":72}]},{"server_id":106,"name":"Uncletopia | Chicago | 2 | All Maps","name_short":"chi-2","host":"chi-1.us.uncletopia.com","port":27025,"enabled":true,"region":"us-central","cc":"us","latitude":41.881832,"longitude":-87.62318,"reserved":0,"last_update":"0001-01-01T00:00:00Z","name_a2s":"Uncletopia | Chicago | 2 | All Maps","protocol":17,"map":"pl_frontier_final","folder":"tf","game":"Team Fortress","app_id":440,"player_count":24,"max_players":24,"Bots":0,"server_type":"Dedicated","server_os":"Linux","password":true,"vac":true,"version":"7757534","steam_id":85568392924469985,"keywords":["nocrits","nodmgspread","payload","uncletopia"],"game_id":440,"stv_port":27026,"stv_name":"Uncletopia | Chicago | 2 | All Maps | STV","players":[{"user_id":154,"name":"avantime","steam_id":76561199203175541,"connected_time":826000000000,"state":"active","ping":91},{"user_id":138,"name":"teaspinator","steam_id":76561199069748074,"connected_time":2384000000000,"state":"active","ping":42},{"user_id":121,"name":"Hotdog Goblin","steam_id":76561198004133638,"connected_time":3711000000000,"state":"active","ping":98},{"user_id":126,"name":"A-Train","steam_id":76561199149863677,"connected_time":3004000000000,"state":"active","ping":71},{"user_id":94,"name":"richard clock","steam_id":76561198048455671,"connected_time":6131000000000,"state":"active","ping":53},{"user_id":102,"name":"jema","steam_id":76561198276513608,"connected_time":5429000000000,"state":"active","ping":165},{"user_id":152,"name":"rhymes_with_garden","steam_id":76561198307828116,"connected_time":881000000000,"state":"active","ping":59},{"user_id":124,"name":"MrKokonut","steam_id":76561198879575825,"connected_time":3312000000000,"state":"active","ping":56},{"user_id":133,"name":"Mister","steam_id":76561198097164652,"connected_time":2450000000000,"state":"active","ping":74},{"user_id":148,"name":"Ichthyology Enthusiast","steam_id":76561198854662187,"connected_time":1490000000000,"state":"active","ping":54},{"user_id":141,"name":"ARetardedPotato","steam_id":76561198086451441,"connected_time":2077000000000,"state":"active","ping":143},{"user_id":127,"name":"An Offended","steam_id":76561198162461585,"connected_time":2763000000000,"state":"active","ping":103},{"user_id":153,"name":"Soull","steam_id":76561199188088471,"connected_time":873000000000,"state":"active","ping":84},{"user_id":151,"name":"Mikael_01","steam_id":76561199080253129,"connected_time":1400000000000,"state":"active","ping":184},{"user_id":149,"name":"DRLdestroyer","steam_id":76561198085803893,"connected_time":1460000000000,"state":"active","ping":57},{"user_id":106,"name":"creepycrawler","steam_id":76561198352016831,"connected_time":5059000000000,"state":"active","ping":59},{"user_id":130,"name":"EnergyBolt30","steam_id":76561198925178957,"connected_time":2532000000000,"state":"active","ping":79},{"user_id":129,"name":"vanilla linguine","steam_id":76561198155661890,"connected_time":2581000000000,"state":"active","ping":71},{"user_id":156,"name":"Proof by close enough","steam_id":76561198083345384,"connected_time":745000000000,"state":"active","ping":88},{"user_id":30,"name":"vyx","steam_id":76561198037205391,"connected_time":10697000000000,"state":"active","ping":69},{"user_id":150,"name":"Dragon9990","steam_id":76561199094804095,"connected_time":1450000000000,"state":"active","ping":81},{"user_id":157,"name":"mrselfdestruct13","steam_id":76561197992054553,"connected_time":569000000000,"state":"active","ping":77},{"user_id":123,"name":"Vanilla trains rights choo choo","steam_id":76561199106847859,"connected_time":3350000000000,"state":"active","ping":68},{"user_id":92,"name":"Lia_Rein","steam_id":76561198151569597,"connected_time":6719000000000,"state":"active","ping":141}]},{"server_id":402,"name":"Uncletopia | Chicago | 3 | All Maps","name_short":"chi-3","host":"chi-1.us.uncletopia.com","port":27035,"enabled":true,"region":"us-central","cc":"us","latitude":41.881832,"longitude":-87.62318,"reserved":0,"last_update":"0001-01-01T00:00:00Z","name_a2s":"Uncletopia | Chicago | 3 | All Maps","protocol":17,"map":"cp_snakewater_final1","folder":"tf","game":"Team Fortress","app_id":440,"player_count":0,"max_players":24,"Bots":0,"server_type":"Dedicated","server_os":"Linux","password":true,"vac":true,"version":"7757534","steam_id":85568392924515191,"keywords":["cp","nocrits","nodmgspread","uncletopia"],"game_id":440,"stv_port":27036,"stv_name":"Uncletopia | Chicago | 3 | All Maps | STV","players":null},{"server_id":403,"name":"Uncletopia | Chicago | 4 | All Maps","name_short":"chi-4","host":"chi-1.us.uncletopia.com","port":27045,"enabled":true,"region":"us-central","cc":"us","latitude":41.881832,"longitude":-87.62318,"reserved":0,"last_update":"0001-01-01T00:00:00Z","name_a2s":"Uncletopia | Chicago | 4 | All Maps","protocol":17,"map":"cp_process_final","folder":"tf","game":"Team Fortress","app_id":440,"player_count":24,"max_players":24,"Bots":0,"server_type":"Dedicated","server_os":"Linux","password":true,"vac":true,"version":"7757534","steam_id":85568392924515193,"keywords":["cp","nocrits","nodmgspread","uncletopia"],"game_id":440,"stv_port":27046,"stv_name":"Uncletopia | Chicago | 4 | All Maps | STV","players":[{"user_id":50,"name":"Metbol","steam_id":76561198001362410,"connected_time":4123000000000,"state":"active","ping":82},{"user_id":105,"name":"Jimmy jam123","steam_id":76561199216003981,"connected_time":316000000000,"state":"active","ping":78},{"user_id":88,"name":"RiverEgg","steam_id":76561198888913405,"connected_time":1601000000000,"state":"active","ping":48},{"user_id":52,"name":"TrashMann","steam_id":76561198040969743,"connected_time":3981000000000,"state":"active","ping":72},{"user_id":95,"name":"careuwuy","steam_id":76561198077321435,"connected_time":953000000000,"state":"active","ping":75},{"user_id":41,"name":"G0LD","steam_id":76561198890015734,"connected_time":5476000000000,"state":"active","ping":75},{"user_id":84,"name":"bappoOG","steam_id":76561199294792123,"connected_time":1841000000000,"state":"active","ping":57},{"user_id":98,"name":"Carbon","steam_id":76561198841036715,"connected_time":890000000000,"state":"active","ping":71},{"user_id":106,"name":"like","steam_id":76561199103766971,"connected_time":297000000000,"state":"active","ping":85},{"user_id":107,"name":"Retrowave","steam_id":76561198061921346,"connected_time":280000000000,"state":"active","ping":65},{"user_id":102,"name":"volta","steam_id":76561199214283884,"connected_time":757000000000,"state":"active","ping":96},{"user_id":69,"name":"Corpe","steam_id":76561198054490549,"connected_time":2792000000000,"state":"active","ping":104},{"user_id":96,"name":"_Lusty_","steam_id":76561198876948142,"connected_time":951000000000,"state":"active","ping":67},{"user_id":101,"name":"KentYardAssociate","steam_id":76561198290499758,"connected_time":789000000000,"state":"active","ping":74},{"user_id":108,"name":"Cooki","steam_id":76561198051705314,"connected_time":277000000000,"state":"active","ping":69},{"user_id":104,"name":"mineblast99","steam_id":76561199065648954,"connected_time":323000000000,"state":"active","ping":76},{"user_id":83,"name":"SCARY MONSTERS","steam_id":76561198042034176,"connected_time":1923000000000,"state":"active","ping":60},{"user_id":63,"name":"Loop","steam_id":76561198880211576,"connected_time":3332000000000,"state":"active","ping":97},{"user_id":109,"name":"Reverie","steam_id":76561198987005784,"connected_time":275000000000,"state":"active","ping":63},{"user_id":29,"name":"BONZ","steam_id":76561199445629071,"connected_time":6018000000000,"state":"active","ping":63},{"user_id":91,"name":"seductive smell of oreos","steam_id":76561198032791567,"connected_time":1544000000000,"state":"active","ping":87},{"user_id":47,"name":"OReally","steam_id":76561197974569241,"connected_time":4351000000000,"state":"active","ping":59},{"user_id":65,"name":"hk","steam_id":76561197977182378,"connected_time":3281000000000,"state":"active","ping":46},{"user_id":92,"name":"Vial of Throbb","steam_id":76561198348095996,"connected_time":1510000000000,"state":"active","ping":70}]},{"server_id":36,"name":"Uncletopia | Chicago | 5 | All Maps","name_short":"chi-5","host":"chi-2.us.uncletopia.com","port":27015,"enabled":true,"region":"us-central","cc":"us","latitude":41.881832,"longitude":-87.62318,"reserved":0,"last_update":"0001-01-01T00:00:00Z","name_a2s":"Uncletopia | Chicago | 5 | All Maps","protocol":17,"map":"koth_cascade","folder":"tf","game":"Team Fortress","app_id":440,"player_count":0,"max_players":24,"Bots":0,"server_type":"Dedicated","server_os":"Linux","password":true,"vac":true,"version":"7757534","steam_id":85568392924866362,"keywords":["cp","nocrits","nodmgspread","uncletopia"],"game_id":440,"stv_port":27016,"stv_name":"Uncletopia | Chicago | 5 | All Maps | STV","players":null},{"server_id":37,"name":"Uncletopia | Chicago | 6 | All Maps","name_short":"chi-6","host":"chi-2.us.uncletopia.com","port":27025,"enabled":true,"region":"us-central","cc":"us","latitude":41.881832,"longitude":-87.62318,"reserved":0,"last_update":"0001-01-01T00:00:00Z","name_a2s":"Uncletopia | Chicago | 6 | All Maps","protocol":17,"map":"pl_borneo","folder":"tf","game":"Team Fortress","app_id":440,"player_count":0,"max_players":24,"Bots":0,"server_type":"Dedicated","server_os":"Linux","password":true,"vac":true,"version":"7757534","steam_id":85568392924866363,"keywords":["nocrits","nodmgspread","payload","uncletopia"],"game_id":440,"stv_port":27026,"stv_name":"Uncletopia | Chicago | 6 | All Maps | STV","players":null},{"server_id":38,"name":"Uncletopia | Chicago | 7 | Stopwatch Beta","name_short":"chi-7","host":"chi-2.us.uncletopia.com","port":27035,"enabled":true,"region":"us-central","cc":"us","latitude":41.881832,"longitude":-87.62318,"reserved":0,"last_update":"0001-01-01T00:00:00Z","name_a2s":"Uncletopia | Chicago | 7 | Stopwatch Beta","protocol":17,"map":"pl_swiftwater_final1","folder":"tf","game":"Team Fortress","app_id":440,"player_count":0,"max_players":24,"Bots":0,"server_type":"Dedicated","server_os":"Linux","password":true,"vac":true,"version":"7757534","steam_id":85568392924866364,"keywords":["nocrits","nodmgspread","payload","uncletopia"],"game_id":440,"stv_port":27036,"stv_name":"Uncletopia | Chicago | 7 | Stopwatch Beta | STV","players":null},{"server_id":39,"name":"Uncletopia | Chicago | 8 | Community","name_short":"chi-8","host":"chi-2.us.uncletopia.com","port":27045,"enabled":true,"region":"us-central","cc":"us","latitude":41.881832,"longitude":-87.62318,"reserved":0,"last_update":"0001-01-01T00:00:00Z","name_a2s":"Uncletopia | Chicago | 8 | Community","protocol":17,"map":"koth_cascade","folder":"tf","game":"Team Fortress","app_id":440,"player_count":0,"max_players":24,"Bots":0,"server_type":"Dedicated","server_os":"Linux","password":true,"vac":true,"version":"7757534","steam_id":85568392924866365,"keywords":["cp","nocrits","nodmgspread","uncletopia"],"game_id":440,"stv_port":27046,"stv_name":"Uncletopia | Chicago | 8 | Community | STV","players":null},{"server_id":8,"name":"Uncletopia | Dallas | 1 | All Maps","name_short":"dal-1","host":"dal-1.us.uncletopia.com","port":27015,"enabled":true,"region":"us-central","cc":"us","latitude":32.779167,"longitude":-96.80889,"reserved":0,"last_update":"0001-01-01T00:00:00Z","name_a2s":"Uncletopia | Dallas | 1 | All Maps","protocol":17,"map":"koth_cascade","folder":"tf","game":"Team Fortress","app_id":440,"player_count":0,"max_players":24,"Bots":0,"server_type":"Dedicated","server_os":"Linux","password":true,"vac":true,"version":"7757534","steam_id":85568392924469986,"keywords":["cp","nocrits","nodmgspread","uncletopia"],"game_id":440,"stv_port":27016,"stv_name":"Uncletopia | Dallas | 1 | All Maps | STV","players":null},{"server_id":108,"name":"Uncletopia | Dallas | 2 | All Maps","name_short":"dal-2","host":"dal-1.us.uncletopia.com","port":27025,"enabled":true,"region":"us-central","cc":"us","latitude":32.779167,"longitude":-96.80889,"reserved":0,"last_update":"0001-01-01T00:00:00Z","name_a2s":"Uncletopia | Dallas | 2 | All Maps","protocol":17,"map":"pl_upward","folder":"tf","game":"Team Fortress","app_id":440,"player_count":0,"max_players":24,"Bots":0,"server_type":"Dedicated","server_os":"Linux","password":true,"vac":true,"version":"7757534","steam_id":85568392924469988,"keywords":["nocrits","nodmgspread","payload","uncletopia"],"game_id":440,"stv_port":27026,"stv_name":"Uncletopia | Dallas | 2 | All Maps | STV","players":null},{"server_id":5,"name":"Uncletopia | Frankfurt | 1 | All Maps","name_short":"frk-1","host":"frk-1.de.uncletopia.com","port":27015,"enabled":true,"region":"eu","cc":"de","latitude":50.110924,"longitude":8.682127,"reserved":0,"last_update":"0001-01-01T00:00:00Z","name_a2s":"Uncletopia | Frankfurt | 1 | All Maps","protocol":17,"map":"pl_barnblitz","folder":"tf","game":"Team Fortress","app_id":440,"player_count":24,"max_players":24,"Bots":0,"server_type":"Dedicated","server_os":"Linux","password":true,"vac":true,"version":"7757534","steam_id":85568392924469989,"keywords":["nocrits","nodmgspread","payload","uncletopia"],"game_id":440,"stv_port":27016,"stv_name":"Uncletopia | Frankfurt | 1 | All Maps | STV","players":[{"user_id":12,"name":"TheShadowScribe","steam_id":76561199037525945,"connected_time":7104000000000,"state":"active","ping":95},{"user_id":82,"name":"howabe","steam_id":76561197996486818,"connected_time":199000000000,"state":"active","ping":50},{"user_id":71,"name":"Malkuth","steam_id":76561198058567662,"connected_time":1068000000000,"state":"active","ping":89},{"user_id":53,"name":"getfuckedlol","steam_id":76561199346996151,"connected_time":2294000000000,"state":"active","ping":76},{"user_id":74,"name":"NLSAM","steam_id":76561199111154916,"connected_time":976000000000,"state":"active","ping":66},{"user_id":21,"name":"gaming for jesus","steam_id":76561199236428794,"connected_time":3934000000000,"state":"active","ping":83},{"user_id":66,"name":"i look at gay people","steam_id":76561198078032019,"connected_time":1611000000000,"state":"active","ping":75},{"user_id":76,"name":"bigmazi","steam_id":76561198133276643,"connected_time":952000000000,"state":"active","ping":88},{"user_id":22,"name":"Espa√±aa","steam_id":76561198879587832,"connected_time":3855000000000,"state":"active","ping":86},{"user_id":83,"name":"Kikuri Hiroi","steam_id":76561198376786609,"connected_time":70000000000,"state":"active","ping":96},{"user_id":65,"name":"He could be any one of us","steam_id":76561198320506848,"connected_time":1904000000000,"state":"active","ping":55},{"user_id":57,"name":"Deacon Dracul","steam_id":76561198046880663,"connected_time":2186000000000,"state":"active","ping":104},{"user_id":47,"name":"CRWND","steam_id":76561198329810027,"connected_time":2574000000000,"state":"active","ping":59},{"user_id":34,"name":"KNARRER","steam_id":76561199130777953,"connected_time":3513000000000,"state":"active","ping":56},{"user_id":73,"name":"diogob_coelho","steam_id":76561199076279677,"connected_time":990000000000,"state":"active","ping":89},{"user_id":59,"name":"WX-78","steam_id":76561199117263527,"connected_time":2106000000000,"state":"active","ping":153},{"user_id":67,"name":"Animatic","steam_id":76561198186421601,"connected_time":1591000000000,"state":"active","ping":181},{"user_id":31,"name":"Wizops","steam_id":76561198907030448,"connected_time":3577000000000,"state":"active","ping":158},{"user_id":62,"name":"Mr. Luigi","steam_id":76561198167312951,"connected_time":1968000000000,"state":"active","ping":54},{"user_id":61,"name":"meatsoupcube","steam_id":76561198276802249,"connected_time":1995000000000,"state":"active","ping":107},{"user_id":75,"name":"B@yka","steam_id":76561198986736592,"connected_time":976000000000,"state":"active","ping":74},{"user_id":77,"name":"FUKAYU","steam_id":76561198380484033,"connected_time":905000000000,"state":"active","ping":56},{"user_id":81,"name":"Wululu","steam_id":76561198180657331,"connected_time":239000000000,"state":"active","ping":67},{"user_id":70,"name":"Pingus","steam_id":76561198164880756,"connected_time":1131000000000,"state":"active","ping":74}]},{"server_id":110,"name":"Uncletopia | Frankfurt | 2 | All Maps","name_short":"frk-2","host":"frk-1.de.uncletopia.com","port":27025,"enabled":true,"region":"eu","cc":"de","latitude":50.110924,"longitude":8.682127,"reserved":0,"last_update":"0001-01-01T00:00:00Z","name_a2s":"Uncletopia | Frankfurt | 2 | All Maps","protocol":17,"map":"cp_dustbowl","folder":"tf","game":"Team Fortress","app_id":440,"player_count":24,"max_players":24,"Bots":0,"server_type":"Dedicated","server_os":"Linux","password":true,"vac":true,"version":"7757534","steam_id":85568392924469990,"keywords":["cp","nocrits","nodmgspread","uncletopia"],"game_id":440,"stv_port":27026,"stv_name":"Uncletopia | Frankfurt | 2 | All Maps | STV","players":[{"user_id":143,"name":"scroted sigma freud","steam_id":76561198162462063,"connected_time":771000000000,"state":"active","ping":65},{"user_id":123,"name":"bird","steam_id":76561198072166743,"connected_time":1960000000000,"state":"active","ping":152},{"user_id":119,"name":"blobe","steam_id":76561199044004054,"connected_time":2480000000000,"state":"active","ping":50},{"user_id":88,"name":"S0LDaTo","steam_id":76561198269413360,"connected_time":5890000000000,"state":"active","ping":64},{"user_id":100,"name":"Nyhde","steam_id":76561198012771416,"connected_time":4742000000000,"state":"active","ping":80},{"user_id":151,"name":"finbar","steam_id":76561198056812396,"connected_time":451000000000,"state":"active","ping":72},{"user_id":131,"name":"Jack","steam_id":76561198325505238,"connected_time":1735000000000,"state":"active","ping":75},{"user_id":152,"name":"MoeruKurowassan","steam_id":76561198319349647,"connected_time":393000000000,"state":"active","ping":83},{"user_id":126,"name":"Bigman","steam_id":76561199072016452,"connected_time":1847000000000,"state":"active","ping":166},{"user_id":147,"name":"dassasinb","steam_id":76561198128316186,"connected_time":671000000000,"state":"active","ping":66},{"user_id":111,"name":"Shi Ê≠ª","steam_id":76561199214163032,"connected_time":2950000000000,"state":"active","ping":94},{"user_id":148,"name":"jill valentine","steam_id":76561198075068529,"connected_time":639000000000,"state":"active","ping":48},{"user_id":121,"name":"mimi","steam_id":76561198060648946,"connected_time":2141000000000,"state":"active","ping":53},{"user_id":138,"name":"PanPatrik","steam_id":76561198293331527,"connected_time":1352000000000,"state":"active","ping":51},{"user_id":109,"name":"gunspy","steam_id":76561198969373800,"connected_time":3018000000000,"state":"active","ping":69},{"user_id":139,"name":"Shadow Jesus","steam_id":76561198272980963,"connected_time":1018000000000,"state":"active","ping":56},{"user_id":103,"name":"Rezkey","steam_id":76561198206079048,"connected_time":4472000000000,"state":"active","ping":60},{"user_id":117,"name":"TarekInnit","steam_id":76561198298618127,"connected_time":2641000000000,"state":"active","ping":56},{"user_id":150,"name":"Klifton","steam_id":76561198803743443,"connected_time":564000000000,"state":"active","ping":66},{"user_id":135,"name":"Lordware","steam_id":76561198022011299,"connected_time":1475000000000,"state":"active","ping":78},{"user_id":146,"name":"Asuka","steam_id":76561198358436150,"connected_time":693000000000,"state":"active","ping":59},{"user_id":97,"name":"Tobey Wan Kenobi","steam_id":76561198201249363,"connected_time":4763000000000,"state":"active","ping":94},{"user_id":66,"name":"Bobo","steam_id":76561198052308399,"connected_time":7381000000000,"state":"active","ping":58},{"user_id":130,"name":"MEDiUM","steam_id":76561198112328561,"connected_time":1814000000000,"state":"active","ping":77}]},{"server_id":308,"name":"Uncletopia | Frankfurt | 3 | All Maps","name_short":"frk-3","host":"frk-1.de.uncletopia.com","port":27035,"enabled":true,"region":"eu","cc":"de","latitude":50.110924,"longitude":8.682127,"reserved":0,"last_update":"0001-01-01T00:00:00Z","name_a2s":"Uncletopia | Frankfurt | 3 | All Maps","protocol":17,"map":"pl_frontier_final","folder":"tf","game":"Team Fortress","app_id":440,"player_count":1,"max_players":24,"Bots":0,"server_type":"Dedicated","server_os":"Linux","password":true,"vac":true,"version":"7757534","steam_id":85568392924504274,"keywords":["nocrits","nodmgspread","payload","uncletopia"],"game_id":440,"stv_port":27036,"stv_name":"Uncletopia | Frankfurt | 3 | All Maps | STV","players":[{"user_id":9,"name":"speedy_vespa","steam_id":76561199092013231,"connected_time":1000000000,"state":"spawning","ping":68}]},{"server_id":309,"name":"Uncletopia | Frankfurt | 4 | All Maps","name_short":"frk-4","host":"frk-1.de.uncletopia.com","port":27045,"enabled":true,"region":"eu","cc":"de","latitude":50.110924,"longitude":8.682127,"reserved":0,"last_update":"0001-01-01T00:00:00Z","name_a2s":"Uncletopia | Frankfurt | 4 | All Maps","protocol":17,"map":"koth_viaduct","folder":"tf","game":"Team Fortress","app_id":440,"player_count":3,"max_players":24,"Bots":0,"server_type":"Dedicated","server_os":"Linux","password":true,"vac":true,"version":"7757534","steam_id":85568392924504275,"keywords":["cp","nocrits","nodmgspread","uncletopia"],"game_id":440,"stv_port":27046,"stv_name":"Uncletopia | Frankfurt | 4 | All Maps | STV","players":[{"user_id":10,"name":"superd0074","steam_id":76561199440927207,"connected_time":1053000000000,"state":"active","ping":58},{"user_id":11,"name":"Nickel","steam_id":76561199037745941,"connected_time":957000000000,"state":"active","ping":128},{"user_id":14,"name":"Purple","steam_id":76561199032365015,"connected_time":279000000000,"state":"active","ping":89}]},{"server_id":310,"name":"Uncletopia | Frankfurt | 5 | All Maps","name_short":"frk-5","host":"frk-1.de.uncletopia.com","port":27055,"enabled":true,"region":"eu","cc":"de","latitude":50.110924,"longitude":8.682127,"reserved":0,"last_update":"0001-01-01T00:00:00Z","name_a2s":"Uncletopia | Frankfurt | 5 | All Maps","protocol":17,"map":"koth_lakeside_final","folder":"tf","game":"Team Fortress","app_id":440,"player_count":0,"max_players":24,"Bots":0,"server_type":"Dedicated","server_os":"Linux","password":true,"vac":true,"version":"7757534","steam_id":85568392924504277,"keywords":["cp","nocrits","nodmgspread","uncletopia"],"game_id":440,"stv_port":27056,"stv_name":"Uncletopia | Frankfurt | 5 | All Maps | STV","players":null},{"server_id":311,"name":"Uncletopia | Frankfurt | 6 | All Maps","name_short":"frk-6","host":"frk-1.de.uncletopia.com","port":27065,"enabled":true,"region":"eu","cc":"de","latitude":50.110924,"longitude":8.682127,"reserved":0,"last_update":"0001-01-01T00:00:00Z","name_a2s":"Uncletopia | Frankfurt | 6 | All Maps","protocol":17,"map":"cp_sunshine","folder":"tf","game":"Team Fortress","app_id":440,"player_count":24,"max_players":24,"Bots":0,"server_type":"Dedicated","server_os":"Linux","password":true,"vac":true,"version":"7757534","steam_id":85568392924504278,"keywords":["cp","nocrits","nodmgspread","uncletopia"],"game_id":440,"stv_port":27066,"stv_name":"Uncletopia | Frankfurt | 6 | All Maps | STV","players":[{"user_id":202,"name":"Monara12th","steam_id":76561199478607360,"connected_time":918000000000,"state":"active","ping":69},{"user_id":207,"name":"AreDaneel","steam_id":76561198204560201,"connected_time":597000000000,"state":"active","ping":150},{"user_id":208,"name":"autistic luigi","steam_id":76561199218285040,"connected_time":591000000000,"state":"active","ping":75},{"user_id":209,"name":"Hot Milk.","steam_id":76561198169969898,"connected_time":581000000000,"state":"active","ping":59},{"user_id":166,"name":"Old Boy Anter","steam_id":76561198153786963,"connected_time":4238000000000,"state":"active","ping":135},{"user_id":193,"name":"GipsySorcerer","steam_id":76561198170020311,"connected_time":1686000000000,"state":"active","ping":89},{"user_id":25,"name":"poliakov.noam","steam_id":76561199259322961,"connected_time":13991000000000,"state":"active","ping":107},{"user_id":175,"name":"lol","steam_id":76561198322087870,"connected_time":2505000000000,"state":"active","ping":100},{"user_id":210,"name":"Akane","steam_id":76561197990407312,"connected_time":568000000000,"state":"active","ping":73},{"user_id":191,"name":"gamer girl scout","steam_id":76561198929109037,"connected_time":1913000000000,"state":"active","ping":151},{"user_id":218,"name":"OutOfRage","steam_id":76561198211205791,"connected_time":252000000000,"state":"active","ping":50},{"user_id":220,"name":"brehs","steam_id":76561198150653454,"connected_time":100000000000,"state":"active","ping":61},{"user_id":184,"name":"Pico","steam_id":76561198063552545,"connected_time":2386000000000,"state":"active","ping":99},{"user_id":206,"name":"DarkFady","steam_id":76561198179099523,"connected_time":612000000000,"state":"active","ping":106},{"user_id":219,"name":"Labial","steam_id":76561198385163046,"connected_time":217000000000,"state":"active","ping":45},{"user_id":186,"name":"Sky Tree","steam_id":76561198027103242,"connected_time":2217000000000,"state":"active","ping":120},{"user_id":213,"name":"SugarPlumb","steam_id":76561198258269600,"connected_time":508000000000,"state":"active","ping":58},{"user_id":200,"name":"Sneikijs","steam_id":76561198052549308,"connected_time":996000000000,"state":"active","ping":56},{"user_id":169,"name":"üòà COCKDESTROYER üòà","steam_id":76561198042846999,"connected_time":4193000000000,"state":"active","ping":63},{"user_id":195,"name":"giclure :;","steam_id":76561197986362828,"connected_time":1426000000000,"state":"active","ping":59},{"user_id":214,"name":"Von.K","steam_id":76561199226726501,"connected_time":499000000000,"state":"active","ping":77},{"user_id":222,"name":"ZANNABLUKE","steam_id":76561198013534336,"connected_time":36000000000,"state":"active","ping":60},{"user_id":203,"name":"Puck :))","steam_id":76561198378295653,"connected_time":867000000000,"state":"active","ping":52},{"user_id":221,"name":"Sambo","steam_id":76561198176687203,"connected_time":99000000000,"state":"active","ping":75}]},{"server_id":23,"name":"Uncletopia | Frankfurt | 7 | Stopwatch Beta","name_short":"frk-7","host":"frk-1.de.uncletopia.com","port":27075,"enabled":true,"region":"eu","cc":"de","latitude":50.110924,"longitude":8.682127,"reserved":0,"last_update":"0001-01-01T00:00:00Z","name_a2s":"Uncletopia | Frankfurt | 7 | Stopwatch Beta","protocol":17,"map":"workshop/koth_bagel_rc6.ugc2514036946","folder":"tf","game":"Team Fortress","app_id":440,"player_count":0,"max_players":24,"Bots":0,"server_type":"Dedicated","server_os":"Linux","password":true,"vac":true,"version":"7757534","steam_id":85568392924742827,"keywords":["cp","nocrits","nodmgspread","uncletopia"],"game_id":440,"stv_port":27076,"stv_name":"Uncletopia | Frankfurt | 7 | Stopwatch Beta | STV","players":null},{"server_id":24,"name":"Uncletopia | Frankfurt | 8 | Community","name_short":"frk-8","host":"frk-1.de.uncletopia.com","port":27085,"enabled":true,"region":"eu","cc":"de","latitude":50.110924,"longitude":8.682127,"reserved":0,"last_update":"0001-01-01T00:00:00Z","name_a2s":"Uncletopia | Frankfurt | 8 | Community","protocol":17,"map":"koth_lakeside_final","folder":"tf","game":"Team Fortress","app_id":440,"player_count":0,"max_players":24,"Bots":0,"server_type":"Dedicated","server_os":"Linux","password":true,"vac":true,"version":"7757534","steam_id":85568392924742828,"keywords":["cp","nocrits","nodmgspread","uncletopia"],"game_id":440,"stv_port":27086,"stv_name":"Uncletopia | Frankfurt | 8 | Community | STV","players":null},{"server_id":202,"name":"Uncletopia | Hong Kong | 1 | All Maps","name_short":"hgk-1","host":"hgk-1.hk.uncletopia.com","port":27015,"enabled":true,"region":"asia","cc":"hk","latitude":22.302711,"longitude":114.177216,"reserved":0,"last_update":"0001-01-01T00:00:00Z","name_a2s":"Uncletopia | Hong Kong | 1 | All Maps","protocol":17,"map":"cp_gravelpit","folder":"tf","game":"Team Fortress","app_id":440,"player_count":5,"max_players":24,"Bots":0,"server_type":"Dedicated","server_os":"Linux","password":true,"vac":true,"version":"7757534","steam_id":85568392924494504,"keywords":["cp","nocrits","nodmgspread","uncletopia"],"game_id":440,"stv_port":27016,"stv_name":"Uncletopia | Hong Kong | 1 | All Maps | STV","players":[{"user_id":391,"name":"NOPE","steam_id":76561199244543572,"connected_time":1895000000000,"state":"active","ping":117},{"user_id":413,"name":"c-lacm","steam_id":76561199203991337,"connected_time":79000000000,"state":"active","ping":97},{"user_id":388,"name":"infra","steam_id":76561198924576271,"connected_time":2090000000000,"state":"active","ping":87},{"user_id":406,"name":"Ratboi7Street","steam_id":76561199222913157,"connected_time":1011000000000,"state":"active","ping":71},{"user_id":393,"name":"RP birdzz","steam_id":76561198318077734,"connected_time":1781000000000,"state":"active","ping":53}]},{"server_id":1,"name":"Uncletopia | Los Angeles | 1 | All Maps","name_short":"lax-1","host":"lax-1.us.uncletopia.com","port":27015,"enabled":true,"region":"us-west","cc":"us","latitude":33.94279,"longitude":-118.41004,"reserved":0,"last_update":"0001-01-01T00:00:00Z","name_a2s":"Uncletopia | Los Angeles | 1 | All Maps","protocol":17,"map":"koth_lakeside_final","folder":"tf","game":"Team Fortress","app_id":440,"player_count":0,"max_players":24,"Bots":0,"server_type":"Dedicated","server_os":"Linux","password":true,"vac":true,"version":"7757534","steam_id":85568392924469991,"keywords":["cp","nocrits","nodmgspread","uncletopia"],"game_id":440,"stv_port":27016,"stv_name":"Uncletopia | Los Angeles | 1 | All Maps | STV","players":null},{"server_id":112,"name":"Uncletopia | Los Angeles | 2 | All Maps","name_short":"lax-2","host":"lax-1.us.uncletopia.com","port":27025,"enabled":true,"region":"us-west","cc":"us","latitude":33.94279,"longitude":-118.41004,"reserved":0,"last_update":"0001-01-01T00:00:00Z","name_a2s":"Uncletopia | Los Angeles | 2 | All Maps","protocol":17,"map":"pl_badwater","folder":"tf","game":"Team Fortress","app_id":440,"player_count":0,"max_players":24,"Bots":0,"server_type":"Dedicated","server_os":"Linux","password":true,"vac":true,"version":"7757534","steam_id":85568392924469992,"keywords":["nocrits","nodmgspread","payload","uncletopia"],"game_id":440,"stv_port":27026,"stv_name":"Uncletopia | Los Angeles | 2 | All Maps | STV","players":null},{"server_id":324,"name":"Uncletopia | Los Angeles | 3 | All Maps","name_short":"lax-3","host":"lax-1.us.uncletopia.com","port":27035,"enabled":true,"region":"us-west","cc":"us","latitude":33.94279,"longitude":-118.41004,"reserved":0,"last_update":"0001-01-01T00:00:00Z","name_a2s":"Uncletopia | Los Angeles | 3 | All Maps","protocol":17,"map":"pl_barnblitz","folder":"tf","game":"Team Fortress","app_id":440,"player_count":0,"max_players":24,"Bots":0,"server_type":"Dedicated","server_os":"Linux","password":true,"vac":true,"version":"7757534","steam_id":85568392924510198,"keywords":["nocrits","nodmgspread","payload","uncletopia"],"game_id":440,"stv_port":27036,"stv_name":"Uncletopia | Los Angeles | 3 | All Maps | STV","players":null},{"server_id":25,"name":"Uncletopia | Los Angeles | 4 | Stopwatch Beta","name_short":"lax-4","host":"lax-1.us.uncletopia.com","port":27045,"enabled":true,"region":"us-west","cc":"us","latitude":33.94279,"longitude":-118.41004,"reserved":0,"last_update":"0001-01-01T00:00:00Z","name_a2s":"Uncletopia | Los Angeles | 4 | Stopwatch Beta","protocol":17,"map":"pl_swiftwater_final1","folder":"tf","game":"Team Fortress","app_id":440,"player_count":0,"max_players":24,"Bots":0,"server_type":"Dedicated","server_os":"Linux","password":true,"vac":true,"version":"7757534","steam_id":85568392924510199,"keywords":["nocrits","nodmgspread","payload","uncletopia"],"game_id":440,"stv_port":27046,"stv_name":"Uncletopia | Los Angeles | 4 | Stopwatch Beta | STV","players":null},{"server_id":11,"name":"Uncletopia | London | 1 | All Maps","name_short":"lon-1","host":"lon-1.uk.uncletopia.com","port":27015,"enabled":true,"region":"eu","cc":"gb","latitude":51.509865,"longitude":-0.118092,"reserved":0,"last_update":"0001-01-01T00:00:00Z","name_a2s":"Uncletopia | London | 1 | All Maps","protocol":17,"map":"cp_process_final","folder":"tf","game":"Team Fortress","app_id":440,"player_count":24,"max_players":24,"Bots":0,"server_type":"Dedicated","server_os":"Linux","password":true,"vac":true,"version":"7757534","steam_id":85568392924367362,"keywords":["cp","nocrits","nodmgspread","uncletopia"],"game_id":440,"stv_port":27016,"stv_name":"Uncletopia | London | 1 | All Maps | STV","players":[{"user_id":460,"name":"Xriasp","steam_id":76561198104721321,"connected_time":1129000000000,"state":"active","ping":76},{"user_id":414,"name":"Egor Pomidor","steam_id":76561199175688390,"connected_time":3383000000000,"state":"active","ping":77},{"user_id":399,"name":"frionel cuckitini","steam_id":76561198106049954,"connected_time":4441000000000,"state":"active","ping":83},{"user_id":468,"name":"Een schaap zonder slaap","steam_id":76561198084808410,"connected_time":283000000000,"state":"active","ping":57},{"user_id":451,"name":"Minimi","steam_id":76561198873850443,"connected_time":1722000000000,"state":"active","ping":45},{"user_id":398,"name":"Rose","steam_id":76561198043601838,"connected_time":4473000000000,"state":"active","ping":63},{"user_id":469,"name":"Mammut","steam_id":76561198056773933,"connected_time":279000000000,"state":"active","ping":53},{"user_id":456,"name":"Tre3","steam_id":76561198054795379,"connected_time":1185000000000,"state":"active","ping":66},{"user_id":383,"name":"LordTrap.exe","steam_id":76561198318089716,"connected_time":5690000000000,"state":"active","ping":56},{"user_id":453,"name":"Organized Konfusion - Self Titl","steam_id":76561198011155232,"connected_time":1506000000000,"state":"active","ping":71},{"user_id":470,"name":".                           TK","steam_id":76561199384193338,"connected_time":273000000000,"state":"active","ping":72},{"user_id":449,"name":"Shrimpeee","steam_id":76561199012689768,"connected_time":1816000000000,"state":"active","ping":67},{"user_id":429,"name":"i am not schizophrenic","steam_id":76561198079277466,"connected_time":2479000000000,"state":"active","ping":60},{"user_id":457,"name":"Licks-Your-Soup","steam_id":76561198982674420,"connected_time":1176000000000,"state":"active","ping":42},{"user_id":461,"name":"JOHN GAMING (#transrights)","steam_id":76561199085822219,"connected_time":1106000000000,"state":"active","ping":82},{"user_id":386,"name":"√∏possum","steam_id":76561198056152479,"connected_time":5656000000000,"state":"active","ping":44},{"user_id":427,"name":"pootis sentry","steam_id":76561199225363633,"connected_time":2495000000000,"state":"active","ping":79},{"user_id":462,"name":"bayzoes","steam_id":76561198117472639,"connected_time":1081000000000,"state":"active","ping":45},{"user_id":467,"name":"Renard pos4","steam_id":76561197998908594,"connected_time":392000000000,"state":"active","ping":68},{"user_id":454,"name":"mohammed","steam_id":76561198156087581,"connected_time":1416000000000,"state":"active","ping":80},{"user_id":392,"name":"Smokio","steam_id":76561198069650580,"connected_time":5371000000000,"state":"active","ping":86},{"user_id":463,"name":"SoldierBugsBunny","steam_id":76561199307144598,"connected_time":1039000000000,"state":"active","ping":64},{"user_id":444,"name":"‚ô• aura ‚ô•","steam_id":76561198066258544,"connected_time":1906000000000,"state":"active","ping":64}]},{"server_id":114,"name":"Uncletopia | London | 2 | All Maps","name_short":"lon-2","host":"lon-1.uk.uncletopia.com","port":27025,"enabled":true,"region":"eu","cc":"gb","latitude":51.509865,"longitude":-0.118092,"reserved":0,"last_update":"0001-01-01T00:00:00Z","name_a2s":"Uncletopia | London | 2 | All Maps","protocol":17,"map":"pl_frontier_final","folder":"tf","game":"Team Fortress","app_id":440,"player_count":24,"max_players":24,"Bots":0,"server_type":"Dedicated","server_os":"Linux","password":true,"vac":true,"version":"7757534","steam_id":85568392924470941,"keywords":["nocrits","nodmgspread","payload","uncletopia"],"game_id":440,"stv_port":27026,"stv_name":"Uncletopia | London | 2 | All Maps | STV","players":[{"user_id":122,"name":"British Disapproval","steam_id":76561198001375260,"connected_time":358000000000,"state":"active","ping":51},{"user_id":128,"name":"Rad","steam_id":76561198001101843,"connected_time":182000000000,"state":"active","ping":59},{"user_id":108,"name":"Natpad","steam_id":76561198842124497,"connected_time":1294000000000,"state":"active","ping":63},{"user_id":77,"name":"wide appreciator","steam_id":76561198083286511,"connected_time":2473000000000,"state":"active","ping":33},{"user_id":121,"name":"SirSangoor","steam_id":76561198044462559,"connected_time":534000000000,"state":"active","ping":110},{"user_id":76,"name":"Robotomatique","steam_id":76561198354793952,"connected_time":2566000000000,"state":"active","ping":45},{"user_id":120,"name":"JeanCorben","steam_id":76561197965133561,"connected_time":777000000000,"state":"active","ping":41},{"user_id":82,"name":"Anonymous47007","steam_id":76561199005211417,"connected_time":2243000000000,"state":"active","ping":83},{"user_id":129,"name":"croco.","steam_id":76561198988882521,"connected_time":99000000000,"state":"active","ping":93},{"user_id":83,"name":"SoupER","steam_id":76561198063056668,"connected_time":2236000000000,"state":"active","ping":46},{"user_id":126,"name":"RaidBoss","steam_id":76561198138777659,"connected_time":246000000000,"state":"active","ping":75},{"user_id":130,"name":"Chinese Kharp","steam_id":76561199383220023,"connected_time":99000000000,"state":"active","ping":84},{"user_id":26,"name":"Cat Lad","steam_id":76561198315009320,"connected_time":6155000000000,"state":"active","ping":51},{"user_id":86,"name":"Lord","steam_id":76561198241305816,"connected_time":2166000000000,"state":"active","ping":130},{"user_id":101,"name":"Pipp Petals2014","steam_id":76561198147668373,"connected_time":1539000000000,"state":"active","ping":65},{"user_id":110,"name":"‡∏∏","steam_id":76561198045466919,"connected_time":1243000000000,"state":"active","ping":72},{"user_id":116,"name":"legend","steam_id":76561198174339677,"connected_time":1107000000000,"state":"active","ping":52},{"user_id":109,"name":"Carkey","steam_id":76561198054398642,"connected_time":1265000000000,"state":"active","ping":60},{"user_id":87,"name":"RiX","steam_id":76561197969053733,"connected_time":2158000000000,"state":"active","ping":55},{"user_id":117,"name":"gagalak","steam_id":76561198089979108,"connected_time":891000000000,"state":"active","ping":105},{"user_id":63,"name":"doopsuiker","steam_id":76561198025916703,"connected_time":3521000000000,"state":"active","ping":64},{"user_id":125,"name":"Kodutah","steam_id":76561198203405574,"connected_time":302000000000,"state":"active","ping":80},{"user_id":115,"name":"the joy of recycling","steam_id":76561198415564349,"connected_time":1115000000000,"state":"active","ping":60},{"user_id":113,"name":"Flying skyhigh","steam_id":76561198372971096,"connected_time":1197000000000,"state":"active","ping":88}]},{"server_id":320,"name":"Uncletopia | London | 3 | All Maps","name_short":"lon-3","host":"lon-1.uk.uncletopia.com","port":27035,"enabled":true,"region":"eu","cc":"gb","latitude":51.509865,"longitude":-0.118092,"reserved":0,"last_update":"0001-01-01T00:00:00Z","name_a2s":"Uncletopia | London | 3 | All Maps","protocol":17,"map":"cp_dustbowl","folder":"tf","game":"Team Fortress","app_id":440,"player_count":0,"max_players":24,"Bots":0,"server_type":"Dedicated","server_os":"Linux","password":true,"vac":true,"version":"7757534","steam_id":85568392924510192,"keywords":["cp","nocrits","nodmgspread","uncletopia"],"game_id":440,"stv_port":27036,"stv_name":"Uncletopia | London | 3 | All Maps | STV","players":null},{"server_id":321,"name":"Uncletopia | London | 4 | All Maps","name_short":"lon-4","host":"lon-1.uk.uncletopia.com","port":27045,"enabled":true,"region":"eu","cc":"gb","latitude":51.509865,"longitude":-0.118092,"reserved":0,"last_update":"0001-01-01T00:00:00Z","name_a2s":"Uncletopia | London | 4 | All Maps","protocol":17,"map":"pl_frontier_final","folder":"tf","game":"Team Fortress","app_id":440,"player_count":0,"max_players":24,"Bots":0,"server_type":"Dedicated","server_os":"Linux","password":true,"vac":true,"version":"7757534","steam_id":85568392924510193,"keywords":["nocrits","nodmgspread","payload","uncletopia"],"game_id":440,"stv_port":27046,"stv_name":"Uncletopia | London | 4 | All Maps | STV","players":null},{"server_id":21,"name":"Uncletopia | London | 5 | All Maps","name_short":"lon-5","host":"lon-1.uk.uncletopia.com","port":27055,"enabled":true,"region":"eu","cc":"gb","latitude":51.509865,"longitude":-0.118092,"reserved":0,"last_update":"0001-01-01T00:00:00Z","name_a2s":"Uncletopia | London | 5 | All Maps","protocol":17,"map":"cp_altitude","folder":"tf","game":"Team Fortress","app_id":440,"player_count":0,"max_players":24,"Bots":0,"server_type":"Dedicated","server_os":"Linux","password":true,"vac":true,"version":"7757534","steam_id":85568392924742829,"keywords":["cp","nocrits","nodmgspread","uncletopia"],"game_id":440,"stv_port":27056,"stv_name":"Uncletopia | London | 5 | All Maps | STV","players":null},{"server_id":22,"name":"Uncletopia | London | 6 | All Maps","name_short":"lon-6","host":"lon-1.uk.uncletopia.com","port":27065,"enabled":true,"region":"eu","cc":"gb","latitude":51.509865,"longitude":-0.118092,"reserved":0,"last_update":"0001-01-01T00:00:00Z","name_a2s":"Uncletopia | London | 6 | All Maps","protocol":17,"map":"pl_snowycoast","folder":"tf","game":"Team Fortress","app_id":440,"player_count":6,"max_players":24,"Bots":0,"server_type":"Dedicated","server_os":"Linux","password":true,"vac":true,"version":"7757534","steam_id":85568392924742830,"keywords":["nocrits","nodmgspread","payload","uncletopia"],"game_id":440,"stv_port":27066,"stv_name":"Uncletopia | London | 6 | All Maps | STV","players":[{"user_id":260,"name":"Clark","steam_id":76561198120498831,"connected_time":816000000000,"state":"spawning","ping":72},{"user_id":270,"name":"Envy","steam_id":76561198132723219,"connected_time":54000000000,"state":"spawning","ping":269},{"user_id":261,"name":"Falling Apples","steam_id":76561198122762346,"connected_time":732000000000,"state":"spawning","ping":72},{"user_id":262,"name":"Ach Wheesht","steam_id":76561197996993222,"connected_time":681000000000,"state":"spawning","ping":74},{"user_id":269,"name":"AleXandriX","steam_id":76561198035203950,"connected_time":205000000000,"state":"spawning","ping":106},{"user_id":268,"name":"thebadspy","steam_id":76561199213624583,"connected_time":266000000000,"state":"spawning","ping":174}]},{"server_id":40,"name":"Uncletopia | London | 7 | No Payload","name_short":"lon-7","host":"lon-1.uk.uncletopia.com","port":27075,"enabled":true,"region":"eu","cc":"gb","latitude":51.509865,"longitude":-0.118092,"reserved":0,"last_update":"0001-01-01T00:00:00Z","name_a2s":"Uncletopia | London | 7 | No Payload","protocol":17,"map":"pl_badwater","folder":"tf","game":"Team Fortress","app_id":440,"player_count":0,"max_players":24,"Bots":0,"server_type":"Dedicated","server_os":"Linux","password":true,"vac":true,"version":"7757534","steam_id":85568392924964314,"keywords":["nocrits","nodmgspread","payload","uncletopia"],"game_id":440,"stv_port":27076,"stv_name":"Uncletopia | London | 7 | No Payload | STV","players":null},{"server_id":41,"name":"Uncletopia | London | 8 | Community","name_short":"lon-8","host":"lon-1.uk.uncletopia.com","port":27085,"enabled":true,"region":"eu","cc":"gb","latitude":51.509865,"longitude":-0.118092,"reserved":0,"last_update":"0001-01-01T00:00:00Z","name_a2s":"Uncletopia | London | 8 | Community","protocol":17,"map":"pl_barnblitz","folder":"tf","game":"Team Fortress","app_id":440,"player_count":0,"max_players":24,"Bots":0,"server_type":"Dedicated","server_os":"Linux","password":true,"vac":true,"version":"7757534","steam_id":85568392924964315,"keywords":["nocrits","nodmgspread","payload","uncletopia"],"game_id":440,"stv_port":27086,"stv_name":"Uncletopia | London | 8 | Community | STV","players":null},{"server_id":300,"name":"Uncletopia | Montr√©al | 1 | All Maps","name_short":"mtl-1","host":"mtl-1.ca.uncletopia.com","port":27015,"enabled":true,"region":"us-east","cc":"ca","latitude":45.50889,"longitude":-73.56167,"reserved":0,"last_update":"0001-01-01T00:00:00Z","name_a2s":"Uncletopia | Montr√©al | 1 | All Maps","protocol":17,"map":"pl_upward","folder":"tf","game":"Team Fortress","app_id":440,"player_count":0,"max_players":24,"Bots":0,"server_type":"Dedicated","server_os":"Linux","password":true,"vac":true,"version":"7757534","steam_id":85568392924500087,"keywords":["nocrits","nodmgspread","payload","uncletopia"],"game_id":440,"stv_port":27016,"stv_name":"Uncletopia | Montr√©al | 1 | All Maps | STV","players":null},{"server_id":301,"name":"Uncletopia | Montr√©al | 2 | All Maps","name_short":"mtl-2","host":"mtl-1.ca.uncletopia.com","port":27025,"enabled":true,"region":"us-east","cc":"ca","latitude":45.50889,"longitude":-73.56167,"reserved":0,"last_update":"0001-01-01T00:00:00Z","name_a2s":"Uncletopia | Montr√©al | 2 | All Maps","protocol":17,"map":"pl_snowycoast","folder":"tf","game":"Team Fortress","app_id":440,"player_count":0,"max_players":24,"Bots":0,"server_type":"Dedicated","server_os":"Linux","password":true,"vac":true,"version":"7757534","steam_id":85568392924500088,"keywords":["nocrits","nodmgspread","payload","uncletopia"],"game_id":440,"stv_port":27026,"stv_name":"Uncletopia | Montr√©al | 2 | All Maps | STV","players":null},{"server_id":302,"name":"Uncletopia | Montr√©al | 3 | All Maps","name_short":"mtl-3","host":"mtl-1.ca.uncletopia.com","port":27035,"enabled":true,"region":"us-east","cc":"ca","latitude":45.50889,"longitude":-73.56167,"reserved":0,"last_update":"0001-01-01T00:00:00Z","name_a2s":"Uncletopia | Montr√©al | 3 | All Maps","protocol":17,"map":"pl_swiftwater_final1","folder":"tf","game":"Team Fortress","app_id":440,"player_count":0,"max_players":24,"Bots":0,"server_type":"Dedicated","server_os":"Linux","password":true,"vac":true,"version":"7757534","steam_id":85568392924500089,"keywords":["nocrits","nodmgspread","payload","uncletopia"],"game_id":440,"stv_port":27036,"stv_name":"Uncletopia | Montr√©al | 3 | All Maps | STV","players":null},{"server_id":303,"name":"Uncletopia | Montr√©al | 4 | No Payload","name_short":"mtl-4","host":"mtl-1.ca.uncletopia.com","port":27045,"enabled":true,"region":"us-east","cc":"ca","latitude":45.50889,"longitude":-73.56167,"reserved":0,"last_update":"0001-01-01T00:00:00Z","name_a2s":"Uncletopia | Montr√©al | 4 | No Payload","protocol":17,"map":"pl_pier","folder":"tf","game":"Team Fortress","app_id":440,"player_count":0,"max_players":24,"Bots":0,"server_type":"Dedicated","server_os":"Linux","password":true,"vac":true,"version":"7757534","steam_id":85568392924500090,"keywords":["nocrits","nodmgspread","payload","uncletopia"],"game_id":440,"stv_port":27046,"stv_name":"Uncletopia | Montr√©al | 4 | No Payload | STV","players":null},{"server_id":13,"name":"Uncletopia | New York City | 1 | All Maps","name_short":"nyc-1","host":"nyc-1.us.uncletopia.com","port":27015,"enabled":true,"region":"us-east","cc":"us","latitude":40.73061,"longitude":-73.93524,"reserved":0,"last_update":"0001-01-01T00:00:00Z","name_a2s":"Uncletopia | New York City | 1 | All Maps","protocol":17,"map":"koth_lakeside_final","folder":"tf","game":"Team Fortress","app_id":440,"player_count":0,"max_players":24,"Bots":0,"server_type":"Dedicated","server_os":"Linux","password":true,"vac":true,"version":"7757534","steam_id":85568392924469993,"keywords":["cp","nocrits","nodmgspread","uncletopia"],"game_id":440,"stv_port":27016,"stv_name":"Uncletopia | New York City | 1 | All Maps | STV","players":null},{"server_id":14,"name":"Uncletopia | New York City | 2 | All Maps","name_short":"nyc-2","host":"nyc-1.us.uncletopia.com","port":27025,"enabled":true,"region":"us-east","cc":"us","latitude":40.73061,"longitude":-73.93524,"reserved":0,"last_update":"0001-01-01T00:00:00Z","name_a2s":"Uncletopia | New York City | 2 | All Maps","protocol":17,"map":"koth_highpass","folder":"tf","game":"Team Fortress","app_id":440,"player_count":23,"max_players":24,"Bots":0,"server_type":"Dedicated","server_os":"Linux","password":true,"vac":true,"version":"7757534","steam_id":85568392924469994,"keywords":["cp","nocrits","nodmgspread","uncletopia"],"game_id":440,"stv_port":27026,"stv_name":"Uncletopia | New York City | 2 | All Maps | STV","players":[{"user_id":89,"name":"cockmongler","steam_id":76561198861493711,"connected_time":3982000000000,"state":"active","ping":65},{"user_id":119,"name":"StormyBoyo","steam_id":76561198273482774,"connected_time":2225000000000,"state":"active","ping":72},{"user_id":186,"name":"goose flower","steam_id":76561198164306336,"connected_time":460000000000,"state":"active","ping":57},{"user_id":181,"name":"Marketable Rebecca Plushie","steam_id":76561198035475444,"connected_time":496000000000,"state":"active","ping":69},{"user_id":176,"name":"V3CTOR Gaminf","steam_id":76561199233035882,"connected_time":664000000000,"state":"active","ping":114},{"user_id":98,"name":"Wahooka","steam_id":76561197962240925,"connected_time":3168000000000,"state":"active","ping":43},{"user_id":59,"name":"ÁßÅ„ÅØ‰∏çÊ≠£Ë°åÁÇ∫„Çí„Åó„Å¶„ÅÑ","steam_id":76561199465653959,"connected_time":7015000000000,"state":"active","ping":139},{"user_id":169,"name":"El Bondin","steam_id":76561198820792434,"connected_time":898000000000,"state":"active","ping":96},{"user_id":161,"name":"Omni-S","steam_id":76561198082396372,"connected_time":1100000000000,"state":"active","ping":77},{"user_id":105,"name":"UsingXbox360Remote","steam_id":76561198258253304,"connected_time":2523000000000,"state":"active","ping":58},{"user_id":170,"name":"Expendez","steam_id":76561198049484556,"connected_time":861000000000,"state":"active","ping":62},{"user_id":62,"name":"Jin","steam_id":76561198119873148,"connected_time":6656000000000,"state":"active","ping":44},{"user_id":171,"name":"Sprinklingmydoughnut","steam_id":76561198168009092,"connected_time":772000000000,"state":"active","ping":85},{"user_id":148,"name":"Pickle Chips","steam_id":76561198271951504,"connected_time":1349000000000,"state":"active","ping":45},{"user_id":173,"name":"millennial on phone","steam_id":76561198316281740,"connected_time":730000000000,"state":"active","ping":119},{"user_id":197,"name":"15pounds","steam_id":76561198179606183,"connected_time":163000000000,"state":"active","ping":69},{"user_id":175,"name":"Ian","steam_id":76561199078852180,"connected_time":703000000000,"state":"active","ping":61},{"user_id":37,"name":"Saschuh","steam_id":76561198202188972,"connected_time":8039000000000,"state":"active","ping":74},{"user_id":180,"name":"cubicpaper","steam_id":76561199014337818,"connected_time":614000000000,"state":"active","ping":60},{"user_id":183,"name":"abbsence","steam_id":76561198094353546,"connected_time":471000000000,"state":"active","ping":87},{"user_id":184,"name":"Bow_","steam_id":76561198109608134,"connected_time":467000000000,"state":"active","ping":66},{"user_id":195,"name":"emseaeye","steam_id":76561198161499803,"connected_time":202000000000,"state":"active","ping":62},{"user_id":151,"name":"Drinking on the Job","steam_id":76561199158508890,"connected_time":1306000000000,"state":"active","ping":45}]},{"server_id":15,"name":"Uncletopia | New York City | 3 | Stopwatch Beta","name_short":"nyc-3","host":"nyc-1.us.uncletopia.com","port":27035,"enabled":true,"region":"us-east","cc":"us","latitude":40.73061,"longitude":-73.93524,"reserved":0,"last_update":"0001-01-01T00:00:00Z","name_a2s":"Uncletopia | New York City | 3 | Stopwatch Beta","protocol":17,"map":"cp_process_final","folder":"tf","game":"Team Fortress","app_id":440,"player_count":1,"max_players":24,"Bots":0,"server_type":"Dedicated","server_os":"Linux","password":true,"vac":true,"version":"7757534","steam_id":85568392924742820,"keywords":["cp","nocrits","nodmgspread","uncletopia"],"game_id":440,"stv_port":27036,"stv_name":"Uncletopia | New York City | 3 | Stopwatch Beta | STV","players":[{"user_id":7,"name":"funky meatloaf","steam_id":76561199135835032,"connected_time":70000000000,"state":"active","ping":164}]},{"server_id":16,"name":"Uncletopia | New York City | 4 | Community","name_short":"nyc-4","host":"nyc-1.us.uncletopia.com","port":27045,"enabled":true,"region":"us-east","cc":"us","latitude":40.73061,"longitude":-73.93524,"reserved":0,"last_update":"0001-01-01T00:00:00Z","name_a2s":"Uncletopia | New York City | 4 | Community","protocol":17,"map":"workshop/cp_logjam_rc12.ugc454812035","folder":"tf","game":"Team Fortress","app_id":440,"player_count":0,"max_players":24,"Bots":0,"server_type":"Dedicated","server_os":"Linux","password":true,"vac":true,"version":"7757534","steam_id":85568392924742821,"keywords":["cp","nocrits","nodmgspread","uncletopia"],"game_id":440,"stv_port":27046,"stv_name":"Uncletopia | New York City | 4 | Community | STV","players":null},{"server_id":142,"name":"Uncletopia | S√£o Paulo | 1 | All Maps","name_short":"sao-1","host":"sao-1.br.uncletopia.com","port":27015,"enabled":true,"region":"sa","cc":"br","latitude":-23.533773,"longitude":-46.62529,"reserved":0,"last_update":"0001-01-01T00:00:00Z","name_a2s":"Uncletopia | S√£o Paulo | 1 | All Maps","protocol":17,"map":"koth_lakeside_final","folder":"tf","game":"Team Fortress","app_id":440,"player_count":0,"max_players":24,"Bots":0,"server_type":"Dedicated","server_os":"Linux","password":true,"vac":true,"version":"7757534","steam_id":85568392924469996,"keywords":["cp","nocrits","nodmgspread","uncletopia"],"game_id":440,"stv_port":27016,"stv_name":"Uncletopia | S√£o Paulo | 1 | All Maps | STV","players":null},{"server_id":143,"name":"Uncletopia | S√£o Paulo | 2 | All Maps","name_short":"sao-2","host":"sao-2.br.uncletopia.com","port":27015,"enabled":true,"region":"sa","cc":"br","latitude":-23.533773,"longitude":-46.62529,"reserved":0,"last_update":"0001-01-01T00:00:00Z","name_a2s":"Uncletopia | S√£o Paulo | 2 | All Maps","protocol":17,"map":"pl_borneo","folder":"tf","game":"Team Fortress","app_id":440,"player_count":0,"max_players":24,"Bots":0,"server_type":"Dedicated","server_os":"Linux","password":true,"vac":true,"version":"7757534","steam_id":85568392924485349,"keywords":["nocrits","nodmgspread","payload","uncletopia"],"game_id":440,"stv_port":27016,"stv_name":"Uncletopia | S√£o Paulo | 2 | All Maps | STV","players":null},{"server_id":7,"name":"Uncletopia | Seattle | 1 | All Maps","name_short":"sea-1","host":"sea-1.us.uncletopia.com","port":27015,"enabled":true,"region":"us-west","cc":"us","latitude":47.608013,"longitude":-122.33517,"reserved":0,"last_update":"0001-01-01T00:00:00Z","name_a2s":"Uncletopia | Seattle | 1 | All Maps","protocol":17,"map":"koth_lakeside_final","folder":"tf","game":"Team Fortress","app_id":440,"player_count":0,"max_players":24,"Bots":0,"server_type":"Dedicated","server_os":"Linux","password":true,"vac":true,"version":"7757534","steam_id":85568392924469997,"keywords":["cp","nocrits","nodmgspread","uncletopia"],"game_id":440,"stv_port":27016,"stv_name":"Uncletopia | Seattle | 1 | All Maps | STV","players":null},{"server_id":119,"name":"Uncletopia | Seattle | 2 | All Maps","name_short":"sea-2","host":"sea-1.us.uncletopia.com","port":27025,"enabled":true,"region":"us-west","cc":"us","latitude":47.608013,"longitude":-122.33517,"reserved":0,"last_update":"0001-01-01T00:00:00Z","name_a2s":"Uncletopia | Seattle | 2 | All Maps","protocol":17,"map":"cp_dustbowl","folder":"tf","game":"Team Fortress","app_id":440,"player_count":24,"max_players":24,"Bots":0,"server_type":"Dedicated","server_os":"Linux","password":true,"vac":true,"version":"7757534","steam_id":85568392924469998,"keywords":["cp","nocrits","nodmgspread","uncletopia"],"game_id":440,"stv_port":27026,"stv_name":"Uncletopia | Seattle | 2 | All Maps | STV","players":[{"user_id":4,"name":"Tyler\u0026Fingers","steam_id":76561198085154485,"connected_time":4501000000000,"state":"active","ping":140},{"user_id":5,"name":"aqua","steam_id":76561199407709552,"connected_time":4499000000000,"state":"active","ping":85},{"user_id":49,"name":"Hach","steam_id":76561198044072315,"connected_time":1254000000000,"state":"active","ping":133},{"user_id":7,"name":"BuncusBeffer","steam_id":76561198285936616,"connected_time":4498000000000,"state":"active","ping":77},{"user_id":53,"name":"bobbymcbobington","steam_id":76561199089411172,"connected_time":1084000000000,"state":"active","ping":166},{"user_id":35,"name":"Cloudylive","steam_id":76561198870456040,"connected_time":2665000000000,"state":"active","ping":50},{"user_id":54,"name":"Little Linguine","steam_id":76561198816986370,"connected_time":1078000000000,"state":"active","ping":56},{"user_id":21,"name":"2j psych ward boiwife","steam_id":76561198206752128,"connected_time":4133000000000,"state":"active","ping":151},{"user_id":12,"name":"Mario","steam_id":76561198321794277,"connected_time":4468000000000,"state":"active","ping":79},{"user_id":43,"name":"mumbles(muted)","steam_id":76561197994528974,"connected_time":1920000000000,"state":"active","ping":87},{"user_id":46,"name":"IT BURNS","steam_id":76561198018889261,"connected_time":1558000000000,"state":"active","ping":115},{"user_id":36,"name":"lycoris","steam_id":76561199113965768,"connected_time":2660000000000,"state":"active","ping":134},{"user_id":16,"name":"THE BIG MAN","steam_id":76561198072179960,"connected_time":4412000000000,"state":"active","ping":86},{"user_id":41,"name":"Dead Dandy","steam_id":76561199052569511,"connected_time":1952000000000,"state":"active","ping":76},{"user_id":18,"name":"Rain","steam_id":76561198065612273,"connected_time":4357000000000,"state":"active","ping":46},{"user_id":57,"name":"Goose","steam_id":76561198036774894,"connected_time":663000000000,"state":"active","ping":57},{"user_id":55,"name":"soweli","steam_id":76561198044363630,"connected_time":992000000000,"state":"active","ping":128},{"user_id":29,"name":"HATEFULDEAD","steam_id":76561198090331100,"connected_time":3880000000000,"state":"active","ping":100},{"user_id":51,"name":"boulder","steam_id":76561198347225801,"connected_time":1242000000000,"state":"active","ping":48},{"user_id":45,"name":"DudeBro42","steam_id":76561198021838197,"connected_time":1737000000000,"state":"active","ping":61},{"user_id":32,"name":"Treekincko","steam_id":76561198047995911,"connected_time":3444000000000,"state":"active","ping":43},{"user_id":56,"name":"slack","steam_id":76561198269268086,"connected_time":706000000000,"state":"active","ping":139},{"user_id":47,"name":"bobletoob","steam_id":76561199184464900,"connected_time":1516000000000,"state":"active","ping":86},{"user_id":34,"name":"Klone","steam_id":76561198854485605,"connected_time":2864000000000,"state":"active","ping":120}]},{"server_id":406,"name":"Uncletopia | Seattle | 3 | Stopwatch Beta","name_short":"sea-3","host":"sea-1.us.uncletopia.com","port":27035,"enabled":true,"region":"us-west","cc":"us","latitude":47.608013,"longitude":-122.33517,"reserved":0,"last_update":"0001-01-01T00:00:00Z","name_a2s":"Uncletopia | Seattle | 3 | Stopwatch Beta","protocol":17,"map":"cp_dustbowl","folder":"tf","game":"Team Fortress","app_id":440,"player_count":0,"max_players":24,"Bots":0,"server_type":"Dedicated","server_os":"Linux","password":true,"vac":true,"version":"7757534","steam_id":85568392924515217,"keywords":["cp","nocrits","nodmgspread","uncletopia"],"game_id":440,"stv_port":27036,"stv_name":"Uncletopia | Seattle | 3 | Stopwatch Beta | STV","players":null},{"server_id":17,"name":"Uncletopia | San Francisco | 1 | All Maps","name_short":"sfo-1","host":"sfo-1.us.uncletopia.com","port":27015,"enabled":true,"region":"us-west","cc":"us","latitude":37.77397,"longitude":-122.4313,"reserved":0,"last_update":"0001-01-01T00:00:00Z","name_a2s":"Uncletopia | San Francisco | 1 | All Maps","protocol":17,"map":"cp_process_final","folder":"tf","game":"Team Fortress","app_id":440,"player_count":0,"max_players":24,"Bots":0,"server_type":"Dedicated","server_os":"Linux","password":true,"vac":true,"version":"7757534","steam_id":85568392924469999,"keywords":["cp","nocrits","nodmgspread","uncletopia"],"game_id":440,"stv_port":27016,"stv_name":"Uncletopia | San Francisco | 1 | All Maps | STV","players":null},{"server_id":18,"name":"Uncletopia | San Francisco | 2 | All Maps","name_short":"sfo-2","host":"sfo-1.us.uncletopia.com","port":27025,"enabled":true,"region":"us-west","cc":"us","latitude":37.77397,"longitude":-122.4313,"reserved":0,"last_update":"0001-01-01T00:00:00Z","name_a2s":"Uncletopia | San Francisco | 2 | All Maps","protocol":17,"map":"koth_highpass","folder":"tf","game":"Team Fortress","app_id":440,"player_count":0,"max_players":24,"Bots":0,"server_type":"Dedicated","server_os":"Linux","password":true,"vac":true,"version":"7757534","steam_id":85568392924470000,"keywords":["cp","nocrits","nodmgspread","uncletopia"],"game_id":440,"stv_port":27026,"stv_name":"Uncletopia | San Francisco | 2 | All Maps | STV","players":null},{"server_id":19,"name":"Uncletopia | San Francisco | 3 | Stopwatch Beta","name_short":"sfo-3","host":"sfo-1.us.uncletopia.com","port":27035,"enabled":true,"region":"us-west","cc":"us","latitude":37.77397,"longitude":-122.4313,"reserved":0,"last_update":"0001-01-01T00:00:00Z","name_a2s":"Uncletopia | San Francisco | 3 | Stopwatch Beta","protocol":17,"map":"koth_lakeside_final","folder":"tf","game":"Team Fortress","app_id":440,"player_count":0,"max_players":24,"Bots":0,"server_type":"Dedicated","server_os":"Linux","password":true,"vac":true,"version":"7757534","steam_id":85568392924742824,"keywords":["cp","nocrits","nodmgspread","uncletopia"],"game_id":440,"stv_port":27036,"stv_name":"Uncletopia | San Francisco | 3 | Stopwatch Beta | STV","players":null},{"server_id":20,"name":"Uncletopia | San Francisco | 4 | Community","name_short":"sfo-4","host":"sfo-1.us.uncletopia.com","port":27045,"enabled":true,"region":"us-west","cc":"us","latitude":37.77397,"longitude":-122.4313,"reserved":0,"last_update":"0001-01-01T00:00:00Z","name_a2s":"Uncletopia | San Francisco | 4 | Community","protocol":17,"map":"cp_altitude","folder":"tf","game":"Team Fortress","app_id":440,"player_count":0,"max_players":24,"Bots":0,"server_type":"Dedicated","server_os":"Linux","password":true,"vac":true,"version":"7757534","steam_id":85568392924742826,"keywords":["cp","nocrits","nodmgspread","uncletopia"],"game_id":440,"stv_port":27046,"stv_name":"Uncletopia | San Francisco | 4 | Community | STV","players":null},{"server_id":141,"name":"Uncletopia | Sydney | 1 | All Maps","name_short":"syd-1","host":"syd-1.au.uncletopia.com","port":27015,"enabled":true,"region":"au","cc":"au","latitude":-33.865143,"longitude":151.2099,"reserved":0,"last_update":"0001-01-01T00:00:00Z","name_a2s":"Uncletopia | Sydney | 1 | All Maps","protocol":17,"map":"pl_upward","folder":"tf","game":"Team Fortress","app_id":440,"player_count":0,"max_players":24,"Bots":0,"server_type":"Dedicated","server_os":"Linux","password":true,"vac":true,"version":"7757534","steam_id":85568392924470001,"keywords":["nocrits","nodmgspread","payload","uncletopia"],"game_id":440,"stv_port":27016,"stv_name":"Uncletopia | Sydney | 1 | All Maps | STV","players":null},{"server_id":123,"name":"Uncletopia | Sydney | 2 | All Maps","name_short":"syd-2","host":"syd-1.au.uncletopia.com","port":27025,"enabled":true,"region":"au","cc":"au","latitude":-33.865143,"longitude":151.2099,"reserved":0,"last_update":"0001-01-01T00:00:00Z","name_a2s":"Uncletopia | Sydney | 2 | All Maps","protocol":17,"map":"cp_dustbowl","folder":"tf","game":"Team Fortress","app_id":440,"player_count":0,"max_players":24,"Bots":0,"server_type":"Dedicated","server_os":"Linux","password":true,"vac":true,"version":"7757534","steam_id":85568392924470002,"keywords":["cp","nocrits","nodmgspread","uncletopia"],"game_id":440,"stv_port":27026,"stv_name":"Uncletopia | Sydney | 2 | All Maps | STV","players":null},{"server_id":395,"name":"Uncletopia | Sydney | 3 | All Maps","name_short":"syd-3","host":"syd-1.au.uncletopia.com","port":27035,"enabled":true,"region":"au","cc":"au","latitude":-33.865143,"longitude":151.2099,"reserved":0,"last_update":"0001-01-01T00:00:00Z","name_a2s":"Uncletopia | Sydney | 3 | All Maps","protocol":17,"map":"cp_dustbowl","folder":"tf","game":"Team Fortress","app_id":440,"player_count":0,"max_players":24,"Bots":0,"server_type":"Dedicated","server_os":"Linux","password":true,"vac":true,"version":"7757534","steam_id":85568392925194467,"keywords":["cp","nocrits","nodmgspread","uncletopia"],"game_id":440,"stv_port":27036,"stv_name":"Uncletopia | Sydney | 3 | All Maps | STV","players":null},{"server_id":396,"name":"Uncletopia | Sydney | 4 | All Maps","name_short":"syd-4","host":"syd-1.au.uncletopia.com","port":27045,"enabled":true,"region":"au","cc":"au","latitude":-33.865143,"longitude":151.2099,"reserved":0,"last_update":"0001-01-01T00:00:00Z","name_a2s":"Uncletopia | Sydney | 4 | All Maps","protocol":17,"map":"koth_highpass","folder":"tf","game":"Team Fortress","app_id":440,"player_count":0,"max_players":24,"Bots":0,"server_type":"Dedicated","server_os":"Linux","password":true,"vac":true,"version":"7757534","steam_id":85568392925397958,"keywords":["cp","nocrits","nodmgspread","uncletopia"],"game_id":440,"stv_port":27046,"stv_name":"Uncletopia | Sydney | 4 | All Maps | STV","players":null},{"server_id":58,"name":"Uncletopia | Sydney | 5 | Stopwatch Beta","name_short":"syd-5","host":"syd-1.au.uncletopia.com","port":27055,"enabled":true,"region":"au","cc":"au","latitude":-33.865143,"longitude":151.2099,"reserved":0,"last_update":"0001-01-01T00:00:00Z","name_a2s":"Uncletopia | Sydney | 5 | Stopwatch Beta","protocol":17,"map":"pl_upward","folder":"tf","game":"Team Fortress","app_id":440,"player_count":0,"max_players":24,"Bots":0,"server_type":"Dedicated","server_os":"Linux","password":true,"vac":true,"version":"7757534","steam_id":85568392925397959,"keywords":["nocrits","nodmgspread","payload","uncletopia"],"game_id":440,"stv_port":27056,"stv_name":"Uncletopia | Sydney | 5 | Stopwatch Beta | STV","players":null},{"server_id":59,"name":"Uncletopia | Sydney | 6 | Community","name_short":"syd-6","host":"syd-1.au.uncletopia.com","port":27065,"enabled":true,"region":"au","cc":"au","latitude":-33.865143,"longitude":151.2099,"reserved":0,"last_update":"0001-01-01T00:00:00Z","name_a2s":"Uncletopia | Sydney | 6 | Community","protocol":17,"map":"workshop/koth_ashville_final.ugc2130459942","folder":"tf","game":"Team Fortress","app_id":440,"player_count":0,"max_players":24,"Bots":0,"server_type":"Dedicated","server_os":"Linux","password":true,"vac":true,"version":"7757534","steam_id":85568392925397960,"keywords":["cp","nocrits","nodmgspread","uncletopia"],"game_id":440,"stv_port":27066,"stv_name":"Uncletopia | Sydney | 6 | Community | STV","players":null},{"server_id":49,"name":"Uncletopia | Warsaw | 1 | All Maps","name_short":"waw-1","host":"waw-1.pl.uncletopia.com","port":27015,"enabled":true,"region":"eu","cc":"pl","latitude":52.2297,"longitude":21.017532,"reserved":0,"last_update":"0001-01-01T00:00:00Z","name_a2s":"","protocol":0,"map":"","folder":"","game":"","app_id":0,"player_count":0,"max_players":0,"Bots":0,"server_type":"","server_os":"","password":false,"vac":false,"version":"","steam_id":0,"keywords":null,"game_id":0,"stv_port":0,"stv_name":"","players":null},{"server_id":50,"name":"Uncletopia | Warsaw | 2 | All Maps","name_short":"waw-2","host":"waw-1.pl.uncletopia.com","port":27025,"enabled":true,"region":"eu","cc":"pl","latitude":52.2297,"longitude":21.017532,"reserved":0,"last_update":"0001-01-01T00:00:00Z","name_a2s":"Uncletopia | Warsaw | 2 | All Maps","protocol":17,"map":"koth_viaduct","folder":"tf","game":"Team Fortress","app_id":440,"player_count":0,"max_players":24,"Bots":0,"server_type":"Dedicated","server_os":"Linux","password":true,"vac":true,"version":"7757534","steam_id":85568392925397851,"keywords":["cp","nocrits","nodmgspread","uncletopia"],"game_id":440,"stv_port":27026,"stv_name":"Uncletopia | Warsaw | 2 | All Maps | STV","players":null},{"server_id":51,"name":"Uncletopia | Warsaw | 3 | All Maps","name_short":"waw-3","host":"waw-1.pl.uncletopia.com","port":27035,"enabled":true,"region":"eu","cc":"pl","latitude":52.2297,"longitude":21.017532,"reserved":0,"last_update":"0001-01-01T00:00:00Z","name_a2s":"Uncletopia | Warsaw | 3 | All Maps","protocol":17,"map":"pl_barnblitz","folder":"tf","game":"Team Fortress","app_id":440,"player_count":0,"max_players":24,"Bots":0,"server_type":"Dedicated","server_os":"Linux","password":true,"vac":true,"version":"7757534","steam_id":85568392925397852,"keywords":["nocrits","nodmgspread","payload","uncletopia"],"game_id":440,"stv_port":27036,"stv_name":"Uncletopia | Warsaw | 3 | All Maps | STV","players":null},{"server_id":52,"name":"Uncletopia | Warsaw | 4 | All Maps","name_short":"waw-4","host":"waw-1.pl.uncletopia.com","port":27045,"enabled":true,"region":"eu","cc":"pl","latitude":52.2297,"longitude":21.017532,"reserved":0,"last_update":"0001-01-01T00:00:00Z","name_a2s":"Uncletopia | Warsaw | 4 | All Maps","protocol":17,"map":"koth_lakeside_final","folder":"tf","game":"Team Fortress","app_id":440,"player_count":0,"max_players":24,"Bots":0,"server_type":"Dedicated","server_os":"Linux","password":true,"vac":true,"version":"7757534","steam_id":85568392925397853,"keywords":["cp","nocrits","nodmgspread","uncletopia"],"game_id":440,"stv_port":27046,"stv_name":"Uncletopia | Warsaw | 4 | All Maps | STV","players":null},{"server_id":53,"name":"Uncletopia | Warsaw | 5 | Stopwatch Beta","name_short":"waw-5","host":"waw-1.pl.uncletopia.com","port":27055,"enabled":true,"region":"eu","cc":"pl","latitude":52.2297,"longitude":21.017532,"reserved":0,"last_update":"0001-01-01T00:00:00Z","name_a2s":"Uncletopia | Warsaw | 5 | Stopwatch Beta","protocol":17,"map":"pl_borneo","folder":"tf","game":"Team Fortress","app_id":440,"player_count":0,"max_players":24,"Bots":0,"server_type":"Dedicated","server_os":"Linux","password":true,"vac":true,"version":"7757534","steam_id":85568392925397854,"keywords":["nocrits","nodmgspread","payload","uncletopia"],"game_id":440,"stv_port":27056,"stv_name":"Uncletopia | Warsaw | 5 | Stopwatch Beta | STV","players":null},{"server_id":54,"name":"Uncletopia | Warsaw | 6 | Community","name_short":"waw-6","host":"waw-1.pl.uncletopia.com","port":27065,"enabled":true,"region":"eu","cc":"pl","latitude":52.2297,"longitude":21.017532,"reserved":0,"last_update":"0001-01-01T00:00:00Z","name_a2s":"Uncletopia | Warsaw | 6 | Community","protocol":17,"map":"koth_lakeside_final","folder":"tf","game":"Team Fortress","app_id":440,"player_count":0,"max_players":24,"Bots":0,"server_type":"Dedicated","server_os":"Linux","password":true,"vac":true,"version":"7757534","steam_id":85568392925397856,"keywords":["cp","nocrits","nodmgspread","uncletopia"],"game_id":440,"stv_port":27066,"stv_name":"Uncletopia | Warsaw | 6 | Community | STV","players":null}]}