{"status":true,"message":"","result":[{"server_id":9,"name":"Uncletopia | Atlanta | 1 | All Maps","name_short":"atl-1","host":"atl-1.us.uncletopia.com","port":27015,"enabled":true,"region":"us-east","cc":"us","latitude":33.753746,"longitude":-84.38633,"reserved":0,"last_update":"0001-01-01T00:00:00Z","name_a2s":"Uncletopia | Atlanta | 1 | All Maps","protocol":17,"map":"cp_altitude","folder":"tf","game":"Team Fortress","app_id":440,"player_count":0,"max_players":24,"Bots":0,"server_type":"Dedicated","server_os":"Linux","password":true,"vac":true,"version":"7757534","steam_id":85568392924469982,"keywords":["cp","nocrits","nodmgspread","uncletopia"],"game_id":440,"stv_port":27016,"stv_name":"Uncletopia | Atlanta | 1 | All Maps | STV","players":null},{"server_id":400,"name":"Uncletopia | Atlanta | 3 | Community","name_short":"atl-3","host":"atl-1.us.uncletopia.com","port":27035,"enabled":true,"region":"us-east","cc":"us","latitude":33.753746,"longitude":-84.38633,"reserved":0,"last_update":"0001-01-01T00:00:00Z","name_a2s":"Uncletopia | Atlanta | 3 | Community","protocol":17,"map":"pl_swiftwater_final1","folder":"tf","game":"Team Fortress","app_id":440,"player_count":1,"max_players":24,"Bots":0,"server_type":"Dedicated","server_os":"Linux","password":true,"vac":true,"version":"7757534","steam_id":85568392924515187,"keywords":["nocrits","nodmgspread","payload","uncletopia"],"game_id":440,"stv_port":27036,"stv_name":"Uncletopia | Atlanta | 3 | Community | STV","players":[{"user_id":5,"name":"JadeSpade","steam_id":76561199208079738,"connected_time":118000000000,"state":"active","ping":63}]},{"server_id":401,"name":"Uncletopia | Atlanta | 4 | No Payload","name_short":"atl-4","host":"atl-1.us.uncletopia.com","port":27045,"enabled":true,"region":"us-east","cc":"us","latitude":33.753746,"longitude":-84.38633,"reserved":0,"last_update":"0001-01-01T00:00:00Z","name_a2s":"","protocol":0,"map":"","folder":"","game":"","app_id":0,"player_count":0,"max_players":0,"Bots":0,"server_type":"","server_os":"","password":false,"vac":false,"version":"","steam_id":0,"keywords":null,"game_id":0,"stv_port":0,"stv_name":"","players":null},{"server_id":2,"name":"Uncletopia | Chicago | 1 | All Maps","name_short":"chi-1","host":"chi-1.us.uncletopia.com","port":27015,"enabled":true,"region":"us-central","cc":"us","latitude":41.881832,"longitude":-87.62318,"reserved":0,"last_update":"0001-01-01T00:00:00Z","name_a2s":"Uncletopia | Chicago | 1 | All Maps","protocol":17,"map":"pl_borneo","folder":"tf","game":"Team Fortress","app_id":440,"player_count":23,"max_players":24,"Bots":0,"server_type":"Dedicated","server_os":"Linux","password":true,"vac":true,"version":"7757534","steam_id":85568392924469984,"keywords":["nocrits","nodmgspread","payload","uncletopia"],"game_id":440,"stv_port":27016,"stv_name":"Uncletopia | Chicago | 1 | All Maps | STV","players":[{"user_id":94,"name":"Ġ1 ♦ Synth","steam_id":76561198058660228,"connected_time":354000000000,"state":"active","ping":56},{"user_id":59,"name":"Zamboni","steam_id":76561199084964927,"connected_time":3049000000000,"state":"active","ping":73},{"user_id":91,"name":"Krusty Nut","steam_id":76561198120637924,"connected_time":367000000000,"state":"active","ping":60},{"user_id":76,"name":"Majami","steam_id":76561198054365738,"connected_time":1601000000000,"state":"active","ping":159},{"user_id":77,"name":"godisamazing!","steam_id":76561198102681457,"connected_time":1533000000000,"state":"active","ping":69},{"user_id":100,"name":"cAssBlaster","steam_id":76561198138488101,"connected_time":90000000000,"state":"active","ping":59},{"user_id":79,"name":"Big Gay Balls","steam_id":76561198159339442,"connected_time":1477000000000,"state":"active","ping":64},{"user_id":74,"name":"Trusty","steam_id":76561198035444237,"connected_time":1662000000000,"state":"active","ping":72},{"user_id":96,"name":"Random human2152","steam_id":76561199013572502,"connected_time":337000000000,"state":"active","ping":80},{"user_id":60,"name":"Æğis","steam_id":76561198105421633,"connected_time":2765000000000,"state":"active","ping":69},{"user_id":102,"name":"Alphadin.EXE -Tamamo","steam_id":76561198010005351,"connected_time":20000000000,"state":"spawning","ping":60},{"user_id":81,"name":"yellow gatorade","steam_id":76561198413125750,"connected_time":1380000000000,"state":"active","ping":70},{"user_id":89,"name":"Wingz","steam_id":76561198135885865,"connected_time":1053000000000,"state":"active","ping":43},{"user_id":101,"name":"notdbone","steam_id":76561198045890038,"connected_time":40000000000,"state":"active","ping":71},{"user_id":19,"name":"Lucy","steam_id":76561198032590343,"connected_time":6010000000000,"state":"active","ping":91},{"user_id":97,"name":"Beatkeeper","steam_id":76561198029468483,"connected_time":238000000000,"state":"active","ping":82},{"user_id":65,"name":"John Darksoul","steam_id":76561198999712284,"connected_time":1889000000000,"state":"active","ping":73},{"user_id":95,"name":"Chainsaw","steam_id":76561198807911552,"connected_time":342000000000,"state":"active","ping":137},{"user_id":85,"name":"Bald man gaming (BMG)","steam_id":76561198193416505,"connected_time":1272000000000,"state":"active","ping":55},{"user_id":73,"name":"IPlayGamez","steam_id":76561198041387508,"connected_time":1682000000000,"state":"active","ping":61},{"user_id":98,"name":"CrossFire","steam_id":76561198005437496,"connected_time":216000000000,"state":"active","ping":99},{"user_id":92,"name":"Daz","steam_id":76561198041431938,"connected_time":366000000000,"state":"active","ping":74},{"user_id":99,"name":"TheGreatDong","steam_id":76561198000634178,"connected_time":175000000000,"state":"active","ping":109}]},{"server_id":106,"name":"Uncletopia | Chicago | 2 | All Maps","name_short":"chi-2","host":"chi-1.us.uncletopia.com","port":27025,"enabled":true,"region":"us-central","cc":"us","latitude":41.881832,"longitude":-87.62318,"reserved":0,"last_update":"0001-01-01T00:00:00Z","name_a2s":"Uncletopia | Chicago | 2 | All Maps","protocol":17,"map":"koth_viaduct","folder":"tf","game":"Team Fortress","app_id":440,"player_count":0,"max_players":24,"Bots":0,"server_type":"Dedicated","server_os":"Linux","password":true,"vac":true,"version":"7757534","steam_id":85568392924469985,"keywords":["cp","nocrits","nodmgspread","uncletopia"],"game_id":440,"stv_port":27026,"stv_name":"Uncletopia | Chicago | 2 | All Maps | STV","players":null},{"server_id":402,"name":"Uncletopia | Chicago | 3 | All Maps","name_short":"chi-3","host":"chi-1.us.uncletopia.com","port":27035,"enabled":true,"region":"us-central","cc":"us","latitude":41.881832,"longitude":-87.62318,"reserved":0,"last_update":"0001-01-01T00:00:00Z","name_a2s":"Uncletopia | Chicago | 3 | All Maps","protocol":17,"map":"koth_lakeside_final","folder":"tf","game":"Team Fortress","app_id":440,"player_count":0,"max_players":24,"Bots":0,"server_type":"Dedicated","server_os":"Linux","password":true,"vac":true,"version":"7757534","steam_id":85568392924515191,"keywords":["cp","nocrits","nodmgspread","uncletopia"],"game_id":440,"stv_port":27036,"stv_name":"Uncletopia | Chicago | 3 | All Maps | STV","players":null},{"server_id":403,"name":"Uncletopia | Chicago | 4 | All Maps","name_short":"chi-4","host":"chi-1.us.uncletopia.com","port":27045,"enabled":true,"region":"us-central","cc":"us","latitude":41.881832,"longitude":-87.62318,"reserved":0,"last_update":"0001-01-01T00:00:00Z","name_a2s":"Uncletopia | Chicago | 4 | All Maps","protocol":17,"map":"pl_badwater","folder":"tf","game":"Team Fortress","app_id":440,"player_count":0,"max_players":24,"Bots":0,"server_type":"Dedicated","server_os":"Linux","password":true,"vac":true,"version":"7757534","steam_id":85568392924515193,"keywords":["nocrits","nodmgspread","payload","uncletopia"],"game_id":440,"stv_port":27046,"stv_name":"Uncletopia | Chicago | 4 | All Maps | STV","players":null},{"server_id":36,"name":"Uncletopia | Chicago | 5 | All Maps","name_short":"chi-5","host":"chi-2.us.uncletopia.com","port":27015,"enabled":true,"region":"us-central","cc":"us","latitude":41.881832,"longitude":-87.62318,"reserved":0,"last_update":"0001-01-01T00:00:00Z","name_a2s":"Uncletopia | Chicago | 5 | All Maps","protocol":17,"map":"koth_cascade","folder":"tf","game":"Team Fortress","app_id":440,"player_count":0,"max_players":24,"Bots":0,"server_type":"Dedicated","server_os":"Linux","password":true,"vac":true,"version":"7757534","steam_id":85568392924866362,"keywords":["cp","nocrits","nodmgspread","uncletopia"],"game_id":440,"stv_port":27016,"stv_name":"Uncletopia | Chicago | 5 | All Maps | STV","players":null},{"server_id":37,"name":"Uncletopia | Chicago | 6 | All Maps","name_short":"chi-6","host":"chi-2.us.uncletopia.com","port":27025,"enabled":true,"region":"us-central","cc":"us","latitude":41.881832,"longitude":-87.62318,"reserved":0,"last_update":"0001-01-01T00:00:00Z","name_a2s":"Uncletopia | Chicago | 6 | All Maps","protocol":17,"map":"pl_upward","folder":"tf","game":"Team Fortress","app_id":440,"player_count":12,"max_players":24,"Bots":0,"server_type":"Dedicated","server_os":"Linux","password":true,"vac":true,"version":"7757534","steam_id":85568392924866363,"keywords":["nocrits","nodmgspread","payload","uncletopia"],"game_id":440,"stv_port":27026,"stv_name":"Uncletopia | Chicago | 6 | All Maps | STV","players":[{"user_id":24,"name":"Dr. Boofenschmirtz","steam_id":76561198305518490,"connected_time":1205000000000,"state":"active","ping":68},{"user_id":30,"name":"Chai-C","steam_id":76561198177334555,"connected_time":646000000000,"state":"active","ping":72},{"user_id":9,"name":"Bell_Boy","steam_id":76561198397512046,"connected_time":2803000000000,"state":"active","ping":87},{"user_id":23,"name":"jr_rusty","steam_id":76561198313937899,"connected_time":1501000000000,"state":"active","ping":175},{"user_id":31,"name":"DaveAshburn","steam_id":76561198436196661,"connected_time":584000000000,"state":"active","ping":100},{"user_id":34,"name":"Ripheart","steam_id":76561198089661561,"connected_time":339000000000,"state":"active","ping":34},{"user_id":35,"name":"Robo","steam_id":76561198058317490,"connected_time":97000000000,"state":"active","ping":70},{"user_id":32,"name":"Sabaman55","steam_id":76561198212267979,"connected_time":549000000000,"state":"active","ping":49},{"user_id":20,"name":"folie","steam_id":76561198041393929,"connected_time":1773000000000,"state":"active","ping":71},{"user_id":18,"name":"Quillz","steam_id":76561197996567754,"connected_time":1900000000000,"state":"active","ping":65},{"user_id":36,"name":"griffintheavali","steam_id":76561198437415686,"connected_time":48000000000,"state":"active","ping":85},{"user_id":37,"name":"Regi","steam_id":76561198271508598,"connected_time":25000000000,"state":"active","ping":55}]},{"server_id":38,"name":"Uncletopia | Chicago | 7 | Stopwatch Beta","name_short":"chi-7","host":"chi-2.us.uncletopia.com","port":27035,"enabled":true,"region":"us-central","cc":"us","latitude":41.881832,"longitude":-87.62318,"reserved":0,"last_update":"0001-01-01T00:00:00Z","name_a2s":"Uncletopia | Chicago | 7 | Stopwatch Beta","protocol":17,"map":"pl_upward","folder":"tf","game":"Team Fortress","app_id":440,"player_count":0,"max_players":24,"Bots":0,"server_type":"Dedicated","server_os":"Linux","password":true,"vac":true,"version":"7757534","steam_id":85568392924866364,"keywords":["nocrits","nodmgspread","payload","uncletopia"],"game_id":440,"stv_port":27036,"stv_name":"Uncletopia | Chicago | 7 | Stopwatch Beta | STV","players":null},{"server_id":39,"name":"Uncletopia | Chicago | 8 | Community","name_short":"chi-8","host":"chi-2.us.uncletopia.com","port":27045,"enabled":true,"region":"us-central","cc":"us","latitude":41.881832,"longitude":-87.62318,"reserved":0,"last_update":"0001-01-01T00:00:00Z","name_a2s":"Uncletopia | Chicago | 8 | Community","protocol":17,"map":"pl_barnblitz","folder":"tf","game":"Team Fortress","app_id":440,"player_count":0,"max_players":24,"Bots":0,"server_type":"Dedicated","server_os":"Linux","password":true,"vac":true,"version":"7757534","steam_id":85568392924866365,"keywords":["nocrits","nodmgspread","payload","uncletopia"],"game_id":440,"stv_port":27046,"stv_name":"Uncletopia | Chicago | 8 | Community | STV","players":null},{"server_id":8,"name":"Uncletopia | Dallas | 1 | All Maps","name_short":"dal-1","host":"dal-1.us.uncletopia.com","port":27015,"enabled":true,"region":"us-central","cc":"us","latitude":32.779167,"longitude":-96.80889,"reserved":0,"last_update":"0001-01-01T00:00:00Z","name_a2s":"Uncletopia | Dallas | 1 | All Maps","protocol":17,"map":"koth_cascade","folder":"tf","game":"Team Fortress","app_id":440,"player_count":0,"max_players":24,"Bots":0,"server_type":"Dedicated","server_os":"Linux","password":true,"vac":true,"version":"7757534","steam_id":85568392924469986,"keywords":["cp","nocrits","nodmgspread","uncletopia"],"game_id":440,"stv_port":27016,"stv_name":"Uncletopia | Dallas | 1 | All Maps | STV","players":null},{"server_id":108,"name":"Uncletopia | Dallas | 2 | All Maps","name_short":"dal-2","host":"dal-1.us.uncletopia.com","port":27025,"enabled":true,"region":"us-central","cc":"us","latitude":32.779167,"longitude":-96.80889,"reserved":0,"last_update":"0001-01-01T00:00:00Z","name_a2s":"Uncletopia | Dallas | 2 | All Maps","protocol":17,"map":"cp_altitude","folder":"tf","game":"Team Fortress","app_id":440,"player_count":0,"max_players":24,"Bots":0,"server_type":"Dedicated","server_os":"Linux","password":true,"vac":true,"version":"7757534","steam_id":85568392924469988,"keywords":["cp","nocrits","nodmgspread","uncletopia"],"game_id":440,"stv_port":27026,"stv_name":"Uncletopia | Dallas | 2 | All Maps | STV","players":null},{"server_id":5,"name":"Uncletopia | Frankfurt | 1 | All Maps","name_short":"frk-1","host":"frk-1.de.uncletopia.com","port":27015,"enabled":true,"region":"eu","cc":"de","latitude":50.110924,"longitude":8.682127,"reserved":0,"last_update":"0001-01-01T00:00:00Z","name_a2s":"Uncletopia | Frankfurt | 1 | All Maps","protocol":17,"map":"pl_upward","folder":"tf","game":"Team Fortress","app_id":440,"player_count":20,"max_players":24,"Bots":0,"server_type":"Dedicated","server_os":"Linux","password":true,"vac":true,"version":"7757534","steam_id":85568392924469989,"keywords":["nocrits","nodmgspread","payload","uncletopia"],"game_id":440,"stv_port":27016,"stv_name":"Uncletopia | Frankfurt | 1 | All Maps | STV","players":[{"user_id":17,"name":"enomis2002","steam_id":76561198387892963,"connected_time":688000000000,"state":"active","ping":67},{"user_id":15,"name":"Theo","steam_id":76561198144205951,"connected_time":791000000000,"state":"active","ping":109},{"user_id":16,"name":"ashsbhop","steam_id":76561199155075476,"connected_time":777000000000,"state":"active","ping":75},{"user_id":32,"name":"Spageti","steam_id":76561198074122906,"connected_time":151000000000,"state":"active","ping":168},{"user_id":19,"name":"Tesco Clubcard","steam_id":76561197968575924,"connected_time":500000000000,"state":"active","ping":70},{"user_id":23,"name":"frosty","steam_id":76561198094560834,"connected_time":386000000000,"state":"active","ping":60},{"user_id":21,"name":"Psychicpie","steam_id":76561198126065206,"connected_time":480000000000,"state":"active","ping":46},{"user_id":26,"name":"alex.difoux","steam_id":76561198370369778,"connected_time":344000000000,"state":"active","ping":71},{"user_id":24,"name":"SugarPlumb","steam_id":76561198258269600,"connected_time":361000000000,"state":"active","ping":47},{"user_id":28,"name":"skille","steam_id":76561198005794325,"connected_time":276000000000,"state":"active","ping":61},{"user_id":27,"name":"leibhéalfaidh mé thú","steam_id":76561198078484073,"connected_time":322000000000,"state":"active","ping":73},{"user_id":29,"name":"dorak","steam_id":76561198818037965,"connected_time":271000000000,"state":"active","ping":107},{"user_id":30,"name":"Feeedzz","steam_id":76561198154181060,"connected_time":214000000000,"state":"active","ping":99},{"user_id":31,"name":"Knox","steam_id":76561198217880733,"connected_time":157000000000,"state":"active","ping":84},{"user_id":33,"name":"grand cru promille","steam_id":76561198054162681,"connected_time":130000000000,"state":"active","ping":85},{"user_id":34,"name":"Two-sided dice","steam_id":76561198160830606,"connected_time":110000000000,"state":"active","ping":74},{"user_id":35,"name":"TTV/pablo_ricco","steam_id":76561198279839318,"connected_time":84000000000,"state":"active","ping":86},{"user_id":36,"name":"noobdog","steam_id":76561198036486671,"connected_time":75000000000,"state":"active","ping":60},{"user_id":37,"name":"tartar","steam_id":76561199004417961,"connected_time":30000000000,"state":"active","ping":121},{"user_id":38,"name":"FilipeLuk","steam_id":76561198150675438,"connected_time":28000000000,"state":"active","ping":69}]},{"server_id":110,"name":"Uncletopia | Frankfurt | 2 | All Maps","name_short":"frk-2","host":"frk-1.de.uncletopia.com","port":27025,"enabled":true,"region":"eu","cc":"de","latitude":50.110924,"longitude":8.682127,"reserved":0,"last_update":"0001-01-01T00:00:00Z","name_a2s":"Uncletopia | Frankfurt | 2 | All Maps","protocol":17,"map":"pl_borneo","folder":"tf","game":"Team Fortress","app_id":440,"player_count":24,"max_players":24,"Bots":0,"server_type":"Dedicated","server_os":"Linux","password":true,"vac":true,"version":"7757534","steam_id":85568392924469990,"keywords":["nocrits","nodmgspread","payload","uncletopia"],"game_id":440,"stv_port":27026,"stv_name":"Uncletopia | Frankfurt | 2 | All Maps | STV","players":[{"user_id":168,"name":"Vorake","steam_id":76561198138310411,"connected_time":1062000000000,"state":"active","ping":68},{"user_id":150,"name":"donal rump","steam_id":76561198136239861,"connected_time":2841000000000,"state":"active","ping":60},{"user_id":177,"name":"FreeMarket","steam_id":76561198029916416,"connected_time":400000000000,"state":"active","ping":70},{"user_id":163,"name":"♫★Xriasp★♫","steam_id":76561198104721321,"connected_time":1134000000000,"state":"active","ping":72},{"user_id":116,"name":"HeresyMan","steam_id":76561198169154183,"connected_time":5601000000000,"state":"active","ping":71},{"user_id":175,"name":"ŽgræÐek113","steam_id":76561198306883632,"connected_time":662000000000,"state":"active","ping":64},{"user_id":152,"name":"Dzan50","steam_id":76561198059758591,"connected_time":2750000000000,"state":"active","ping":76},{"user_id":167,"name":"Blo","steam_id":76561198161651469,"connected_time":1084000000000,"state":"active","ping":60},{"user_id":157,"name":"Tynnyri","steam_id":76561198075516541,"connected_time":1876000000000,"state":"active","ping":100},{"user_id":135,"name":"joni","steam_id":76561198048957139,"connected_time":4251000000000,"state":"active","ping":53},{"user_id":169,"name":"Far ∞","steam_id":76561199166149359,"connected_time":1061000000000,"state":"active","ping":79},{"user_id":164,"name":"dirty","steam_id":76561197995572935,"connected_time":1121000000000,"state":"active","ping":75},{"user_id":139,"name":"Miatthew","steam_id":76561198034102895,"connected_time":3982000000000,"state":"active","ping":67},{"user_id":170,"name":"Dominus.","steam_id":76561199065917088,"connected_time":1050000000000,"state":"active","ping":69},{"user_id":179,"name":"Private_tm","steam_id":76561198056281480,"connected_time":8000000000,"state":"active","ping":96},{"user_id":156,"name":"Elon Ma","steam_id":76561199018053264,"connected_time":1943000000000,"state":"active","ping":70},{"user_id":161,"name":"SuntanPikachu","steam_id":76561198121242476,"connected_time":1497000000000,"state":"active","ping":122},{"user_id":42,"name":"Autumnsky","steam_id":76561198055161203,"connected_time":11654000000000,"state":"active","ping":55},{"user_id":171,"name":"lun4tic","steam_id":76561198850496647,"connected_time":1033000000000,"state":"active","ping":61},{"user_id":176,"name":"gpupdate","steam_id":76561198154677956,"connected_time":423000000000,"state":"active","ping":75},{"user_id":172,"name":"washed up","steam_id":76561198275742101,"connected_time":1020000000000,"state":"active","ping":55},{"user_id":178,"name":"ivanmixo","steam_id":76561198160213989,"connected_time":390000000000,"state":"active","ping":58},{"user_id":85,"name":"Cumbustible Punda #SaveTF2","steam_id":76561197974274677,"connected_time":8097000000000,"state":"active","ping":52},{"user_id":149,"name":"poliakov.noam","steam_id":76561199259322961,"connected_time":3147000000000,"state":"active","ping":109}]},{"server_id":308,"name":"Uncletopia | Frankfurt | 3 | All Maps","name_short":"frk-3","host":"frk-1.de.uncletopia.com","port":27035,"enabled":true,"region":"eu","cc":"de","latitude":50.110924,"longitude":8.682127,"reserved":0,"last_update":"0001-01-01T00:00:00Z","name_a2s":"Uncletopia | Frankfurt | 3 | All Maps","protocol":17,"map":"cp_altitude","folder":"tf","game":"Team Fortress","app_id":440,"player_count":0,"max_players":24,"Bots":0,"server_type":"Dedicated","server_os":"Linux","password":true,"vac":true,"version":"7757534","steam_id":85568392924504274,"keywords":["cp","nocrits","nodmgspread","uncletopia"],"game_id":440,"stv_port":27036,"stv_name":"Uncletopia | Frankfurt | 3 | All Maps | STV","players":null},{"server_id":309,"name":"Uncletopia | Frankfurt | 4 | All Maps","name_short":"frk-4","host":"frk-1.de.uncletopia.com","port":27045,"enabled":true,"region":"eu","cc":"de","latitude":50.110924,"longitude":8.682127,"reserved":0,"last_update":"0001-01-01T00:00:00Z","name_a2s":"Uncletopia | Frankfurt | 4 | All Maps","protocol":17,"map":"cp_altitude","folder":"tf","game":"Team Fortress","app_id":440,"player_count":0,"max_players":24,"Bots":0,"server_type":"Dedicated","server_os":"Linux","password":true,"vac":true,"version":"7757534","steam_id":85568392924504275,"keywords":["cp","nocrits","nodmgspread","uncletopia"],"game_id":440,"stv_port":27046,"stv_name":"Uncletopia | Frankfurt | 4 | All Maps | STV","players":null},{"server_id":310,"name":"Uncletopia | Frankfurt | 5 | All Maps","name_short":"frk-5","host":"frk-1.de.uncletopia.com","port":27055,"enabled":true,"region":"eu","cc":"de","latitude":50.110924,"longitude":8.682127,"reserved":0,"last_update":"0001-01-01T00:00:00Z","name_a2s":"Uncletopia | Frankfurt | 5 | All Maps","protocol":17,"map":"cp_altitude","folder":"tf","game":"Team Fortress","app_id":440,"player_count":0,"max_players":24,"Bots":0,"server_type":"Dedicated","server_os":"Linux","password":true,"vac":true,"version":"7757534","steam_id":85568392924504277,"keywords":["cp","nocrits","nodmgspread","uncletopia"],"game_id":440,"stv_port":27056,"stv_name":"Uncletopia | Frankfurt | 5 | All Maps | STV","players":null},{"server_id":311,"name":"Uncletopia | Frankfurt | 6 | All Maps","name_short":"frk-6","host":"frk-1.de.uncletopia.com","port":27065,"enabled":true,"region":"eu","cc":"de","latitude":50.110924,"longitude":8.682127,"reserved":0,"last_update":"0001-01-01T00:00:00Z","name_a2s":"Uncletopia | Frankfurt | 6 | All Maps","protocol":17,"map":"pl_upward","folder":"tf","game":"Team Fortress","app_id":440,"player_count":0,"max_players":24,"Bots":0,"server_type":"Dedicated","server_os":"Linux","password":true,"vac":true,"version":"7757534","steam_id":85568392924504278,"keywords":["nocrits","nodmgspread","payload","uncletopia"],"game_id":440,"stv_port":27066,"stv_name":"Uncletopia | Frankfurt | 6 | All Maps | STV","players":null},{"server_id":23,"name":"Uncletopia | Frankfurt | 7 | Stopwatch Beta","name_short":"frk-7","host":"frk-1.de.uncletopia.com","port":27075,"enabled":true,"region":"eu","cc":"de","latitude":50.110924,"longitude":8.682127,"reserved":0,"last_update":"0001-01-01T00:00:00Z","name_a2s":"Uncletopia | Frankfurt | 7 | Stopwatch Beta","protocol":17,"map":"pl_frontier_final","folder":"tf","game":"Team Fortress","app_id":440,"player_count":0,"max_players":24,"Bots":0,"server_type":"Dedicated","server_os":"Linux","password":true,"vac":true,"version":"7757534","steam_id":85568392924742827,"keywords":["nocrits","nodmgspread","payload","uncletopia"],"game_id":440,"stv_port":27076,"stv_name":"Uncletopia | Frankfurt | 7 | Stopwatch Beta | STV","players":null},{"server_id":24,"name":"Uncletopia | Frankfurt | 8 | Community","name_short":"frk-8","host":"frk-1.de.uncletopia.com","port":27085,"enabled":true,"region":"eu","cc":"de","latitude":50.110924,"longitude":8.682127,"reserved":0,"last_update":"0001-01-01T00:00:00Z","name_a2s":"Uncletopia | Frankfurt | 8 | Community","protocol":17,"map":"workshop/pl_vigil_rc9.ugc1266210012","folder":"tf","game":"Team Fortress","app_id":440,"player_count":0,"max_players":24,"Bots":0,"server_type":"Dedicated","server_os":"Linux","password":true,"vac":true,"version":"7757534","steam_id":85568392924742828,"keywords":["nocrits","nodmgspread","payload","uncletopia"],"game_id":440,"stv_port":27086,"stv_name":"Uncletopia | Frankfurt | 8 | Community | STV","players":null},{"server_id":202,"name":"Uncletopia | Hong Kong | 1 | All Maps","name_short":"hgk-1","host":"hgk-1.hk.uncletopia.com","port":27015,"enabled":true,"region":"asia","cc":"hk","latitude":22.302711,"longitude":114.177216,"reserved":0,"last_update":"0001-01-01T00:00:00Z","name_a2s":"Uncletopia | Hong Kong | 1 | All Maps","protocol":17,"map":"pl_pier","folder":"tf","game":"Team Fortress","app_id":440,"player_count":18,"max_players":24,"Bots":0,"server_type":"Dedicated","server_os":"Linux","password":true,"vac":true,"version":"7757534","steam_id":85568392924494504,"keywords":["nocrits","nodmgspread","payload","uncletopia"],"game_id":440,"stv_port":27016,"stv_name":"Uncletopia | Hong Kong | 1 | All Maps | STV","players":[{"user_id":319,"name":"detro","steam_id":76561198412329672,"connected_time":724000000000,"state":"active","ping":104},{"user_id":332,"name":"Icebondf1","steam_id":76561197988178269,"connected_time":32000000000,"state":"spawning","ping":467},{"user_id":307,"name":"ey","steam_id":76561198413116920,"connected_time":1544000000000,"state":"active","ping":78},{"user_id":214,"name":"Crudder","steam_id":76561198122062188,"connected_time":8251000000000,"state":"active","ping":72},{"user_id":303,"name":"S Ξ И Λ K Ѧ『  ★  』","steam_id":76561198167852607,"connected_time":1662000000000,"state":"active","ping":66},{"user_id":309,"name":"Juju Shortbow","steam_id":76561198349807521,"connected_time":1537000000000,"state":"active","ping":89},{"user_id":329,"name":"Doge Gaming","steam_id":76561198190672851,"connected_time":192000000000,"state":"active","ping":160},{"user_id":327,"name":"heaviest f2p","steam_id":76561199209331489,"connected_time":310000000000,"state":"active","ping":112},{"user_id":328,"name":"母の肉団子","steam_id":76561198069561896,"connected_time":308000000000,"state":"active","ping":30},{"user_id":312,"name":"Banana Milk","steam_id":76561198005156257,"connected_time":1264000000000,"state":"active","ping":130},{"user_id":261,"name":"Vladimir Spencer Pootis","steam_id":76561198144686119,"connected_time":5065000000000,"state":"active","ping":69},{"user_id":315,"name":"Dokutah","steam_id":76561199217104569,"connected_time":1035000000000,"state":"active","ping":84},{"user_id":305,"name":"VaporeonSimp69","steam_id":76561198823521095,"connected_time":1569000000000,"state":"active","ping":52},{"user_id":271,"name":"Pillboi","steam_id":76561198011172886,"connected_time":4558000000000,"state":"active","ping":45},{"user_id":320,"name":"Lonely Blue Frog","steam_id":76561198091925031,"connected_time":616000000000,"state":"active","ping":76},{"user_id":274,"name":"It's Cake! (In Technicolor)","steam_id":76561198331763015,"connected_time":4492000000000,"state":"active","ping":82},{"user_id":275,"name":"Eat your grass","steam_id":76561198120553035,"connected_time":4388000000000,"state":"active","ping":78},{"user_id":279,"name":"Beef Wellington","steam_id":76561197995635241,"connected_time":4058000000000,"state":"active","ping":115}]},{"server_id":1,"name":"Uncletopia | Los Angeles | 1 | All Maps","name_short":"lax-1","host":"lax-1.us.uncletopia.com","port":27015,"enabled":true,"region":"us-west","cc":"us","latitude":33.94279,"longitude":-118.41004,"reserved":0,"last_update":"0001-01-01T00:00:00Z","name_a2s":"Uncletopia | Los Angeles | 1 | All Maps","protocol":17,"map":"koth_highpass","folder":"tf","game":"Team Fortress","app_id":440,"player_count":0,"max_players":24,"Bots":0,"server_type":"Dedicated","server_os":"Linux","password":true,"vac":true,"version":"7757534","steam_id":85568392924469991,"keywords":["cp","nocrits","nodmgspread","uncletopia"],"game_id":440,"stv_port":27016,"stv_name":"Uncletopia | Los Angeles | 1 | All Maps | STV","players":null},{"server_id":112,"name":"Uncletopia | Los Angeles | 2 | All Maps","name_short":"lax-2","host":"lax-1.us.uncletopia.com","port":27025,"enabled":true,"region":"us-west","cc":"us","latitude":33.94279,"longitude":-118.41004,"reserved":0,"last_update":"0001-01-01T00:00:00Z","name_a2s":"Uncletopia | Los Angeles | 2 | All Maps","protocol":17,"map":"koth_viaduct","folder":"tf","game":"Team Fortress","app_id":440,"player_count":0,"max_players":24,"Bots":0,"server_type":"Dedicated","server_os":"Linux","password":true,"vac":true,"version":"7757534","steam_id":85568392924469992,"keywords":["cp","nocrits","nodmgspread","uncletopia"],"game_id":440,"stv_port":27026,"stv_name":"Uncletopia | Los Angeles | 2 | All Maps | STV","players":null},{"server_id":324,"name":"Uncletopia | Los Angeles | 3 | All Maps","name_short":"lax-3","host":"lax-1.us.uncletopia.com","port":27035,"enabled":true,"region":"us-west","cc":"us","latitude":33.94279,"longitude":-118.41004,"reserved":0,"last_update":"0001-01-01T00:00:00Z","name_a2s":"Uncletopia | Los Angeles | 3 | All Maps","protocol":17,"map":"koth_cascade","folder":"tf","game":"Team Fortress","app_id":440,"player_count":0,"max_players":24,"Bots":0,"server_type":"Dedicated","server_os":"Linux","password":true,"vac":true,"version":"7757534","steam_id":85568392924510198,"keywords":["cp","nocrits","nodmgspread","uncletopia"],"game_id":440,"stv_port":27036,"stv_name":"Uncletopia | Los Angeles | 3 | All Maps | STV","players":null},{"server_id":25,"name":"Uncletopia | Los Angeles | 4 | Stopwatch Beta","name_short":"lax-4","host":"lax-1.us.uncletopia.com","port":27045,"enabled":true,"region":"us-west","cc":"us","latitude":33.94279,"longitude":-118.41004,"reserved":0,"last_update":"0001-01-01T00:00:00Z","name_a2s":"Uncletopia | Los Angeles | 4 | Stopwatch Beta","protocol":17,"map":"workshop/pl_badwater_pro_v12.ugc2142942074","folder":"tf","game":"Team Fortress","app_id":440,"player_count":0,"max_players":24,"Bots":0,"server_type":"Dedicated","server_os":"Linux","password":true,"vac":true,"version":"7757534","steam_id":85568392924510199,"keywords":["nocrits","nodmgspread","payload","uncletopia"],"game_id":440,"stv_port":27046,"stv_name":"Uncletopia | Los Angeles | 4 | Stopwatch Beta | STV","players":null},{"server_id":11,"name":"Uncletopia | London | 1 | All Maps","name_short":"lon-1","host":"lon-1.uk.uncletopia.com","port":27015,"enabled":true,"region":"eu","cc":"gb","latitude":51.509865,"longitude":-0.118092,"reserved":0,"last_update":"0001-01-01T00:00:00Z","name_a2s":"Uncletopia | London | 1 | All Maps","protocol":17,"map":"pl_upward","folder":"tf","game":"Team Fortress","app_id":440,"player_count":24,"max_players":24,"Bots":0,"server_type":"Dedicated","server_os":"Linux","password":true,"vac":true,"version":"7757534","steam_id":85568392924367362,"keywords":["nocrits","nodmgspread","payload","uncletopia"],"game_id":440,"stv_port":27016,"stv_name":"Uncletopia | London | 1 | All Maps | STV","players":[{"user_id":291,"name":"0","steam_id":76561198267909207,"connected_time":1793000000000,"state":"active","ping":89},{"user_id":280,"name":"chicken","steam_id":76561199090424127,"connected_time":2706000000000,"state":"active","ping":152},{"user_id":278,"name":"DocTwoEight","steam_id":76561198153488940,"connected_time":2829000000000,"state":"active","ping":76},{"user_id":313,"name":"the joy of recycling","steam_id":76561198415564349,"connected_time":171000000000,"state":"active","ping":61},{"user_id":230,"name":"Sgreff","steam_id":76561198036304365,"connected_time":6535000000000,"state":"active","ping":44},{"user_id":308,"name":"Maximus","steam_id":76561198032472655,"connected_time":956000000000,"state":"active","ping":61},{"user_id":316,"name":"Connor McFilip","steam_id":76561198107965067,"connected_time":1000000000,"state":"spawning","ping":41},{"user_id":252,"name":"Topme","steam_id":76561198091734693,"connected_time":5412000000000,"state":"active","ping":74},{"user_id":311,"name":"nacho cheese","steam_id":76561198097683109,"connected_time":714000000000,"state":"active","ping":41},{"user_id":299,"name":"R A S M U S","steam_id":76561198279799226,"connected_time":1649000000000,"state":"active","ping":69},{"user_id":310,"name":"duck_fetish","steam_id":76561199015909776,"connected_time":755000000000,"state":"active","ping":87},{"user_id":282,"name":"InsectKing","steam_id":76561199013519071,"connected_time":2655000000000,"state":"active","ping":40},{"user_id":283,"name":"FUKAYU","steam_id":76561198380484033,"connected_time":2581000000000,"state":"active","ping":47},{"user_id":306,"name":"BurnDMG3","steam_id":76561199425265077,"connected_time":1039000000000,"state":"active","ping":174},{"user_id":315,"name":"Overhaul","steam_id":76561198878610347,"connected_time":106000000000,"state":"active","ping":102},{"user_id":307,"name":"antlionguard","steam_id":76561198072747143,"connected_time":977000000000,"state":"active","ping":100},{"user_id":303,"name":"wheelie bin","steam_id":76561198040040328,"connected_time":1176000000000,"state":"active","ping":48},{"user_id":289,"name":"somehow danced","steam_id":76561198128250460,"connected_time":2095000000000,"state":"active","ping":114},{"user_id":309,"name":"Blind","steam_id":76561198310295139,"connected_time":790000000000,"state":"active","ping":96},{"user_id":297,"name":"CalThePal","steam_id":76561198084842126,"connected_time":1682000000000,"state":"active","ping":50},{"user_id":298,"name":"Ar|es","steam_id":76561198819160313,"connected_time":1675000000000,"state":"active","ping":86},{"user_id":304,"name":"Kwizine","steam_id":76561198147999400,"connected_time":1165000000000,"state":"active","ping":68},{"user_id":300,"name":"Le Bon Toutou","steam_id":76561198300902712,"connected_time":1350000000000,"state":"active","ping":75},{"user_id":277,"name":"SocialistBacon","steam_id":76561198055872267,"connected_time":2847000000000,"state":"active","ping":76}]},{"server_id":114,"name":"Uncletopia | London | 2 | All Maps","name_short":"lon-2","host":"lon-1.uk.uncletopia.com","port":27025,"enabled":true,"region":"eu","cc":"gb","latitude":51.509865,"longitude":-0.118092,"reserved":0,"last_update":"0001-01-01T00:00:00Z","name_a2s":"Uncletopia | London | 2 | All Maps","protocol":17,"map":"pl_pier","folder":"tf","game":"Team Fortress","app_id":440,"player_count":24,"max_players":24,"Bots":0,"server_type":"Dedicated","server_os":"Linux","password":true,"vac":true,"version":"7757534","steam_id":85568392924470941,"keywords":["nocrits","nodmgspread","payload","uncletopia"],"game_id":440,"stv_port":27026,"stv_name":"Uncletopia | London | 2 | All Maps | STV","players":[{"user_id":17,"name":"MelvinIsANiceBoy","steam_id":76561198178415634,"connected_time":1575000000000,"state":"active","ping":50},{"user_id":30,"name":"S0LDaTo","steam_id":76561198269413360,"connected_time":1187000000000,"state":"active","ping":60},{"user_id":33,"name":"Crunchy","steam_id":76561198184973203,"connected_time":1127000000000,"state":"active","ping":55},{"user_id":8,"name":"yv.wallapop","steam_id":76561199228993903,"connected_time":3516000000000,"state":"active","ping":96},{"user_id":31,"name":"Pintarolas","steam_id":76561198124839451,"connected_time":1167000000000,"state":"active","ping":100},{"user_id":23,"name":"Penis Contortionist","steam_id":76561198073663784,"connected_time":1358000000000,"state":"active","ping":37},{"user_id":46,"name":"Riske","steam_id":76561198115840568,"connected_time":636000000000,"state":"active","ping":146},{"user_id":24,"name":"fector","steam_id":76561199204249586,"connected_time":1356000000000,"state":"active","ping":129},{"user_id":22,"name":"deflox","steam_id":76561198087450635,"connected_time":1393000000000,"state":"active","ping":50},{"user_id":51,"name":"Zombi3","steam_id":76561198326290621,"connected_time":505000000000,"state":"active","ping":64},{"user_id":35,"name":"Mentí","steam_id":76561198354012520,"connected_time":1015000000000,"state":"active","ping":55},{"user_id":28,"name":"katzdani","steam_id":76561198843351132,"connected_time":1282000000000,"state":"active","ping":74},{"user_id":36,"name":"vortexe","steam_id":76561198291669358,"connected_time":919000000000,"state":"active","ping":75},{"user_id":37,"name":"thebananabomb00","steam_id":76561198296409283,"connected_time":699000000000,"state":"active","ping":85},{"user_id":38,"name":"BSantos57","steam_id":76561198000597094,"connected_time":685000000000,"state":"active","ping":94},{"user_id":39,"name":"The Chosen One","steam_id":76561199046984627,"connected_time":682000000000,"state":"active","ping":158},{"user_id":40,"name":"Lone Stranger","steam_id":76561198994639500,"connected_time":674000000000,"state":"active","ping":93},{"user_id":41,"name":"SIMP","steam_id":76561198900479810,"connected_time":674000000000,"state":"active","ping":172},{"user_id":43,"name":"StarFins","steam_id":76561199026540529,"connected_time":665000000000,"state":"active","ping":71},{"user_id":44,"name":"Major Paynin D'Arse","steam_id":76561198000294203,"connected_time":658000000000,"state":"active","ping":73},{"user_id":49,"name":"Brinier","steam_id":76561199012604288,"connected_time":599000000000,"state":"active","ping":71},{"user_id":47,"name":"ricky pee pee","steam_id":76561198152620745,"connected_time":630000000000,"state":"active","ping":57},{"user_id":48,"name":"reign","steam_id":76561198091656119,"connected_time":629000000000,"state":"active","ping":44},{"user_id":50,"name":"Douche Ex Machina","steam_id":76561197980423608,"connected_time":599000000000,"state":"active","ping":71}]},{"server_id":320,"name":"Uncletopia | London | 3 | All Maps","name_short":"lon-3","host":"lon-1.uk.uncletopia.com","port":27035,"enabled":true,"region":"eu","cc":"gb","latitude":51.509865,"longitude":-0.118092,"reserved":0,"last_update":"0001-01-01T00:00:00Z","name_a2s":"Uncletopia | London | 3 | All Maps","protocol":17,"map":"pl_badwater","folder":"tf","game":"Team Fortress","app_id":440,"player_count":23,"max_players":24,"Bots":0,"server_type":"Dedicated","server_os":"Linux","password":true,"vac":true,"version":"7757534","steam_id":85568392924510192,"keywords":["nocrits","nodmgspread","payload","uncletopia"],"game_id":440,"stv_port":27036,"stv_name":"Uncletopia | London | 3 | All Maps | STV","players":[{"user_id":207,"name":"Princess Fuzz","steam_id":76561198025783000,"connected_time":3778000000000,"state":"active","ping":43},{"user_id":127,"name":"john fortress","steam_id":76561198013237629,"connected_time":10554000000000,"state":"active","ping":86},{"user_id":247,"name":"Pirovideo","steam_id":76561198850819934,"connected_time":379000000000,"state":"active","ping":43},{"user_id":180,"name":"OutOfDucks","steam_id":76561198166376227,"connected_time":5793000000000,"state":"active","ping":56},{"user_id":222,"name":"Chambersite","steam_id":76561198197022399,"connected_time":2927000000000,"state":"active","ping":79},{"user_id":236,"name":"Retropedro","steam_id":76561198093984552,"connected_time":2107000000000,"state":"active","ping":62},{"user_id":237,"name":"OffMilky","steam_id":76561198831440921,"connected_time":2051000000000,"state":"active","ping":26},{"user_id":240,"name":"bAdmon","steam_id":76561197961785793,"connected_time":1500000000000,"state":"active","ping":46},{"user_id":91,"name":"Miczu555PL","steam_id":76561198058500895,"connected_time":12629000000000,"state":"active","ping":72},{"user_id":206,"name":"silly","steam_id":76561199052017231,"connected_time":3961000000000,"state":"active","ping":66},{"user_id":189,"name":"Don Quixote","steam_id":76561197999454313,"connected_time":4930000000000,"state":"active","ping":75},{"user_id":238,"name":"Jahamal","steam_id":76561198275076660,"connected_time":1946000000000,"state":"active","ping":108},{"user_id":225,"name":"Poor Fucking Infantry","steam_id":76561198055978522,"connected_time":2681000000000,"state":"active","ping":45},{"user_id":192,"name":"tqla","steam_id":76561198073092585,"connected_time":4872000000000,"state":"active","ping":112},{"user_id":239,"name":"lant420","steam_id":76561198206673920,"connected_time":1824000000000,"state":"active","ping":99},{"user_id":203,"name":"METhOphetamine","steam_id":76561198068216224,"connected_time":4279000000000,"state":"active","ping":60},{"user_id":244,"name":"Oldworldjazz","steam_id":76561198184632645,"connected_time":1080000000000,"state":"active","ping":84},{"user_id":193,"name":"Balls","steam_id":76561198086400484,"connected_time":4844000000000,"state":"active","ping":75},{"user_id":175,"name":"RiX","steam_id":76561197969053733,"connected_time":6601000000000,"state":"active","ping":64},{"user_id":176,"name":"NeonNewt","steam_id":76561198066699212,"connected_time":6591000000000,"state":"active","ping":55},{"user_id":204,"name":"kreeekz","steam_id":76561198014431602,"connected_time":4216000000000,"state":"active","ping":72},{"user_id":233,"name":"KittyKate ❤","steam_id":76561198116340817,"connected_time":2322000000000,"state":"active","ping":59},{"user_id":220,"name":"WAP assassin","steam_id":76561198133532980,"connected_time":2982000000000,"state":"active","ping":45}]},{"server_id":321,"name":"Uncletopia | London | 4 | All Maps","name_short":"lon-4","host":"lon-1.uk.uncletopia.com","port":27045,"enabled":true,"region":"eu","cc":"gb","latitude":51.509865,"longitude":-0.118092,"reserved":0,"last_update":"0001-01-01T00:00:00Z","name_a2s":"Uncletopia | London | 4 | All Maps","protocol":17,"map":"koth_viaduct","folder":"tf","game":"Team Fortress","app_id":440,"player_count":0,"max_players":24,"Bots":0,"server_type":"Dedicated","server_os":"Linux","password":true,"vac":true,"version":"7757534","steam_id":85568392924510193,"keywords":["cp","nocrits","nodmgspread","uncletopia"],"game_id":440,"stv_port":27046,"stv_name":"Uncletopia | London | 4 | All Maps | STV","players":null},{"server_id":21,"name":"Uncletopia | London | 5 | All Maps","name_short":"lon-5","host":"lon-1.uk.uncletopia.com","port":27055,"enabled":true,"region":"eu","cc":"gb","latitude":51.509865,"longitude":-0.118092,"reserved":0,"last_update":"0001-01-01T00:00:00Z","name_a2s":"Uncletopia | London | 5 | All Maps","protocol":17,"map":"pl_badwater","folder":"tf","game":"Team Fortress","app_id":440,"player_count":0,"max_players":24,"Bots":0,"server_type":"Dedicated","server_os":"Linux","password":true,"vac":true,"version":"7757534","steam_id":85568392924742829,"keywords":["nocrits","nodmgspread","payload","uncletopia"],"game_id":440,"stv_port":27056,"stv_name":"Uncletopia | London | 5 | All Maps | STV","players":null},{"server_id":22,"name":"Uncletopia | London | 6 | All Maps","name_short":"lon-6","host":"lon-1.uk.uncletopia.com","port":27065,"enabled":true,"region":"eu","cc":"gb","latitude":51.509865,"longitude":-0.118092,"reserved":0,"last_update":"0001-01-01T00:00:00Z","name_a2s":"Uncletopia | London | 6 | All Maps","protocol":17,"map":"pl_upward","folder":"tf","game":"Team Fortress","app_id":440,"player_count":24,"max_players":24,"Bots":0,"server_type":"Dedicated","server_os":"Linux","password":true,"vac":true,"version":"7757534","steam_id":85568392924742830,"keywords":["nocrits","nodmgspread","payload","uncletopia"],"game_id":440,"stv_port":27066,"stv_name":"Uncletopia | London | 6 | All Maps | STV","players":[{"user_id":82,"name":"Tom","steam_id":76561198176543518,"connected_time":1838000000000,"state":"active","ping":111},{"user_id":44,"name":"Doctor Evanov","steam_id":76561198241088698,"connected_time":4133000000000,"state":"active","ping":88},{"user_id":56,"name":"Grinch Gun","steam_id":76561198097789669,"connected_time":3579000000000,"state":"active","ping":71},{"user_id":73,"name":"thekoolest88","steam_id":76561199022415672,"connected_time":2101000000000,"state":"active","ping":135},{"user_id":100,"name":"Åberg","steam_id":76561198160537076,"connected_time":112000000000,"state":"active","ping":84},{"user_id":98,"name":"Mr.Ronald","steam_id":76561198290434908,"connected_time":803000000000,"state":"active","ping":51},{"user_id":96,"name":"Silva_mlon","steam_id":76561199310242047,"connected_time":870000000000,"state":"active","ping":65},{"user_id":69,"name":"the joy of recycling","steam_id":76561198138509827,"connected_time":2401000000000,"state":"active","ping":89},{"user_id":70,"name":"Femboy with the wrong pronouns","steam_id":76561198072320671,"connected_time":2309000000000,"state":"active","ping":31},{"user_id":87,"name":"Princess Peach","steam_id":76561198260272240,"connected_time":1155000000000,"state":"active","ping":58},{"user_id":99,"name":"Echo of Abyss","steam_id":76561198981841782,"connected_time":682000000000,"state":"active","ping":74},{"user_id":88,"name":"beamer","steam_id":76561198206037191,"connected_time":1112000000000,"state":"active","ping":57},{"user_id":71,"name":"jt7","steam_id":76561198073655162,"connected_time":2300000000000,"state":"active","ping":84},{"user_id":63,"name":"triangle","steam_id":76561198046838168,"connected_time":3309000000000,"state":"active","ping":61},{"user_id":75,"name":"Plubu","steam_id":76561198082511092,"connected_time":2089000000000,"state":"active","ping":121},{"user_id":89,"name":"Der Herr Doktor","steam_id":76561198119476089,"connected_time":1031000000000,"state":"active","ping":73},{"user_id":67,"name":"htraB","steam_id":76561198043122677,"connected_time":3064000000000,"state":"active","ping":66},{"user_id":51,"name":".quickfast.","steam_id":76561199438900919,"connected_time":3768000000000,"state":"active","ping":45},{"user_id":92,"name":"✪ Danny","steam_id":76561198104483241,"connected_time":906000000000,"state":"active","ping":51},{"user_id":94,"name":"WiiSportKing","steam_id":76561198114139081,"connected_time":899000000000,"state":"active","ping":55},{"user_id":77,"name":"blindcinema_","steam_id":76561198026908105,"connected_time":2072000000000,"state":"active","ping":75},{"user_id":97,"name":"Aximus","steam_id":76561198024575710,"connected_time":863000000000,"state":"active","ping":70},{"user_id":86,"name":"marci","steam_id":76561198046777197,"connected_time":1389000000000,"state":"active","ping":76},{"user_id":81,"name":"British Disapproval","steam_id":76561198001375260,"connected_time":1874000000000,"state":"active","ping":54}]},{"server_id":40,"name":"Uncletopia | London | 7 | No Payload","name_short":"lon-7","host":"lon-1.uk.uncletopia.com","port":27075,"enabled":true,"region":"eu","cc":"gb","latitude":51.509865,"longitude":-0.118092,"reserved":0,"last_update":"0001-01-01T00:00:00Z","name_a2s":"Uncletopia | London | 7 | No Payload","protocol":17,"map":"koth_cascade","folder":"tf","game":"Team Fortress","app_id":440,"player_count":5,"max_players":24,"Bots":0,"server_type":"Dedicated","server_os":"Linux","password":true,"vac":true,"version":"7757534","steam_id":85568392924964314,"keywords":["cp","nocrits","nodmgspread","uncletopia"],"game_id":440,"stv_port":27076,"stv_name":"Uncletopia | London | 7 | No Payload | STV","players":[{"user_id":36,"name":"Feelin' Supersonic","steam_id":76561198005738407,"connected_time":4257000000000,"state":"active","ping":87},{"user_id":61,"name":"Fus in Boots","steam_id":76561198053897722,"connected_time":418000000000,"state":"active","ping":54},{"user_id":62,"name":"One Hundred","steam_id":76561199028651017,"connected_time":259000000000,"state":"active","ping":88},{"user_id":64,"name":"ulany gandalf","steam_id":76561199094128616,"connected_time":165000000000,"state":"active","ping":72},{"user_id":41,"name":"MOnster How should i feel?","steam_id":76561198531978435,"connected_time":3195000000000,"state":"active","ping":62}]},{"server_id":41,"name":"Uncletopia | London | 8 | Community","name_short":"lon-8","host":"lon-1.uk.uncletopia.com","port":27085,"enabled":true,"region":"eu","cc":"gb","latitude":51.509865,"longitude":-0.118092,"reserved":0,"last_update":"0001-01-01T00:00:00Z","name_a2s":"Uncletopia | London | 8 | Community","protocol":17,"map":"pl_upward","folder":"tf","game":"Team Fortress","app_id":440,"player_count":0,"max_players":24,"Bots":0,"server_type":"Dedicated","server_os":"Linux","password":true,"vac":true,"version":"7757534","steam_id":85568392924964315,"keywords":["nocrits","nodmgspread","payload","uncletopia"],"game_id":440,"stv_port":27086,"stv_name":"Uncletopia | London | 8 | Community | STV","players":null},{"server_id":300,"name":"Uncletopia | Montréal | 1 | All Maps","name_short":"mtl-1","host":"mtl-1.ca.uncletopia.com","port":27015,"enabled":true,"region":"us-east","cc":"ca","latitude":45.50889,"longitude":-73.56167,"reserved":0,"last_update":"0001-01-01T00:00:00Z","name_a2s":"Uncletopia | Montréal | 1 | All Maps","protocol":17,"map":"pl_snowycoast","folder":"tf","game":"Team Fortress","app_id":440,"player_count":0,"max_players":24,"Bots":0,"server_type":"Dedicated","server_os":"Linux","password":true,"vac":true,"version":"7757534","steam_id":85568392924500087,"keywords":["nocrits","nodmgspread","payload","uncletopia"],"game_id":440,"stv_port":27016,"stv_name":"Uncletopia | Montréal | 1 | All Maps | STV","players":null},{"server_id":301,"name":"Uncletopia | Montréal | 2 | All Maps","name_short":"mtl-2","host":"mtl-1.ca.uncletopia.com","port":27025,"enabled":true,"region":"us-east","cc":"ca","latitude":45.50889,"longitude":-73.56167,"reserved":0,"last_update":"0001-01-01T00:00:00Z","name_a2s":"Uncletopia | Montréal | 2 | All Maps","protocol":17,"map":"pl_snowycoast","folder":"tf","game":"Team Fortress","app_id":440,"player_count":0,"max_players":24,"Bots":0,"server_type":"Dedicated","server_os":"Linux","password":true,"vac":true,"version":"7757534","steam_id":85568392924500088,"keywords":["nocrits","nodmgspread","payload","uncletopia"],"game_id":440,"stv_port":27026,"stv_name":"Uncletopia | Montréal | 2 | All Maps | STV","players":null},{"server_id":302,"name":"Uncletopia | Montréal | 3 | All Maps","name_short":"mtl-3","host":"mtl-1.ca.uncletopia.com","port":27035,"enabled":true,"region":"us-east","cc":"ca","latitude":45.50889,"longitude":-73.56167,"reserved":0,"last_update":"0001-01-01T00:00:00Z","name_a2s":"Uncletopia | Montréal | 3 | All Maps","protocol":17,"map":"cp_dustbowl","folder":"tf","game":"Team Fortress","app_id":440,"player_count":0,"max_players":24,"Bots":0,"server_type":"Dedicated","server_os":"Linux","password":true,"vac":true,"version":"7757534","steam_id":85568392924500089,"keywords":["cp","nocrits","nodmgspread","uncletopia"],"game_id":440,"stv_port":27036,"stv_name":"Uncletopia | Montréal | 3 | All Maps | STV","players":null},{"server_id":303,"name":"Uncletopia | Montréal | 4 | No Payload","name_short":"mtl-4","host":"mtl-1.ca.uncletopia.com","port":27045,"enabled":true,"region":"us-east","cc":"ca","latitude":45.50889,"longitude":-73.56167,"reserved":0,"last_update":"0001-01-01T00:00:00Z","name_a2s":"Uncletopia | Montréal | 4 | No Payload","protocol":17,"map":"pl_borneo","folder":"tf","game":"Team Fortress","app_id":440,"player_count":0,"max_players":24,"Bots":0,"server_type":"Dedicated","server_os":"Linux","password":true,"vac":true,"version":"7757534","steam_id":85568392924500090,"keywords":["nocrits","nodmgspread","payload","uncletopia"],"game_id":440,"stv_port":27046,"stv_name":"Uncletopia | Montréal | 4 | No Payload | STV","players":null},{"server_id":13,"name":"Uncletopia | New York City | 1 | All Maps","name_short":"nyc-1","host":"nyc-1.us.uncletopia.com","port":27015,"enabled":true,"region":"us-east","cc":"us","latitude":40.73061,"longitude":-73.93524,"reserved":0,"last_update":"0001-01-01T00:00:00Z","name_a2s":"Uncletopia | New York City | 1 | All Maps","protocol":17,"map":"cp_dustbowl","folder":"tf","game":"Team Fortress","app_id":440,"player_count":0,"max_players":24,"Bots":0,"server_type":"Dedicated","server_os":"Linux","password":true,"vac":true,"version":"7757534","steam_id":85568392924469993,"keywords":["cp","nocrits","nodmgspread","uncletopia"],"game_id":440,"stv_port":27016,"stv_name":"Uncletopia | New York City | 1 | All Maps | STV","players":null},{"server_id":14,"name":"Uncletopia | New York City | 2 | All Maps","name_short":"nyc-2","host":"nyc-1.us.uncletopia.com","port":27025,"enabled":true,"region":"us-east","cc":"us","latitude":40.73061,"longitude":-73.93524,"reserved":0,"last_update":"0001-01-01T00:00:00Z","name_a2s":"Uncletopia | New York City | 2 | All Maps","protocol":17,"map":"pl_pier","folder":"tf","game":"Team Fortress","app_id":440,"player_count":0,"max_players":24,"Bots":0,"server_type":"Dedicated","server_os":"Linux","password":true,"vac":true,"version":"7757534","steam_id":85568392924469994,"keywords":["nocrits","nodmgspread","payload","uncletopia"],"game_id":440,"stv_port":27026,"stv_name":"Uncletopia | New York City | 2 | All Maps | STV","players":null},{"server_id":15,"name":"Uncletopia | New York City | 3 | Stopwatch Beta","name_short":"nyc-3","host":"nyc-1.us.uncletopia.com","port":27035,"enabled":true,"region":"us-east","cc":"us","latitude":40.73061,"longitude":-73.93524,"reserved":0,"last_update":"0001-01-01T00:00:00Z","name_a2s":"Uncletopia | New York City | 3 | Stopwatch Beta","protocol":17,"map":"cp_mountainlab","folder":"tf","game":"Team Fortress","app_id":440,"player_count":0,"max_players":24,"Bots":0,"server_type":"Dedicated","server_os":"Linux","password":true,"vac":true,"version":"7757534","steam_id":85568392924742820,"keywords":["cp","nocrits","nodmgspread","uncletopia"],"game_id":440,"stv_port":27036,"stv_name":"Uncletopia | New York City | 3 | Stopwatch Beta | STV","players":null},{"server_id":16,"name":"Uncletopia | New York City | 4 | Community","name_short":"nyc-4","host":"nyc-1.us.uncletopia.com","port":27045,"enabled":true,"region":"us-east","cc":"us","latitude":40.73061,"longitude":-73.93524,"reserved":0,"last_update":"0001-01-01T00:00:00Z","name_a2s":"Uncletopia | New York City | 4 | Community","protocol":17,"map":"pl_borneo","folder":"tf","game":"Team Fortress","app_id":440,"player_count":0,"max_players":24,"Bots":0,"server_type":"Dedicated","server_os":"Linux","password":true,"vac":true,"version":"7757534","steam_id":85568392924742821,"keywords":["nocrits","nodmgspread","payload","uncletopia"],"game_id":440,"stv_port":27046,"stv_name":"Uncletopia | New York City | 4 | Community | STV","players":null},{"server_id":142,"name":"Uncletopia | São Paulo | 1 | All Maps","name_short":"sao-1","host":"sao-1.br.uncletopia.com","port":27015,"enabled":true,"region":"sa","cc":"br","latitude":-23.533773,"longitude":-46.62529,"reserved":0,"last_update":"0001-01-01T00:00:00Z","name_a2s":"Uncletopia | São Paulo | 1 | All Maps","protocol":17,"map":"pl_badwater","folder":"tf","game":"Team Fortress","app_id":440,"player_count":0,"max_players":24,"Bots":0,"server_type":"Dedicated","server_os":"Linux","password":true,"vac":true,"version":"7757534","steam_id":85568392924469996,"keywords":["nocrits","nodmgspread","payload","uncletopia"],"game_id":440,"stv_port":27016,"stv_name":"Uncletopia | São Paulo | 1 | All Maps | STV","players":null},{"server_id":143,"name":"Uncletopia | São Paulo | 2 | All Maps","name_short":"sao-2","host":"sao-2.br.uncletopia.com","port":27015,"enabled":true,"region":"sa","cc":"br","latitude":-23.533773,"longitude":-46.62529,"reserved":0,"last_update":"0001-01-01T00:00:00Z","name_a2s":"Uncletopia | São Paulo | 2 | All Maps","protocol":17,"map":"pl_borneo","folder":"tf","game":"Team Fortress","app_id":440,"player_count":0,"max_players":24,"Bots":0,"server_type":"Dedicated","server_os":"Linux","password":true,"vac":true,"version":"7757534","steam_id":85568392924485349,"keywords":["nocrits","nodmgspread","payload","uncletopia"],"game_id":440,"stv_port":27016,"stv_name":"Uncletopia | São Paulo | 2 | All Maps | STV","players":null},{"server_id":7,"name":"Uncletopia | Seattle | 1 | All Maps","name_short":"sea-1","host":"sea-1.us.uncletopia.com","port":27015,"enabled":true,"region":"us-west","cc":"us","latitude":47.608013,"longitude":-122.33517,"reserved":0,"last_update":"0001-01-01T00:00:00Z","name_a2s":"Uncletopia | Seattle | 1 | All Maps","protocol":17,"map":"koth_cascade","folder":"tf","game":"Team Fortress","app_id":440,"player_count":24,"max_players":24,"Bots":0,"server_type":"Dedicated","server_os":"Linux","password":true,"vac":true,"version":"7757534","steam_id":85568392924469997,"keywords":["cp","nocrits","nodmgspread","uncletopia"],"game_id":440,"stv_port":27016,"stv_name":"Uncletopia | Seattle | 1 | All Maps | STV","players":[{"user_id":1145,"name":"ZahkRee","steam_id":76561197993651016,"connected_time":540000000000,"state":"active","ping":83},{"user_id":1143,"name":"Gratreedi","steam_id":76561198251684988,"connected_time":749000000000,"state":"active","ping":124},{"user_id":1132,"name":"goop","steam_id":76561198311256085,"connected_time":1346000000000,"state":"active","ping":102},{"user_id":1115,"name":"hentai girl 69","steam_id":76561198286113033,"connected_time":2089000000000,"state":"active","ping":122},{"user_id":1147,"name":"The Caretaker","steam_id":76561198125241411,"connected_time":142000000000,"state":"active","ping":109},{"user_id":1122,"name":"raspy","steam_id":76561198027298961,"connected_time":1841000000000,"state":"active","ping":105},{"user_id":1133,"name":"i eat nimh batteries","steam_id":76561199068341412,"connected_time":1324000000000,"state":"active","ping":119},{"user_id":1089,"name":"Ena","steam_id":76561198066986108,"connected_time":3704000000000,"state":"active","ping":40},{"user_id":1125,"name":"AlaNo","steam_id":76561198133099582,"connected_time":1741000000000,"state":"active","ping":81},{"user_id":1110,"name":"Bryce Gobo","steam_id":76561199411560141,"connected_time":2849000000000,"state":"active","ping":54},{"user_id":1139,"name":"Avem","steam_id":76561198058763710,"connected_time":1039000000000,"state":"active","ping":75},{"user_id":1146,"name":"Truffles","steam_id":76561198095868800,"connected_time":294000000000,"state":"active","ping":116},{"user_id":1082,"name":"SkyLark","steam_id":76561198303618132,"connected_time":3957000000000,"state":"active","ping":53},{"user_id":1120,"name":"magicbeetle","steam_id":76561199160422863,"connected_time":1934000000000,"state":"active","ping":170},{"user_id":1055,"name":"Sir Galahad","steam_id":76561198195999859,"connected_time":6588000000000,"state":"active","ping":54},{"user_id":1091,"name":"The Honorable E. Norma Scock","steam_id":76561198329744369,"connected_time":3622000000000,"state":"active","ping":75},{"user_id":1135,"name":"Dr. Satan™","steam_id":76561198179003795,"connected_time":1263000000000,"state":"active","ping":121},{"user_id":1118,"name":"Literally Roxy's Wife Tsuyu","steam_id":76561198175421763,"connected_time":2014000000000,"state":"active","ping":115},{"user_id":1140,"name":"00","steam_id":76561198041700636,"connected_time":1021000000000,"state":"active","ping":61},{"user_id":1113,"name":"the meat man","steam_id":76561198037921140,"connected_time":2113000000000,"state":"active","ping":72},{"user_id":1121,"name":"Turts","steam_id":76561197998448097,"connected_time":1905000000000,"state":"active","ping":62},{"user_id":1142,"name":"Xosibel","steam_id":76561197960781704,"connected_time":873000000000,"state":"active","ping":78},{"user_id":1104,"name":"Klone","steam_id":76561198854485605,"connected_time":3288000000000,"state":"active","ping":113},{"user_id":1144,"name":"DavisE","steam_id":76561198075504309,"connected_time":711000000000,"state":"active","ping":115}]},{"server_id":119,"name":"Uncletopia | Seattle | 2 | All Maps","name_short":"sea-2","host":"sea-1.us.uncletopia.com","port":27025,"enabled":true,"region":"us-west","cc":"us","latitude":47.608013,"longitude":-122.33517,"reserved":0,"last_update":"0001-01-01T00:00:00Z","name_a2s":"Uncletopia | Seattle | 2 | All Maps","protocol":17,"map":"koth_highpass","folder":"tf","game":"Team Fortress","app_id":440,"player_count":0,"max_players":24,"Bots":0,"server_type":"Dedicated","server_os":"Linux","password":true,"vac":true,"version":"7757534","steam_id":85568392924469998,"keywords":["cp","nocrits","nodmgspread","uncletopia"],"game_id":440,"stv_port":27026,"stv_name":"Uncletopia | Seattle | 2 | All Maps | STV","players":null},{"server_id":406,"name":"Uncletopia | Seattle | 3 | Stopwatch Beta","name_short":"sea-3","host":"sea-1.us.uncletopia.com","port":27035,"enabled":true,"region":"us-west","cc":"us","latitude":47.608013,"longitude":-122.33517,"reserved":0,"last_update":"0001-01-01T00:00:00Z","name_a2s":"Uncletopia | Seattle | 3 | Stopwatch Beta","protocol":17,"map":"pl_upward","folder":"tf","game":"Team Fortress","app_id":440,"player_count":0,"max_players":24,"Bots":0,"server_type":"Dedicated","server_os":"Linux","password":true,"vac":true,"version":"7757534","steam_id":85568392924515217,"keywords":["nocrits","nodmgspread","payload","uncletopia"],"game_id":440,"stv_port":27036,"stv_name":"Uncletopia | Seattle | 3 | Stopwatch Beta | STV","players":null},{"server_id":17,"name":"Uncletopia | San Francisco | 1 | All Maps","name_short":"sfo-1","host":"sfo-1.us.uncletopia.com","port":27015,"enabled":true,"region":"us-west","cc":"us","latitude":37.77397,"longitude":-122.4313,"reserved":0,"last_update":"0001-01-01T00:00:00Z","name_a2s":"Uncletopia | San Francisco | 1 | All Maps","protocol":17,"map":"koth_highpass","folder":"tf","game":"Team Fortress","app_id":440,"player_count":0,"max_players":24,"Bots":0,"server_type":"Dedicated","server_os":"Linux","password":true,"vac":true,"version":"7757534","steam_id":85568392924469999,"keywords":["cp","nocrits","nodmgspread","uncletopia"],"game_id":440,"stv_port":27016,"stv_name":"Uncletopia | San Francisco | 1 | All Maps | STV","players":null},{"server_id":18,"name":"Uncletopia | San Francisco | 2 | All Maps","name_short":"sfo-2","host":"sfo-1.us.uncletopia.com","port":27025,"enabled":true,"region":"us-west","cc":"us","latitude":37.77397,"longitude":-122.4313,"reserved":0,"last_update":"0001-01-01T00:00:00Z","name_a2s":"Uncletopia | San Francisco | 2 | All Maps","protocol":17,"map":"koth_highpass","folder":"tf","game":"Team Fortress","app_id":440,"player_count":0,"max_players":24,"Bots":0,"server_type":"Dedicated","server_os":"Linux","password":true,"vac":true,"version":"7757534","steam_id":85568392924470000,"keywords":["cp","nocrits","nodmgspread","uncletopia"],"game_id":440,"stv_port":27026,"stv_name":"Uncletopia | San Francisco | 2 | All Maps | STV","players":null},{"server_id":19,"name":"Uncletopia | San Francisco | 3 | Stopwatch Beta","name_short":"sfo-3","host":"sfo-1.us.uncletopia.com","port":27035,"enabled":true,"region":"us-west","cc":"us","latitude":37.77397,"longitude":-122.4313,"reserved":0,"last_update":"0001-01-01T00:00:00Z","name_a2s":"Uncletopia | San Francisco | 3 | Stopwatch Beta","protocol":17,"map":"pl_borneo","folder":"tf","game":"Team Fortress","app_id":440,"player_count":0,"max_players":24,"Bots":0,"server_type":"Dedicated","server_os":"Linux","password":true,"vac":true,"version":"7757534","steam_id":85568392924742824,"keywords":["nocrits","nodmgspread","payload","uncletopia"],"game_id":440,"stv_port":27036,"stv_name":"Uncletopia | San Francisco | 3 | Stopwatch Beta | STV","players":null},{"server_id":20,"name":"Uncletopia | San Francisco | 4 | Community","name_short":"sfo-4","host":"sfo-1.us.uncletopia.com","port":27045,"enabled":true,"region":"us-west","cc":"us","latitude":37.77397,"longitude":-122.4313,"reserved":0,"last_update":"0001-01-01T00:00:00Z","name_a2s":"Uncletopia | San Francisco | 4 | Community","protocol":17,"map":"workshop/pl_divulgence_b4b.ugc2884808746","folder":"tf","game":"Team Fortress","app_id":440,"player_count":0,"max_players":24,"Bots":0,"server_type":"Dedicated","server_os":"Linux","password":true,"vac":true,"version":"7757534","steam_id":85568392924742826,"keywords":["nocrits","nodmgspread","payload","uncletopia"],"game_id":440,"stv_port":27046,"stv_name":"Uncletopia | San Francisco | 4 | Community | STV","players":null},{"server_id":141,"name":"Uncletopia | Sydney | 1 | All Maps","name_short":"syd-1","host":"syd-1.au.uncletopia.com","port":27015,"enabled":true,"region":"au","cc":"au","latitude":-33.865143,"longitude":151.2099,"reserved":0,"last_update":"0001-01-01T00:00:00Z","name_a2s":"Uncletopia | Sydney | 1 | All Maps","protocol":17,"map":"pl_swiftwater_final1","folder":"tf","game":"Team Fortress","app_id":440,"player_count":24,"max_players":24,"Bots":0,"server_type":"Dedicated","server_os":"Linux","password":true,"vac":true,"version":"7757534","steam_id":85568392924470001,"keywords":["nocrits","nodmgspread","payload","uncletopia"],"game_id":440,"stv_port":27016,"stv_name":"Uncletopia | Sydney | 1 | All Maps | STV","players":[{"user_id":668,"name":"tweedie","steam_id":76561198063425523,"connected_time":333000000000,"state":"active","ping":58},{"user_id":637,"name":"Matt","steam_id":76561198006791420,"connected_time":2392000000000,"state":"active","ping":95},{"user_id":643,"name":"TouchGrass","steam_id":76561198347693630,"connected_time":1417000000000,"state":"active","ping":75},{"user_id":656,"name":"CripldSlmn","steam_id":76561198378465059,"connected_time":877000000000,"state":"active","ping":40},{"user_id":645,"name":"BredOdd","steam_id":76561198951688423,"connected_time":1324000000000,"state":"active","ping":94},{"user_id":646,"name":"O'rangutan","steam_id":76561198095916681,"connected_time":1298000000000,"state":"active","ping":37},{"user_id":659,"name":"Jad","steam_id":76561198453862581,"connected_time":769000000000,"state":"active","ping":96},{"user_id":652,"name":"JumpinDux","steam_id":76561198173610794,"connected_time":984000000000,"state":"active","ping":58},{"user_id":672,"name":"Doctor!","steam_id":76561198041851238,"connected_time":112000000000,"state":"active","ping":89},{"user_id":653,"name":"J959","steam_id":76561198855585931,"connected_time":984000000000,"state":"active","ping":82},{"user_id":655,"name":"neptune","steam_id":76561198039920735,"connected_time":936000000000,"state":"active","ping":43},{"user_id":662,"name":"Dank Walrus","steam_id":76561198312719211,"connected_time":604000000000,"state":"active","ping":49},{"user_id":623,"name":"Branko","steam_id":76561199262196710,"connected_time":3959000000000,"state":"active","ping":33},{"user_id":664,"name":"the slush","steam_id":76561198799842401,"connected_time":511000000000,"state":"active","ping":101},{"user_id":624,"name":"Lincoln2603","steam_id":76561198170236666,"connected_time":3841000000000,"state":"active","ping":41},{"user_id":636,"name":"SkoKiE","steam_id":76561198283542986,"connected_time":2489000000000,"state":"active","ping":69},{"user_id":625,"name":"wombraider","steam_id":76561199375834537,"connected_time":3836000000000,"state":"active","ping":128},{"user_id":663,"name":"RR Høse_","steam_id":76561198987926475,"connected_time":579000000000,"state":"active","ping":81},{"user_id":665,"name":"Justin Roilands Number 1 Fan","steam_id":76561198878584642,"connected_time":486000000000,"state":"active","ping":70},{"user_id":670,"name":"al_al_al_al_al_","steam_id":76561198136199613,"connected_time":214000000000,"state":"active","ping":55},{"user_id":667,"name":"Dart","steam_id":76561198288698038,"connected_time":461000000000,"state":"active","ping":53},{"user_id":628,"name":"bunnies002","steam_id":76561199368512129,"connected_time":3596000000000,"state":"active","ping":84},{"user_id":671,"name":"wackel","steam_id":76561198091003826,"connected_time":211000000000,"state":"active","ping":60},{"user_id":673,"name":"Tuga inglesa","steam_id":76561198442803577,"connected_time":11000000000,"state":"spawning","ping":329}]},{"server_id":123,"name":"Uncletopia | Sydney | 2 | All Maps","name_short":"syd-2","host":"syd-1.au.uncletopia.com","port":27025,"enabled":true,"region":"au","cc":"au","latitude":-33.865143,"longitude":151.2099,"reserved":0,"last_update":"0001-01-01T00:00:00Z","name_a2s":"Uncletopia | Sydney | 2 | All Maps","protocol":17,"map":"cp_altitude","folder":"tf","game":"Team Fortress","app_id":440,"player_count":0,"max_players":24,"Bots":0,"server_type":"Dedicated","server_os":"Linux","password":true,"vac":true,"version":"7757534","steam_id":85568392924470002,"keywords":["cp","nocrits","nodmgspread","uncletopia"],"game_id":440,"stv_port":27026,"stv_name":"Uncletopia | Sydney | 2 | All Maps | STV","players":null},{"server_id":395,"name":"Uncletopia | Sydney | 3 | All Maps","name_short":"syd-3","host":"syd-1.au.uncletopia.com","port":27035,"enabled":true,"region":"au","cc":"au","latitude":-33.865143,"longitude":151.2099,"reserved":0,"last_update":"0001-01-01T00:00:00Z","name_a2s":"Uncletopia | Sydney | 3 | All Maps","protocol":17,"map":"pl_badwater","folder":"tf","game":"Team Fortress","app_id":440,"player_count":0,"max_players":24,"Bots":0,"server_type":"Dedicated","server_os":"Linux","password":true,"vac":true,"version":"7757534","steam_id":85568392925194467,"keywords":["nocrits","nodmgspread","payload","uncletopia"],"game_id":440,"stv_port":27036,"stv_name":"Uncletopia | Sydney | 3 | All Maps | STV","players":null},{"server_id":396,"name":"Uncletopia | Sydney | 4 | All Maps","name_short":"syd-4","host":"syd-1.au.uncletopia.com","port":27045,"enabled":true,"region":"au","cc":"au","latitude":-33.865143,"longitude":151.2099,"reserved":0,"last_update":"0001-01-01T00:00:00Z","name_a2s":"Uncletopia | Sydney | 4 | All Maps","protocol":17,"map":"koth_lakeside_final","folder":"tf","game":"Team Fortress","app_id":440,"player_count":0,"max_players":24,"Bots":0,"server_type":"Dedicated","server_os":"Linux","password":true,"vac":true,"version":"7757534","steam_id":85568392925397958,"keywords":["cp","nocrits","nodmgspread","uncletopia"],"game_id":440,"stv_port":27046,"stv_name":"Uncletopia | Sydney | 4 | All Maps | STV","players":null},{"server_id":58,"name":"Uncletopia | Sydney | 5 | Stopwatch Beta","name_short":"syd-5","host":"syd-1.au.uncletopia.com","port":27055,"enabled":true,"region":"au","cc":"au","latitude":-33.865143,"longitude":151.2099,"reserved":0,"last_update":"0001-01-01T00:00:00Z","name_a2s":"Uncletopia | Sydney | 5 | Stopwatch Beta","protocol":17,"map":"koth_highpass","folder":"tf","game":"Team Fortress","app_id":440,"player_count":0,"max_players":24,"Bots":0,"server_type":"Dedicated","server_os":"Linux","password":true,"vac":true,"version":"7757534","steam_id":85568392925397959,"keywords":["cp","nocrits","nodmgspread","uncletopia"],"game_id":440,"stv_port":27056,"stv_name":"Uncletopia | Sydney | 5 | Stopwatch Beta | STV","players":null},{"server_id":59,"name":"Uncletopia | Sydney | 6 | Community","name_short":"syd-6","host":"syd-1.au.uncletopia.com","port":27065,"enabled":true,"region":"au","cc":"au","latitude":-33.865143,"longitude":151.2099,"reserved":0,"last_update":"0001-01-01T00:00:00Z","name_a2s":"Uncletopia | Sydney | 6 | Community","protocol":17,"map":"workshop/pl_emerge_rc2.ugc888027758","folder":"tf","game":"Team Fortress","app_id":440,"player_count":0,"max_players":24,"Bots":0,"server_type":"Dedicated","server_os":"Linux","password":true,"vac":true,"version":"7757534","steam_id":85568392925397960,"keywords":["nocrits","nodmgspread","payload","uncletopia"],"game_id":440,"stv_port":27066,"stv_name":"Uncletopia | Sydney | 6 | Community | STV","players":null},{"server_id":49,"name":"Uncletopia | Warsaw | 1 | All Maps","name_short":"waw-1","host":"waw-1.pl.uncletopia.com","port":27015,"enabled":true,"region":"eu","cc":"pl","latitude":52.2297,"longitude":21.017532,"reserved":0,"last_update":"0001-01-01T00:00:00Z","name_a2s":"","protocol":0,"map":"","folder":"","game":"","app_id":0,"player_count":0,"max_players":0,"Bots":0,"server_type":"","server_os":"","password":false,"vac":false,"version":"","steam_id":0,"keywords":null,"game_id":0,"stv_port":0,"stv_name":"","players":null},{"server_id":50,"name":"Uncletopia | Warsaw | 2 | All Maps","name_short":"waw-2","host":"waw-1.pl.uncletopia.com","port":27025,"enabled":true,"region":"eu","cc":"pl","latitude":52.2297,"longitude":21.017532,"reserved":0,"last_update":"0001-01-01T00:00:00Z","name_a2s":"Uncletopia | Warsaw | 2 | All Maps","protocol":17,"map":"cp_process_final","folder":"tf","game":"Team Fortress","app_id":440,"player_count":0,"max_players":24,"Bots":0,"server_type":"Dedicated","server_os":"Linux","password":true,"vac":true,"version":"7757534","steam_id":85568392925397851,"keywords":["cp","nocrits","nodmgspread","uncletopia"],"game_id":440,"stv_port":27026,"stv_name":"Uncletopia | Warsaw | 2 | All Maps | STV","players":null},{"server_id":51,"name":"Uncletopia | Warsaw | 3 | All Maps","name_short":"waw-3","host":"waw-1.pl.uncletopia.com","port":27035,"enabled":true,"region":"eu","cc":"pl","latitude":52.2297,"longitude":21.017532,"reserved":0,"last_update":"0001-01-01T00:00:00Z","name_a2s":"Uncletopia | Warsaw | 3 | All Maps","protocol":17,"map":"pl_barnblitz","folder":"tf","game":"Team Fortress","app_id":440,"player_count":1,"max_players":24,"Bots":0,"server_type":"Dedicated","server_os":"Linux","password":true,"vac":true,"version":"7757534","steam_id":85568392925397852,"keywords":["nocrits","nodmgspread","payload","uncletopia"],"game_id":440,"stv_port":27036,"stv_name":"Uncletopia | Warsaw | 3 | All Maps | STV","players":[{"user_id":3,"name":"nigilist","steam_id":76561198388456046,"connected_time":156000000000,"state":"active","ping":142}]},{"server_id":52,"name":"Uncletopia | Warsaw | 4 | All Maps","name_short":"waw-4","host":"waw-1.pl.uncletopia.com","port":27045,"enabled":true,"region":"eu","cc":"pl","latitude":52.2297,"longitude":21.017532,"reserved":0,"last_update":"0001-01-01T00:00:00Z","name_a2s":"Uncletopia | Warsaw | 4 | All Maps","protocol":17,"map":"pl_snowycoast","folder":"tf","game":"Team Fortress","app_id":440,"player_count":0,"max_players":24,"Bots":0,"server_type":"Dedicated","server_os":"Linux","password":true,"vac":true,"version":"7757534","steam_id":85568392925397853,"keywords":["nocrits","nodmgspread","payload","uncletopia"],"game_id":440,"stv_port":27046,"stv_name":"Uncletopia | Warsaw | 4 | All Maps | STV","players":null},{"server_id":53,"name":"Uncletopia | Warsaw | 5 | Stopwatch Beta","name_short":"waw-5","host":"waw-1.pl.uncletopia.com","port":27055,"enabled":true,"region":"eu","cc":"pl","latitude":52.2297,"longitude":21.017532,"reserved":0,"last_update":"0001-01-01T00:00:00Z","name_a2s":"Uncletopia | Warsaw | 5 | Stopwatch Beta","protocol":17,"map":"pl_barnblitz","folder":"tf","game":"Team Fortress","app_id":440,"player_count":0,"max_players":24,"Bots":0,"server_type":"Dedicated","server_os":"Linux","password":true,"vac":true,"version":"7757534","steam_id":85568392925397854,"keywords":["nocrits","nodmgspread","payload","uncletopia"],"game_id":440,"stv_port":27056,"stv_name":"Uncletopia | Warsaw | 5 | Stopwatch Beta | STV","players":null},{"server_id":54,"name":"Uncletopia | Warsaw | 6 | Community","name_short":"waw-6","host":"waw-1.pl.uncletopia.com","port":27065,"enabled":true,"region":"eu","cc":"pl","latitude":52.2297,"longitude":21.017532,"reserved":0,"last_update":"0001-01-01T00:00:00Z","name_a2s":"Uncletopia | Warsaw | 6 | Community","protocol":17,"map":"pl_swiftwater_final1","folder":"tf","game":"Team Fortress","app_id":440,"player_count":0,"max_players":24,"Bots":0,"server_type":"Dedicated","server_os":"Linux","password":true,"vac":true,"version":"7757534","steam_id":85568392925397856,"keywords":["nocrits","nodmgspread","payload","uncletopia"],"game_id":440,"stv_port":27066,"stv_name":"Uncletopia | Warsaw | 6 | Community | STV","players":null}]}