{"status":true,"message":"","result":[{"server_id":9,"name":"Uncletopia | Atlanta | 1 | All Maps","name_short":"atl-1","host":"atl-1.us.uncletopia.com","port":27015,"enabled":true,"region":"us-east","cc":"us","latitude":33.753746,"longitude":-84.38633,"reserved":0,"last_update":"0001-01-01T00:00:00Z","name_a2s":"Uncletopia | Atlanta | 1 | All Maps","protocol":17,"map":"pl_borneo","folder":"tf","game":"Team Fortress","app_id":440,"player_count":24,"max_players":24,"Bots":0,"server_type":"Dedicated","server_os":"Linux","password":true,"vac":true,"version":"7961495","steam_id":85568392924469982,"keywords":["nocrits","nodmgspread","payload","uncletopia"],"game_id":440,"stv_port":27016,"stv_name":"Uncletopia | Atlanta | 1 | All Maps | STV","players":[{"user_id":369,"name":"row","steam_id":76561198040946044,"connected_time":1492000000000,"state":"active","ping":70},{"user_id":378,"name":"are u five??","steam_id":76561198197058638,"connected_time":589000000000,"state":"active","ping":48},{"user_id":309,"name":"pangos moms wife","steam_id":76561198128164970,"connected_time":2337000000000,"state":"active","ping":105},{"user_id":379,"name":"kite","steam_id":76561198346516392,"connected_time":588000000000,"state":"active","ping":88},{"user_id":371,"name":"Mr_Frosty","steam_id":76561199380389079,"connected_time":1477000000000,"state":"active","ping":72},{"user_id":193,"name":"uthgarthegiant","steam_id":76561198348616230,"connected_time":10375000000000,"state":"active","ping":53},{"user_id":263,"name":"eish","steam_id":76561198089463603,"connected_time":5525000000000,"state":"active","ping":120},{"user_id":366,"name":"Lilith","steam_id":76561198125102885,"connected_time":1509000000000,"state":"active","ping":67},{"user_id":310,"name":"PK","steam_id":76561198368722500,"connected_time":2336000000000,"state":"active","ping":58},{"user_id":365,"name":"[B|B] Krissy","steam_id":76561197960848174,"connected_time":1514000000000,"state":"active","ping":68},{"user_id":364,"name":"pangos mom","steam_id":76561198249206656,"connected_time":1751000000000,"state":"active","ping":81},{"user_id":279,"name":"Jin Gulilo","steam_id":76561198065151242,"connected_time":4694000000000,"state":"active","ping":64},{"user_id":367,"name":"thomasdee725???","steam_id":76561199189526173,"connected_time":1498000000000,"state":"active","ping":61},{"user_id":257,"name":"Kiss Master","steam_id":76561198289572271,"connected_time":5931000000000,"state":"active","ping":51},{"user_id":370,"name":"Kc","steam_id":76561198210734407,"connected_time":1483000000000,"state":"active","ping":59},{"user_id":383,"name":"phfez","steam_id":76561198046150386,"connected_time":215000000000,"state":"active","ping":59},{"user_id":372,"name":"Ashes!","steam_id":76561197998475441,"connected_time":1477000000000,"state":"active","ping":69},{"user_id":373,"name":"Kitt(eh)  ∑:3","steam_id":76561198110858518,"connected_time":980000000000,"state":"active","ping":79},{"user_id":375,"name":"young_gun_apc","steam_id":76561198964009346,"connected_time":922000000000,"state":"active","ping":71},{"user_id":377,"name":"literally 1894","steam_id":76561198172454407,"connected_time":871000000000,"state":"active","ping":118},{"user_id":306,"name":"Neptune˖⁺｡˚⋆˙♥","steam_id":76561199054203198,"connected_time":2407000000000,"state":"active","ping":62},{"user_id":272,"name":"FIJI","steam_id":76561198126087725,"connected_time":5251000000000,"state":"active","ping":69},{"user_id":387,"name":"joe","steam_id":76561198045781320,"connected_time":111000000000,"state":"active","ping":61},{"user_id":278,"name":"ATL1 | Uganda #NEOTOKYO°","steam_id":76561199121276474,"connected_time":4705000000000,"state":"active","ping":77}]},{"server_id":104,"name":"Uncletopia | Atlanta | 2 | All Maps","name_short":"atl-2","host":"atl-1.us.uncletopia.com","port":27025,"enabled":true,"region":"us-east","cc":"us","latitude":33.753746,"longitude":-84.38633,"reserved":0,"last_update":"0001-01-01T00:00:00Z","name_a2s":"Uncletopia | Atlanta | 2 | All Maps","protocol":17,"map":"koth_suijin","folder":"tf","game":"Team Fortress","app_id":440,"player_count":24,"max_players":24,"Bots":0,"server_type":"Dedicated","server_os":"Linux","password":true,"vac":true,"version":"7961495","steam_id":85568392924469983,"keywords":["cp","nocrits","nodmgspread","uncletopia"],"game_id":440,"stv_port":27026,"stv_name":"Uncletopia | Atlanta | 2 | All Maps | STV","players":[{"user_id":183,"name":"donnie | iysmitl.xyz","steam_id":76561198148956323,"connected_time":544000000000,"state":"active","ping":57},{"user_id":166,"name":"Jimjohn","steam_id":76561198018654088,"connected_time":1398000000000,"state":"active","ping":74},{"user_id":184,"name":"Wife Enjoyer","steam_id":76561198044109761,"connected_time":544000000000,"state":"active","ping":61},{"user_id":195,"name":"Weather Report","steam_id":76561199109494283,"connected_time":45000000000,"state":"active","ping":58},{"user_id":191,"name":"alitas con papas","steam_id":76561198216192731,"connected_time":133000000000,"state":"active","ping":56},{"user_id":176,"name":"nav","steam_id":76561198872608266,"connected_time":995000000000,"state":"active","ping":67},{"user_id":168,"name":"Verily","steam_id":76561198200558318,"connected_time":1291000000000,"state":"active","ping":68},{"user_id":144,"name":"Pyrrhon the Aurum","steam_id":76561198046272856,"connected_time":2887000000000,"state":"active","ping":90},{"user_id":179,"name":"Chromatic Bliss","steam_id":76561198252604816,"connected_time":850000000000,"state":"active","ping":78},{"user_id":169,"name":"Havok","steam_id":76561198063455003,"connected_time":1286000000000,"state":"active","ping":61},{"user_id":180,"name":"Ok-Par","steam_id":76561199221067945,"connected_time":824000000000,"state":"active","ping":61},{"user_id":177,"name":"paint pig","steam_id":76561198024817457,"connected_time":990000000000,"state":"active","ping":62},{"user_id":171,"name":"shadowtaco69","steam_id":76561198112453714,"connected_time":1217000000000,"state":"active","ping":70},{"user_id":192,"name":"MoomyBoomy","steam_id":76561198150787961,"connected_time":129000000000,"state":"active","ping":66},{"user_id":172,"name":"luketheduke","steam_id":76561199010624018,"connected_time":1169000000000,"state":"active","ping":57},{"user_id":193,"name":"Sleepy Brady","steam_id":76561198867378129,"connected_time":98000000000,"state":"active","ping":108},{"user_id":157,"name":"King of Incoherency","steam_id":76561197998342159,"connected_time":1858000000000,"state":"active","ping":83},{"user_id":174,"name":"STICK","steam_id":76561199229549948,"connected_time":1137000000000,"state":"active","ping":54},{"user_id":181,"name":"General Sherman","steam_id":76561198044769376,"connected_time":646000000000,"state":"active","ping":50},{"user_id":196,"name":"Monte","steam_id":76561198097499917,"connected_time":26000000000,"state":"spawning","ping":80},{"user_id":162,"name":"Nobody","steam_id":76561198004778080,"connected_time":1755000000000,"state":"active","ping":84},{"user_id":158,"name":"Mcfighter2","steam_id":76561198168073956,"connected_time":1830000000000,"state":"active","ping":55},{"user_id":145,"name":"noah GHOSTFAC3","steam_id":76561198821301812,"connected_time":2882000000000,"state":"active","ping":103},{"user_id":189,"name":"Amtyk","steam_id":76561197979130554,"connected_time":340000000000,"state":"active","ping":72}]},{"server_id":400,"name":"Uncletopia | Atlanta | 3 | Stopwatch","name_short":"atl-3","host":"atl-1.us.uncletopia.com","port":27035,"enabled":true,"region":"us-east","cc":"us","latitude":33.753746,"longitude":-84.38633,"reserved":0,"last_update":"0001-01-01T00:00:00Z","name_a2s":"Uncletopia | Atlanta | 3 | Stopwatch","protocol":17,"map":"workshop/koth_clearcut_b15.ugc2107050255","folder":"tf","game":"Team Fortress","app_id":440,"player_count":0,"max_players":24,"Bots":0,"server_type":"Dedicated","server_os":"Linux","password":true,"vac":true,"version":"7961495","steam_id":85568392924515187,"keywords":["cp","nocrits","nodmgspread","uncletopia"],"game_id":440,"stv_port":27036,"stv_name":"Uncletopia | Atlanta | 3 | Stopwatch | STV","players":null},{"server_id":401,"name":"Uncletopia | Atlanta | 4 | Community","name_short":"atl-4","host":"atl-1.us.uncletopia.com","port":27045,"enabled":true,"region":"us-east","cc":"us","latitude":33.753746,"longitude":-84.38633,"reserved":0,"last_update":"0001-01-01T00:00:00Z","name_a2s":"Uncletopia | Atlanta | 4 | Community","protocol":17,"map":"workshop/koth_slaughter_rc1.ugc1712845210","folder":"tf","game":"Team Fortress","app_id":440,"player_count":0,"max_players":24,"Bots":0,"server_type":"Dedicated","server_os":"Linux","password":true,"vac":true,"version":"7961495","steam_id":85568392924515188,"keywords":["cp","nocrits","nodmgspread","uncletopia"],"game_id":440,"stv_port":27046,"stv_name":"Uncletopia | Atlanta | 4 | Community | STV","players":null},{"server_id":2,"name":"Uncletopia | Chicago | 1 | All Maps","name_short":"chi-1","host":"chi-1.us.uncletopia.com","port":27015,"enabled":true,"region":"us-central","cc":"us","latitude":41.881832,"longitude":-87.62318,"reserved":0,"last_update":"0001-01-01T00:00:00Z","name_a2s":"Uncletopia | Chicago | 1 | All Maps","protocol":17,"map":"cp_process_final","folder":"tf","game":"Team Fortress","app_id":440,"player_count":24,"max_players":24,"Bots":0,"server_type":"Dedicated","server_os":"Linux","password":true,"vac":true,"version":"7961495","steam_id":85568392924469984,"keywords":["cp","nocrits","nodmgspread","uncletopia"],"game_id":440,"stv_port":27016,"stv_name":"Uncletopia | Chicago | 1 | All Maps | STV","players":[{"user_id":560,"name":"FoulestPanda","steam_id":76561198966092920,"connected_time":77000000000,"state":"active","ping":70},{"user_id":500,"name":"rat eater","steam_id":76561199216874750,"connected_time":4211000000000,"state":"active","ping":46},{"user_id":532,"name":"I.C.","steam_id":76561198049256017,"connected_time":2101000000000,"state":"active","ping":72},{"user_id":498,"name":"Acid","steam_id":76561198042538896,"connected_time":4314000000000,"state":"active","ping":136},{"user_id":537,"name":"felderanto","steam_id":76561198044519477,"connected_time":1512000000000,"state":"active","ping":119},{"user_id":557,"name":"artemisjackson2","steam_id":76561199094686268,"connected_time":434000000000,"state":"active","ping":82},{"user_id":555,"name":"crazyabe111","steam_id":76561198407686352,"connected_time":528000000000,"state":"active","ping":61},{"user_id":506,"name":"Equinox","steam_id":76561198274279754,"connected_time":3473000000000,"state":"active","ping":55},{"user_id":554,"name":"MikeLovesRabbit","steam_id":76561197997742625,"connected_time":606000000000,"state":"active","ping":52},{"user_id":551,"name":"Magik","steam_id":76561198099726660,"connected_time":731000000000,"state":"active","ping":93},{"user_id":562,"name":"Ferguson","steam_id":76561198121349387,"connected_time":55000000000,"state":"active","ping":51},{"user_id":561,"name":"Oh, it's Zach","steam_id":76561198103309672,"connected_time":69000000000,"state":"active","ping":44},{"user_id":536,"name":"CAPT Splashclaw","steam_id":76561198110019410,"connected_time":1704000000000,"state":"active","ping":68},{"user_id":556,"name":"♥Bunny♥Slut♥","steam_id":76561198206376851,"connected_time":454000000000,"state":"active","ping":89},{"user_id":546,"name":"Smiles","steam_id":76561198107197973,"connected_time":867000000000,"state":"active","ping":56},{"user_id":476,"name":"Tito","steam_id":76561198041702529,"connected_time":5559000000000,"state":"active","ping":75},{"user_id":559,"name":"StudioMania (#SAVETF2)","steam_id":76561198211315795,"connected_time":236000000000,"state":"active","ping":56},{"user_id":503,"name":"Celestial Bodies","steam_id":76561198212572955,"connected_time":3787000000000,"state":"active","ping":80},{"user_id":534,"name":"fresco","steam_id":76561199101199477,"connected_time":1936000000000,"state":"active","ping":57},{"user_id":542,"name":"wallace and gromit","steam_id":76561198260316294,"connected_time":1040000000000,"state":"active","ping":60},{"user_id":485,"name":"Kero","steam_id":76561198343231436,"connected_time":4928000000000,"state":"active","ping":55},{"user_id":515,"name":"I Generate Thrust","steam_id":76561198271907916,"connected_time":2933000000000,"state":"active","ping":48},{"user_id":558,"name":"303","steam_id":76561199052840531,"connected_time":352000000000,"state":"active","ping":56},{"user_id":549,"name":"Im totally a hacker","steam_id":76561198888005736,"connected_time":780000000000,"state":"active","ping":69}]},{"server_id":106,"name":"Uncletopia | Chicago | 2 | All Maps","name_short":"chi-2","host":"chi-1.us.uncletopia.com","port":27025,"enabled":true,"region":"us-central","cc":"us","latitude":41.881832,"longitude":-87.62318,"reserved":0,"last_update":"0001-01-01T00:00:00Z","name_a2s":"Uncletopia | Chicago | 2 | All Maps","protocol":17,"map":"cp_gorge","folder":"tf","game":"Team Fortress","app_id":440,"player_count":24,"max_players":24,"Bots":0,"server_type":"Dedicated","server_os":"Linux","password":true,"vac":true,"version":"7961495","steam_id":85568392924469985,"keywords":["cp","nocrits","nodmgspread","uncletopia"],"game_id":440,"stv_port":27026,"stv_name":"Uncletopia | Chicago | 2 | All Maps | STV","players":[{"user_id":134,"name":"Truly Cryo","steam_id":76561198347497484,"connected_time":752000000000,"state":"active","ping":72},{"user_id":97,"name":"Master of Wales","steam_id":76561198031400151,"connected_time":2183000000000,"state":"active","ping":58},{"user_id":89,"name":"berserker_tf2 )HE/SHE(","steam_id":76561198303464488,"connected_time":2666000000000,"state":"active","ping":60},{"user_id":126,"name":"Sprit ♥","steam_id":76561198268780781,"connected_time":935000000000,"state":"active","ping":44},{"user_id":127,"name":"BigButternater","steam_id":76561199046684880,"connected_time":934000000000,"state":"active","ping":109},{"user_id":90,"name":"Stonks","steam_id":76561199490085068,"connected_time":2653000000000,"state":"active","ping":68},{"user_id":91,"name":"Max_Attack","steam_id":76561198944028607,"connected_time":2647000000000,"state":"active","ping":67},{"user_id":147,"name":"Windup Monkey in a Human Suit","steam_id":76561198119501444,"connected_time":75000000000,"state":"active","ping":86},{"user_id":123,"name":"Goldensliv","steam_id":76561198161673891,"connected_time":1030000000000,"state":"active","ping":90},{"user_id":139,"name":"Marco Pierre white","steam_id":76561198115714484,"connected_time":674000000000,"state":"active","ping":130},{"user_id":117,"name":"Robot_mann","steam_id":76561198340434264,"connected_time":1260000000000,"state":"active","ping":63},{"user_id":102,"name":"Boot Scootin Boogie","steam_id":76561198059171120,"connected_time":2043000000000,"state":"active","ping":75},{"user_id":140,"name":"Ajax","steam_id":76561197962240140,"connected_time":500000000000,"state":"active","ping":52},{"user_id":125,"name":"imng","steam_id":76561198014988031,"connected_time":1025000000000,"state":"active","ping":60},{"user_id":87,"name":"Sunshine","steam_id":76561198885528098,"connected_time":3027000000000,"state":"active","ping":72},{"user_id":141,"name":"Yam Jazzy Jim","steam_id":76561198000788950,"connected_time":475000000000,"state":"active","ping":69},{"user_id":129,"name":"your moms car","steam_id":76561199389283507,"connected_time":881000000000,"state":"active","ping":61},{"user_id":59,"name":"B R O W N","steam_id":76561198084016173,"connected_time":4567000000000,"state":"active","ping":54},{"user_id":130,"name":"MadnessTrigger","steam_id":76561199321844517,"connected_time":862000000000,"state":"active","ping":65},{"user_id":146,"name":"Asanez3","steam_id":76561198037381436,"connected_time":205000000000,"state":"active","ping":62},{"user_id":95,"name":"adam0o0","steam_id":76561198052250279,"connected_time":2258000000000,"state":"active","ping":65},{"user_id":148,"name":"Beef Wellington","steam_id":76561198049837377,"connected_time":7000000000,"state":"spawning","ping":119},{"user_id":122,"name":"TaakoTaaco","steam_id":76561198188021354,"connected_time":1056000000000,"state":"active","ping":58},{"user_id":132,"name":"Cutcleaner","steam_id":76561199000925667,"connected_time":791000000000,"state":"active","ping":76}]},{"server_id":402,"name":"Uncletopia | Chicago | 3 | All Maps","name_short":"chi-3","host":"chi-1.us.uncletopia.com","port":27035,"enabled":true,"region":"us-central","cc":"us","latitude":41.881832,"longitude":-87.62318,"reserved":0,"last_update":"0001-01-01T00:00:00Z","name_a2s":"Uncletopia | Chicago | 3 | All Maps","protocol":17,"map":"koth_harvest_final","folder":"tf","game":"Team Fortress","app_id":440,"player_count":24,"max_players":24,"Bots":0,"server_type":"Dedicated","server_os":"Linux","password":true,"vac":true,"version":"7961495","steam_id":85568392924515191,"keywords":["cp","nocrits","nodmgspread","uncletopia"],"game_id":440,"stv_port":27036,"stv_name":"Uncletopia | Chicago | 3 | All Maps | STV","players":[{"user_id":65,"name":"dr peppah chug!","steam_id":76561198068835693,"connected_time":965000000000,"state":"active","ping":98},{"user_id":47,"name":"SIN K4RMA","steam_id":76561198869287223,"connected_time":2789000000000,"state":"active","ping":79},{"user_id":69,"name":"Artemy","steam_id":76561198095712179,"connected_time":643000000000,"state":"active","ping":75},{"user_id":14,"name":"Zelumie","steam_id":76561198147335801,"connected_time":4513000000000,"state":"active","ping":84},{"user_id":15,"name":"Would You Make Me A Sandwich?","steam_id":76561198152332211,"connected_time":4477000000000,"state":"active","ping":45},{"user_id":54,"name":"Dick to ball ratio","steam_id":76561198072205512,"connected_time":2284000000000,"state":"active","ping":74},{"user_id":55,"name":"D O R I T O","steam_id":76561198250673850,"connected_time":1979000000000,"state":"active","ping":74},{"user_id":72,"name":"monkery","steam_id":76561198889699622,"connected_time":128000000000,"state":"active","ping":140},{"user_id":59,"name":"B.","steam_id":76561198040445907,"connected_time":1521000000000,"state":"active","ping":73},{"user_id":66,"name":"Louis Litt","steam_id":76561198170859755,"connected_time":753000000000,"state":"active","ping":70},{"user_id":41,"name":"professional twelve year old","steam_id":76561198858796870,"connected_time":3308000000000,"state":"active","ping":106},{"user_id":46,"name":"Demon Slayer","steam_id":76561198179806930,"connected_time":2890000000000,"state":"active","ping":45},{"user_id":28,"name":"benjamator67","steam_id":76561198209002860,"connected_time":3602000000000,"state":"active","ping":29},{"user_id":61,"name":"big rammy","steam_id":76561198151989510,"connected_time":1471000000000,"state":"active","ping":51},{"user_id":64,"name":"Neco-Arc (real)","steam_id":76561198353010811,"connected_time":1129000000000,"state":"active","ping":61},{"user_id":71,"name":"Inpecular","steam_id":76561198096571237,"connected_time":155000000000,"state":"active","ping":62},{"user_id":34,"name":"Sjsparrow","steam_id":76561197995352435,"connected_time":3407000000000,"state":"active","ping":40},{"user_id":68,"name":"Prsm","steam_id":76561198053344995,"connected_time":712000000000,"state":"active","ping":60},{"user_id":44,"name":"Jerk Tryhard (roleplay)","steam_id":76561199470538309,"connected_time":3280000000000,"state":"active","ping":57},{"user_id":73,"name":"Crombun","steam_id":76561198031559642,"connected_time":33000000000,"state":"active","ping":79},{"user_id":74,"name":"Scout","steam_id":76561198865519822,"connected_time":11000000000,"state":"spawning","ping":70},{"user_id":40,"name":"MarauderOP","steam_id":76561199087316861,"connected_time":3323000000000,"state":"active","ping":63},{"user_id":62,"name":"sergeant major cone tits","steam_id":76561198333985626,"connected_time":1468000000000,"state":"active","ping":74},{"user_id":63,"name":"Bearly Playable","steam_id":76561197984011511,"connected_time":1445000000000,"state":"active","ping":63}]},{"server_id":403,"name":"Uncletopia | Chicago | 4 | All Maps","name_short":"chi-4","host":"chi-1.us.uncletopia.com","port":27045,"enabled":true,"region":"us-central","cc":"us","latitude":41.881832,"longitude":-87.62318,"reserved":0,"last_update":"0001-01-01T00:00:00Z","name_a2s":"Uncletopia | Chicago | 4 | All Maps","protocol":17,"map":"pl_rumford_event","folder":"tf","game":"Team Fortress","app_id":440,"player_count":0,"max_players":24,"Bots":0,"server_type":"Dedicated","server_os":"Linux","password":true,"vac":true,"version":"7961495","steam_id":85568392924515193,"keywords":["nocrits","nodmgspread","payload","uncletopia"],"game_id":440,"stv_port":27046,"stv_name":"Uncletopia | Chicago | 4 | All Maps | STV","players":null},{"server_id":36,"name":"Uncletopia | Chicago | 5 | All Maps","name_short":"chi-5","host":"chi-2.us.uncletopia.com","port":27015,"enabled":true,"region":"us-central","cc":"us","latitude":41.881832,"longitude":-87.62318,"reserved":0,"last_update":"0001-01-01T00:00:00Z","name_a2s":"Uncletopia | Chicago | 5 | All Maps","protocol":17,"map":"koth_lakeside_final","folder":"tf","game":"Team Fortress","app_id":440,"player_count":0,"max_players":24,"Bots":0,"server_type":"Dedicated","server_os":"Linux","password":true,"vac":true,"version":"7961495","steam_id":85568392924866362,"keywords":["cp","nocrits","nodmgspread","uncletopia"],"game_id":440,"stv_port":27016,"stv_name":"Uncletopia | Chicago | 5 | All Maps | STV","players":null},{"server_id":37,"name":"Uncletopia | Chicago | 6 | All Maps","name_short":"chi-6","host":"chi-2.us.uncletopia.com","port":27025,"enabled":true,"region":"us-central","cc":"us","latitude":41.881832,"longitude":-87.62318,"reserved":0,"last_update":"0001-01-01T00:00:00Z","name_a2s":"Uncletopia | Chicago | 6 | All Maps","protocol":17,"map":"pl_frontier_final","folder":"tf","game":"Team Fortress","app_id":440,"player_count":24,"max_players":24,"Bots":0,"server_type":"Dedicated","server_os":"Linux","password":true,"vac":true,"version":"7961495","steam_id":85568392924866363,"keywords":["nocrits","nodmgspread","payload","uncletopia"],"game_id":440,"stv_port":27026,"stv_name":"Uncletopia | Chicago | 6 | All Maps | STV","players":[{"user_id":423,"name":"XIV twinblock","steam_id":76561198157414556,"connected_time":1930000000000,"state":"active","ping":74},{"user_id":448,"name":"Space of Pud","steam_id":76561198400468740,"connected_time":486000000000,"state":"active","ping":60},{"user_id":447,"name":"NUt","steam_id":76561198031007966,"connected_time":506000000000,"state":"active","ping":85},{"user_id":355,"name":"XIV ♂ I R O N ♂ M I K E ♂","steam_id":76561199405378993,"connected_time":6772000000000,"state":"active","ping":74},{"user_id":409,"name":"RedCo","steam_id":76561198335366889,"connected_time":2369000000000,"state":"active","ping":56},{"user_id":440,"name":"Modest","steam_id":76561198065643694,"connected_time":874000000000,"state":"active","ping":57},{"user_id":412,"name":"cxx","steam_id":76561198111995277,"connected_time":2257000000000,"state":"active","ping":63},{"user_id":400,"name":"Kasane","steam_id":76561198209006780,"connected_time":3055000000000,"state":"active","ping":72},{"user_id":450,"name":"Nobody","steam_id":76561198160544586,"connected_time":66000000000,"state":"active","ping":57},{"user_id":411,"name":"Mr.brapswason","steam_id":76561198313133260,"connected_time":2268000000000,"state":"active","ping":47},{"user_id":443,"name":"•Scooby-Douche•","steam_id":76561197998922428,"connected_time":739000000000,"state":"active","ping":64},{"user_id":444,"name":"The Supreme Gentleman","steam_id":76561198037123203,"connected_time":736000000000,"state":"active","ping":62},{"user_id":408,"name":"KysonJack","steam_id":76561198024092248,"connected_time":2488000000000,"state":"active","ping":87},{"user_id":446,"name":"on that zaza?","steam_id":76561198038713198,"connected_time":624000000000,"state":"active","ping":68},{"user_id":416,"name":"Burnside Special","steam_id":76561198822221762,"connected_time":2140000000000,"state":"active","ping":81},{"user_id":437,"name":"małię","steam_id":76561198337705174,"connected_time":1068000000000,"state":"active","ping":72},{"user_id":445,"name":"Gene Takovic","steam_id":76561198881039861,"connected_time":725000000000,"state":"active","ping":47},{"user_id":418,"name":"Jango","steam_id":76561198084589742,"connected_time":2092000000000,"state":"active","ping":79},{"user_id":451,"name":"Senator Armstrong","steam_id":76561198881794061,"connected_time":48000000000,"state":"active","ping":86},{"user_id":397,"name":"Meat Dragon","steam_id":76561198120319256,"connected_time":3670000000000,"state":"active","ping":53},{"user_id":433,"name":"Dougie Jones","steam_id":76561198367583372,"connected_time":1239000000000,"state":"active","ping":130},{"user_id":422,"name":"müde","steam_id":76561198141184894,"connected_time":1959000000000,"state":"active","ping":70},{"user_id":378,"name":"Skit","steam_id":76561198032675272,"connected_time":5632000000000,"state":"active","ping":69},{"user_id":297,"name":"Defender hunter","steam_id":76561198041458028,"connected_time":10330000000000,"state":"active","ping":177}]},{"server_id":38,"name":"Uncletopia | Chicago | 7 | Stopwatch","name_short":"chi-7","host":"chi-2.us.uncletopia.com","port":27035,"enabled":true,"region":"us-central","cc":"us","latitude":41.881832,"longitude":-87.62318,"reserved":0,"last_update":"0001-01-01T00:00:00Z","name_a2s":"Uncletopia | Chicago | 7 | Stopwatch","protocol":17,"map":"cp_snakewater_final1","folder":"tf","game":"Team Fortress","app_id":440,"player_count":0,"max_players":24,"Bots":0,"server_type":"Dedicated","server_os":"Linux","password":true,"vac":true,"version":"7961495","steam_id":85568392924866364,"keywords":["cp","nocrits","nodmgspread","uncletopia"],"game_id":440,"stv_port":27036,"stv_name":"Uncletopia | Chicago | 7 | Stopwatch | STV","players":null},{"server_id":39,"name":"Uncletopia | Chicago | 8 | Community","name_short":"chi-8","host":"chi-2.us.uncletopia.com","port":27045,"enabled":true,"region":"us-central","cc":"us","latitude":41.881832,"longitude":-87.62318,"reserved":0,"last_update":"0001-01-01T00:00:00Z","name_a2s":"Uncletopia | Chicago | 8 | Community","protocol":17,"map":"workshop/koth_slaughter_rc1.ugc1712845210","folder":"tf","game":"Team Fortress","app_id":440,"player_count":0,"max_players":24,"Bots":0,"server_type":"Dedicated","server_os":"Linux","password":true,"vac":true,"version":"7961495","steam_id":85568392924866365,"keywords":["cp","nocrits","nodmgspread","uncletopia"],"game_id":440,"stv_port":27046,"stv_name":"Uncletopia | Chicago | 8 | Community | STV","players":null},{"server_id":8,"name":"Uncletopia | Dallas | 1 | All Maps","name_short":"dal-1","host":"dal-1.us.uncletopia.com","port":27015,"enabled":true,"region":"us-central","cc":"us","latitude":32.779167,"longitude":-96.80889,"reserved":0,"last_update":"0001-01-01T00:00:00Z","name_a2s":"Uncletopia | Dallas | 1 | All Maps","protocol":17,"map":"pl_thundermountain","folder":"tf","game":"Team Fortress","app_id":440,"player_count":23,"max_players":24,"Bots":0,"server_type":"Dedicated","server_os":"Linux","password":true,"vac":true,"version":"7961495","steam_id":85568392924469986,"keywords":["nocrits","nodmgspread","payload","uncletopia"],"game_id":440,"stv_port":27016,"stv_name":"Uncletopia | Dallas | 1 | All Maps | STV","players":[{"user_id":335,"name":"Aster","steam_id":76561198037920420,"connected_time":2704000000000,"state":"active","ping":53},{"user_id":365,"name":"RedBaron","steam_id":76561198972426107,"connected_time":17000000000,"state":"spawning","ping":71},{"user_id":337,"name":"Mystborne","steam_id":76561198050661805,"connected_time":2652000000000,"state":"active","ping":45},{"user_id":334,"name":"Major Woody","steam_id":76561198835541533,"connected_time":3156000000000,"state":"active","ping":52},{"user_id":338,"name":"gohts","steam_id":76561199098573261,"connected_time":2644000000000,"state":"active","ping":90},{"user_id":362,"name":"chaffy","steam_id":76561198021754567,"connected_time":274000000000,"state":"active","ping":60},{"user_id":339,"name":"Tuxedo Terrorist","steam_id":76561199093106628,"connected_time":2624000000000,"state":"active","ping":80},{"user_id":320,"name":"Imrgrim","steam_id":76561198135866481,"connected_time":4236000000000,"state":"active","ping":74},{"user_id":331,"name":"SlurpyTheDog","steam_id":76561198799733154,"connected_time":4005000000000,"state":"active","ping":79},{"user_id":340,"name":"Sex Mode:ACTIVATE","steam_id":76561199219852129,"connected_time":2567000000000,"state":"active","ping":169},{"user_id":348,"name":"freesia","steam_id":76561198127525888,"connected_time":1788000000000,"state":"active","ping":45},{"user_id":304,"name":"Menace to Sobriety","steam_id":76561198245103000,"connected_time":5952000000000,"state":"active","ping":82},{"user_id":363,"name":"ShapedSilver","steam_id":76561199073305310,"connected_time":98000000000,"state":"active","ping":158},{"user_id":272,"name":"T. Bombadil","steam_id":76561198364152168,"connected_time":8754000000000,"state":"active","ping":139},{"user_id":352,"name":"radicalPolio","steam_id":76561197961561855,"connected_time":1624000000000,"state":"active","ping":49},{"user_id":347,"name":"xXKittyLordXx","steam_id":76561198136330692,"connected_time":2036000000000,"state":"active","ping":53},{"user_id":354,"name":"Toasterduds","steam_id":76561198163477584,"connected_time":1458000000000,"state":"active","ping":83},{"user_id":343,"name":"Mikael_01","steam_id":76561199080253129,"connected_time":2491000000000,"state":"active","ping":171},{"user_id":358,"name":"wheresgeorge","steam_id":76561198986281248,"connected_time":910000000000,"state":"active","ping":78},{"user_id":344,"name":"lord loboxtgamer","steam_id":76561198878084116,"connected_time":2474000000000,"state":"active","ping":171},{"user_id":359,"name":"Jim the Fish","steam_id":76561199135784419,"connected_time":762000000000,"state":"active","ping":100},{"user_id":364,"name":"QuesaDiaz","steam_id":76561198355667850,"connected_time":53000000000,"state":"active","ping":75},{"user_id":350,"name":"HFMurasama","steam_id":76561198272021214,"connected_time":1712000000000,"state":"active","ping":86}]},{"server_id":108,"name":"Uncletopia | Dallas | 2 | All Maps","name_short":"dal-2","host":"dal-1.us.uncletopia.com","port":27025,"enabled":true,"region":"us-central","cc":"us","latitude":32.779167,"longitude":-96.80889,"reserved":0,"last_update":"0001-01-01T00:00:00Z","name_a2s":"Uncletopia | Dallas | 2 | All Maps","protocol":17,"map":"cp_egypt_final","folder":"tf","game":"Team Fortress","app_id":440,"player_count":24,"max_players":24,"Bots":0,"server_type":"Dedicated","server_os":"Linux","password":true,"vac":true,"version":"7961495","steam_id":85568392924469988,"keywords":["cp","nocrits","nodmgspread","uncletopia"],"game_id":440,"stv_port":27026,"stv_name":"Uncletopia | Dallas | 2 | All Maps | STV","players":[{"user_id":157,"name":"jg125","steam_id":76561198824953530,"connected_time":2025000000000,"state":"active","ping":154},{"user_id":173,"name":"Bea","steam_id":76561198197928515,"connected_time":816000000000,"state":"active","ping":60},{"user_id":160,"name":"uncletopia dallas 2 player","steam_id":76561198412786186,"connected_time":1773000000000,"state":"active","ping":46},{"user_id":177,"name":"DrywallDevourer","steam_id":76561199081580639,"connected_time":299000000000,"state":"active","ping":74},{"user_id":168,"name":"Jefferton","steam_id":76561198406216568,"connected_time":1047000000000,"state":"active","ping":61},{"user_id":175,"name":"That Guy","steam_id":76561198028499814,"connected_time":579000000000,"state":"active","ping":65},{"user_id":140,"name":"Bowl of Cereal Gaming","steam_id":76561199042252292,"connected_time":2803000000000,"state":"active","ping":73},{"user_id":167,"name":"Count Ejacula","steam_id":76561198058400387,"connected_time":1316000000000,"state":"active","ping":66},{"user_id":170,"name":"Diego Sandals","steam_id":76561198854221260,"connected_time":973000000000,"state":"active","ping":130},{"user_id":180,"name":"ark","steam_id":76561198041066271,"connected_time":1000000000,"state":"spawning","ping":116},{"user_id":166,"name":"Spoinga Bob","steam_id":76561198172772014,"connected_time":1529000000000,"state":"active","ping":77},{"user_id":162,"name":"Poopballs","steam_id":76561197999254585,"connected_time":1759000000000,"state":"active","ping":46},{"user_id":161,"name":"Gold_S4 #saveTF2","steam_id":76561199082435571,"connected_time":1766000000000,"state":"active","ping":67},{"user_id":144,"name":"Vuncc","steam_id":76561198062529768,"connected_time":2683000000000,"state":"active","ping":59},{"user_id":156,"name":"Teckn1cal","steam_id":76561198972914209,"connected_time":2036000000000,"state":"active","ping":63},{"user_id":126,"name":"oxy","steam_id":76561198089770351,"connected_time":4162000000000,"state":"active","ping":69},{"user_id":163,"name":"the girl girlkisser","steam_id":76561198438737908,"connected_time":1755000000000,"state":"active","ping":70},{"user_id":172,"name":"Ramblet","steam_id":76561199026783260,"connected_time":831000000000,"state":"active","ping":79},{"user_id":176,"name":"awwawa","steam_id":76561198048139966,"connected_time":382000000000,"state":"active","ping":60},{"user_id":159,"name":"penzfan","steam_id":76561198230422640,"connected_time":1794000000000,"state":"active","ping":90},{"user_id":132,"name":"The Rat Bastard","steam_id":76561198112705880,"connected_time":3718000000000,"state":"active","ping":79},{"user_id":179,"name":"Certified Hood Classic","steam_id":76561199086159354,"connected_time":80000000000,"state":"active","ping":53},{"user_id":147,"name":"potatoes or potatoes","steam_id":76561198268384671,"connected_time":2651000000000,"state":"active","ping":64},{"user_id":155,"name":"PIPPIN","steam_id":76561199013202758,"connected_time":2321000000000,"state":"active","ping":62}]},{"server_id":404,"name":"Uncletopia | Dallas | 3 | All Maps","name_short":"dal-3","host":"dal-1.us.uncletopia.com","port":27035,"enabled":true,"region":"us-central","cc":"us","latitude":32.779167,"longitude":-96.80889,"reserved":0,"last_update":"0001-01-01T00:00:00Z","name_a2s":"Uncletopia | Dallas | 3 | All Maps","protocol":17,"map":"pl_badwater","folder":"tf","game":"Team Fortress","app_id":440,"player_count":0,"max_players":24,"Bots":0,"server_type":"Dedicated","server_os":"Linux","password":true,"vac":true,"version":"7961495","steam_id":85568392924515219,"keywords":["nocrits","nodmgspread","payload","uncletopia"],"game_id":440,"stv_port":27036,"stv_name":"Uncletopia | Dallas | 3 | All Maps | STV","players":null},{"server_id":405,"name":"Uncletopia | Dallas | 4 | Community","name_short":"dal-4","host":"dal-1.us.uncletopia.com","port":27045,"enabled":true,"region":"us-central","cc":"us","latitude":32.779167,"longitude":-96.80889,"reserved":0,"last_update":"0001-01-01T00:00:00Z","name_a2s":"Uncletopia | Dallas | 4 | Community","protocol":17,"map":"workshop/pl_fifthcurve_rc1.ugc648227046","folder":"tf","game":"Team Fortress","app_id":440,"player_count":0,"max_players":24,"Bots":0,"server_type":"Dedicated","server_os":"Linux","password":true,"vac":true,"version":"7961495","steam_id":85568392924515220,"keywords":["nocrits","nodmgspread","payload","uncletopia"],"game_id":440,"stv_port":27046,"stv_name":"Uncletopia | Dallas | 4 | Community | STV","players":null},{"server_id":5,"name":"Uncletopia | Frankfurt | 1 | All Maps","name_short":"frk-1","host":"frk-1.de.uncletopia.com","port":27015,"enabled":true,"region":"eu","cc":"de","latitude":50.110924,"longitude":8.682127,"reserved":0,"last_update":"0001-01-01T00:00:00Z","name_a2s":"Uncletopia | Frankfurt | 1 | All Maps","protocol":17,"map":"pl_snowycoast","folder":"tf","game":"Team Fortress","app_id":440,"player_count":0,"max_players":24,"Bots":0,"server_type":"Dedicated","server_os":"Linux","password":true,"vac":true,"version":"7961495","steam_id":85568392924469989,"keywords":["nocrits","nodmgspread","payload","uncletopia"],"game_id":440,"stv_port":27016,"stv_name":"Uncletopia | Frankfurt | 1 | All Maps | STV","players":null},{"server_id":110,"name":"Uncletopia | Frankfurt | 2 | All Maps","name_short":"frk-2","host":"frk-1.de.uncletopia.com","port":27025,"enabled":true,"region":"eu","cc":"de","latitude":50.110924,"longitude":8.682127,"reserved":0,"last_update":"0001-01-01T00:00:00Z","name_a2s":"Uncletopia | Frankfurt | 2 | All Maps","protocol":17,"map":"pl_badwater","folder":"tf","game":"Team Fortress","app_id":440,"player_count":2,"max_players":24,"Bots":0,"server_type":"Dedicated","server_os":"Linux","password":true,"vac":true,"version":"7961495","steam_id":85568392924469990,"keywords":["nocrits","nodmgspread","payload","uncletopia"],"game_id":440,"stv_port":27026,"stv_name":"Uncletopia | Frankfurt | 2 | All Maps | STV","players":[{"user_id":549,"name":"jacob","steam_id":76561198982417906,"connected_time":454000000000,"state":"active","ping":48},{"user_id":550,"name":"Dr. Nobotnik","steam_id":76561198357339092,"connected_time":382000000000,"state":"active","ping":156}]},{"server_id":308,"name":"Uncletopia | Frankfurt | 3 | All Maps","name_short":"frk-3","host":"frk-1.de.uncletopia.com","port":27035,"enabled":true,"region":"eu","cc":"de","latitude":50.110924,"longitude":8.682127,"reserved":0,"last_update":"0001-01-01T00:00:00Z","name_a2s":"Uncletopia | Frankfurt | 3 | All Maps","protocol":17,"map":"pl_barnblitz","folder":"tf","game":"Team Fortress","app_id":440,"player_count":23,"max_players":24,"Bots":0,"server_type":"Dedicated","server_os":"Linux","password":true,"vac":true,"version":"7961495","steam_id":85568392924504274,"keywords":["nocrits","nodmgspread","payload","uncletopia"],"game_id":440,"stv_port":27036,"stv_name":"Uncletopia | Frankfurt | 3 | All Maps | STV","players":[{"user_id":208,"name":"kana","steam_id":76561198002343512,"connected_time":8298000000000,"state":"active","ping":77},{"user_id":322,"name":"runcar222","steam_id":76561198077085528,"connected_time":323000000000,"state":"active","ping":53},{"user_id":321,"name":"Rae","steam_id":76561199232142844,"connected_time":387000000000,"state":"active","ping":96},{"user_id":315,"name":"Cosmetic brain","steam_id":76561198055936410,"connected_time":1068000000000,"state":"active","ping":86},{"user_id":231,"name":"PeskyPlumber","steam_id":76561198241999094,"connected_time":7021000000000,"state":"active","ping":56},{"user_id":323,"name":"fem","steam_id":76561199103444466,"connected_time":243000000000,"state":"active","ping":76},{"user_id":318,"name":"Conan the Librarian","steam_id":76561198007224654,"connected_time":621000000000,"state":"active","ping":82},{"user_id":305,"name":"big bug buttz","steam_id":76561198115106008,"connected_time":1701000000000,"state":"active","ping":70},{"user_id":279,"name":"stanislava.pitrov13","steam_id":76561198267829540,"connected_time":4399000000000,"state":"active","ping":60},{"user_id":300,"name":"[HOL] Solringen","steam_id":76561198003584681,"connected_time":2115000000000,"state":"active","ping":67},{"user_id":309,"name":"Zaanx","steam_id":76561199125603907,"connected_time":1405000000000,"state":"active","ping":101},{"user_id":235,"name":"vegetable_lover_45","steam_id":76561198361621766,"connected_time":6938000000000,"state":"active","ping":59},{"user_id":326,"name":"tm`","steam_id":76561197993580412,"connected_time":133000000000,"state":"active","ping":60},{"user_id":319,"name":"SeaKane","steam_id":76561198165453318,"connected_time":587000000000,"state":"active","ping":57},{"user_id":240,"name":"LordTrap.exe","steam_id":76561198318089716,"connected_time":6666000000000,"state":"active","ping":60},{"user_id":327,"name":"Behind you","steam_id":76561198102420849,"connected_time":116000000000,"state":"active","ping":60},{"user_id":316,"name":"else1","steam_id":76561197996558319,"connected_time":800000000000,"state":"active","ping":75},{"user_id":328,"name":"Valen","steam_id":76561198049614521,"connected_time":113000000000,"state":"active","ping":75},{"user_id":301,"name":"MR BUBBLES","steam_id":76561198019005259,"connected_time":2069000000000,"state":"active","ping":90},{"user_id":329,"name":"mespe","steam_id":76561198121530649,"connected_time":100000000000,"state":"active","ping":61},{"user_id":251,"name":"Ozzie","steam_id":76561197992915315,"connected_time":6489000000000,"state":"active","ping":75},{"user_id":330,"name":"Lao","steam_id":76561198004528684,"connected_time":68000000000,"state":"active","ping":69},{"user_id":308,"name":"rob","steam_id":76561198122211848,"connected_time":1512000000000,"state":"active","ping":78}]},{"server_id":309,"name":"Uncletopia | Frankfurt | 4 | All Maps","name_short":"frk-4","host":"frk-1.de.uncletopia.com","port":27045,"enabled":true,"region":"eu","cc":"de","latitude":50.110924,"longitude":8.682127,"reserved":0,"last_update":"0001-01-01T00:00:00Z","name_a2s":"Uncletopia | Frankfurt | 4 | All Maps","protocol":17,"map":"pl_badwater","folder":"tf","game":"Team Fortress","app_id":440,"player_count":0,"max_players":24,"Bots":0,"server_type":"Dedicated","server_os":"Linux","password":true,"vac":true,"version":"7961495","steam_id":85568392924504275,"keywords":["nocrits","nodmgspread","payload","uncletopia"],"game_id":440,"stv_port":27046,"stv_name":"Uncletopia | Frankfurt | 4 | All Maps | STV","players":null},{"server_id":310,"name":"Uncletopia | Frankfurt | 5 | All Maps","name_short":"frk-5","host":"frk-1.de.uncletopia.com","port":27055,"enabled":true,"region":"eu","cc":"de","latitude":50.110924,"longitude":8.682127,"reserved":0,"last_update":"0001-01-01T00:00:00Z","name_a2s":"Uncletopia | Frankfurt | 5 | All Maps","protocol":17,"map":"cp_steel","folder":"tf","game":"Team Fortress","app_id":440,"player_count":19,"max_players":24,"Bots":0,"server_type":"Dedicated","server_os":"Linux","password":true,"vac":true,"version":"7961495","steam_id":85568392924504277,"keywords":["cp","nocrits","nodmgspread","uncletopia"],"game_id":440,"stv_port":27056,"stv_name":"Uncletopia | Frankfurt | 5 | All Maps | STV","players":[{"user_id":150,"name":"Cursed","steam_id":76561198381491880,"connected_time":69000000000,"state":"active","ping":78},{"user_id":151,"name":"mini vegas stan","steam_id":76561198126029630,"connected_time":68000000000,"state":"active","ping":145},{"user_id":68,"name":"obi","steam_id":76561198040154461,"connected_time":5069000000000,"state":"active","ping":49},{"user_id":69,"name":"jangomango","steam_id":76561198357591412,"connected_time":5066000000000,"state":"active","ping":59},{"user_id":70,"name":"Pinkchup","steam_id":76561198106802803,"connected_time":5005000000000,"state":"active","ping":75},{"user_id":84,"name":"Doctor Medic","steam_id":76561198100957443,"connected_time":3951000000000,"state":"active","ping":57},{"user_id":116,"name":"chachiply","steam_id":76561198316355509,"connected_time":2449000000000,"state":"active","ping":67},{"user_id":129,"name":"Duncle322","steam_id":76561198258257247,"connected_time":1071000000000,"state":"active","ping":60},{"user_id":117,"name":"cherrypowder","steam_id":76561199006915718,"connected_time":2242000000000,"state":"active","ping":60},{"user_id":147,"name":"alex","steam_id":76561199281389958,"connected_time":454000000000,"state":"active","ping":63},{"user_id":82,"name":"N3lly","steam_id":76561198815271970,"connected_time":4027000000000,"state":"active","ping":53},{"user_id":146,"name":"a pan furry","steam_id":76561199445662628,"connected_time":469000000000,"state":"active","ping":69},{"user_id":132,"name":"kipod616","steam_id":76561198431183777,"connected_time":988000000000,"state":"active","ping":101},{"user_id":88,"name":"random gaming","steam_id":76561198087970118,"connected_time":3785000000000,"state":"active","ping":51},{"user_id":90,"name":"sixhundredseventy","steam_id":76561199441772083,"connected_time":3592000000000,"state":"active","ping":48},{"user_id":152,"name":"KuraiHeka","steam_id":76561198025441882,"connected_time":25000000000,"state":"active","ping":57},{"user_id":134,"name":"transfem spy","steam_id":76561198451638173,"connected_time":954000000000,"state":"active","ping":64},{"user_id":135,"name":"Nugget","steam_id":76561198033660173,"connected_time":926000000000,"state":"active","ping":49},{"user_id":111,"name":"Andy","steam_id":76561198046918834,"connected_time":2741000000000,"state":"active","ping":59}]},{"server_id":311,"name":"Uncletopia | Frankfurt | 6 | All Maps","name_short":"frk-6","host":"frk-1.de.uncletopia.com","port":27065,"enabled":true,"region":"eu","cc":"de","latitude":50.110924,"longitude":8.682127,"reserved":0,"last_update":"0001-01-01T00:00:00Z","name_a2s":"Uncletopia | Frankfurt | 6 | All Maps","protocol":17,"map":"pl_barnblitz","folder":"tf","game":"Team Fortress","app_id":440,"player_count":4,"max_players":24,"Bots":0,"server_type":"Dedicated","server_os":"Linux","password":true,"vac":true,"version":"7961495","steam_id":85568392924504278,"keywords":["nocrits","nodmgspread","payload","uncletopia"],"game_id":440,"stv_port":27066,"stv_name":"Uncletopia | Frankfurt | 6 | All Maps | STV","players":[{"user_id":587,"name":"Nyhde","steam_id":76561198012771416,"connected_time":350000000000,"state":"active","ping":89},{"user_id":588,"name":"FanFish","steam_id":76561199389558024,"connected_time":38000000000,"state":"active","ping":52},{"user_id":585,"name":"_Thatguyoverthere_","steam_id":76561198096912363,"connected_time":695000000000,"state":"active","ping":161},{"user_id":586,"name":"Mr.Deer","steam_id":76561198967106276,"connected_time":657000000000,"state":"active","ping":159}]},{"server_id":23,"name":"Uncletopia | Frankfurt | 7 | Stopwatch","name_short":"frk-7","host":"frk-1.de.uncletopia.com","port":27075,"enabled":true,"region":"eu","cc":"de","latitude":50.110924,"longitude":8.682127,"reserved":0,"last_update":"0001-01-01T00:00:00Z","name_a2s":"Uncletopia | Frankfurt | 7 | Stopwatch","protocol":17,"map":"workshop/koth_bagel_rc6.ugc2514036946","folder":"tf","game":"Team Fortress","app_id":440,"player_count":0,"max_players":24,"Bots":0,"server_type":"Dedicated","server_os":"Linux","password":true,"vac":true,"version":"7961495","steam_id":85568392924742827,"keywords":["cp","nocrits","nodmgspread","uncletopia"],"game_id":440,"stv_port":27076,"stv_name":"Uncletopia | Frankfurt | 7 | Stopwatch | STV","players":null},{"server_id":24,"name":"Uncletopia | Frankfurt | 8 | Community","name_short":"frk-8","host":"frk-1.de.uncletopia.com","port":27085,"enabled":true,"region":"eu","cc":"de","latitude":50.110924,"longitude":8.682127,"reserved":0,"last_update":"0001-01-01T00:00:00Z","name_a2s":"Uncletopia | Frankfurt | 8 | Community","protocol":17,"map":"workshop/cp_snowbase_b21.ugc2081770490","folder":"tf","game":"Team Fortress","app_id":440,"player_count":0,"max_players":24,"Bots":0,"server_type":"Dedicated","server_os":"Linux","password":true,"vac":true,"version":"7961495","steam_id":85568392924742828,"keywords":["cp","nocrits","nodmgspread","uncletopia"],"game_id":440,"stv_port":27086,"stv_name":"Uncletopia | Frankfurt | 8 | Community | STV","players":null},{"server_id":202,"name":"Uncletopia | Hong Kong | 1 | All Maps","name_short":"hgk-1","host":"hgk-1.hk.uncletopia.com","port":27015,"enabled":true,"region":"asia","cc":"hk","latitude":22.302711,"longitude":114.177216,"reserved":0,"last_update":"0001-01-01T00:00:00Z","name_a2s":"Uncletopia | Hong Kong | 1 | All Maps","protocol":17,"map":"cp_gravelpit","folder":"tf","game":"Team Fortress","app_id":440,"player_count":0,"max_players":24,"Bots":0,"server_type":"Dedicated","server_os":"Linux","password":true,"vac":true,"version":"7961495","steam_id":85568392924494504,"keywords":["cp","nocrits","nodmgspread","uncletopia"],"game_id":440,"stv_port":27016,"stv_name":"Uncletopia | Hong Kong | 1 | All Maps | STV","players":null},{"server_id":1,"name":"Uncletopia | Los Angeles | 1 | All Maps","name_short":"lax-1","host":"lax-1.us.uncletopia.com","port":27015,"enabled":true,"region":"us-west","cc":"us","latitude":33.94279,"longitude":-118.41004,"reserved":0,"last_update":"0001-01-01T00:00:00Z","name_a2s":"Uncletopia | Los Angeles | 1 | All Maps","protocol":17,"map":"cp_steel","folder":"tf","game":"Team Fortress","app_id":440,"player_count":23,"max_players":24,"Bots":0,"server_type":"Dedicated","server_os":"Linux","password":true,"vac":true,"version":"7961495","steam_id":85568392924469991,"keywords":["cp","nocrits","nodmgspread","uncletopia"],"game_id":440,"stv_port":27016,"stv_name":"Uncletopia | Los Angeles | 1 | All Maps | STV","players":[{"user_id":216,"name":"Penne","steam_id":76561198982393756,"connected_time":1241000000000,"state":"active","ping":53},{"user_id":195,"name":"Amateur Glaswegian","steam_id":76561198030851956,"connected_time":2749000000000,"state":"active","ping":76},{"user_id":209,"name":"LordGaBe64","steam_id":76561199395143624,"connected_time":2107000000000,"state":"active","ping":45},{"user_id":213,"name":"Spirit","steam_id":76561198861875678,"connected_time":1405000000000,"state":"active","ping":45},{"user_id":235,"name":"MineOpal","steam_id":76561198044716407,"connected_time":406000000000,"state":"active","ping":42},{"user_id":217,"name":"hoOmIN","steam_id":76561198334947079,"connected_time":1224000000000,"state":"active","ping":38},{"user_id":176,"name":"Keamy","steam_id":76561199471434875,"connected_time":4425000000000,"state":"active","ping":74},{"user_id":226,"name":"SunkenSole9132","steam_id":76561198359562446,"connected_time":914000000000,"state":"active","ping":60},{"user_id":218,"name":"DOOMBRINGER_","steam_id":76561198038523571,"connected_time":1219000000000,"state":"active","ping":86},{"user_id":219,"name":"TacoMan4Life","steam_id":76561198832562728,"connected_time":1209000000000,"state":"active","ping":49},{"user_id":228,"name":"supershyguy147","steam_id":76561199208965131,"connected_time":801000000000,"state":"active","ping":103},{"user_id":204,"name":"AlmostMediocre","steam_id":76561198055066965,"connected_time":2389000000000,"state":"active","ping":55},{"user_id":224,"name":"SanitysEdge","steam_id":76561198130732813,"connected_time":1046000000000,"state":"active","ping":44},{"user_id":193,"name":"EAT SPIT!","steam_id":76561198096836451,"connected_time":2957000000000,"state":"active","ping":53},{"user_id":237,"name":"shid","steam_id":76561198105374054,"connected_time":205000000000,"state":"active","ping":68},{"user_id":85,"name":"Eden","steam_id":76561198081284664,"connected_time":13358000000000,"state":"active","ping":57},{"user_id":229,"name":"Lysander Crow","steam_id":76561198214659356,"connected_time":780000000000,"state":"active","ping":34},{"user_id":230,"name":"Tmiracle","steam_id":76561198052375275,"connected_time":715000000000,"state":"active","ping":46},{"user_id":236,"name":"a chicken","steam_id":76561198313121580,"connected_time":298000000000,"state":"active","ping":59},{"user_id":232,"name":"Crazy Cane","steam_id":76561198993941174,"connected_time":662000000000,"state":"active","ping":98},{"user_id":203,"name":"sadurday | H.R.E.A.M 710","steam_id":76561198043969039,"connected_time":2497000000000,"state":"active","ping":38},{"user_id":234,"name":"Jpxfred","steam_id":76561199414783749,"connected_time":618000000000,"state":"active","ping":60}]},{"server_id":112,"name":"Uncletopia | Los Angeles | 2 | All Maps","name_short":"lax-2","host":"lax-1.us.uncletopia.com","port":27025,"enabled":true,"region":"us-west","cc":"us","latitude":33.94279,"longitude":-118.41004,"reserved":0,"last_update":"0001-01-01T00:00:00Z","name_a2s":"Uncletopia | Los Angeles | 2 | All Maps","protocol":17,"map":"koth_cascade","folder":"tf","game":"Team Fortress","app_id":440,"player_count":0,"max_players":24,"Bots":0,"server_type":"Dedicated","server_os":"Linux","password":true,"vac":true,"version":"7961495","steam_id":85568392924469992,"keywords":["cp","nocrits","nodmgspread","uncletopia"],"game_id":440,"stv_port":27026,"stv_name":"Uncletopia | Los Angeles | 2 | All Maps | STV","players":null},{"server_id":324,"name":"Uncletopia | Los Angeles | 3 | All Maps","name_short":"lax-3","host":"lax-1.us.uncletopia.com","port":27035,"enabled":true,"region":"us-west","cc":"us","latitude":33.94279,"longitude":-118.41004,"reserved":0,"last_update":"0001-01-01T00:00:00Z","name_a2s":"Uncletopia | Los Angeles | 3 | All Maps","protocol":17,"map":"cp_sunshine","folder":"tf","game":"Team Fortress","app_id":440,"player_count":0,"max_players":24,"Bots":0,"server_type":"Dedicated","server_os":"Linux","password":true,"vac":true,"version":"7961495","steam_id":85568392924510198,"keywords":["cp","nocrits","nodmgspread","uncletopia"],"game_id":440,"stv_port":27036,"stv_name":"Uncletopia | Los Angeles | 3 | All Maps | STV","players":null},{"server_id":25,"name":"Uncletopia | Los Angeles | 4 | Stopwatch","name_short":"lax-4","host":"lax-1.us.uncletopia.com","port":27045,"enabled":true,"region":"us-west","cc":"us","latitude":33.94279,"longitude":-118.41004,"reserved":0,"last_update":"0001-01-01T00:00:00Z","name_a2s":"Uncletopia | Los Angeles | 4 | Stopwatch","protocol":17,"map":"workshop/cp_process_f12.ugc2302948105","folder":"tf","game":"Team Fortress","app_id":440,"player_count":0,"max_players":24,"Bots":0,"server_type":"Dedicated","server_os":"Linux","password":true,"vac":true,"version":"7961495","steam_id":85568392924510199,"keywords":["cp","nocrits","nodmgspread","uncletopia"],"game_id":440,"stv_port":27046,"stv_name":"Uncletopia | Los Angeles | 4 | Stopwatch | STV","players":null},{"server_id":11,"name":"Uncletopia | London | 1 | All Maps","name_short":"lon-1","host":"lon-1.uk.uncletopia.com","port":27015,"enabled":true,"region":"eu","cc":"gb","latitude":51.509865,"longitude":-0.118092,"reserved":0,"last_update":"0001-01-01T00:00:00Z","name_a2s":"Uncletopia | London | 1 | All Maps","protocol":17,"map":"pl_borneo","folder":"tf","game":"Team Fortress","app_id":440,"player_count":21,"max_players":24,"Bots":0,"server_type":"Dedicated","server_os":"Linux","password":true,"vac":true,"version":"7961495","steam_id":85568392924367362,"keywords":["nocrits","nodmgspread","payload","uncletopia"],"game_id":440,"stv_port":27016,"stv_name":"Uncletopia | London | 1 | All Maps | STV","players":[{"user_id":550,"name":"[FP] Shiken","steam_id":76561198257905663,"connected_time":61000000000,"state":"active","ping":54},{"user_id":541,"name":"puck","steam_id":76561198121260981,"connected_time":772000000000,"state":"active","ping":40},{"user_id":463,"name":"♡ Birdy ♡","steam_id":76561198139632682,"connected_time":7198000000000,"state":"active","ping":90},{"user_id":552,"name":"herr_p","steam_id":76561198033072222,"connected_time":36000000000,"state":"active","ping":67},{"user_id":543,"name":"balls","steam_id":76561198058461401,"connected_time":471000000000,"state":"active","ping":48},{"user_id":464,"name":"rigel_","steam_id":76561198148640847,"connected_time":6946000000000,"state":"active","ping":74},{"user_id":526,"name":"zayd","steam_id":76561198895235231,"connected_time":1645000000000,"state":"active","ping":46},{"user_id":530,"name":"Kick gibus-engineers","steam_id":76561198046368451,"connected_time":1355000000000,"state":"active","ping":90},{"user_id":539,"name":"Sweetcheesus","steam_id":76561198022299033,"connected_time":882000000000,"state":"active","ping":59},{"user_id":542,"name":"Bobirulez","steam_id":76561198009125458,"connected_time":544000000000,"state":"active","ping":61},{"user_id":551,"name":"Kestrel","steam_id":76561198144033005,"connected_time":60000000000,"state":"active","ping":41},{"user_id":501,"name":"heal","steam_id":76561198046754534,"connected_time":3921000000000,"state":"active","ping":88},{"user_id":520,"name":"Zahn","steam_id":76561198101479964,"connected_time":1788000000000,"state":"active","ping":74},{"user_id":468,"name":"Trapezoid","steam_id":76561198059369295,"connected_time":6677000000000,"state":"active","ping":80},{"user_id":538,"name":"albert","steam_id":76561198353496134,"connected_time":927000000000,"state":"active","ping":59},{"user_id":532,"name":"yuck","steam_id":76561197987249568,"connected_time":1231000000000,"state":"active","ping":105},{"user_id":548,"name":"BENF","steam_id":76561198216425680,"connected_time":236000000000,"state":"active","ping":45},{"user_id":507,"name":"gnarly business","steam_id":76561198832688767,"connected_time":3741000000000,"state":"active","ping":42},{"user_id":524,"name":"Noodle","steam_id":76561198306486695,"connected_time":1703000000000,"state":"active","ping":59},{"user_id":529,"name":"☩ Knightz ☩","steam_id":76561198040936414,"connected_time":1552000000000,"state":"active","ping":98},{"user_id":512,"name":"reika","steam_id":76561198043601838,"connected_time":3259000000000,"state":"active","ping":75}]},{"server_id":114,"name":"Uncletopia | London | 2 | All Maps","name_short":"lon-2","host":"lon-1.uk.uncletopia.com","port":27025,"enabled":true,"region":"eu","cc":"gb","latitude":51.509865,"longitude":-0.118092,"reserved":0,"last_update":"0001-01-01T00:00:00Z","name_a2s":"Uncletopia | London | 2 | All Maps","protocol":17,"map":"cp_snakewater_final1","folder":"tf","game":"Team Fortress","app_id":440,"player_count":0,"max_players":24,"Bots":0,"server_type":"Dedicated","server_os":"Linux","password":true,"vac":true,"version":"7961495","steam_id":85568392924470941,"keywords":["cp","nocrits","nodmgspread","uncletopia"],"game_id":440,"stv_port":27026,"stv_name":"Uncletopia | London | 2 | All Maps | STV","players":null},{"server_id":320,"name":"Uncletopia | London | 3 | All Maps","name_short":"lon-3","host":"lon-1.uk.uncletopia.com","port":27035,"enabled":true,"region":"eu","cc":"gb","latitude":51.509865,"longitude":-0.118092,"reserved":0,"last_update":"0001-01-01T00:00:00Z","name_a2s":"Uncletopia | London | 3 | All Maps","protocol":17,"map":"pl_borneo","folder":"tf","game":"Team Fortress","app_id":440,"player_count":21,"max_players":24,"Bots":0,"server_type":"Dedicated","server_os":"Linux","password":true,"vac":true,"version":"7961495","steam_id":85568392924510192,"keywords":["nocrits","nodmgspread","payload","uncletopia"],"game_id":440,"stv_port":27036,"stv_name":"Uncletopia | London | 3 | All Maps | STV","players":[{"user_id":244,"name":"Marcel","steam_id":76561198348686648,"connected_time":6175000000000,"state":"active","ping":45},{"user_id":343,"name":"STiNGHAN","steam_id":76561198023989090,"connected_time":312000000000,"state":"active","ping":74},{"user_id":301,"name":"Imperial City Guard","steam_id":76561198083355845,"connected_time":3103000000000,"state":"active","ping":49},{"user_id":345,"name":"tone","steam_id":76561197975301462,"connected_time":201000000000,"state":"active","ping":69},{"user_id":337,"name":"tone' (real)","steam_id":76561198055552635,"connected_time":428000000000,"state":"active","ping":46},{"user_id":339,"name":"Cosmic Gamer","steam_id":76561198027357981,"connected_time":396000000000,"state":"active","ping":89},{"user_id":317,"name":"Nintails","steam_id":76561198075157560,"connected_time":1557000000000,"state":"active","ping":47},{"user_id":320,"name":"triple","steam_id":76561198119449463,"connected_time":1526000000000,"state":"active","ping":59},{"user_id":340,"name":"Lemon","steam_id":76561198188535947,"connected_time":381000000000,"state":"active","ping":62},{"user_id":291,"name":"smiley","steam_id":76561198042245117,"connected_time":3316000000000,"state":"active","ping":69},{"user_id":319,"name":"denimchicken","steam_id":76561197989061982,"connected_time":1544000000000,"state":"active","ping":62},{"user_id":321,"name":"senko","steam_id":76561198002990168,"connected_time":1515000000000,"state":"active","ping":46},{"user_id":341,"name":"MONEY","steam_id":76561198010924611,"connected_time":378000000000,"state":"active","ping":113},{"user_id":284,"name":"Mimic","steam_id":76561198064890253,"connected_time":3879000000000,"state":"active","ping":104},{"user_id":326,"name":"compact disc","steam_id":76561198154677956,"connected_time":1404000000000,"state":"active","ping":64},{"user_id":327,"name":"KO","steam_id":76561198325414022,"connected_time":1397000000000,"state":"active","ping":47},{"user_id":346,"name":"Lubrsi","steam_id":76561198040208195,"connected_time":199000000000,"state":"active","ping":52},{"user_id":309,"name":"cuddles","steam_id":76561198805181599,"connected_time":2649000000000,"state":"active","ping":38},{"user_id":328,"name":"Haren som har","steam_id":76561198130191090,"connected_time":1393000000000,"state":"active","ping":65},{"user_id":342,"name":"vic","steam_id":76561197961292479,"connected_time":339000000000,"state":"active","ping":105},{"user_id":316,"name":"Coac","steam_id":76561198085265740,"connected_time":1872000000000,"state":"active","ping":64}]},{"server_id":321,"name":"Uncletopia | London | 4 | All Maps","name_short":"lon-4","host":"lon-1.uk.uncletopia.com","port":27045,"enabled":true,"region":"eu","cc":"gb","latitude":51.509865,"longitude":-0.118092,"reserved":0,"last_update":"0001-01-01T00:00:00Z","name_a2s":"Uncletopia | London | 4 | All Maps","protocol":17,"map":"koth_cascade","folder":"tf","game":"Team Fortress","app_id":440,"player_count":5,"max_players":24,"Bots":0,"server_type":"Dedicated","server_os":"Linux","password":true,"vac":true,"version":"7961495","steam_id":85568392924510193,"keywords":["cp","nocrits","nodmgspread","uncletopia"],"game_id":440,"stv_port":27046,"stv_name":"Uncletopia | London | 4 | All Maps | STV","players":[{"user_id":523,"name":"WaryShadow","steam_id":76561198067922790,"connected_time":572000000000,"state":"active","ping":51},{"user_id":526,"name":"Retrogue","steam_id":76561198131776972,"connected_time":126000000000,"state":"active","ping":38},{"user_id":518,"name":"mrmicowave","steam_id":76561199059236134,"connected_time":2366000000000,"state":"active","ping":54},{"user_id":519,"name":"ClaraKuribo","steam_id":76561198059766642,"connected_time":2020000000000,"state":"active","ping":56},{"user_id":522,"name":"Fus in Boots","steam_id":76561198053897722,"connected_time":1364000000000,"state":"active","ping":36}]},{"server_id":21,"name":"Uncletopia | London | 5 | All Maps","name_short":"lon-5","host":"lon-1.uk.uncletopia.com","port":27055,"enabled":true,"region":"eu","cc":"gb","latitude":51.509865,"longitude":-0.118092,"reserved":0,"last_update":"0001-01-01T00:00:00Z","name_a2s":"Uncletopia | London | 5 | All Maps","protocol":17,"map":"cp_process_final","folder":"tf","game":"Team Fortress","app_id":440,"player_count":24,"max_players":24,"Bots":0,"server_type":"Dedicated","server_os":"Linux","password":true,"vac":true,"version":"7961495","steam_id":85568392924742829,"keywords":["cp","nocrits","nodmgspread","uncletopia"],"game_id":440,"stv_port":27056,"stv_name":"Uncletopia | London | 5 | All Maps | STV","players":[{"user_id":442,"name":"Red wine gaming","steam_id":76561198134378108,"connected_time":2202000000000,"state":"active","ping":70},{"user_id":474,"name":"Yrjö Koskinen Yrjö-Koskinen","steam_id":76561198368181145,"connected_time":191000000000,"state":"active","ping":89},{"user_id":450,"name":"Woad Raider","steam_id":76561198215485788,"connected_time":1944000000000,"state":"active","ping":68},{"user_id":430,"name":"uwUmby","steam_id":76561198166584580,"connected_time":2588000000000,"state":"active","ping":39},{"user_id":426,"name":"Deemaské","steam_id":76561199225833593,"connected_time":2776000000000,"state":"active","ping":46},{"user_id":429,"name":"RuneShine","steam_id":76561198007098323,"connected_time":2618000000000,"state":"active","ping":44},{"user_id":431,"name":"Yoloswaggins2k16xx360Noscope","steam_id":76561198827011521,"connected_time":2586000000000,"state":"active","ping":48},{"user_id":432,"name":"Vinylord Scratch","steam_id":76561198023362800,"connected_time":2584000000000,"state":"active","ping":31},{"user_id":479,"name":"Real (Real)","steam_id":76561198323425034,"connected_time":73000000000,"state":"active","ping":60},{"user_id":476,"name":"bryophyta","steam_id":76561197968945306,"connected_time":167000000000,"state":"active","ping":69},{"user_id":470,"name":"osp","steam_id":76561198336200596,"connected_time":460000000000,"state":"active","ping":136},{"user_id":465,"name":"agent youppii","steam_id":76561198055264447,"connected_time":1163000000000,"state":"active","ping":57},{"user_id":469,"name":"Reezar","steam_id":76561198209814089,"connected_time":503000000000,"state":"active","ping":58},{"user_id":472,"name":"vi","steam_id":76561198303147966,"connected_time":429000000000,"state":"active","ping":49},{"user_id":455,"name":"distinguished gentleman","steam_id":76561199437827758,"connected_time":1554000000000,"state":"active","ping":63},{"user_id":477,"name":"Endi","steam_id":76561198914938199,"connected_time":143000000000,"state":"active","ping":90},{"user_id":454,"name":"AAAAAAAAAAAAAAAAAAAAAA","steam_id":76561199376029299,"connected_time":1619000000000,"state":"active","ping":126},{"user_id":473,"name":"Ryan Gosling (Literally me)","steam_id":76561198438150893,"connected_time":385000000000,"state":"active","ping":107},{"user_id":463,"name":"Vershal Smershal","steam_id":76561198116223995,"connected_time":1186000000000,"state":"active","ping":56},{"user_id":459,"name":"finbar","steam_id":76561198056812396,"connected_time":1474000000000,"state":"active","ping":86},{"user_id":478,"name":"hundhundhund","steam_id":76561197983130737,"connected_time":140000000000,"state":"active","ping":60},{"user_id":464,"name":"based roider","steam_id":76561198080524596,"connected_time":1169000000000,"state":"active","ping":45},{"user_id":462,"name":"☹","steam_id":76561198804763186,"connected_time":1391000000000,"state":"active","ping":114},{"user_id":467,"name":"Steve, from HR","steam_id":76561198072088365,"connected_time":1015000000000,"state":"active","ping":66}]},{"server_id":22,"name":"Uncletopia | London | 6 | All Maps","name_short":"lon-6","host":"lon-1.uk.uncletopia.com","port":27065,"enabled":true,"region":"eu","cc":"gb","latitude":51.509865,"longitude":-0.118092,"reserved":0,"last_update":"0001-01-01T00:00:00Z","name_a2s":"Uncletopia | London | 6 | All Maps","protocol":17,"map":"cp_mercenarypark","folder":"tf","game":"Team Fortress","app_id":440,"player_count":21,"max_players":24,"Bots":0,"server_type":"Dedicated","server_os":"Linux","password":true,"vac":true,"version":"7961495","steam_id":85568392924742830,"keywords":["cp","nocrits","nodmgspread","uncletopia"],"game_id":440,"stv_port":27066,"stv_name":"Uncletopia | London | 6 | All Maps | STV","players":[{"user_id":478,"name":"Laru","steam_id":76561197998838438,"connected_time":916000000000,"state":"active","ping":65},{"user_id":467,"name":"PIMPrenelle","steam_id":76561198021366058,"connected_time":1875000000000,"state":"active","ping":45},{"user_id":489,"name":"sowakarana","steam_id":76561199405633261,"connected_time":5000000000,"state":"spawning","ping":55},{"user_id":485,"name":"NonProphet","steam_id":76561198280149820,"connected_time":348000000000,"state":"active","ping":50},{"user_id":454,"name":"Ephix","steam_id":76561197977164055,"connected_time":2763000000000,"state":"active","ping":56},{"user_id":477,"name":"1 toke 4 mars bars","steam_id":76561198056460000,"connected_time":966000000000,"state":"active","ping":46},{"user_id":447,"name":"WEEP","steam_id":76561199499933159,"connected_time":3337000000000,"state":"active","ping":72},{"user_id":479,"name":"Valfezant","steam_id":76561199063983797,"connected_time":858000000000,"state":"active","ping":73},{"user_id":416,"name":"MrEdman4","steam_id":76561198062233923,"connected_time":4988000000000,"state":"active","ping":104},{"user_id":410,"name":"mrznja","steam_id":76561198170334258,"connected_time":5651000000000,"state":"active","ping":68},{"user_id":470,"name":"Zamorocian","steam_id":76561198076604017,"connected_time":1622000000000,"state":"active","ping":35},{"user_id":488,"name":"Ghetto Reimo","steam_id":76561198189315728,"connected_time":81000000000,"state":"active","ping":65},{"user_id":471,"name":"eMcP","steam_id":76561198382509396,"connected_time":1223000000000,"state":"active","ping":58},{"user_id":487,"name":"teddy","steam_id":76561198007436837,"connected_time":293000000000,"state":"active","ping":29},{"user_id":490,"name":"Pass_Me_Your_Human_Rights","steam_id":76561198448357990,"connected_time":1000000000,"state":"spawning","ping":46},{"user_id":486,"name":"Squishie #SaveTF2","steam_id":76561198321025400,"connected_time":343000000000,"state":"active","ping":45},{"user_id":474,"name":"Twifsie Spiral","steam_id":76561198005365758,"connected_time":1099000000000,"state":"active","ping":83},{"user_id":481,"name":"Mudkip","steam_id":76561198055505997,"connected_time":695000000000,"state":"active","ping":121},{"user_id":482,"name":"KittyKate ❤","steam_id":76561198116340817,"connected_time":647000000000,"state":"active","ping":61},{"user_id":464,"name":"aaaaaa","steam_id":76561198086304421,"connected_time":2272000000000,"state":"active","ping":82},{"user_id":484,"name":"tr4ce","steam_id":76561198085296732,"connected_time":417000000000,"state":"active","ping":42}]},{"server_id":40,"name":"Uncletopia | London | 7 | Stopwatch","name_short":"lon-7","host":"lon-1.uk.uncletopia.com","port":27075,"enabled":true,"region":"eu","cc":"gb","latitude":51.509865,"longitude":-0.118092,"reserved":0,"last_update":"0001-01-01T00:00:00Z","name_a2s":"Uncletopia | London | 7 | Stopwatch","protocol":17,"map":"workshop/koth_clearcut_b15.ugc2107050255","folder":"tf","game":"Team Fortress","app_id":440,"player_count":0,"max_players":24,"Bots":0,"server_type":"Dedicated","server_os":"Linux","password":true,"vac":true,"version":"7961495","steam_id":85568392924964314,"keywords":["cp","nocrits","nodmgspread","uncletopia"],"game_id":440,"stv_port":27076,"stv_name":"Uncletopia | London | 7 | Stopwatch | STV","players":null},{"server_id":41,"name":"Uncletopia | London | 8 | Community","name_short":"lon-8","host":"lon-1.uk.uncletopia.com","port":27085,"enabled":true,"region":"eu","cc":"gb","latitude":51.509865,"longitude":-0.118092,"reserved":0,"last_update":"0001-01-01T00:00:00Z","name_a2s":"Uncletopia | London | 8 | Community","protocol":17,"map":"workshop/cp_croissant_final.ugc458840209","folder":"tf","game":"Team Fortress","app_id":440,"player_count":0,"max_players":24,"Bots":0,"server_type":"Dedicated","server_os":"Linux","password":true,"vac":true,"version":"7961495","steam_id":85568392924964315,"keywords":["cp","nocrits","nodmgspread","uncletopia"],"game_id":440,"stv_port":27086,"stv_name":"Uncletopia | London | 8 | Community | STV","players":null},{"server_id":300,"name":"Uncletopia | Montréal | 1 | One Thousand Uncles","name_short":"mtl-1","host":"mtl-1.ca.uncletopia.com","port":27015,"enabled":true,"region":"us-east","cc":"ca","latitude":45.50889,"longitude":-73.56167,"reserved":0,"last_update":"0001-01-01T00:00:00Z","name_a2s":"Uncletopia | Montréal | 1 | One Thousand Uncles","protocol":17,"map":"pl_chilly","folder":"tf","game":"Team Fortress","app_id":440,"player_count":24,"max_players":32,"Bots":16,"server_type":"Dedicated","server_os":"Linux","password":true,"vac":true,"version":"7961495","steam_id":85568392924500087,"keywords":["alltalk","bots","danepve","increased_maxplayers","norespawntime","payload","uncletopia"],"game_id":440,"stv_port":0,"stv_name":"","players":[{"user_id":21,"name":"Grand Wizard","steam_id":76561199382783363,"connected_time":4795000000000,"state":"active","ping":78},{"user_id":38,"name":"cognitiveAfflatus","steam_id":76561198295181426,"connected_time":4440000000000,"state":"active","ping":60},{"user_id":54,"name":"MechanicalMenace14","steam_id":76561199063956054,"connected_time":581000000000,"state":"active","ping":110},{"user_id":44,"name":"Ephemerality 137","steam_id":76561198353496921,"connected_time":3316000000000,"state":"active","ping":63},{"user_id":56,"name":"RectalExam","steam_id":76561197970502312,"connected_time":212000000000,"state":"active","ping":100},{"user_id":45,"name":"the liverals","steam_id":76561198040415947,"connected_time":3252000000000,"state":"active","ping":100},{"user_id":57,"name":"Grumpicake","steam_id":76561198292927842,"connected_time":171000000000,"state":"active","ping":57},{"user_id":51,"name":"Panacea","steam_id":76561198342513959,"connected_time":1850000000000,"state":"active","ping":62}]},{"server_id":301,"name":"Uncletopia | Montréal | 2 | One Thousand Uncles","name_short":"mtl-2","host":"mtl-1.ca.uncletopia.com","port":27025,"enabled":true,"region":"us-east","cc":"ca","latitude":45.50889,"longitude":-73.56167,"reserved":0,"last_update":"0001-01-01T00:00:00Z","name_a2s":"Uncletopia | Montréal | 2 | One Thousand Uncles","protocol":17,"map":"pl_chilly","folder":"tf","game":"Team Fortress","app_id":440,"player_count":0,"max_players":32,"Bots":0,"server_type":"Dedicated","server_os":"Linux","password":true,"vac":true,"version":"7961495","steam_id":85568392924500088,"keywords":["alltalk","danepve","increased_maxplayers","norespawntime","payload","uncletopia"],"game_id":440,"stv_port":0,"stv_name":"","players":null},{"server_id":302,"name":"Uncletopia | Montréal | 3 | One Thousand Uncles","name_short":"mtl-3","host":"mtl-1.ca.uncletopia.com","port":27035,"enabled":true,"region":"us-east","cc":"ca","latitude":45.50889,"longitude":-73.56167,"reserved":0,"last_update":"0001-01-01T00:00:00Z","name_a2s":"Uncletopia | Montréal | 3 | One Thousand Uncles","protocol":17,"map":"cp_egypt_final","folder":"tf","game":"Team Fortress","app_id":440,"player_count":0,"max_players":32,"Bots":0,"server_type":"Dedicated","server_os":"Linux","password":true,"vac":true,"version":"7961495","steam_id":85568392924500089,"keywords":["alltalk","cp","danepve","increased_maxplayers","norespawntime","uncletopia"],"game_id":440,"stv_port":0,"stv_name":"","players":null},{"server_id":13,"name":"Uncletopia | New York City | 1 | All Maps","name_short":"nyc-1","host":"nyc-1.us.uncletopia.com","port":27015,"enabled":true,"region":"us-east","cc":"us","latitude":40.73061,"longitude":-73.93524,"reserved":0,"last_update":"0001-01-01T00:00:00Z","name_a2s":"Uncletopia | New York City | 1 | All Maps","protocol":17,"map":"pl_frontier_final","folder":"tf","game":"Team Fortress","app_id":440,"player_count":24,"max_players":24,"Bots":0,"server_type":"Dedicated","server_os":"Linux","password":true,"vac":true,"version":"7961495","steam_id":85568392924469993,"keywords":["nocrits","nodmgspread","payload","uncletopia"],"game_id":440,"stv_port":27016,"stv_name":"Uncletopia | New York City | 1 | All Maps | STV","players":[{"user_id":181,"name":"sillylokisparkles","steam_id":76561198872251615,"connected_time":1805000000000,"state":"active","ping":71},{"user_id":220,"name":"↑Slimbro","steam_id":76561198088926489,"connected_time":61000000000,"state":"active","ping":49},{"user_id":203,"name":"slafflow","steam_id":76561199381012350,"connected_time":584000000000,"state":"active","ping":97},{"user_id":141,"name":"Lemon Soda","steam_id":76561198140208761,"connected_time":5509000000000,"state":"active","ping":44},{"user_id":215,"name":"Strangelove","steam_id":76561198353773611,"connected_time":191000000000,"state":"active","ping":86},{"user_id":159,"name":"Elvis Dwarvley","steam_id":76561198117231611,"connected_time":3818000000000,"state":"active","ping":133},{"user_id":183,"name":"Crazy Insane Proboscis Monkey","steam_id":76561198061011176,"connected_time":1748000000000,"state":"active","ping":76},{"user_id":196,"name":"avantime","steam_id":76561199203175541,"connected_time":1398000000000,"state":"active","ping":64},{"user_id":200,"name":"Leon The Unprofessional","steam_id":76561198018408668,"connected_time":827000000000,"state":"active","ping":75},{"user_id":177,"name":"lil bruh","steam_id":76561198198272770,"connected_time":2161000000000,"state":"active","ping":67},{"user_id":212,"name":"kibble","steam_id":76561198239909096,"connected_time":213000000000,"state":"active","ping":48},{"user_id":216,"name":"Shwartzy","steam_id":76561198073927139,"connected_time":189000000000,"state":"active","ping":60},{"user_id":204,"name":"Ninten","steam_id":76561198131409710,"connected_time":571000000000,"state":"active","ping":60},{"user_id":188,"name":"Boolet","steam_id":76561198088666151,"connected_time":1642000000000,"state":"active","ping":103},{"user_id":205,"name":"ChimpusGaming","steam_id":76561198060954715,"connected_time":570000000000,"state":"active","ping":63},{"user_id":219,"name":"p8ps","steam_id":76561199137042715,"connected_time":115000000000,"state":"active","ping":168},{"user_id":217,"name":"CONKER","steam_id":76561197986079320,"connected_time":186000000000,"state":"active","ping":63},{"user_id":168,"name":"carrot cake","steam_id":76561198055174915,"connected_time":3242000000000,"state":"active","ping":68},{"user_id":211,"name":"Two-Teste Tommy","steam_id":76561198064308936,"connected_time":227000000000,"state":"active","ping":61},{"user_id":218,"name":"Nixon Me, Dixon Me","steam_id":76561198126519537,"connected_time":181000000000,"state":"active","ping":59},{"user_id":214,"name":"cee","steam_id":76561198420893458,"connected_time":200000000000,"state":"active","ping":93},{"user_id":207,"name":"Piss God","steam_id":76561198090504334,"connected_time":559000000000,"state":"active","ping":48},{"user_id":201,"name":"Xbox_Pro:RELOADED","steam_id":76561198176126519,"connected_time":769000000000,"state":"active","ping":45},{"user_id":156,"name":"The Undead Knight","steam_id":76561198010654500,"connected_time":4236000000000,"state":"active","ping":75}]},{"server_id":14,"name":"Uncletopia | New York City | 2 | All Maps","name_short":"nyc-2","host":"nyc-1.us.uncletopia.com","port":27025,"enabled":true,"region":"us-east","cc":"us","latitude":40.73061,"longitude":-73.93524,"reserved":0,"last_update":"0001-01-01T00:00:00Z","name_a2s":"Uncletopia | New York City | 2 | All Maps","protocol":17,"map":"koth_lakeside_final","folder":"tf","game":"Team Fortress","app_id":440,"player_count":0,"max_players":24,"Bots":0,"server_type":"Dedicated","server_os":"Linux","password":true,"vac":true,"version":"7961495","steam_id":85568392924469994,"keywords":["cp","nocrits","nodmgspread","uncletopia"],"game_id":440,"stv_port":27026,"stv_name":"Uncletopia | New York City | 2 | All Maps | STV","players":null},{"server_id":15,"name":"Uncletopia | New York City | 3 | Stopwatch","name_short":"nyc-3","host":"nyc-1.us.uncletopia.com","port":27035,"enabled":true,"region":"us-east","cc":"us","latitude":40.73061,"longitude":-73.93524,"reserved":0,"last_update":"0001-01-01T00:00:00Z","name_a2s":"Uncletopia | New York City | 3 | Stopwatch","protocol":17,"map":"cp_snakewater_final1","folder":"tf","game":"Team Fortress","app_id":440,"player_count":1,"max_players":24,"Bots":0,"server_type":"Dedicated","server_os":"Linux","password":true,"vac":true,"version":"7961495","steam_id":85568392924742820,"keywords":["cp","nocrits","nodmgspread","uncletopia"],"game_id":440,"stv_port":27036,"stv_name":"Uncletopia | New York City | 3 | Stopwatch | STV","players":[{"user_id":5,"name":"ECCO","steam_id":76561198002821513,"connected_time":10000000000,"state":"active","ping":89}]},{"server_id":16,"name":"Uncletopia | New York City | 4 | Community","name_short":"nyc-4","host":"nyc-1.us.uncletopia.com","port":27045,"enabled":true,"region":"us-east","cc":"us","latitude":40.73061,"longitude":-73.93524,"reserved":0,"last_update":"0001-01-01T00:00:00Z","name_a2s":"Uncletopia | New York City | 4 | Community","protocol":17,"map":"workshop/pl_highwood_b13.ugc1769496557","folder":"tf","game":"Team Fortress","app_id":440,"player_count":5,"max_players":24,"Bots":0,"server_type":"Dedicated","server_os":"Linux","password":true,"vac":true,"version":"7961495","steam_id":85568392924742821,"keywords":["nocrits","nodmgspread","payload","uncletopia"],"game_id":440,"stv_port":27046,"stv_name":"Uncletopia | New York City | 4 | Community | STV","players":[{"user_id":8,"name":"RedPenguin_55","steam_id":76561199330977723,"connected_time":867000000000,"state":"active","ping":75},{"user_id":9,"name":"Heavy Gaming(Gaming)[Gaming]","steam_id":76561199366955312,"connected_time":863000000000,"state":"active","ping":74},{"user_id":10,"name":"Caleb","steam_id":76561198002641282,"connected_time":699000000000,"state":"active","ping":48},{"user_id":13,"name":"♡Ame♡","steam_id":76561198071217748,"connected_time":84000000000,"state":"active","ping":64},{"user_id":14,"name":"benicio08gtba","steam_id":76561198366431073,"connected_time":72000000000,"state":"active","ping":178}]},{"server_id":142,"name":"Uncletopia | São Paulo | 1 | All Maps","name_short":"sao-1","host":"sao-1.br.uncletopia.com","port":27015,"enabled":true,"region":"sa","cc":"br","latitude":-23.533773,"longitude":-46.62529,"reserved":0,"last_update":"0001-01-01T00:00:00Z","name_a2s":"Uncletopia | São Paulo | 1 | All Maps","protocol":17,"map":"cp_granary","folder":"tf","game":"Team Fortress","app_id":440,"player_count":0,"max_players":24,"Bots":0,"server_type":"Dedicated","server_os":"Linux","password":true,"vac":true,"version":"7961495","steam_id":85568392924469996,"keywords":["cp","nocrits","nodmgspread","uncletopia"],"game_id":440,"stv_port":27016,"stv_name":"Uncletopia | São Paulo | 1 | All Maps | STV","players":null},{"server_id":143,"name":"Uncletopia | São Paulo | 2 | Community","name_short":"sao-2","host":"sao-2.br.uncletopia.com","port":27015,"enabled":true,"region":"sa","cc":"br","latitude":-23.533773,"longitude":-46.62529,"reserved":0,"last_update":"0001-01-01T00:00:00Z","name_a2s":"Uncletopia | São Paulo | 2 | Community","protocol":17,"map":"workshop/cp_mannbase_rc2a.ugc1900737467","folder":"tf","game":"Team Fortress","app_id":440,"player_count":0,"max_players":24,"Bots":0,"server_type":"Dedicated","server_os":"Linux","password":true,"vac":true,"version":"7961495","steam_id":85568392924485349,"keywords":["cp","nocrits","nodmgspread","uncletopia"],"game_id":440,"stv_port":27016,"stv_name":"Uncletopia | São Paulo | 2 | Community | STV","players":null},{"server_id":7,"name":"Uncletopia | Seattle | 1 | All Maps","name_short":"sea-1","host":"sea-1.us.uncletopia.com","port":27015,"enabled":true,"region":"us-west","cc":"us","latitude":47.608013,"longitude":-122.33517,"reserved":0,"last_update":"0001-01-01T00:00:00Z","name_a2s":"Uncletopia | Seattle | 1 | All Maps","protocol":17,"map":"koth_king","folder":"tf","game":"Team Fortress","app_id":440,"player_count":24,"max_players":24,"Bots":0,"server_type":"Dedicated","server_os":"Linux","password":true,"vac":true,"version":"7961495","steam_id":85568392924469997,"keywords":["cp","nocrits","nodmgspread","uncletopia"],"game_id":440,"stv_port":27016,"stv_name":"Uncletopia | Seattle | 1 | All Maps | STV","players":[{"user_id":192,"name":"Havi","steam_id":76561198197832829,"connected_time":2855000000000,"state":"active","ping":45},{"user_id":225,"name":"ATL1 | to4st","steam_id":76561198981009008,"connected_time":441000000000,"state":"active","ping":101},{"user_id":220,"name":"Banana Milk","steam_id":76561198005156257,"connected_time":582000000000,"state":"active","ping":165},{"user_id":191,"name":"SibilantSerpent","steam_id":76561198154488754,"connected_time":2917000000000,"state":"active","ping":45},{"user_id":226,"name":"'Oddo","steam_id":76561198090866900,"connected_time":416000000000,"state":"active","ping":133},{"user_id":227,"name":"[Bandit]","steam_id":76561197986919852,"connected_time":407000000000,"state":"active","ping":46},{"user_id":194,"name":"Dextersbrain","steam_id":76561198011831579,"connected_time":2581000000000,"state":"active","ping":58},{"user_id":233,"name":"mrappledumb","steam_id":76561199133590774,"connected_time":4000000000,"state":"spawning","ping":110},{"user_id":222,"name":"goofy goober","steam_id":76561199024079388,"connected_time":578000000000,"state":"active","ping":45},{"user_id":197,"name":"lil hog","steam_id":76561199230929836,"connected_time":2343000000000,"state":"active","ping":114},{"user_id":199,"name":"tbm john","steam_id":76561198304194081,"connected_time":2314000000000,"state":"active","ping":68},{"user_id":231,"name":"Fitzybear","steam_id":76561198409189585,"connected_time":122000000000,"state":"active","ping":114},{"user_id":200,"name":"certified ass bandit","steam_id":76561198278070526,"connected_time":2307000000000,"state":"active","ping":61},{"user_id":229,"name":"McNamJam","steam_id":76561198028128686,"connected_time":306000000000,"state":"active","ping":61},{"user_id":60,"name":"Nom Skirrett","steam_id":76561198014600788,"connected_time":12805000000000,"state":"active","ping":50},{"user_id":212,"name":"Red-Raven","steam_id":76561197971130794,"connected_time":1231000000000,"state":"active","ping":68},{"user_id":232,"name":"Morse","steam_id":76561198039944542,"connected_time":108000000000,"state":"active","ping":51},{"user_id":215,"name":"Elfy","steam_id":76561199166448617,"connected_time":1160000000000,"state":"active","ping":44},{"user_id":201,"name":"Yummy Kabobz","steam_id":76561198067661705,"connected_time":2306000000000,"state":"active","ping":120},{"user_id":210,"name":"Melly","steam_id":76561198045867175,"connected_time":1379000000000,"state":"active","ping":59},{"user_id":230,"name":"Nüþ","steam_id":76561198043956703,"connected_time":268000000000,"state":"active","ping":75},{"user_id":124,"name":"ARMORED CORE 6 IS REAAAAAAAAAL","steam_id":76561198013513217,"connected_time":8120000000000,"state":"active","ping":102},{"user_id":217,"name":"Furry Femboy Hooters (CEO)","steam_id":76561198097745857,"connected_time":1045000000000,"state":"active","ping":49},{"user_id":224,"name":"WettyFap","steam_id":76561198393043568,"connected_time":559000000000,"state":"active","ping":97}]},{"server_id":119,"name":"Uncletopia | Seattle | 2 | All Maps","name_short":"sea-2","host":"sea-1.us.uncletopia.com","port":27025,"enabled":true,"region":"us-west","cc":"us","latitude":47.608013,"longitude":-122.33517,"reserved":0,"last_update":"0001-01-01T00:00:00Z","name_a2s":"Uncletopia | Seattle | 2 | All Maps","protocol":17,"map":"koth_lakeside_final","folder":"tf","game":"Team Fortress","app_id":440,"player_count":0,"max_players":24,"Bots":0,"server_type":"Dedicated","server_os":"Linux","password":true,"vac":true,"version":"7961495","steam_id":85568392924469998,"keywords":["cp","nocrits","nodmgspread","uncletopia"],"game_id":440,"stv_port":27026,"stv_name":"Uncletopia | Seattle | 2 | All Maps | STV","players":null},{"server_id":406,"name":"Uncletopia | Seattle | 3 | Stopwatch","name_short":"sea-3","host":"sea-1.us.uncletopia.com","port":27035,"enabled":true,"region":"us-west","cc":"us","latitude":47.608013,"longitude":-122.33517,"reserved":0,"last_update":"0001-01-01T00:00:00Z","name_a2s":"Uncletopia | Seattle | 3 | Stopwatch","protocol":17,"map":"workshop/pl_barnblitz_pro7.ugc582280235","folder":"tf","game":"Team Fortress","app_id":440,"player_count":0,"max_players":24,"Bots":0,"server_type":"Dedicated","server_os":"Linux","password":true,"vac":true,"version":"7961495","steam_id":85568392924515217,"keywords":["nocrits","nodmgspread","payload","uncletopia"],"game_id":440,"stv_port":27036,"stv_name":"Uncletopia | Seattle | 3 | Stopwatch | STV","players":null},{"server_id":17,"name":"Uncletopia | San Francisco | 1 | All Maps","name_short":"sfo-1","host":"sfo-1.us.uncletopia.com","port":27015,"enabled":true,"region":"us-west","cc":"us","latitude":37.77397,"longitude":-122.4313,"reserved":0,"last_update":"0001-01-01T00:00:00Z","name_a2s":"Uncletopia | San Francisco | 1 | All Maps","protocol":17,"map":"koth_highpass","folder":"tf","game":"Team Fortress","app_id":440,"player_count":0,"max_players":24,"Bots":0,"server_type":"Dedicated","server_os":"Linux","password":true,"vac":true,"version":"7961495","steam_id":85568392924469999,"keywords":["cp","nocrits","nodmgspread","uncletopia"],"game_id":440,"stv_port":27016,"stv_name":"Uncletopia | San Francisco | 1 | All Maps | STV","players":null},{"server_id":18,"name":"Uncletopia | San Francisco | 2 | All Maps","name_short":"sfo-2","host":"sfo-1.us.uncletopia.com","port":27025,"enabled":true,"region":"us-west","cc":"us","latitude":37.77397,"longitude":-122.4313,"reserved":0,"last_update":"0001-01-01T00:00:00Z","name_a2s":"Uncletopia | San Francisco | 2 | All Maps","protocol":17,"map":"pl_snowycoast","folder":"tf","game":"Team Fortress","app_id":440,"player_count":0,"max_players":24,"Bots":0,"server_type":"Dedicated","server_os":"Linux","password":true,"vac":true,"version":"7961495","steam_id":85568392924470000,"keywords":["nocrits","nodmgspread","payload","uncletopia"],"game_id":440,"stv_port":27026,"stv_name":"Uncletopia | San Francisco | 2 | All Maps | STV","players":null},{"server_id":19,"name":"Uncletopia | San Francisco | 3 | Stopwatch","name_short":"sfo-3","host":"sfo-1.us.uncletopia.com","port":27035,"enabled":true,"region":"us-west","cc":"us","latitude":37.77397,"longitude":-122.4313,"reserved":0,"last_update":"0001-01-01T00:00:00Z","name_a2s":"Uncletopia | San Francisco | 3 | Stopwatch","protocol":17,"map":"workshop/koth_product_final.ugc454272353","folder":"tf","game":"Team Fortress","app_id":440,"player_count":0,"max_players":24,"Bots":0,"server_type":"Dedicated","server_os":"Linux","password":true,"vac":true,"version":"7961495","steam_id":85568392924742824,"keywords":["cp","nocrits","nodmgspread","uncletopia"],"game_id":440,"stv_port":27036,"stv_name":"Uncletopia | San Francisco | 3 | Stopwatch | STV","players":null},{"server_id":20,"name":"Uncletopia | San Francisco | 4 | Community","name_short":"sfo-4","host":"sfo-1.us.uncletopia.com","port":27045,"enabled":true,"region":"us-west","cc":"us","latitude":37.77397,"longitude":-122.4313,"reserved":0,"last_update":"0001-01-01T00:00:00Z","name_a2s":"Uncletopia | San Francisco | 4 | Community","protocol":17,"map":"workshop/pl_cactuscanyon_redux_final2.ugc2579644293","folder":"tf","game":"Team Fortress","app_id":440,"player_count":0,"max_players":24,"Bots":0,"server_type":"Dedicated","server_os":"Linux","password":true,"vac":true,"version":"7961495","steam_id":85568392924742826,"keywords":["nocrits","nodmgspread","payload","uncletopia"],"game_id":440,"stv_port":27046,"stv_name":"Uncletopia | San Francisco | 4 | Community | STV","players":null},{"server_id":141,"name":"Uncletopia | Sydney | 1 | All Maps","name_short":"syd-1","host":"syd-1.au.uncletopia.com","port":27015,"enabled":true,"region":"au","cc":"au","latitude":-33.865143,"longitude":151.2099,"reserved":0,"last_update":"0001-01-01T00:00:00Z","name_a2s":"Uncletopia | Sydney | 1 | All Maps","protocol":17,"map":"koth_highpass","folder":"tf","game":"Team Fortress","app_id":440,"player_count":0,"max_players":24,"Bots":0,"server_type":"Dedicated","server_os":"Linux","password":true,"vac":true,"version":"7961495","steam_id":85568392924470001,"keywords":["cp","nocrits","nodmgspread","uncletopia"],"game_id":440,"stv_port":27016,"stv_name":"Uncletopia | Sydney | 1 | All Maps | STV","players":null},{"server_id":123,"name":"Uncletopia | Sydney | 2 | All Maps","name_short":"syd-2","host":"syd-1.au.uncletopia.com","port":27025,"enabled":true,"region":"au","cc":"au","latitude":-33.865143,"longitude":151.2099,"reserved":0,"last_update":"0001-01-01T00:00:00Z","name_a2s":"Uncletopia | Sydney | 2 | All Maps","protocol":17,"map":"pl_barnblitz","folder":"tf","game":"Team Fortress","app_id":440,"player_count":0,"max_players":24,"Bots":0,"server_type":"Dedicated","server_os":"Linux","password":true,"vac":true,"version":"7961495","steam_id":85568392924470002,"keywords":["nocrits","nodmgspread","payload","uncletopia"],"game_id":440,"stv_port":27026,"stv_name":"Uncletopia | Sydney | 2 | All Maps | STV","players":null},{"server_id":395,"name":"Uncletopia | Sydney | 3 | All Maps","name_short":"syd-3","host":"syd-1.au.uncletopia.com","port":27035,"enabled":true,"region":"au","cc":"au","latitude":-33.865143,"longitude":151.2099,"reserved":0,"last_update":"0001-01-01T00:00:00Z","name_a2s":"Uncletopia | Sydney | 3 | All Maps","protocol":17,"map":"cp_metalworks","folder":"tf","game":"Team Fortress","app_id":440,"player_count":0,"max_players":24,"Bots":0,"server_type":"Dedicated","server_os":"Linux","password":true,"vac":true,"version":"7961495","steam_id":85568392925194467,"keywords":["cp","nocrits","nodmgspread","uncletopia"],"game_id":440,"stv_port":27036,"stv_name":"Uncletopia | Sydney | 3 | All Maps | STV","players":null},{"server_id":396,"name":"Uncletopia | Sydney | 4 | All Maps","name_short":"syd-4","host":"syd-1.au.uncletopia.com","port":27045,"enabled":true,"region":"au","cc":"au","latitude":-33.865143,"longitude":151.2099,"reserved":0,"last_update":"0001-01-01T00:00:00Z","name_a2s":"Uncletopia | Sydney | 4 | All Maps","protocol":17,"map":"koth_cascade","folder":"tf","game":"Team Fortress","app_id":440,"player_count":0,"max_players":24,"Bots":0,"server_type":"Dedicated","server_os":"Linux","password":true,"vac":true,"version":"7961495","steam_id":85568392925397958,"keywords":["cp","nocrits","nodmgspread","uncletopia"],"game_id":440,"stv_port":27046,"stv_name":"Uncletopia | Sydney | 4 | All Maps | STV","players":null},{"server_id":58,"name":"Uncletopia | Sydney | 5 | Stopwatch","name_short":"syd-5","host":"syd-1.au.uncletopia.com","port":27055,"enabled":true,"region":"au","cc":"au","latitude":-33.865143,"longitude":151.2099,"reserved":0,"last_update":"0001-01-01T00:00:00Z","name_a2s":"Uncletopia | Sydney | 5 | Stopwatch","protocol":17,"map":"pl_swiftwater_final1","folder":"tf","game":"Team Fortress","app_id":440,"player_count":0,"max_players":24,"Bots":0,"server_type":"Dedicated","server_os":"Linux","password":true,"vac":true,"version":"7961495","steam_id":85568392925397959,"keywords":["nocrits","nodmgspread","payload","uncletopia"],"game_id":440,"stv_port":27056,"stv_name":"Uncletopia | Sydney | 5 | Stopwatch | STV","players":null},{"server_id":59,"name":"Uncletopia | Sydney | 6 | Community","name_short":"syd-6","host":"syd-1.au.uncletopia.com","port":27065,"enabled":true,"region":"au","cc":"au","latitude":-33.865143,"longitude":151.2099,"reserved":0,"last_update":"0001-01-01T00:00:00Z","name_a2s":"Uncletopia | Sydney | 6 | Community","protocol":17,"map":"workshop/koth_trenchfoot_ab1.ugc731436616","folder":"tf","game":"Team Fortress","app_id":440,"player_count":0,"max_players":24,"Bots":0,"server_type":"Dedicated","server_os":"Linux","password":true,"vac":true,"version":"7961495","steam_id":85568392925397960,"keywords":["cp","nocrits","nodmgspread","uncletopia"],"game_id":440,"stv_port":27066,"stv_name":"Uncletopia | Sydney | 6 | Community | STV","players":null},{"server_id":49,"name":"Uncletopia | Warsaw | 1 | One Thousand Uncles","name_short":"waw-1","host":"waw-1.pl.uncletopia.com","port":27015,"enabled":true,"region":"eu","cc":"pl","latitude":52.2297,"longitude":21.017532,"reserved":0,"last_update":"0001-01-01T00:00:00Z","name_a2s":"Uncletopia | Warsaw | 1 | One Thousand Uncles","protocol":17,"map":"pl_snowycoast","folder":"tf","game":"Team Fortress","app_id":440,"player_count":0,"max_players":32,"Bots":0,"server_type":"Dedicated","server_os":"Linux","password":true,"vac":true,"version":"7961495","steam_id":85568392925397850,"keywords":["alltalk","danepve","increased_maxplayers","norespawntime","payload","uncletopia"],"game_id":440,"stv_port":0,"stv_name":"","players":null},{"server_id":50,"name":"Uncletopia | Warsaw | 2 | One Thousand Uncles","name_short":"waw-2","host":"waw-1.pl.uncletopia.com","port":27025,"enabled":true,"region":"eu","cc":"pl","latitude":52.2297,"longitude":21.017532,"reserved":0,"last_update":"0001-01-01T00:00:00Z","name_a2s":"Uncletopia | Warsaw | 2 | One Thousand Uncles","protocol":17,"map":"pl_thundermountain","folder":"tf","game":"Team Fortress","app_id":440,"player_count":18,"max_players":32,"Bots":16,"server_type":"Dedicated","server_os":"Linux","password":true,"vac":true,"version":"7961495","steam_id":85568392925397851,"keywords":["alltalk","bots","danepve","increased_maxplayers","norespawntime","payload","uncletopia"],"game_id":440,"stv_port":0,"stv_name":"","players":[{"user_id":290,"name":"muwi","steam_id":76561198379039743,"connected_time":2030000000000,"state":"active","ping":91},{"user_id":284,"name":"astrid","steam_id":76561198122663977,"connected_time":5289000000000,"state":"active","ping":84}]},{"server_id":51,"name":"Uncletopia | Warsaw | 3 | All Maps","name_short":"waw-3","host":"waw-1.pl.uncletopia.com","port":27035,"enabled":true,"region":"eu","cc":"pl","latitude":52.2297,"longitude":21.017532,"reserved":0,"last_update":"0001-01-01T00:00:00Z","name_a2s":"Uncletopia | Warsaw | 3 | All Maps","protocol":17,"map":"cp_sunshine","folder":"tf","game":"Team Fortress","app_id":440,"player_count":0,"max_players":24,"Bots":0,"server_type":"Dedicated","server_os":"Linux","password":true,"vac":true,"version":"7961495","steam_id":85568392925397852,"keywords":["cp","nocrits","nodmgspread","uncletopia"],"game_id":440,"stv_port":27036,"stv_name":"Uncletopia | Warsaw | 3 | All Maps | STV","players":null},{"server_id":52,"name":"Uncletopia | Warsaw | 4 | All Maps","name_short":"waw-4","host":"waw-1.pl.uncletopia.com","port":27045,"enabled":true,"region":"eu","cc":"pl","latitude":52.2297,"longitude":21.017532,"reserved":0,"last_update":"0001-01-01T00:00:00Z","name_a2s":"Uncletopia | Warsaw | 4 | All Maps","protocol":17,"map":"koth_cascade","folder":"tf","game":"Team Fortress","app_id":440,"player_count":0,"max_players":24,"Bots":0,"server_type":"Dedicated","server_os":"Linux","password":true,"vac":true,"version":"7961495","steam_id":85568392925397853,"keywords":["cp","nocrits","nodmgspread","uncletopia"],"game_id":440,"stv_port":27046,"stv_name":"Uncletopia | Warsaw | 4 | All Maps | STV","players":null},{"server_id":53,"name":"Uncletopia | Warsaw | 5 | Stopwatch","name_short":"waw-5","host":"waw-1.pl.uncletopia.com","port":27055,"enabled":true,"region":"eu","cc":"pl","latitude":52.2297,"longitude":21.017532,"reserved":0,"last_update":"0001-01-01T00:00:00Z","name_a2s":"Uncletopia | Warsaw | 5 | Stopwatch","protocol":17,"map":"koth_highpass","folder":"tf","game":"Team Fortress","app_id":440,"player_count":0,"max_players":24,"Bots":0,"server_type":"Dedicated","server_os":"Linux","password":true,"vac":true,"version":"7961495","steam_id":85568392925397854,"keywords":["cp","nocrits","nodmgspread","uncletopia"],"game_id":440,"stv_port":27056,"stv_name":"Uncletopia | Warsaw | 5 | Stopwatch | STV","players":null},{"server_id":54,"name":"Uncletopia | Warsaw | 6 | Community","name_short":"waw-6","host":"waw-1.pl.uncletopia.com","port":27065,"enabled":true,"region":"eu","cc":"pl","latitude":52.2297,"longitude":21.017532,"reserved":0,"last_update":"0001-01-01T00:00:00Z","name_a2s":"Uncletopia | Warsaw | 6 | Community","protocol":17,"map":"workshop/rd_asteroid_redux_b1.ugc2154902912","folder":"tf","game":"Team Fortress","app_id":440,"player_count":0,"max_players":24,"Bots":0,"server_type":"Dedicated","server_os":"Linux","password":true,"vac":true,"version":"7961495","steam_id":85568392925397856,"keywords":["beta","nocrits","nodmgspread","rd","uncletopia"],"game_id":440,"stv_port":27066,"stv_name":"Uncletopia | Warsaw | 6 | Community | STV","players":null}]}