{"status":true,"message":"","result":[{"server_id":9,"name":"Uncletopia | Atlanta | 1 | All Maps","name_short":"atl-1","host":"atl-1.us.uncletopia.com","port":27015,"enabled":true,"region":"us-east","cc":"us","latitude":33.753746,"longitude":-84.38633,"reserved":0,"last_update":"0001-01-01T00:00:00Z","name_a2s":"Uncletopia | Atlanta | 1 | All Maps","protocol":17,"map":"pl_borneo","folder":"tf","game":"Team Fortress","app_id":440,"player_count":24,"max_players":24,"Bots":0,"server_type":"Dedicated","server_os":"Linux","password":true,"vac":true,"version":"7757534","steam_id":85568392924469982,"keywords":["nocrits","nodmgspread","payload","uncletopia"],"game_id":440,"stv_port":27016,"stv_name":"Uncletopia | Atlanta | 1 | All Maps | STV","players":[{"user_id":299,"name":"Karma","steam_id":76561198030565234,"connected_time":18895000000000,"state":"active","ping":70},{"user_id":448,"name":"Memed2Much","steam_id":76561199032248010,"connected_time":3574000000000,"state":"active","ping":76},{"user_id":451,"name":"goober","steam_id":76561198943598378,"connected_time":2927000000000,"state":"active","ping":59},{"user_id":467,"name":"Constable","steam_id":76561198135578153,"connected_time":1264000000000,"state":"active","ping":82},{"user_id":473,"name":"All 24 Pokémon movies at once","steam_id":76561198164738311,"connected_time":989000000000,"state":"active","ping":88},{"user_id":479,"name":"RED1 | icyy","steam_id":76561198968001329,"connected_time":576000000000,"state":"active","ping":45},{"user_id":478,"name":"The Spy from TF2","steam_id":76561199121276474,"connected_time":765000000000,"state":"active","ping":79},{"user_id":472,"name":"Spiffle","steam_id":76561199089811047,"connected_time":1010000000000,"state":"active","ping":103},{"user_id":455,"name":"olivia","steam_id":76561198288130849,"connected_time":2299000000000,"state":"active","ping":92},{"user_id":458,"name":"no-longer-festive pork trooper","steam_id":76561198150327877,"connected_time":2246000000000,"state":"active","ping":44},{"user_id":464,"name":"DuckMann","steam_id":76561198197058638,"connected_time":1549000000000,"state":"active","ping":64},{"user_id":465,"name":"火星 | Marsy","steam_id":76561198014979892,"connected_time":1490000000000,"state":"active","ping":63},{"user_id":477,"name":"Crows!","steam_id":76561198150086324,"connected_time":810000000000,"state":"active","ping":74},{"user_id":420,"name":"FancyBones","steam_id":76561198180198885,"connected_time":6980000000000,"state":"active","ping":68},{"user_id":466,"name":"ur so pretty ^_^ \u003c3","steam_id":76561198832230598,"connected_time":1434000000000,"state":"active","ping":68},{"user_id":449,"name":"cheeks","steam_id":76561197993371179,"connected_time":3119000000000,"state":"active","ping":57},{"user_id":454,"name":"Mickey","steam_id":76561197976868960,"connected_time":2409000000000,"state":"active","ping":162},{"user_id":452,"name":"Lord Headass","steam_id":76561198182813630,"connected_time":2860000000000,"state":"active","ping":117},{"user_id":476,"name":"SCATTER","steam_id":76561198405168492,"connected_time":813000000000,"state":"active","ping":99},{"user_id":457,"name":"radical larry","steam_id":76561198172246829,"connected_time":2290000000000,"state":"active","ping":72},{"user_id":470,"name":"snoops","steam_id":76561197986760351,"connected_time":1039000000000,"state":"active","ping":75},{"user_id":462,"name":"Benroads","steam_id":76561198040399924,"connected_time":1901000000000,"state":"active","ping":52},{"user_id":463,"name":"RED1 | vid_","steam_id":76561198065159053,"connected_time":1901000000000,"state":"active","ping":51},{"user_id":481,"name":"Keleun","steam_id":76561198424641468,"connected_time":321000000000,"state":"active","ping":132}]},{"server_id":400,"name":"Uncletopia | Atlanta | 3 | Stopwatch Beta","name_short":"atl-3","host":"atl-1.us.uncletopia.com","port":27035,"enabled":true,"region":"us-east","cc":"us","latitude":33.753746,"longitude":-84.38633,"reserved":0,"last_update":"0001-01-01T00:00:00Z","name_a2s":"Uncletopia | Atlanta | 3 | Stopwatch Beta","protocol":17,"map":"workshop/pl_vigil_rc9.ugc1266210012","folder":"tf","game":"Team Fortress","app_id":440,"player_count":0,"max_players":24,"Bots":0,"server_type":"Dedicated","server_os":"Linux","password":true,"vac":true,"version":"7757534","steam_id":85568392924515187,"keywords":["nocrits","nodmgspread","payload","uncletopia"],"game_id":440,"stv_port":27036,"stv_name":"Uncletopia | Atlanta | 3 | Stopwatch Beta | STV","players":null},{"server_id":401,"name":"Uncletopia | Atlanta | 4 | No Payload","name_short":"atl-4","host":"atl-1.us.uncletopia.com","port":27045,"enabled":true,"region":"us-east","cc":"us","latitude":33.753746,"longitude":-84.38633,"reserved":0,"last_update":"0001-01-01T00:00:00Z","name_a2s":"Uncletopia | Atlanta | 4 | No Payload","protocol":17,"map":"pl_pier","folder":"tf","game":"Team Fortress","app_id":440,"player_count":0,"max_players":24,"Bots":0,"server_type":"Dedicated","server_os":"Linux","password":true,"vac":true,"version":"7723704","steam_id":85568392924515188,"keywords":["nocrits","nodmgspread","payload","uncletopia"],"game_id":440,"stv_port":27046,"stv_name":"Uncletopia | Atlanta | 4 | No Payload | STV","players":null},{"server_id":2,"name":"Uncletopia | Chicago | 1 | All Maps","name_short":"chi-1","host":"chi-1.us.uncletopia.com","port":27015,"enabled":true,"region":"us-central","cc":"us","latitude":41.881832,"longitude":-87.62318,"reserved":0,"last_update":"0001-01-01T00:00:00Z","name_a2s":"Uncletopia | Chicago | 1 | All Maps","protocol":17,"map":"cp_mountainlab","folder":"tf","game":"Team Fortress","app_id":440,"player_count":24,"max_players":24,"Bots":0,"server_type":"Dedicated","server_os":"Linux","password":true,"vac":true,"version":"7757534","steam_id":85568392924469984,"keywords":["cp","nocrits","nodmgspread","uncletopia"],"game_id":440,"stv_port":27016,"stv_name":"Uncletopia | Chicago | 1 | All Maps | STV","players":[{"user_id":839,"name":"Snom","steam_id":76561198333827920,"connected_time":375000000000,"state":"active","ping":96},{"user_id":759,"name":"the deadliest pyroshark","steam_id":76561198374227766,"connected_time":8207000000000,"state":"active","ping":70},{"user_id":838,"name":"glman","steam_id":76561198106930203,"connected_time":483000000000,"state":"active","ping":93},{"user_id":807,"name":"Adam (Cursed Confetti Creature)","steam_id":76561198317690197,"connected_time":3173000000000,"state":"active","ping":36},{"user_id":815,"name":"Cleric","steam_id":76561198045887994,"connected_time":2722000000000,"state":"active","ping":48},{"user_id":822,"name":"Word To Your Mothership","steam_id":76561198034329138,"connected_time":1905000000000,"state":"active","ping":90},{"user_id":823,"name":"büddeh","steam_id":76561198070735936,"connected_time":1881000000000,"state":"active","ping":59},{"user_id":837,"name":"trash beast","steam_id":76561198015792736,"connected_time":491000000000,"state":"active","ping":72},{"user_id":821,"name":"Censing Auto, The Challenger","steam_id":76561198060926681,"connected_time":1998000000000,"state":"active","ping":63},{"user_id":835,"name":"Kero","steam_id":76561198343231436,"connected_time":735000000000,"state":"active","ping":59},{"user_id":808,"name":"mrp","steam_id":76561198942843544,"connected_time":3077000000000,"state":"active","ping":112},{"user_id":830,"name":"Ozone-flavored Starburst","steam_id":76561199163688421,"connected_time":1000000000000,"state":"active","ping":99},{"user_id":834,"name":"Trollamoo","steam_id":76561198865767224,"connected_time":748000000000,"state":"active","ping":55},{"user_id":827,"name":"slep.py","steam_id":76561197988287144,"connected_time":1019000000000,"state":"active","ping":55},{"user_id":832,"name":"Bear of the Polar Variety","steam_id":76561198370330710,"connected_time":988000000000,"state":"active","ping":60},{"user_id":829,"name":"dookie boy","steam_id":76561198372698368,"connected_time":1009000000000,"state":"active","ping":62},{"user_id":793,"name":"FlippinShoes","steam_id":76561198028266858,"connected_time":4291000000000,"state":"active","ping":62},{"user_id":738,"name":"Jak(i)","steam_id":76561198076823144,"connected_time":9734000000000,"state":"active","ping":66},{"user_id":735,"name":"MMAD","steam_id":76561198026446420,"connected_time":9808000000000,"state":"active","ping":78},{"user_id":836,"name":"HaphazardHazel","steam_id":76561198316812693,"connected_time":569000000000,"state":"active","ping":105},{"user_id":828,"name":"Bizon","steam_id":76561198119790052,"connected_time":1017000000000,"state":"active","ping":113},{"user_id":740,"name":"JSClinton","steam_id":76561198067487389,"connected_time":9703000000000,"state":"active","ping":73},{"user_id":788,"name":"Piyono","steam_id":76561197962188504,"connected_time":5008000000000,"state":"active","ping":71},{"user_id":826,"name":"Real Fin fin Fan","steam_id":76561198144281771,"connected_time":1391000000000,"state":"active","ping":72}]},{"server_id":106,"name":"Uncletopia | Chicago | 2 | All Maps","name_short":"chi-2","host":"chi-1.us.uncletopia.com","port":27025,"enabled":true,"region":"us-central","cc":"us","latitude":41.881832,"longitude":-87.62318,"reserved":0,"last_update":"0001-01-01T00:00:00Z","name_a2s":"Uncletopia | Chicago | 2 | All Maps","protocol":17,"map":"pl_pier","folder":"tf","game":"Team Fortress","app_id":440,"player_count":24,"max_players":24,"Bots":0,"server_type":"Dedicated","server_os":"Linux","password":true,"vac":true,"version":"7757534","steam_id":85568392924469985,"keywords":["nocrits","nodmgspread","payload","uncletopia"],"game_id":440,"stv_port":27026,"stv_name":"Uncletopia | Chicago | 2 | All Maps | STV","players":[{"user_id":672,"name":"wokwok","steam_id":76561198137743898,"connected_time":3065000000000,"state":"active","ping":84},{"user_id":682,"name":"Lukerp","steam_id":76561198875469297,"connected_time":2710000000000,"state":"active","ping":68},{"user_id":690,"name":"blazzeh","steam_id":76561198053407069,"connected_time":1911000000000,"state":"active","ping":88},{"user_id":674,"name":"[DATS➡] Sugar Meowth","steam_id":76561197995251793,"connected_time":3028000000000,"state":"active","ping":92},{"user_id":705,"name":"GreenApples","steam_id":76561198120559543,"connected_time":946000000000,"state":"active","ping":90},{"user_id":711,"name":"Mr.Eggawott","steam_id":76561199004055684,"connected_time":393000000000,"state":"active","ping":59},{"user_id":703,"name":"carp","steam_id":76561198042865147,"connected_time":959000000000,"state":"active","ping":54},{"user_id":691,"name":"LCGPhantom","steam_id":76561199052145044,"connected_time":1771000000000,"state":"active","ping":71},{"user_id":715,"name":"bossaru5499","steam_id":76561198278416816,"connected_time":241000000000,"state":"active","ping":95},{"user_id":663,"name":"TheCheeseWizard","steam_id":76561198058931315,"connected_time":3523000000000,"state":"active","ping":56},{"user_id":706,"name":"chpp_","steam_id":76561198023717358,"connected_time":937000000000,"state":"active","ping":103},{"user_id":697,"name":"Troy","steam_id":76561198005572722,"connected_time":996000000000,"state":"active","ping":73},{"user_id":713,"name":"An Erect Penis :)","steam_id":76561198086477485,"connected_time":370000000000,"state":"active","ping":41},{"user_id":659,"name":"eWVra2Vy","steam_id":76561198453565942,"connected_time":4516000000000,"state":"active","ping":88},{"user_id":695,"name":"Geight","steam_id":76561197991645292,"connected_time":1282000000000,"state":"active","ping":114},{"user_id":639,"name":"Sunvaar","steam_id":76561198852679851,"connected_time":6071000000000,"state":"active","ping":84},{"user_id":709,"name":"dan","steam_id":76561198061589465,"connected_time":669000000000,"state":"active","ping":77},{"user_id":688,"name":"Gugomo","steam_id":76561198121428316,"connected_time":2088000000000,"state":"active","ping":90},{"user_id":614,"name":"JustABoat","steam_id":76561198388599369,"connected_time":7760000000000,"state":"active","ping":121},{"user_id":707,"name":"PeterPumpkinEater69","steam_id":76561199240739163,"connected_time":804000000000,"state":"active","ping":85},{"user_id":570,"name":"machine embodiment","steam_id":76561199081837220,"connected_time":10827000000000,"state":"active","ping":91},{"user_id":714,"name":"AlaNo","steam_id":76561198133099582,"connected_time":279000000000,"state":"active","ping":107},{"user_id":694,"name":"Immobile Sentry","steam_id":76561199138554847,"connected_time":1468000000000,"state":"active","ping":95},{"user_id":677,"name":"jibby","steam_id":76561198046872382,"connected_time":2998000000000,"state":"active","ping":59}]},{"server_id":402,"name":"Uncletopia | Chicago | 3 | All Maps","name_short":"chi-3","host":"chi-1.us.uncletopia.com","port":27035,"enabled":true,"region":"us-central","cc":"us","latitude":41.881832,"longitude":-87.62318,"reserved":0,"last_update":"0001-01-01T00:00:00Z","name_a2s":"Uncletopia | Chicago | 3 | All Maps","protocol":17,"map":"pl_borneo","folder":"tf","game":"Team Fortress","app_id":440,"player_count":24,"max_players":24,"Bots":0,"server_type":"Dedicated","server_os":"Linux","password":true,"vac":true,"version":"7757534","steam_id":85568392924515191,"keywords":["nocrits","nodmgspread","payload","uncletopia"],"game_id":440,"stv_port":27036,"stv_name":"Uncletopia | Chicago | 3 | All Maps | STV","players":[{"user_id":326,"name":"caption cool","steam_id":76561197990612056,"connected_time":6536000000000,"state":"active","ping":42},{"user_id":353,"name":"FemboyFoxFurry","steam_id":76561198439001236,"connected_time":2695000000000,"state":"active","ping":111},{"user_id":378,"name":"VendoTendo","steam_id":76561198135058035,"connected_time":503000000000,"state":"active","ping":116},{"user_id":361,"name":"EvilMrPotoo ｡◕‿◕｡","steam_id":76561198012566870,"connected_time":2395000000000,"state":"active","ping":55},{"user_id":374,"name":"mofu","steam_id":76561198072189365,"connected_time":1872000000000,"state":"active","ping":91},{"user_id":380,"name":"Crayfry","steam_id":76561198146525237,"connected_time":215000000000,"state":"active","ping":44},{"user_id":341,"name":"flexer_2000","steam_id":76561198084422657,"connected_time":3874000000000,"state":"active","ping":89},{"user_id":375,"name":"Dispenser (Twan)","steam_id":76561197991064908,"connected_time":1551000000000,"state":"active","ping":60},{"user_id":350,"name":"Cyber Cylon","steam_id":76561198048972781,"connected_time":2781000000000,"state":"active","ping":55},{"user_id":354,"name":"Cowlick","steam_id":76561198036497419,"connected_time":2668000000000,"state":"active","ping":70},{"user_id":377,"name":"Stock Medic","steam_id":76561198065479730,"connected_time":551000000000,"state":"active","ping":42},{"user_id":323,"name":"LegendaryMister151","steam_id":76561198064890524,"connected_time":6556000000000,"state":"active","ping":87},{"user_id":362,"name":"bobby peanstalk","steam_id":76561198040495463,"connected_time":2355000000000,"state":"active","ping":73},{"user_id":356,"name":"schnedwob","steam_id":76561197999146588,"connected_time":2635000000000,"state":"active","ping":76},{"user_id":339,"name":"Protato","steam_id":76561198061182563,"connected_time":4348000000000,"state":"active","ping":71},{"user_id":366,"name":"Ka Xin Yu","steam_id":76561198057116531,"connected_time":1928000000000,"state":"active","ping":56},{"user_id":357,"name":"nav","steam_id":76561198872608266,"connected_time":2631000000000,"state":"active","ping":86},{"user_id":331,"name":"deech","steam_id":76561198066429444,"connected_time":5541000000000,"state":"active","ping":67},{"user_id":363,"name":"thecal","steam_id":76561198307893384,"connected_time":2354000000000,"state":"active","ping":58},{"user_id":358,"name":"Gum Ass","steam_id":76561198116140802,"connected_time":2624000000000,"state":"active","ping":134},{"user_id":365,"name":"darps","steam_id":76561198105227318,"connected_time":2114000000000,"state":"active","ping":52},{"user_id":371,"name":"skipper","steam_id":76561198395965181,"connected_time":1898000000000,"state":"active","ping":69},{"user_id":320,"name":"gps","steam_id":76561198067492304,"connected_time":6677000000000,"state":"active","ping":80},{"user_id":325,"name":"wiiblob","steam_id":76561198109106242,"connected_time":6554000000000,"state":"active","ping":137}]},{"server_id":403,"name":"Uncletopia | Chicago | 4 | All Maps","name_short":"chi-4","host":"chi-1.us.uncletopia.com","port":27045,"enabled":true,"region":"us-central","cc":"us","latitude":41.881832,"longitude":-87.62318,"reserved":0,"last_update":"0001-01-01T00:00:00Z","name_a2s":"Uncletopia | Chicago | 4 | All Maps","protocol":17,"map":"pl_swiftwater_final1","folder":"tf","game":"Team Fortress","app_id":440,"player_count":24,"max_players":24,"Bots":0,"server_type":"Dedicated","server_os":"Linux","password":true,"vac":true,"version":"7757534","steam_id":85568392924515193,"keywords":["nocrits","nodmgspread","payload","uncletopia"],"game_id":440,"stv_port":27046,"stv_name":"Uncletopia | Chicago | 4 | All Maps | STV","players":[{"user_id":558,"name":"dick bubkis","steam_id":76561198057374871,"connected_time":5639000000000,"state":"active","ping":63},{"user_id":586,"name":"Bob's your Uncle","steam_id":76561197995230744,"connected_time":2942000000000,"state":"active","ping":75},{"user_id":574,"name":"Beany","steam_id":76561198102299438,"connected_time":4102000000000,"state":"active","ping":63},{"user_id":601,"name":"daemon","steam_id":76561198001541433,"connected_time":2061000000000,"state":"active","ping":52},{"user_id":611,"name":"C papi","steam_id":76561198027779564,"connected_time":620000000000,"state":"active","ping":60},{"user_id":606,"name":"Rukks","steam_id":76561197993918954,"connected_time":1429000000000,"state":"active","ping":89},{"user_id":564,"name":"O'Keearns","steam_id":76561198042213797,"connected_time":5456000000000,"state":"active","ping":63},{"user_id":569,"name":"WALF","steam_id":76561198027990037,"connected_time":4605000000000,"state":"active","ping":53},{"user_id":604,"name":"coffeeghost","steam_id":76561198155142385,"connected_time":1465000000000,"state":"active","ping":79},{"user_id":609,"name":"Mythos #SaveTF2","steam_id":76561198050243068,"connected_time":1039000000000,"state":"active","ping":67},{"user_id":587,"name":"Tommy Pickles is (Very Cool)","steam_id":76561198391261463,"connected_time":2941000000000,"state":"active","ping":75},{"user_id":568,"name":"agentish","steam_id":76561198055088122,"connected_time":4762000000000,"state":"active","ping":58},{"user_id":600,"name":"guac","steam_id":76561198025481672,"connected_time":2062000000000,"state":"active","ping":73},{"user_id":610,"name":"Manarky!","steam_id":76561198044090934,"connected_time":642000000000,"state":"active","ping":46},{"user_id":589,"name":"S.N.A.F.U.","steam_id":76561197980128424,"connected_time":2921000000000,"state":"active","ping":77},{"user_id":504,"name":"Shaper Loks","steam_id":76561198207958144,"connected_time":10927000000000,"state":"active","ping":76},{"user_id":590,"name":"chen","steam_id":76561198064872330,"connected_time":2912000000000,"state":"active","ping":78},{"user_id":592,"name":"MillerWhite","steam_id":76561198076060357,"connected_time":2880000000000,"state":"active","ping":86},{"user_id":576,"name":"Ikalpo","steam_id":76561198044686915,"connected_time":3989000000000,"state":"active","ping":115},{"user_id":594,"name":"TheTruthOfTheCessationOfDukkha","steam_id":76561198214370515,"connected_time":2845000000000,"state":"active","ping":71},{"user_id":603,"name":"Scrumlet","steam_id":76561198339806643,"connected_time":1587000000000,"state":"active","ping":85},{"user_id":596,"name":"lint roller","steam_id":76561199009318836,"connected_time":2835000000000,"state":"active","ping":84},{"user_id":578,"name":"new years hooters","steam_id":76561198068022595,"connected_time":3795000000000,"state":"active","ping":68},{"user_id":608,"name":"Stew Eater","steam_id":76561198978307159,"connected_time":1229000000000,"state":"active","ping":68}]},{"server_id":36,"name":"Uncletopia | Chicago | 5 | All Maps","name_short":"chi-5","host":"chi-2.us.uncletopia.com","port":27015,"enabled":true,"region":"us-central","cc":"us","latitude":41.881832,"longitude":-87.62318,"reserved":0,"last_update":"0001-01-01T00:00:00Z","name_a2s":"Uncletopia | Chicago | 5 | All Maps","protocol":17,"map":"cp_altitude","folder":"tf","game":"Team Fortress","app_id":440,"player_count":21,"max_players":24,"Bots":0,"server_type":"Dedicated","server_os":"Linux","password":true,"vac":true,"version":"7757534","steam_id":85568392924866362,"keywords":["cp","nocrits","nodmgspread","uncletopia"],"game_id":440,"stv_port":27016,"stv_name":"Uncletopia | Chicago | 5 | All Maps | STV","players":[{"user_id":420,"name":"kino","steam_id":76561199417907044,"connected_time":94000000000,"state":"active","ping":64},{"user_id":421,"name":"*****setget","steam_id":76561198118824188,"connected_time":86000000000,"state":"active","ping":118},{"user_id":419,"name":"Madrox Who?","steam_id":76561197988859134,"connected_time":150000000000,"state":"active","ping":65},{"user_id":390,"name":"SN0W","steam_id":76561198153665468,"connected_time":2054000000000,"state":"active","ping":54},{"user_id":412,"name":"Toaster","steam_id":76561198110748463,"connected_time":1173000000000,"state":"active","ping":55},{"user_id":422,"name":"Bheem","steam_id":76561198170453459,"connected_time":72000000000,"state":"active","ping":101},{"user_id":313,"name":"Just B.W.","steam_id":76561198079572106,"connected_time":6290000000000,"state":"active","ping":55},{"user_id":410,"name":"Bdresser","steam_id":76561198283663543,"connected_time":1370000000000,"state":"active","ping":80},{"user_id":379,"name":"KevCraft","steam_id":76561199000622939,"connected_time":3004000000000,"state":"active","ping":71},{"user_id":423,"name":"Thequirka (back to trackpad onc","steam_id":76561198968058652,"connected_time":71000000000,"state":"active","ping":95},{"user_id":424,"name":"Antknee","steam_id":76561198263793809,"connected_time":67000000000,"state":"active","ping":74},{"user_id":406,"name":"kaoscontroller","steam_id":76561198353221791,"connected_time":1466000000000,"state":"active","ping":58},{"user_id":394,"name":"Normalux","steam_id":76561198293891426,"connected_time":1999000000000,"state":"active","ping":87},{"user_id":425,"name":"A Minion Rat","steam_id":76561197979991019,"connected_time":34000000000,"state":"active","ping":79},{"user_id":426,"name":"conscripted monk","steam_id":76561199029246232,"connected_time":14000000000,"state":"active","ping":85},{"user_id":371,"name":"crippling fumo addiction","steam_id":76561198115874625,"connected_time":3590000000000,"state":"active","ping":61},{"user_id":383,"name":"Facet","steam_id":76561197999782628,"connected_time":2709000000000,"state":"active","ping":60},{"user_id":388,"name":"SuperFresh","steam_id":76561198200723198,"connected_time":2369000000000,"state":"active","ping":42},{"user_id":360,"name":"your pants long for my pee","steam_id":76561198326083509,"connected_time":4247000000000,"state":"active","ping":78},{"user_id":381,"name":"burger","steam_id":76561198058209703,"connected_time":2931000000000,"state":"active","ping":50},{"user_id":404,"name":"Triad","steam_id":76561198116951237,"connected_time":1527000000000,"state":"connecting","ping":384}]},{"server_id":37,"name":"Uncletopia | Chicago | 6 | All Maps","name_short":"chi-6","host":"chi-2.us.uncletopia.com","port":27025,"enabled":true,"region":"us-central","cc":"us","latitude":41.881832,"longitude":-87.62318,"reserved":0,"last_update":"0001-01-01T00:00:00Z","name_a2s":"Uncletopia | Chicago | 6 | All Maps","protocol":17,"map":"pl_frontier_final","folder":"tf","game":"Team Fortress","app_id":440,"player_count":23,"max_players":24,"Bots":0,"server_type":"Dedicated","server_os":"Linux","password":true,"vac":true,"version":"7757534","steam_id":85568392924866363,"keywords":["nocrits","nodmgspread","payload","uncletopia"],"game_id":440,"stv_port":27026,"stv_name":"Uncletopia | Chicago | 6 | All Maps | STV","players":[{"user_id":659,"name":"jturner1nm","steam_id":76561198344493652,"connected_time":2115000000000,"state":"active","ping":103},{"user_id":654,"name":"A Reliable 2004 Honda Civic","steam_id":76561198088071133,"connected_time":2411000000000,"state":"active","ping":82},{"user_id":649,"name":"KASHI","steam_id":76561198045285049,"connected_time":2586000000000,"state":"active","ping":84},{"user_id":650,"name":"Huevo Frito","steam_id":76561198896811394,"connected_time":2533000000000,"state":"active","ping":48},{"user_id":661,"name":"finn (he/him)","steam_id":76561198257531708,"connected_time":2080000000000,"state":"active","ping":48},{"user_id":559,"name":"Barry","steam_id":76561198371953939,"connected_time":7461000000000,"state":"active","ping":79},{"user_id":674,"name":"BuddyMocha","steam_id":76561198054654515,"connected_time":70000000000,"state":"active","ping":45},{"user_id":657,"name":"big ol' buford","steam_id":76561198290675957,"connected_time":2223000000000,"state":"active","ping":58},{"user_id":640,"name":"*SHIKI 志貴","steam_id":76561198009208968,"connected_time":3611000000000,"state":"active","ping":47},{"user_id":646,"name":"trappy","steam_id":76561198402801140,"connected_time":2842000000000,"state":"active","ping":59},{"user_id":660,"name":"Overwatch 3","steam_id":76561198009747616,"connected_time":2101000000000,"state":"active","ping":100},{"user_id":670,"name":"ChippyThePenguin","steam_id":76561198045663116,"connected_time":1101000000000,"state":"active","ping":60},{"user_id":667,"name":"white ray","steam_id":76561198026664629,"connected_time":1324000000000,"state":"active","ping":46},{"user_id":675,"name":"Nani?","steam_id":76561198130982692,"connected_time":69000000000,"state":"active","ping":57},{"user_id":671,"name":"A Sun","steam_id":76561198142545364,"connected_time":970000000000,"state":"active","ping":66},{"user_id":642,"name":"DiamondEpsilon","steam_id":76561198203883311,"connected_time":3420000000000,"state":"active","ping":78},{"user_id":614,"name":"John Wilkes Booth","steam_id":76561198062103069,"connected_time":5207000000000,"state":"active","ping":92},{"user_id":615,"name":"✪kook ♥  ♥","steam_id":76561198037846151,"connected_time":5201000000000,"state":"active","ping":59},{"user_id":653,"name":"Engie","steam_id":76561199168186553,"connected_time":2462000000000,"state":"active","ping":97},{"user_id":599,"name":"bussington","steam_id":76561198133150219,"connected_time":6260000000000,"state":"active","ping":61},{"user_id":591,"name":"WhoIsFrosty","steam_id":76561198880588117,"connected_time":6555000000000,"state":"active","ping":55},{"user_id":620,"name":"Pep Seeman","steam_id":76561198038393007,"connected_time":4926000000000,"state":"active","ping":52},{"user_id":672,"name":"Asian Queen Latifah","steam_id":76561198147470008,"connected_time":424000000000,"state":"active","ping":89}]},{"server_id":38,"name":"Uncletopia | Chicago | 7 | Stopwatch Beta","name_short":"chi-7","host":"chi-2.us.uncletopia.com","port":27035,"enabled":true,"region":"us-central","cc":"us","latitude":41.881832,"longitude":-87.62318,"reserved":0,"last_update":"0001-01-01T00:00:00Z","name_a2s":"Uncletopia | Chicago | 7 | Stopwatch Beta","protocol":17,"map":"cp_metalworks","folder":"tf","game":"Team Fortress","app_id":440,"player_count":22,"max_players":24,"Bots":0,"server_type":"Dedicated","server_os":"Linux","password":true,"vac":true,"version":"7757534","steam_id":85568392924866364,"keywords":["cp","nocrits","nodmgspread","uncletopia"],"game_id":440,"stv_port":27036,"stv_name":"Uncletopia | Chicago | 7 | Stopwatch Beta | STV","players":[{"user_id":130,"name":"mintongryphon","steam_id":76561199427146067,"connected_time":497000000000,"state":"active","ping":87},{"user_id":139,"name":"Cogsby","steam_id":76561199109102841,"connected_time":139000000000,"state":"active","ping":189},{"user_id":135,"name":"Accursed","steam_id":76561198082217768,"connected_time":300000000000,"state":"active","ping":81},{"user_id":138,"name":"\"Weird Al\" Yankovic","steam_id":76561198083497855,"connected_time":195000000000,"state":"active","ping":90},{"user_id":140,"name":"sneakyflamingo","steam_id":76561199093026056,"connected_time":121000000000,"state":"active","ping":63},{"user_id":141,"name":"poorly timed burger king ad","steam_id":76561198122628769,"connected_time":92000000000,"state":"active","ping":56},{"user_id":86,"name":"Nerd Killer","steam_id":76561198037072888,"connected_time":3027000000000,"state":"active","ping":57},{"user_id":114,"name":"Furrio","steam_id":76561198174104607,"connected_time":1611000000000,"state":"active","ping":82},{"user_id":111,"name":"Robot Penguin","steam_id":76561198067929931,"connected_time":1811000000000,"state":"active","ping":55},{"user_id":112,"name":"Banana","steam_id":76561198996230924,"connected_time":1811000000000,"state":"active","ping":64},{"user_id":107,"name":"NUt","steam_id":76561198031007966,"connected_time":2067000000000,"state":"active","ping":69},{"user_id":124,"name":"Shabby Robot","steam_id":76561198040637871,"connected_time":1039000000000,"state":"active","ping":114},{"user_id":116,"name":"Bullwinkle J. Moose","steam_id":76561198075977196,"connected_time":1563000000000,"state":"active","ping":75},{"user_id":125,"name":"helloyes_123","steam_id":76561198184669555,"connected_time":1034000000000,"state":"active","ping":99},{"user_id":117,"name":"Superman123389","steam_id":76561198267472539,"connected_time":1548000000000,"state":"active","ping":91},{"user_id":136,"name":"totoro","steam_id":76561198210420871,"connected_time":291000000000,"state":"active","ping":46},{"user_id":118,"name":"bur","steam_id":76561198004231658,"connected_time":1539000000000,"state":"active","ping":62},{"user_id":142,"name":"akirajimbo","steam_id":76561197979960008,"connected_time":72000000000,"state":"active","ping":60},{"user_id":122,"name":"amani","steam_id":76561198085310326,"connected_time":1317000000000,"state":"active","ping":75},{"user_id":108,"name":"IPlayGamez","steam_id":76561198041387508,"connected_time":2058000000000,"state":"active","ping":71},{"user_id":123,"name":"Capt.Swag","steam_id":76561198088340994,"connected_time":1050000000000,"state":"active","ping":78},{"user_id":72,"name":"DiscoTraveler","steam_id":76561199240168088,"connected_time":4015000000000,"state":"active","ping":62}]},{"server_id":39,"name":"Uncletopia | Chicago | 8 | Community","name_short":"chi-8","host":"chi-2.us.uncletopia.com","port":27045,"enabled":true,"region":"us-central","cc":"us","latitude":41.881832,"longitude":-87.62318,"reserved":0,"last_update":"0001-01-01T00:00:00Z","name_a2s":"Uncletopia | Chicago | 8 | Community","protocol":17,"map":"workshop/pl_fifthcurve_rc1.ugc648227046","folder":"tf","game":"Team Fortress","app_id":440,"player_count":0,"max_players":24,"Bots":0,"server_type":"Dedicated","server_os":"Linux","password":true,"vac":true,"version":"7757534","steam_id":85568392924866365,"keywords":["nocrits","nodmgspread","payload","uncletopia"],"game_id":440,"stv_port":27046,"stv_name":"Uncletopia | Chicago | 8 | Community | STV","players":null},{"server_id":8,"name":"Uncletopia | Dallas | 1 | All Maps","name_short":"dal-1","host":"dal-1.us.uncletopia.com","port":27015,"enabled":true,"region":"us-central","cc":"us","latitude":32.779167,"longitude":-96.80889,"reserved":0,"last_update":"0001-01-01T00:00:00Z","name_a2s":"Uncletopia | Dallas | 1 | All Maps","protocol":17,"map":"pl_borneo","folder":"tf","game":"Team Fortress","app_id":440,"player_count":24,"max_players":24,"Bots":0,"server_type":"Dedicated","server_os":"Linux","password":true,"vac":true,"version":"7757534","steam_id":85568392924469986,"keywords":["nocrits","nodmgspread","payload","uncletopia"],"game_id":440,"stv_port":27016,"stv_name":"Uncletopia | Dallas | 1 | All Maps | STV","players":[{"user_id":745,"name":"Dr. Feelgood (Ph.D, MD)","steam_id":76561198040611061,"connected_time":47000000000,"state":"active","ping":92},{"user_id":734,"name":"ultra instinct cringe micheal","steam_id":76561198275625984,"connected_time":367000000000,"state":"active","ping":99},{"user_id":728,"name":"SGT Disoriented","steam_id":76561198058177958,"connected_time":662000000000,"state":"active","ping":55},{"user_id":702,"name":"Rei","steam_id":76561198408345862,"connected_time":3019000000000,"state":"active","ping":61},{"user_id":720,"name":"Klip","steam_id":76561198316254429,"connected_time":1698000000000,"state":"active","ping":53},{"user_id":727,"name":"Tribute","steam_id":76561198081594043,"connected_time":675000000000,"state":"active","ping":57},{"user_id":742,"name":"anthonyperez6543","steam_id":76561199367988161,"connected_time":96000000000,"state":"active","ping":627},{"user_id":714,"name":"webaline","steam_id":76561199052450127,"connected_time":2077000000000,"state":"active","ping":75},{"user_id":717,"name":"lemon","steam_id":76561198329179651,"connected_time":1798000000000,"state":"active","ping":106},{"user_id":730,"name":"jake1west","steam_id":76561199468452444,"connected_time":464000000000,"state":"active","ping":125},{"user_id":729,"name":"crow","steam_id":76561198046802071,"connected_time":575000000000,"state":"active","ping":51},{"user_id":738,"name":"Inadequate","steam_id":76561198108263810,"connected_time":304000000000,"state":"active","ping":99},{"user_id":712,"name":"blue","steam_id":76561198342449098,"connected_time":2336000000000,"state":"active","ping":55},{"user_id":656,"name":"Getting sloppy at High Hrothgar","steam_id":76561198202195792,"connected_time":5745000000000,"state":"active","ping":85},{"user_id":705,"name":"TheAilingSword","steam_id":76561198250350844,"connected_time":2890000000000,"state":"active","ping":51},{"user_id":743,"name":"Fireheart888","steam_id":76561198044555953,"connected_time":85000000000,"state":"active","ping":90},{"user_id":721,"name":"Mysteryred12","steam_id":76561199206772814,"connected_time":1678000000000,"state":"active","ping":129},{"user_id":724,"name":"Izu","steam_id":76561199258583157,"connected_time":923000000000,"state":"active","ping":96},{"user_id":706,"name":"sockman","steam_id":76561198306826566,"connected_time":2833000000000,"state":"active","ping":86},{"user_id":739,"name":"Koishi","steam_id":76561198054541054,"connected_time":294000000000,"state":"active","ping":76},{"user_id":725,"name":"SPREAD CHRISTMAS CHEER AND JOY","steam_id":76561198800386026,"connected_time":859000000000,"state":"active","ping":91},{"user_id":709,"name":"Betozh","steam_id":76561199064631183,"connected_time":2579000000000,"state":"active","ping":99},{"user_id":741,"name":"The Chosen Juan","steam_id":76561198042398728,"connected_time":262000000000,"state":"active","ping":92},{"user_id":700,"name":"THE WIFE","steam_id":76561198002571116,"connected_time":3098000000000,"state":"active","ping":69}]},{"server_id":108,"name":"Uncletopia | Dallas | 2 | All Maps","name_short":"dal-2","host":"dal-1.us.uncletopia.com","port":27025,"enabled":true,"region":"us-central","cc":"us","latitude":32.779167,"longitude":-96.80889,"reserved":0,"last_update":"0001-01-01T00:00:00Z","name_a2s":"Uncletopia | Dallas | 2 | All Maps","protocol":17,"map":"cp_steel","folder":"tf","game":"Team Fortress","app_id":440,"player_count":24,"max_players":24,"Bots":0,"server_type":"Dedicated","server_os":"Linux","password":true,"vac":true,"version":"7757534","steam_id":85568392924469988,"keywords":["cp","nocrits","nodmgspread","uncletopia"],"game_id":440,"stv_port":27026,"stv_name":"Uncletopia | Dallas | 2 | All Maps | STV","players":[{"user_id":503,"name":"GooniOoni","steam_id":76561198102154561,"connected_time":1003000000000,"state":"active","ping":74},{"user_id":493,"name":"Bong Rat","steam_id":76561198164308630,"connected_time":1117000000000,"state":"active","ping":81},{"user_id":510,"name":"ba_jailfort_b1","steam_id":76561198283687382,"connected_time":69000000000,"state":"active","ping":77},{"user_id":471,"name":"Amish Supremacist","steam_id":76561198396181197,"connected_time":3087000000000,"state":"active","ping":75},{"user_id":472,"name":"tylerCHALEX","steam_id":76561199024451937,"connected_time":2888000000000,"state":"active","ping":53},{"user_id":505,"name":"Nodspine","steam_id":76561198253579994,"connected_time":202000000000,"state":"active","ping":124},{"user_id":507,"name":"HE’S IN THE GODDAMN WALLS","steam_id":76561198363267009,"connected_time":189000000000,"state":"active","ping":48},{"user_id":481,"name":"StrangeSaus","steam_id":76561198147790758,"connected_time":2275000000000,"state":"active","ping":105},{"user_id":484,"name":"Krow","steam_id":76561198010392099,"connected_time":1940000000000,"state":"active","ping":47},{"user_id":511,"name":"Dragonofponies","steam_id":76561199016800803,"connected_time":56000000000,"state":"active","ping":59},{"user_id":451,"name":"Chimpish","steam_id":76561199263493270,"connected_time":5147000000000,"state":"active","ping":93},{"user_id":495,"name":"s t o n e","steam_id":76561197994525046,"connected_time":1076000000000,"state":"active","ping":92},{"user_id":492,"name":"Casaaterrizador","steam_id":76561199388911950,"connected_time":1179000000000,"state":"active","ping":77},{"user_id":497,"name":"kangaroo wife","steam_id":76561198040455711,"connected_time":1066000000000,"state":"active","ping":68},{"user_id":509,"name":"SpiderString (She/She++)","steam_id":76561198092409181,"connected_time":105000000000,"state":"active","ping":84},{"user_id":512,"name":"[chef] iron","steam_id":76561197970888616,"connected_time":49000000000,"state":"active","ping":60},{"user_id":500,"name":"Bergmann MP18","steam_id":76561198218417512,"connected_time":1045000000000,"state":"active","ping":79},{"user_id":501,"name":"Bimba","steam_id":76561198006883248,"connected_time":1038000000000,"state":"active","ping":47},{"user_id":513,"name":"A Space-Owl in a Windstorm","steam_id":76561198067827514,"connected_time":35000000000,"state":"spawning","ping":60},{"user_id":485,"name":"Team Fortress 2","steam_id":76561198112388117,"connected_time":1939000000000,"state":"active","ping":80},{"user_id":490,"name":"Moonflower ✦","steam_id":76561198191782483,"connected_time":1348000000000,"state":"active","ping":49},{"user_id":460,"name":"Dunkle","steam_id":76561198041903573,"connected_time":3814000000000,"state":"active","ping":92},{"user_id":470,"name":"FG7","steam_id":76561198381197197,"connected_time":3152000000000,"state":"active","ping":110},{"user_id":488,"name":"PaintMyMeow","steam_id":76561198056860387,"connected_time":1655000000000,"state":"active","ping":70}]},{"server_id":5,"name":"Uncletopia | Frankfurt | 1 | All Maps","name_short":"frk-1","host":"frk-1.de.uncletopia.com","port":27015,"enabled":true,"region":"eu","cc":"de","latitude":50.110924,"longitude":8.682127,"reserved":0,"last_update":"0001-01-01T00:00:00Z","name_a2s":"Uncletopia | Frankfurt | 1 | All Maps","protocol":17,"map":"koth_highpass","folder":"tf","game":"Team Fortress","app_id":440,"player_count":3,"max_players":24,"Bots":0,"server_type":"Dedicated","server_os":"Linux","password":true,"vac":true,"version":"7757534","steam_id":85568392924469989,"keywords":["cp","nocrits","nodmgspread","uncletopia"],"game_id":440,"stv_port":27016,"stv_name":"Uncletopia | Frankfurt | 1 | All Maps | STV","players":[{"user_id":941,"name":"Yes","steam_id":76561198977904427,"connected_time":5620000000000,"state":"active","ping":186},{"user_id":950,"name":"dahoog","steam_id":76561199350421157,"connected_time":1104000000000,"state":"active","ping":413},{"user_id":952,"name":"bebop","steam_id":76561199163415325,"connected_time":902000000000,"state":"active","ping":192}]},{"server_id":110,"name":"Uncletopia | Frankfurt | 2 | All Maps","name_short":"frk-2","host":"frk-1.de.uncletopia.com","port":27025,"enabled":true,"region":"eu","cc":"de","latitude":50.110924,"longitude":8.682127,"reserved":0,"last_update":"0001-01-01T00:00:00Z","name_a2s":"Uncletopia | Frankfurt | 2 | All Maps","protocol":17,"map":"koth_lakeside_final","folder":"tf","game":"Team Fortress","app_id":440,"player_count":0,"max_players":24,"Bots":0,"server_type":"Dedicated","server_os":"Linux","password":true,"vac":true,"version":"7757534","steam_id":85568392924469990,"keywords":["cp","nocrits","nodmgspread","uncletopia"],"game_id":440,"stv_port":27026,"stv_name":"Uncletopia | Frankfurt | 2 | All Maps | STV","players":null},{"server_id":308,"name":"Uncletopia | Frankfurt | 3 | All Maps","name_short":"frk-3","host":"frk-1.de.uncletopia.com","port":27035,"enabled":true,"region":"eu","cc":"de","latitude":50.110924,"longitude":8.682127,"reserved":0,"last_update":"0001-01-01T00:00:00Z","name_a2s":"Uncletopia | Frankfurt | 3 | All Maps","protocol":17,"map":"koth_viaduct","folder":"tf","game":"Team Fortress","app_id":440,"player_count":0,"max_players":24,"Bots":0,"server_type":"Dedicated","server_os":"Linux","password":true,"vac":true,"version":"7757534","steam_id":85568392924504274,"keywords":["cp","nocrits","nodmgspread","uncletopia"],"game_id":440,"stv_port":27036,"stv_name":"Uncletopia | Frankfurt | 3 | All Maps | STV","players":null},{"server_id":309,"name":"Uncletopia | Frankfurt | 4 | All Maps","name_short":"frk-4","host":"frk-1.de.uncletopia.com","port":27045,"enabled":true,"region":"eu","cc":"de","latitude":50.110924,"longitude":8.682127,"reserved":0,"last_update":"0001-01-01T00:00:00Z","name_a2s":"Uncletopia | Frankfurt | 4 | All Maps","protocol":17,"map":"cp_mountainlab","folder":"tf","game":"Team Fortress","app_id":440,"player_count":0,"max_players":24,"Bots":0,"server_type":"Dedicated","server_os":"Linux","password":true,"vac":true,"version":"7757534","steam_id":85568392924504275,"keywords":["cp","nocrits","nodmgspread","uncletopia"],"game_id":440,"stv_port":27046,"stv_name":"Uncletopia | Frankfurt | 4 | All Maps | STV","players":null},{"server_id":310,"name":"Uncletopia | Frankfurt | 5 | All Maps","name_short":"frk-5","host":"frk-1.de.uncletopia.com","port":27055,"enabled":true,"region":"eu","cc":"de","latitude":50.110924,"longitude":8.682127,"reserved":0,"last_update":"0001-01-01T00:00:00Z","name_a2s":"Uncletopia | Frankfurt | 5 | All Maps","protocol":17,"map":"cp_snakewater_final1","folder":"tf","game":"Team Fortress","app_id":440,"player_count":22,"max_players":24,"Bots":0,"server_type":"Dedicated","server_os":"Linux","password":true,"vac":true,"version":"7757534","steam_id":85568392924504277,"keywords":["cp","nocrits","nodmgspread","uncletopia"],"game_id":440,"stv_port":27056,"stv_name":"Uncletopia | Frankfurt | 5 | All Maps | STV","players":[{"user_id":669,"name":"-makina","steam_id":76561198273042780,"connected_time":3367000000000,"state":"active","ping":60},{"user_id":718,"name":"Rave Robber","steam_id":76561199414716848,"connected_time":257000000000,"state":"active","ping":68},{"user_id":720,"name":"blue","steam_id":76561198216200092,"connected_time":127000000000,"state":"active","ping":66},{"user_id":715,"name":"R8N - Obismal","steam_id":76561198007482714,"connected_time":442000000000,"state":"active","ping":70},{"user_id":701,"name":"Owl","steam_id":76561198248266580,"connected_time":1000000000000,"state":"active","ping":69},{"user_id":719,"name":"etc","steam_id":76561197998394797,"connected_time":171000000000,"state":"active","ping":59},{"user_id":721,"name":"0Phill","steam_id":76561198399587139,"connected_time":40000000000,"state":"active","ping":63},{"user_id":686,"name":"Hexabit","steam_id":76561198028625661,"connected_time":1981000000000,"state":"active","ping":70},{"user_id":688,"name":"dyn1x","steam_id":76561198115952983,"connected_time":1926000000000,"state":"active","ping":59},{"user_id":702,"name":"isha","steam_id":76561199041566425,"connected_time":982000000000,"state":"active","ping":57},{"user_id":690,"name":"qiulongtao","steam_id":76561198977558717,"connected_time":1886000000000,"state":"active","ping":160},{"user_id":703,"name":"CarbonPan","steam_id":76561198072169983,"connected_time":973000000000,"state":"active","ping":105},{"user_id":638,"name":"Pixie","steam_id":76561198044038797,"connected_time":4946000000000,"state":"active","ping":84},{"user_id":712,"name":"califren","steam_id":76561198091981791,"connected_time":487000000000,"state":"active","ping":84},{"user_id":705,"name":"Bob.","steam_id":76561198330093822,"connected_time":939000000000,"state":"active","ping":73},{"user_id":717,"name":"FrogGodPrime","steam_id":76561198042502842,"connected_time":292000000000,"state":"active","ping":71},{"user_id":706,"name":" Unfortunate ","steam_id":76561198125500777,"connected_time":928000000000,"state":"active","ping":90},{"user_id":707,"name":"boy","steam_id":76561198162462063,"connected_time":807000000000,"state":"active","ping":66},{"user_id":714,"name":"medick (Jon/Jonbud)","steam_id":76561199380849468,"connected_time":458000000000,"state":"active","ping":63},{"user_id":709,"name":"First Order Stormtrooper","steam_id":76561198259620504,"connected_time":742000000000,"state":"active","ping":55},{"user_id":631,"name":"New","steam_id":76561198402195911,"connected_time":5697000000000,"state":"active","ping":108},{"user_id":716,"name":"AWP Bodyshot :) ❤","steam_id":76561198029928533,"connected_time":339000000000,"state":"active","ping":46}]},{"server_id":311,"name":"Uncletopia | Frankfurt | 6 | All Maps","name_short":"frk-6","host":"frk-1.de.uncletopia.com","port":27065,"enabled":true,"region":"eu","cc":"de","latitude":50.110924,"longitude":8.682127,"reserved":0,"last_update":"0001-01-01T00:00:00Z","name_a2s":"Uncletopia | Frankfurt | 6 | All Maps","protocol":17,"map":"koth_cascade","folder":"tf","game":"Team Fortress","app_id":440,"player_count":0,"max_players":24,"Bots":0,"server_type":"Dedicated","server_os":"Linux","password":true,"vac":true,"version":"7757534","steam_id":85568392924504278,"keywords":["cp","nocrits","nodmgspread","uncletopia"],"game_id":440,"stv_port":27066,"stv_name":"Uncletopia | Frankfurt | 6 | All Maps | STV","players":null},{"server_id":23,"name":"Uncletopia | Frankfurt | 7 | Stopwatch Beta","name_short":"frk-7","host":"frk-1.de.uncletopia.com","port":27075,"enabled":true,"region":"eu","cc":"de","latitude":50.110924,"longitude":8.682127,"reserved":0,"last_update":"0001-01-01T00:00:00Z","name_a2s":"Uncletopia | Frankfurt | 7 | Stopwatch Beta","protocol":17,"map":"pl_borneo","folder":"tf","game":"Team Fortress","app_id":440,"player_count":0,"max_players":24,"Bots":0,"server_type":"Dedicated","server_os":"Linux","password":true,"vac":true,"version":"7757534","steam_id":85568392924742827,"keywords":["nocrits","nodmgspread","payload","uncletopia"],"game_id":440,"stv_port":27076,"stv_name":"Uncletopia | Frankfurt | 7 | Stopwatch Beta | STV","players":null},{"server_id":24,"name":"Uncletopia | Frankfurt | 8 | Community","name_short":"frk-8","host":"frk-1.de.uncletopia.com","port":27085,"enabled":true,"region":"eu","cc":"de","latitude":50.110924,"longitude":8.682127,"reserved":0,"last_update":"0001-01-01T00:00:00Z","name_a2s":"Uncletopia | Frankfurt | 8 | Community","protocol":17,"map":"workshop/rd_asteroid_redux_b1.ugc2154902912","folder":"tf","game":"Team Fortress","app_id":440,"player_count":0,"max_players":24,"Bots":0,"server_type":"Dedicated","server_os":"Linux","password":true,"vac":true,"version":"7757534","steam_id":85568392924742828,"keywords":["beta","nocrits","nodmgspread","rd","uncletopia"],"game_id":440,"stv_port":27086,"stv_name":"Uncletopia | Frankfurt | 8 | Community | STV","players":null},{"server_id":202,"name":"Uncletopia | Hong Kong | 1 | All Maps","name_short":"hgk-1","host":"hgk-1.hk.uncletopia.com","port":27015,"enabled":true,"region":"asia","cc":"hk","latitude":22.302711,"longitude":114.177216,"reserved":0,"last_update":"0001-01-01T00:00:00Z","name_a2s":"Uncletopia | Hong Kong | 1 | All Maps","protocol":17,"map":"ctf_turbine","folder":"tf","game":"Team Fortress","app_id":440,"player_count":22,"max_players":24,"Bots":0,"server_type":"Dedicated","server_os":"Linux","password":true,"vac":true,"version":"7757534","steam_id":85568392924494504,"keywords":["ctf","nocrits","nodmgspread","uncletopia"],"game_id":440,"stv_port":27016,"stv_name":"Uncletopia | Hong Kong | 1 | All Maps | STV","players":[{"user_id":104,"name":"iLikeMudrock ᗜ‸ᗜ","steam_id":76561199352285088,"connected_time":253000000000,"state":"active","ping":112},{"user_id":61,"name":"Hλi","steam_id":76561198872566128,"connected_time":2965000000000,"state":"active","ping":84},{"user_id":95,"name":"my pc is fking dying","steam_id":76561199020600466,"connected_time":906000000000,"state":"active","ping":69},{"user_id":63,"name":"doomslayer882","steam_id":76561199107596818,"connected_time":2591000000000,"state":"active","ping":112},{"user_id":72,"name":"TomProPlayer","steam_id":76561199223292521,"connected_time":1917000000000,"state":"active","ping":73},{"user_id":73,"name":"Artoria","steam_id":76561199466006054,"connected_time":1837000000000,"state":"active","ping":60},{"user_id":97,"name":"SunShine","steam_id":76561198323642446,"connected_time":674000000000,"state":"active","ping":97},{"user_id":102,"name":"o2","steam_id":76561199262570913,"connected_time":386000000000,"state":"active","ping":168},{"user_id":47,"name":"uptriste","steam_id":76561198158666692,"connected_time":4154000000000,"state":"active","ping":30},{"user_id":105,"name":"ɔuᗡA ɟƨuᒐ","steam_id":76561199031283970,"connected_time":239000000000,"state":"active","ping":114},{"user_id":74,"name":"iced","steam_id":76561198999114004,"connected_time":1810000000000,"state":"active","ping":104},{"user_id":100,"name":"Sleeping","steam_id":76561198120553035,"connected_time":588000000000,"state":"active","ping":59},{"user_id":57,"name":"worndelight","steam_id":76561199056960214,"connected_time":3648000000000,"state":"active","ping":167},{"user_id":93,"name":"I HATE SHRIMP TEMPURA","steam_id":76561198981987710,"connected_time":939000000000,"state":"active","ping":104},{"user_id":75,"name":"Boo","steam_id":76561198200955590,"connected_time":1806000000000,"state":"active","ping":77},{"user_id":106,"name":"Planeriver Steve (f2p)","steam_id":76561199174778022,"connected_time":5000000000,"state":"spawning","ping":117},{"user_id":80,"name":"Dell Conagher","steam_id":76561198853001370,"connected_time":1545000000000,"state":"active","ping":72},{"user_id":81,"name":"weerez","steam_id":76561198405393811,"connected_time":1526000000000,"state":"active","ping":118},{"user_id":83,"name":"jeff","steam_id":76561198327306842,"connected_time":1357000000000,"state":"active","ping":76},{"user_id":103,"name":"hogcoin","steam_id":76561199206816701,"connected_time":299000000000,"state":"active","ping":75},{"user_id":86,"name":"Lazy","steam_id":76561199143830082,"connected_time":1248000000000,"state":"active","ping":97},{"user_id":92,"name":"Urotsuki","steam_id":76561198074339034,"connected_time":1002000000000,"state":"active","ping":75}]},{"server_id":1,"name":"Uncletopia | Los Angeles | 1 | All Maps","name_short":"lax-1","host":"lax-1.us.uncletopia.com","port":27015,"enabled":true,"region":"us-west","cc":"us","latitude":33.94279,"longitude":-118.41004,"reserved":0,"last_update":"0001-01-01T00:00:00Z","name_a2s":"Uncletopia | Los Angeles | 1 | All Maps","protocol":17,"map":"koth_lakeside_final","folder":"tf","game":"Team Fortress","app_id":440,"player_count":0,"max_players":24,"Bots":0,"server_type":"Dedicated","server_os":"Linux","password":true,"vac":true,"version":"7757534","steam_id":85568392924469991,"keywords":["cp","nocrits","nodmgspread","uncletopia"],"game_id":440,"stv_port":27016,"stv_name":"Uncletopia | Los Angeles | 1 | All Maps | STV","players":null},{"server_id":112,"name":"Uncletopia | Los Angeles | 2 | All Maps","name_short":"lax-2","host":"lax-1.us.uncletopia.com","port":27025,"enabled":true,"region":"us-west","cc":"us","latitude":33.94279,"longitude":-118.41004,"reserved":0,"last_update":"0001-01-01T00:00:00Z","name_a2s":"Uncletopia | Los Angeles | 2 | All Maps","protocol":17,"map":"koth_cascade","folder":"tf","game":"Team Fortress","app_id":440,"player_count":0,"max_players":24,"Bots":0,"server_type":"Dedicated","server_os":"Linux","password":true,"vac":true,"version":"7757534","steam_id":85568392924469992,"keywords":["cp","nocrits","nodmgspread","uncletopia"],"game_id":440,"stv_port":27026,"stv_name":"Uncletopia | Los Angeles | 2 | All Maps | STV","players":null},{"server_id":324,"name":"Uncletopia | Los Angeles | 3 | All Maps","name_short":"lax-3","host":"lax-1.us.uncletopia.com","port":27035,"enabled":true,"region":"us-west","cc":"us","latitude":33.94279,"longitude":-118.41004,"reserved":0,"last_update":"0001-01-01T00:00:00Z","name_a2s":"Uncletopia | Los Angeles | 3 | All Maps","protocol":17,"map":"pl_upward","folder":"tf","game":"Team Fortress","app_id":440,"player_count":24,"max_players":24,"Bots":0,"server_type":"Dedicated","server_os":"Linux","password":true,"vac":true,"version":"7757534","steam_id":85568392924510198,"keywords":["nocrits","nodmgspread","payload","uncletopia"],"game_id":440,"stv_port":27036,"stv_name":"Uncletopia | Los Angeles | 3 | All Maps | STV","players":[{"user_id":426,"name":"MegaMott","steam_id":76561199172245274,"connected_time":1668000000000,"state":"active","ping":65},{"user_id":435,"name":"Beary Adorable","steam_id":76561198023815802,"connected_time":1275000000000,"state":"active","ping":81},{"user_id":391,"name":"Frank","steam_id":76561198104620535,"connected_time":3807000000000,"state":"active","ping":89},{"user_id":414,"name":"Vetresol","steam_id":76561198174828486,"connected_time":2448000000000,"state":"active","ping":79},{"user_id":447,"name":"dartwing","steam_id":76561197998575360,"connected_time":296000000000,"state":"active","ping":75},{"user_id":404,"name":"YourWishes","steam_id":76561198154414336,"connected_time":3433000000000,"state":"active","ping":47},{"user_id":441,"name":"Riboflavin","steam_id":76561198077328593,"connected_time":656000000000,"state":"active","ping":104},{"user_id":449,"name":"Lexx","steam_id":76561198116165881,"connected_time":215000000000,"state":"active","ping":89},{"user_id":427,"name":"chanoc","steam_id":76561198026734746,"connected_time":1667000000000,"state":"active","ping":53},{"user_id":389,"name":"Raphael","steam_id":76561198101425586,"connected_time":3831000000000,"state":"active","ping":78},{"user_id":443,"name":"Biggest Dude In Town 4U","steam_id":76561198070281464,"connected_time":599000000000,"state":"active","ping":84},{"user_id":436,"name":"the_capybara_bandit","steam_id":76561198372030749,"connected_time":1243000000000,"state":"active","ping":129},{"user_id":445,"name":"peter griffin","steam_id":76561198267795053,"connected_time":531000000000,"state":"active","ping":125},{"user_id":369,"name":"benson","steam_id":76561198105075752,"connected_time":5326000000000,"state":"active","ping":68},{"user_id":446,"name":"Edboi","steam_id":76561198117849098,"connected_time":518000000000,"state":"active","ping":67},{"user_id":416,"name":"Joanne Ɛ\u003e","steam_id":76561198086401160,"connected_time":2435000000000,"state":"active","ping":90},{"user_id":417,"name":"PonYOOOOOOO","steam_id":76561199067424111,"connected_time":2414000000000,"state":"active","ping":65},{"user_id":432,"name":"Bigfootjinx","steam_id":76561199128050459,"connected_time":1516000000000,"state":"active","ping":119},{"user_id":437,"name":"walrooos","steam_id":76561198024521839,"connected_time":1239000000000,"state":"active","ping":50},{"user_id":425,"name":"⚠ HazardBastard ⚠","steam_id":76561198056581580,"connected_time":1877000000000,"state":"active","ping":58},{"user_id":334,"name":"StAr","steam_id":76561198229872056,"connected_time":7269000000000,"state":"active","ping":116},{"user_id":433,"name":"the #1 gura fan","steam_id":76561198062054335,"connected_time":1465000000000,"state":"active","ping":59},{"user_id":448,"name":"Stargriefer190","steam_id":76561198996425356,"connected_time":289000000000,"state":"active","ping":119},{"user_id":438,"name":"Squid121","steam_id":76561198038832034,"connected_time":1223000000000,"state":"active","ping":80}]},{"server_id":25,"name":"Uncletopia | Los Angeles | 4 | Stopwatch Beta","name_short":"lax-4","host":"lax-1.us.uncletopia.com","port":27045,"enabled":true,"region":"us-west","cc":"us","latitude":33.94279,"longitude":-118.41004,"reserved":0,"last_update":"0001-01-01T00:00:00Z","name_a2s":"Uncletopia | Los Angeles | 4 | Stopwatch Beta","protocol":17,"map":"cp_sunshine","folder":"tf","game":"Team Fortress","app_id":440,"player_count":0,"max_players":24,"Bots":0,"server_type":"Dedicated","server_os":"Linux","password":true,"vac":true,"version":"7757534","steam_id":85568392924510199,"keywords":["cp","nocrits","nodmgspread","uncletopia"],"game_id":440,"stv_port":27046,"stv_name":"Uncletopia | Los Angeles | 4 | Stopwatch Beta | STV","players":null},{"server_id":11,"name":"Uncletopia | London | 1 | All Maps","name_short":"lon-1","host":"lon-1.uk.uncletopia.com","port":27015,"enabled":true,"region":"eu","cc":"gb","latitude":51.509865,"longitude":-0.118092,"reserved":0,"last_update":"0001-01-01T00:00:00Z","name_a2s":"Uncletopia | London | 1 | All Maps","protocol":17,"map":"pl_swiftwater_final1","folder":"tf","game":"Team Fortress","app_id":440,"player_count":1,"max_players":24,"Bots":0,"server_type":"Dedicated","server_os":"Linux","password":true,"vac":true,"version":"7757534","steam_id":85568392924367362,"keywords":["nocrits","nodmgspread","payload","uncletopia"],"game_id":440,"stv_port":27016,"stv_name":"Uncletopia | London | 1 | All Maps | STV","players":[{"user_id":876,"name":"hano","steam_id":76561198985994533,"connected_time":365000000000,"state":"active","ping":75}]},{"server_id":114,"name":"Uncletopia | London | 2 | All Maps","name_short":"lon-2","host":"lon-1.uk.uncletopia.com","port":27025,"enabled":true,"region":"eu","cc":"gb","latitude":51.509865,"longitude":-0.118092,"reserved":0,"last_update":"0001-01-01T00:00:00Z","name_a2s":"Uncletopia | London | 2 | All Maps","protocol":17,"map":"ctf_2fort","folder":"tf","game":"Team Fortress","app_id":440,"player_count":16,"max_players":24,"Bots":0,"server_type":"Dedicated","server_os":"Linux","password":true,"vac":true,"version":"7757534","steam_id":85568392924470941,"keywords":["ctf","nocrits","nodmgspread","uncletopia"],"game_id":440,"stv_port":27026,"stv_name":"Uncletopia | London | 2 | All Maps | STV","players":[{"user_id":1170,"name":"Goroungo","steam_id":76561198962808454,"connected_time":452000000000,"state":"active","ping":50},{"user_id":1172,"name":"Chaz","steam_id":76561198077292814,"connected_time":341000000000,"state":"active","ping":69},{"user_id":1147,"name":"Klumz","steam_id":76561198045750180,"connected_time":1971000000000,"state":"active","ping":76},{"user_id":1173,"name":"Kingfisher","steam_id":76561198207048253,"connected_time":318000000000,"state":"active","ping":64},{"user_id":1174,"name":"Marine Fan Club","steam_id":76561198117846821,"connected_time":287000000000,"state":"active","ping":40},{"user_id":1113,"name":"fitotutus","steam_id":76561197974993253,"connected_time":3918000000000,"state":"active","ping":158},{"user_id":1125,"name":"Tsuruko","steam_id":76561198063618114,"connected_time":2986000000000,"state":"active","ping":73},{"user_id":1128,"name":"Mafour","steam_id":76561197994581337,"connected_time":2822000000000,"state":"active","ping":84},{"user_id":1176,"name":"Hellcat","steam_id":76561198045692488,"connected_time":203000000000,"state":"active","ping":89},{"user_id":1088,"name":"Kenny Savage","steam_id":76561199049383900,"connected_time":5106000000000,"state":"active","ping":73},{"user_id":1153,"name":"Johnny Cockroach","steam_id":76561198049648277,"connected_time":1817000000000,"state":"active","ping":102},{"user_id":1177,"name":"Emilia","steam_id":76561198329913999,"connected_time":193000000000,"state":"active","ping":57},{"user_id":1178,"name":"Dr.Bananas89","steam_id":76561198098816836,"connected_time":162000000000,"state":"active","ping":157},{"user_id":1130,"name":"sabaka jebanoia","steam_id":76561198147249160,"connected_time":2794000000000,"state":"active","ping":104},{"user_id":1077,"name":"gamerweed5","steam_id":76561198087651151,"connected_time":5625000000000,"state":"active","ping":36},{"user_id":1151,"name":"Grayblood","steam_id":76561198162656579,"connected_time":1942000000000,"state":"active","ping":74}]},{"server_id":320,"name":"Uncletopia | London | 3 | All Maps","name_short":"lon-3","host":"lon-1.uk.uncletopia.com","port":27035,"enabled":true,"region":"eu","cc":"gb","latitude":51.509865,"longitude":-0.118092,"reserved":0,"last_update":"0001-01-01T00:00:00Z","name_a2s":"Uncletopia | London | 3 | All Maps","protocol":17,"map":"pl_borneo","folder":"tf","game":"Team Fortress","app_id":440,"player_count":24,"max_players":24,"Bots":0,"server_type":"Dedicated","server_os":"Linux","password":true,"vac":true,"version":"7757534","steam_id":85568392924510192,"keywords":["nocrits","nodmgspread","payload","uncletopia"],"game_id":440,"stv_port":27036,"stv_name":"Uncletopia | London | 3 | All Maps | STV","players":[{"user_id":813,"name":"outin","steam_id":76561198137734730,"connected_time":1056000000000,"state":"active","ping":66},{"user_id":793,"name":"(come and see him)","steam_id":76561198112401532,"connected_time":2441000000000,"state":"active","ping":73},{"user_id":796,"name":"Hans the Hand","steam_id":76561198259662819,"connected_time":2427000000000,"state":"active","ping":159},{"user_id":821,"name":"wireless fridge company","steam_id":76561198357894803,"connected_time":103000000000,"state":"active","ping":112},{"user_id":814,"name":"Dude Time","steam_id":76561198092991160,"connected_time":1042000000000,"state":"active","ping":151},{"user_id":819,"name":"Zombi3","steam_id":76561198326290621,"connected_time":208000000000,"state":"active","ping":68},{"user_id":792,"name":"Crazder","steam_id":76561198119948938,"connected_time":2456000000000,"state":"active","ping":45},{"user_id":786,"name":"Goofyscam Huborka","steam_id":76561198207417796,"connected_time":2753000000000,"state":"active","ping":85},{"user_id":779,"name":"Tery","steam_id":76561198044799321,"connected_time":3617000000000,"state":"active","ping":53},{"user_id":771,"name":"SuperBob103","steam_id":76561199175360012,"connected_time":4394000000000,"state":"active","ping":52},{"user_id":803,"name":"prong","steam_id":76561198057547320,"connected_time":2125000000000,"state":"active","ping":52},{"user_id":787,"name":"Engineer Gaming (Albania)","steam_id":76561198121936215,"connected_time":2713000000000,"state":"active","ping":74},{"user_id":798,"name":"DLT_PZA","steam_id":76561198047714073,"connected_time":2404000000000,"state":"active","ping":60},{"user_id":815,"name":"Lyell","steam_id":76561198350329389,"connected_time":1036000000000,"state":"active","ping":80},{"user_id":768,"name":"Pineapple Okanつ ◕_◕ ༽\ufffd\ufffd","steam_id":76561198069199449,"connected_time":4518000000000,"state":"active","ping":107},{"user_id":772,"name":"teddy","steam_id":76561198007436837,"connected_time":4003000000000,"state":"active","ping":31},{"user_id":817,"name":"pip boy","steam_id":76561197960530280,"connected_time":507000000000,"state":"active","ping":61},{"user_id":816,"name":"Backup","steam_id":76561197999557567,"connected_time":994000000000,"state":"active","ping":62},{"user_id":788,"name":"undertime slopper","steam_id":76561198030994735,"connected_time":2689000000000,"state":"active","ping":30},{"user_id":789,"name":"Chin","steam_id":76561198364838506,"connected_time":2684000000000,"state":"active","ping":41},{"user_id":818,"name":"Señor Palubi","steam_id":76561198191191627,"connected_time":211000000000,"state":"active","ping":92},{"user_id":806,"name":"Metheus","steam_id":76561198051847106,"connected_time":1742000000000,"state":"active","ping":73},{"user_id":804,"name":"Jacknerik","steam_id":76561198041365662,"connected_time":2123000000000,"state":"active","ping":125},{"user_id":810,"name":"Spycrab101","steam_id":76561198141836805,"connected_time":1466000000000,"state":"active","ping":46}]},{"server_id":321,"name":"Uncletopia | London | 4 | All Maps","name_short":"lon-4","host":"lon-1.uk.uncletopia.com","port":27045,"enabled":true,"region":"eu","cc":"gb","latitude":51.509865,"longitude":-0.118092,"reserved":0,"last_update":"0001-01-01T00:00:00Z","name_a2s":"Uncletopia | London | 4 | All Maps","protocol":17,"map":"koth_cascade","folder":"tf","game":"Team Fortress","app_id":440,"player_count":0,"max_players":24,"Bots":0,"server_type":"Dedicated","server_os":"Linux","password":true,"vac":true,"version":"7757534","steam_id":85568392924510193,"keywords":["cp","nocrits","nodmgspread","uncletopia"],"game_id":440,"stv_port":27046,"stv_name":"Uncletopia | London | 4 | All Maps | STV","players":null},{"server_id":21,"name":"Uncletopia | London | 5 | All Maps","name_short":"lon-5","host":"lon-1.uk.uncletopia.com","port":27055,"enabled":true,"region":"eu","cc":"gb","latitude":51.509865,"longitude":-0.118092,"reserved":0,"last_update":"0001-01-01T00:00:00Z","name_a2s":"Uncletopia | London | 5 | All Maps","protocol":17,"map":"koth_lakeside_final","folder":"tf","game":"Team Fortress","app_id":440,"player_count":0,"max_players":24,"Bots":0,"server_type":"Dedicated","server_os":"Linux","password":true,"vac":true,"version":"7757534","steam_id":85568392924742829,"keywords":["cp","nocrits","nodmgspread","uncletopia"],"game_id":440,"stv_port":27056,"stv_name":"Uncletopia | London | 5 | All Maps | STV","players":null},{"server_id":22,"name":"Uncletopia | London | 6 | All Maps","name_short":"lon-6","host":"lon-1.uk.uncletopia.com","port":27065,"enabled":true,"region":"eu","cc":"gb","latitude":51.509865,"longitude":-0.118092,"reserved":0,"last_update":"0001-01-01T00:00:00Z","name_a2s":"Uncletopia | London | 6 | All Maps","protocol":17,"map":"pl_swiftwater_final1","folder":"tf","game":"Team Fortress","app_id":440,"player_count":0,"max_players":24,"Bots":0,"server_type":"Dedicated","server_os":"Linux","password":true,"vac":true,"version":"7757534","steam_id":85568392924742830,"keywords":["nocrits","nodmgspread","payload","uncletopia"],"game_id":440,"stv_port":27066,"stv_name":"Uncletopia | London | 6 | All Maps | STV","players":null},{"server_id":40,"name":"Uncletopia | London | 7 | No Payload","name_short":"lon-7","host":"lon-1.uk.uncletopia.com","port":27075,"enabled":true,"region":"eu","cc":"gb","latitude":51.509865,"longitude":-0.118092,"reserved":0,"last_update":"0001-01-01T00:00:00Z","name_a2s":"Uncletopia | London | 7 | No Payload","protocol":17,"map":"koth_king","folder":"tf","game":"Team Fortress","app_id":440,"player_count":0,"max_players":24,"Bots":0,"server_type":"Dedicated","server_os":"Linux","password":true,"vac":true,"version":"7757534","steam_id":85568392924964314,"keywords":["cp","nocrits","nodmgspread","uncletopia"],"game_id":440,"stv_port":27076,"stv_name":"Uncletopia | London | 7 | No Payload | STV","players":null},{"server_id":41,"name":"Uncletopia | London | 8 | Community","name_short":"lon-8","host":"lon-1.uk.uncletopia.com","port":27085,"enabled":true,"region":"eu","cc":"gb","latitude":51.509865,"longitude":-0.118092,"reserved":0,"last_update":"0001-01-01T00:00:00Z","name_a2s":"Uncletopia | London | 8 | Community","protocol":17,"map":"workshop/koth_ashville_final.ugc2130459942","folder":"tf","game":"Team Fortress","app_id":440,"player_count":0,"max_players":24,"Bots":0,"server_type":"Dedicated","server_os":"Linux","password":true,"vac":true,"version":"7757534","steam_id":85568392924964315,"keywords":["cp","nocrits","nodmgspread","uncletopia"],"game_id":440,"stv_port":27086,"stv_name":"Uncletopia | London | 8 | Community | STV","players":null},{"server_id":300,"name":"Uncletopia | Montréal | 1 | All Maps","name_short":"mtl-1","host":"mtl-1.ca.uncletopia.com","port":27015,"enabled":true,"region":"us-east","cc":"ca","latitude":45.50889,"longitude":-73.56167,"reserved":0,"last_update":"0001-01-01T00:00:00Z","name_a2s":"Uncletopia | Montréal | 1 | All Maps","protocol":17,"map":"koth_cascade","folder":"tf","game":"Team Fortress","app_id":440,"player_count":0,"max_players":24,"Bots":0,"server_type":"Dedicated","server_os":"Linux","password":true,"vac":true,"version":"7757534","steam_id":85568392924500087,"keywords":["cp","nocrits","nodmgspread","uncletopia"],"game_id":440,"stv_port":27016,"stv_name":"Uncletopia | Montréal | 1 | All Maps | STV","players":null},{"server_id":301,"name":"Uncletopia | Montréal | 2 | All Maps","name_short":"mtl-2","host":"mtl-1.ca.uncletopia.com","port":27025,"enabled":true,"region":"us-east","cc":"ca","latitude":45.50889,"longitude":-73.56167,"reserved":0,"last_update":"0001-01-01T00:00:00Z","name_a2s":"Uncletopia | Montréal | 2 | All Maps","protocol":17,"map":"pl_barnblitz","folder":"tf","game":"Team Fortress","app_id":440,"player_count":24,"max_players":24,"Bots":0,"server_type":"Dedicated","server_os":"Linux","password":true,"vac":true,"version":"7757534","steam_id":85568392924500088,"keywords":["nocrits","nodmgspread","payload","uncletopia"],"game_id":440,"stv_port":27026,"stv_name":"Uncletopia | Montréal | 2 | All Maps | STV","players":[{"user_id":116,"name":"zeredis","steam_id":76561198076596689,"connected_time":3303000000000,"state":"active","ping":54},{"user_id":85,"name":"lost in the sauce","steam_id":76561199043827112,"connected_time":5297000000000,"state":"active","ping":81},{"user_id":75,"name":"Vitzenhauzer","steam_id":76561198116449787,"connected_time":6344000000000,"state":"active","ping":55},{"user_id":115,"name":"Lavender","steam_id":76561198142770666,"connected_time":3376000000000,"state":"active","ping":60},{"user_id":128,"name":"A Duck Phone!?","steam_id":76561198044707749,"connected_time":2803000000000,"state":"active","ping":51},{"user_id":124,"name":"bromine","steam_id":76561198122295096,"connected_time":3058000000000,"state":"active","ping":143},{"user_id":121,"name":"Amogus The Sussy Baka ඞ","steam_id":76561198008577961,"connected_time":3163000000000,"state":"active","ping":40},{"user_id":106,"name":"thomrive","steam_id":76561198319347711,"connected_time":4093000000000,"state":"active","ping":52},{"user_id":150,"name":"rlty","steam_id":76561198009395055,"connected_time":468000000000,"state":"active","ping":60},{"user_id":145,"name":"MR.meeseeks","steam_id":76561198294943420,"connected_time":819000000000,"state":"active","ping":81},{"user_id":146,"name":"FOX927011","steam_id":76561198117831095,"connected_time":814000000000,"state":"active","ping":92},{"user_id":102,"name":"kurtBG`","steam_id":76561197991157260,"connected_time":4111000000000,"state":"active","ping":56},{"user_id":136,"name":"Quansen","steam_id":76561198151594550,"connected_time":1809000000000,"state":"active","ping":55},{"user_id":131,"name":"LalitoTV","steam_id":76561198334302951,"connected_time":2770000000000,"state":"active","ping":120},{"user_id":104,"name":"Rob0t","steam_id":76561198004620585,"connected_time":4107000000000,"state":"active","ping":61},{"user_id":105,"name":"Teruyo","steam_id":76561197980844882,"connected_time":4106000000000,"state":"active","ping":59},{"user_id":135,"name":"foxy is a good guy","steam_id":76561198367019006,"connected_time":2259000000000,"state":"active","ping":65},{"user_id":144,"name":"ʕ•ᴥ•ʔ the bear","steam_id":76561197989591976,"connected_time":953000000000,"state":"active","ping":70},{"user_id":152,"name":"Aqua","steam_id":76561198277204551,"connected_time":206000000000,"state":"active","ping":101},{"user_id":147,"name":"TomTheF00l","steam_id":76561198829932650,"connected_time":767000000000,"state":"active","ping":116},{"user_id":109,"name":"kramer","steam_id":76561198117761965,"connected_time":4061000000000,"state":"active","ping":57},{"user_id":151,"name":"The Rat ⚕","steam_id":76561198006571338,"connected_time":402000000000,"state":"active","ping":69},{"user_id":119,"name":"NotNot","steam_id":76561198195114895,"connected_time":3199000000000,"state":"active","ping":90},{"user_id":153,"name":"Sudo","steam_id":76561198123714026,"connected_time":70000000000,"state":"active","ping":121}]},{"server_id":302,"name":"Uncletopia | Montréal | 3 | All Maps","name_short":"mtl-3","host":"mtl-1.ca.uncletopia.com","port":27035,"enabled":true,"region":"us-east","cc":"ca","latitude":45.50889,"longitude":-73.56167,"reserved":0,"last_update":"0001-01-01T00:00:00Z","name_a2s":"Uncletopia | Montréal | 3 | All Maps","protocol":17,"map":"cp_sunshine","folder":"tf","game":"Team Fortress","app_id":440,"player_count":0,"max_players":24,"Bots":0,"server_type":"Dedicated","server_os":"Linux","password":true,"vac":true,"version":"7757534","steam_id":85568392924500089,"keywords":["cp","nocrits","nodmgspread","uncletopia"],"game_id":440,"stv_port":27036,"stv_name":"Uncletopia | Montréal | 3 | All Maps | STV","players":null},{"server_id":303,"name":"Uncletopia | Montréal | 4 | No Payload","name_short":"mtl-4","host":"mtl-1.ca.uncletopia.com","port":27045,"enabled":true,"region":"us-east","cc":"ca","latitude":45.50889,"longitude":-73.56167,"reserved":0,"last_update":"0001-01-01T00:00:00Z","name_a2s":"Uncletopia | Montréal | 4 | No Payload","protocol":17,"map":"koth_lakeside_final","folder":"tf","game":"Team Fortress","app_id":440,"player_count":0,"max_players":24,"Bots":0,"server_type":"Dedicated","server_os":"Linux","password":true,"vac":true,"version":"7757534","steam_id":85568392924500090,"keywords":["cp","nocrits","nodmgspread","uncletopia"],"game_id":440,"stv_port":27046,"stv_name":"Uncletopia | Montréal | 4 | No Payload | STV","players":null},{"server_id":13,"name":"Uncletopia | New York City | 1 | All Maps","name_short":"nyc-1","host":"nyc-1.us.uncletopia.com","port":27015,"enabled":true,"region":"us-east","cc":"us","latitude":40.73061,"longitude":-73.93524,"reserved":0,"last_update":"0001-01-01T00:00:00Z","name_a2s":"Uncletopia | New York City | 1 | All Maps","protocol":17,"map":"cp_powerhouse","folder":"tf","game":"Team Fortress","app_id":440,"player_count":22,"max_players":24,"Bots":0,"server_type":"Dedicated","server_os":"Linux","password":true,"vac":true,"version":"7757534","steam_id":85568392924469993,"keywords":["cp","nocrits","nodmgspread","uncletopia"],"game_id":440,"stv_port":27016,"stv_name":"Uncletopia | New York City | 1 | All Maps | STV","players":[{"user_id":343,"name":"scooterre","steam_id":76561198055068182,"connected_time":1636000000000,"state":"active","ping":77},{"user_id":344,"name":"Back with the milk","steam_id":76561199020105501,"connected_time":1617000000000,"state":"active","ping":46},{"user_id":282,"name":"Gaia The Fierce Knight","steam_id":76561199044162625,"connected_time":7873000000000,"state":"active","ping":62},{"user_id":316,"name":"fi_ji","steam_id":76561198126087725,"connected_time":4640000000000,"state":"active","ping":58},{"user_id":322,"name":"AER0.exe","steam_id":76561198062940197,"connected_time":3340000000000,"state":"active","ping":58},{"user_id":320,"name":"muzikelretifhbr","steam_id":76561198445169719,"connected_time":3702000000000,"state":"active","ping":119},{"user_id":345,"name":"Hydroxianchaos","steam_id":76561198043786828,"connected_time":1577000000000,"state":"active","ping":52},{"user_id":271,"name":"Evan","steam_id":76561198081165364,"connected_time":9442000000000,"state":"active","ping":55},{"user_id":350,"name":"Kurt Biscuitmaker","steam_id":76561198331701823,"connected_time":56000000000,"state":"active","ping":64},{"user_id":349,"name":"swooce","steam_id":76561198156232484,"connected_time":590000000000,"state":"active","ping":50},{"user_id":205,"name":"Boasta' Berry","steam_id":76561198029015179,"connected_time":13773000000000,"state":"active","ping":115},{"user_id":342,"name":"PileofPolygons","steam_id":76561199321343460,"connected_time":1725000000000,"state":"active","ping":81},{"user_id":303,"name":"Ginger Jesus","steam_id":76561198052386458,"connected_time":6626000000000,"state":"active","ping":43},{"user_id":281,"name":"PinkLemonade","steam_id":76561198799286228,"connected_time":7974000000000,"state":"active","ping":52},{"user_id":339,"name":"rathotel","steam_id":76561198208126512,"connected_time":2164000000000,"state":"active","ping":58},{"user_id":346,"name":"ᗜˬᗜ","steam_id":76561198049076233,"connected_time":1345000000000,"state":"active","ping":67},{"user_id":347,"name":"The Chosen One","steam_id":76561199046984627,"connected_time":874000000000,"state":"active","ping":91},{"user_id":253,"name":"The Professor","steam_id":76561198113760863,"connected_time":10727000000000,"state":"active","ping":48},{"user_id":283,"name":"e0e0","steam_id":76561198293839750,"connected_time":7729000000000,"state":"active","ping":47},{"user_id":323,"name":"Slauvy","steam_id":76561198001479663,"connected_time":3336000000000,"state":"active","ping":74},{"user_id":324,"name":"Grungy_Greg","steam_id":76561198217362968,"connected_time":3336000000000,"state":"active","ping":74},{"user_id":287,"name":"CRAZY engineer","steam_id":76561198887937902,"connected_time":7406000000000,"state":"active","ping":44}]},{"server_id":14,"name":"Uncletopia | New York City | 2 | All Maps","name_short":"nyc-2","host":"nyc-1.us.uncletopia.com","port":27025,"enabled":true,"region":"us-east","cc":"us","latitude":40.73061,"longitude":-73.93524,"reserved":0,"last_update":"0001-01-01T00:00:00Z","name_a2s":"Uncletopia | New York City | 2 | All Maps","protocol":17,"map":"pl_borneo","folder":"tf","game":"Team Fortress","app_id":440,"player_count":24,"max_players":24,"Bots":0,"server_type":"Dedicated","server_os":"Linux","password":true,"vac":true,"version":"7757534","steam_id":85568392924469994,"keywords":["nocrits","nodmgspread","payload","uncletopia"],"game_id":440,"stv_port":27026,"stv_name":"Uncletopia | New York City | 2 | All Maps | STV","players":[{"user_id":542,"name":"spherewithahat","steam_id":76561199122192660,"connected_time":3402000000000,"state":"active","ping":58},{"user_id":562,"name":"Phoenix","steam_id":76561199102881717,"connected_time":1172000000000,"state":"active","ping":53},{"user_id":349,"name":"cyan","steam_id":76561198019387213,"connected_time":17119000000000,"state":"active","ping":70},{"user_id":561,"name":"smocc","steam_id":76561197993726746,"connected_time":1208000000000,"state":"active","ping":54},{"user_id":585,"name":"aeop","steam_id":76561198153671643,"connected_time":609000000000,"state":"active","ping":61},{"user_id":563,"name":"hashmap","steam_id":76561198043794014,"connected_time":1168000000000,"state":"active","ping":63},{"user_id":564,"name":"sprite","steam_id":76561199436322525,"connected_time":1131000000000,"state":"active","ping":64},{"user_id":539,"name":"The Menace 2023","steam_id":76561199197961413,"connected_time":3850000000000,"state":"active","ping":41},{"user_id":580,"name":"kallen","steam_id":76561198838043440,"connected_time":927000000000,"state":"active","ping":45},{"user_id":566,"name":"Illegal Gaming","steam_id":76561198030323714,"connected_time":1092000000000,"state":"active","ping":67},{"user_id":536,"name":"JTClaws","steam_id":76561198028228221,"connected_time":4160000000000,"state":"active","ping":57},{"user_id":588,"name":"Queen Frau the Round","steam_id":76561197999942134,"connected_time":290000000000,"state":"active","ping":64},{"user_id":589,"name":"Gigabars","steam_id":76561198119267479,"connected_time":215000000000,"state":"active","ping":82},{"user_id":567,"name":"nessie","steam_id":76561198010124074,"connected_time":1087000000000,"state":"active","ping":44},{"user_id":552,"name":"Forgotten Lands","steam_id":76561198104330300,"connected_time":2164000000000,"state":"active","ping":77},{"user_id":569,"name":"Bunny Eater","steam_id":76561198029563721,"connected_time":1038000000000,"state":"active","ping":81},{"user_id":583,"name":"CyberKing","steam_id":76561198891407538,"connected_time":727000000000,"state":"active","ping":45},{"user_id":587,"name":"[TPB] LilAwesomer","steam_id":76561198043922316,"connected_time":488000000000,"state":"active","ping":56},{"user_id":545,"name":"DaBadger","steam_id":76561198029446541,"connected_time":2925000000000,"state":"active","ping":54},{"user_id":526,"name":"[ibb™]Shadow20X6-ENGI","steam_id":76561198019292755,"connected_time":5109000000000,"state":"active","ping":129},{"user_id":575,"name":"Applesaucesomer","steam_id":76561197974760326,"connected_time":997000000000,"state":"active","ping":53},{"user_id":576,"name":"Fish_Pancake38","steam_id":76561199151900455,"connected_time":983000000000,"state":"active","ping":84},{"user_id":586,"name":"Shattered Glass","steam_id":76561198116835391,"connected_time":543000000000,"state":"active","ping":87},{"user_id":579,"name":"Biznickel","steam_id":76561199422511230,"connected_time":967000000000,"state":"active","ping":117}]},{"server_id":15,"name":"Uncletopia | New York City | 3 | Stopwatch Beta","name_short":"nyc-3","host":"nyc-1.us.uncletopia.com","port":27035,"enabled":true,"region":"us-east","cc":"us","latitude":40.73061,"longitude":-73.93524,"reserved":0,"last_update":"0001-01-01T00:00:00Z","name_a2s":"Uncletopia | New York City | 3 | Stopwatch Beta","protocol":17,"map":"workshop/cp_reckoner_rc6.ugc674719999","folder":"tf","game":"Team Fortress","app_id":440,"player_count":0,"max_players":24,"Bots":0,"server_type":"Dedicated","server_os":"Linux","password":true,"vac":true,"version":"7757534","steam_id":85568392924742820,"keywords":["cp","nocrits","nodmgspread","uncletopia"],"game_id":440,"stv_port":27036,"stv_name":"Uncletopia | New York City | 3 | Stopwatch Beta | STV","players":null},{"server_id":16,"name":"Uncletopia | New York City | 4 | Community","name_short":"nyc-4","host":"nyc-1.us.uncletopia.com","port":27045,"enabled":true,"region":"us-east","cc":"us","latitude":40.73061,"longitude":-73.93524,"reserved":0,"last_update":"0001-01-01T00:00:00Z","name_a2s":"Uncletopia | New York City | 4 | Community","protocol":17,"map":"workshop/rd_asteroid_redux_b1.ugc2154902912","folder":"tf","game":"Team Fortress","app_id":440,"player_count":24,"max_players":24,"Bots":0,"server_type":"Dedicated","server_os":"Linux","password":true,"vac":true,"version":"7757534","steam_id":85568392924742821,"keywords":["beta","nocrits","nodmgspread","rd","uncletopia"],"game_id":440,"stv_port":27046,"stv_name":"Uncletopia | New York City | 4 | Community | STV","players":[{"user_id":38,"name":"Nico","steam_id":76561198125701869,"connected_time":3149000000000,"state":"active","ping":68},{"user_id":39,"name":"King Sans","steam_id":76561198294198517,"connected_time":3131000000000,"state":"active","ping":47},{"user_id":81,"name":"Pacifist ε","steam_id":76561198094307112,"connected_time":520000000000,"state":"active","ping":67},{"user_id":80,"name":"Alex Jones","steam_id":76561198272738226,"connected_time":550000000000,"state":"active","ping":92},{"user_id":82,"name":"knightsarecool","steam_id":76561198099475644,"connected_time":513000000000,"state":"active","ping":72},{"user_id":53,"name":"prdxninja","steam_id":76561198170081774,"connected_time":1916000000000,"state":"active","ping":63},{"user_id":83,"name":"PageBoiSkull","steam_id":76561198237353578,"connected_time":505000000000,"state":"active","ping":130},{"user_id":55,"name":"NatCracken","steam_id":76561198103461530,"connected_time":1812000000000,"state":"active","ping":83},{"user_id":48,"name":"Yeehaw Cousin","steam_id":76561198010819049,"connected_time":2039000000000,"state":"active","ping":88},{"user_id":56,"name":"hd8f","steam_id":76561198987906665,"connected_time":1783000000000,"state":"active","ping":90},{"user_id":84,"name":"Lord Scrubling","steam_id":76561198263744445,"connected_time":499000000000,"state":"active","ping":79},{"user_id":58,"name":"Juan (Super Juan)","steam_id":76561198865378609,"connected_time":1717000000000,"state":"active","ping":71},{"user_id":61,"name":"Неоновые кишки","steam_id":76561198836757413,"connected_time":1663000000000,"state":"active","ping":78},{"user_id":62,"name":"pry","steam_id":76561198165940874,"connected_time":1562000000000,"state":"active","ping":107},{"user_id":63,"name":"Utensil","steam_id":76561198144017110,"connected_time":1551000000000,"state":"active","ping":80},{"user_id":77,"name":"Mohjin","steam_id":76561198300786414,"connected_time":928000000000,"state":"active","ping":89},{"user_id":65,"name":"Juneyyyy","steam_id":76561198204873099,"connected_time":1528000000000,"state":"active","ping":105},{"user_id":67,"name":"Puzzled Whale","steam_id":76561198217901072,"connected_time":1511000000000,"state":"active","ping":91},{"user_id":68,"name":"Bentry","steam_id":76561198272983431,"connected_time":1506000000000,"state":"active","ping":97},{"user_id":69,"name":"Pay Day Loans","steam_id":76561198131953087,"connected_time":1431000000000,"state":"active","ping":100},{"user_id":74,"name":"MILKCAN","steam_id":76561198832781704,"connected_time":1265000000000,"state":"active","ping":74},{"user_id":87,"name":"hunger","steam_id":76561198126656442,"connected_time":236000000000,"state":"active","ping":107},{"user_id":72,"name":"TATARA","steam_id":76561199098759517,"connected_time":1330000000000,"state":"active","ping":127},{"user_id":86,"name":"Lawnmower","steam_id":76561198186680197,"connected_time":375000000000,"state":"active","ping":104}]},{"server_id":142,"name":"Uncletopia | São Paulo | 1 | All Maps","name_short":"sao-1","host":"sao-1.br.uncletopia.com","port":27015,"enabled":true,"region":"sa","cc":"br","latitude":-23.533773,"longitude":-46.62529,"reserved":0,"last_update":"0001-01-01T00:00:00Z","name_a2s":"Uncletopia | São Paulo | 1 | All Maps","protocol":17,"map":"koth_highpass","folder":"tf","game":"Team Fortress","app_id":440,"player_count":0,"max_players":24,"Bots":0,"server_type":"Dedicated","server_os":"Linux","password":true,"vac":true,"version":"7757534","steam_id":85568392924469996,"keywords":["cp","nocrits","nodmgspread","uncletopia"],"game_id":440,"stv_port":27016,"stv_name":"Uncletopia | São Paulo | 1 | All Maps | STV","players":null},{"server_id":143,"name":"Uncletopia | São Paulo | 2 | All Maps","name_short":"sao-2","host":"sao-2.br.uncletopia.com","port":27015,"enabled":true,"region":"sa","cc":"br","latitude":-23.533773,"longitude":-46.62529,"reserved":0,"last_update":"0001-01-01T00:00:00Z","name_a2s":"Uncletopia | São Paulo | 2 | All Maps","protocol":17,"map":"koth_highpass","folder":"tf","game":"Team Fortress","app_id":440,"player_count":0,"max_players":24,"Bots":0,"server_type":"Dedicated","server_os":"Linux","password":true,"vac":true,"version":"7757534","steam_id":85568392924485349,"keywords":["cp","nocrits","nodmgspread","uncletopia"],"game_id":440,"stv_port":27016,"stv_name":"Uncletopia | São Paulo | 2 | All Maps | STV","players":null},{"server_id":7,"name":"Uncletopia | Seattle | 1 | All Maps","name_short":"sea-1","host":"sea-1.us.uncletopia.com","port":27015,"enabled":true,"region":"us-west","cc":"us","latitude":47.608013,"longitude":-122.33517,"reserved":0,"last_update":"0001-01-01T00:00:00Z","name_a2s":"Uncletopia | Seattle | 1 | All Maps","protocol":17,"map":"cp_dustbowl","folder":"tf","game":"Team Fortress","app_id":440,"player_count":24,"max_players":24,"Bots":0,"server_type":"Dedicated","server_os":"Linux","password":true,"vac":true,"version":"7757534","steam_id":85568392924469997,"keywords":["cp","nocrits","nodmgspread","uncletopia"],"game_id":440,"stv_port":27016,"stv_name":"Uncletopia | Seattle | 1 | All Maps | STV","players":[{"user_id":476,"name":"Damnation","steam_id":76561198289986814,"connected_time":2374000000000,"state":"active","ping":84},{"user_id":495,"name":"Iron Argus","steam_id":76561198181088245,"connected_time":383000000000,"state":"active","ping":120},{"user_id":493,"name":"Femboyuwu","steam_id":76561199042734489,"connected_time":748000000000,"state":"active","ping":81},{"user_id":489,"name":"Aardappel","steam_id":76561198030894676,"connected_time":982000000000,"state":"active","ping":72},{"user_id":480,"name":"mac_cheese","steam_id":76561198071334162,"connected_time":1930000000000,"state":"active","ping":45},{"user_id":496,"name":"Bane","steam_id":76561199229178323,"connected_time":338000000000,"state":"active","ping":123},{"user_id":466,"name":"Sal Vulcano","steam_id":76561198016677665,"connected_time":2883000000000,"state":"active","ping":114},{"user_id":497,"name":"Dealer","steam_id":76561198801450794,"connected_time":335000000000,"state":"active","ping":98},{"user_id":481,"name":"Mr.Thirteen","steam_id":76561198047468836,"connected_time":1929000000000,"state":"active","ping":62},{"user_id":457,"name":"kid squid","steam_id":76561198167016289,"connected_time":3354000000000,"state":"active","ping":108},{"user_id":498,"name":"ChrisUnkown","steam_id":76561199453460809,"connected_time":316000000000,"state":"active","ping":138},{"user_id":482,"name":"bullet man","steam_id":76561198080058079,"connected_time":1927000000000,"state":"active","ping":57},{"user_id":485,"name":"Lucerne★Flower","steam_id":76561198264105406,"connected_time":1671000000000,"state":"active","ping":136},{"user_id":468,"name":"eraser cat","steam_id":76561199045570463,"connected_time":2555000000000,"state":"active","ping":43},{"user_id":499,"name":"dog23","steam_id":76561198202018494,"connected_time":313000000000,"state":"active","ping":77},{"user_id":500,"name":"TurboRaspberry","steam_id":76561199215360629,"connected_time":313000000000,"state":"active","ping":52},{"user_id":426,"name":"Doinnoid","steam_id":76561198262276139,"connected_time":4717000000000,"state":"active","ping":74},{"user_id":502,"name":"WaywardFinn","steam_id":76561198040391296,"connected_time":250000000000,"state":"active","ping":136},{"user_id":503,"name":"LACTAID","steam_id":76561198276585202,"connected_time":235000000000,"state":"active","ping":82},{"user_id":475,"name":"nzippy","steam_id":76561199048618678,"connected_time":2376000000000,"state":"active","ping":46},{"user_id":453,"name":"Mignyanne :3","steam_id":76561198048754056,"connected_time":3511000000000,"state":"active","ping":68},{"user_id":487,"name":"Sam","steam_id":76561198146472900,"connected_time":1078000000000,"state":"active","ping":67},{"user_id":504,"name":"Painkiller","steam_id":76561198049787400,"connected_time":232000000000,"state":"active","ping":91},{"user_id":513,"name":"Snoogs","steam_id":76561198444880931,"connected_time":64000000000,"state":"active","ping":131}]},{"server_id":119,"name":"Uncletopia | Seattle | 2 | All Maps","name_short":"sea-2","host":"sea-1.us.uncletopia.com","port":27025,"enabled":true,"region":"us-west","cc":"us","latitude":47.608013,"longitude":-122.33517,"reserved":0,"last_update":"0001-01-01T00:00:00Z","name_a2s":"Uncletopia | Seattle | 2 | All Maps","protocol":17,"map":"pl_snowycoast","folder":"tf","game":"Team Fortress","app_id":440,"player_count":24,"max_players":24,"Bots":0,"server_type":"Dedicated","server_os":"Linux","password":true,"vac":true,"version":"7757534","steam_id":85568392924469998,"keywords":["nocrits","nodmgspread","payload","uncletopia"],"game_id":440,"stv_port":27026,"stv_name":"Uncletopia | Seattle | 2 | All Maps | STV","players":[{"user_id":354,"name":"Charles Codsworth","steam_id":76561198038976657,"connected_time":2719000000000,"state":"active","ping":88},{"user_id":334,"name":"Let's slop 'em up!","steam_id":76561198108791583,"connected_time":5343000000000,"state":"active","ping":47},{"user_id":390,"name":"MyMonkeyBaby","steam_id":76561198046896670,"connected_time":572000000000,"state":"active","ping":56},{"user_id":356,"name":"Dr. Reaper","steam_id":76561198049436290,"connected_time":2630000000000,"state":"active","ping":59},{"user_id":383,"name":"ryghehn","steam_id":76561198195359229,"connected_time":761000000000,"state":"active","ping":45},{"user_id":399,"name":"Crazy Hungarian","steam_id":76561198025498172,"connected_time":203000000000,"state":"active","ping":45},{"user_id":380,"name":"MonteJT","steam_id":76561198055409360,"connected_time":806000000000,"state":"active","ping":36},{"user_id":386,"name":"Morse","steam_id":76561198039944542,"connected_time":647000000000,"state":"active","ping":56},{"user_id":375,"name":"Nebula she/her","steam_id":76561198094306627,"connected_time":1536000000000,"state":"active","ping":79},{"user_id":358,"name":"SHADOW (he/him)","steam_id":76561198207768148,"connected_time":2601000000000,"state":"active","ping":81},{"user_id":369,"name":"ThePirateKenway","steam_id":76561198115156181,"connected_time":1736000000000,"state":"active","ping":99},{"user_id":365,"name":"chunkysquare","steam_id":76561199076468383,"connected_time":2394000000000,"state":"active","ping":67},{"user_id":394,"name":"Toa Zenith","steam_id":76561198022566753,"connected_time":501000000000,"state":"active","ping":55},{"user_id":274,"name":"The_Skull_boy","steam_id":76561198227692664,"connected_time":9799000000000,"state":"active","ping":85},{"user_id":388,"name":"Buuw","steam_id":76561198085707714,"connected_time":590000000000,"state":"active","ping":87},{"user_id":370,"name":"Dickgirl Ultra Marine","steam_id":76561198050582139,"connected_time":1724000000000,"state":"active","ping":50},{"user_id":391,"name":"run far, throw rock","steam_id":76561198110046630,"connected_time":545000000000,"state":"active","ping":104},{"user_id":378,"name":"CDMacK","steam_id":76561198043909070,"connected_time":1197000000000,"state":"active","ping":66},{"user_id":325,"name":"SadFapping","steam_id":76561198076651049,"connected_time":5939000000000,"state":"active","ping":56},{"user_id":381,"name":"EEBIGAA","steam_id":76561198056535988,"connected_time":803000000000,"state":"active","ping":66},{"user_id":392,"name":"viedoamegs","steam_id":76561198025295263,"connected_time":531000000000,"state":"active","ping":118},{"user_id":395,"name":"AstralPro","steam_id":76561198046913493,"connected_time":486000000000,"state":"active","ping":112},{"user_id":398,"name":"Cpt. Dingle","steam_id":76561198025720199,"connected_time":351000000000,"state":"active","ping":75},{"user_id":397,"name":"ilMoose","steam_id":76561198827275420,"connected_time":463000000000,"state":"active","ping":54}]},{"server_id":406,"name":"Uncletopia | Seattle | 3 | Stopwatch Beta","name_short":"sea-3","host":"sea-1.us.uncletopia.com","port":27035,"enabled":true,"region":"us-west","cc":"us","latitude":47.608013,"longitude":-122.33517,"reserved":0,"last_update":"0001-01-01T00:00:00Z","name_a2s":"Uncletopia | Seattle | 3 | Stopwatch Beta","protocol":17,"map":"pl_swiftwater_final1","folder":"tf","game":"Team Fortress","app_id":440,"player_count":1,"max_players":24,"Bots":0,"server_type":"Dedicated","server_os":"Linux","password":true,"vac":true,"version":"7757534","steam_id":85568392924515217,"keywords":["nocrits","nodmgspread","payload","uncletopia"],"game_id":440,"stv_port":27036,"stv_name":"Uncletopia | Seattle | 3 | Stopwatch Beta | STV","players":[{"user_id":13,"name":"sara","steam_id":76561198283462369,"connected_time":68000000000,"state":"spawning","ping":94}]},{"server_id":17,"name":"Uncletopia | San Francisco | 1 | All Maps","name_short":"sfo-1","host":"sfo-1.us.uncletopia.com","port":27015,"enabled":true,"region":"us-west","cc":"us","latitude":37.77397,"longitude":-122.4313,"reserved":0,"last_update":"0001-01-01T00:00:00Z","name_a2s":"Uncletopia | San Francisco | 1 | All Maps","protocol":17,"map":"cp_powerhouse","folder":"tf","game":"Team Fortress","app_id":440,"player_count":23,"max_players":24,"Bots":0,"server_type":"Dedicated","server_os":"Linux","password":true,"vac":true,"version":"7757534","steam_id":85568392924469999,"keywords":["cp","nocrits","nodmgspread","uncletopia"],"game_id":440,"stv_port":27016,"stv_name":"Uncletopia | San Francisco | 1 | All Maps | STV","players":[{"user_id":662,"name":"Purple","steam_id":76561198412639010,"connected_time":1740000000000,"state":"active","ping":58},{"user_id":629,"name":"Honda Element","steam_id":76561198086907573,"connected_time":3693000000000,"state":"active","ping":77},{"user_id":672,"name":"Nekogaming1500","steam_id":76561198979123816,"connected_time":1070000000000,"state":"active","ping":63},{"user_id":676,"name":"mrs. coffee","steam_id":76561198061236660,"connected_time":212000000000,"state":"active","ping":60},{"user_id":630,"name":"Snow","steam_id":76561198151556270,"connected_time":3689000000000,"state":"active","ping":70},{"user_id":677,"name":"GlitchGame","steam_id":76561198935134697,"connected_time":188000000000,"state":"active","ping":93},{"user_id":674,"name":"gancho","steam_id":76561198170706982,"connected_time":937000000000,"state":"active","ping":71},{"user_id":680,"name":"Gunslinger Gary","steam_id":76561198094078478,"connected_time":26000000000,"state":"active","ping":62},{"user_id":660,"name":"indyjacob","steam_id":76561198065158713,"connected_time":1806000000000,"state":"active","ping":80},{"user_id":673,"name":"level 7 firemancer","steam_id":76561198209571677,"connected_time":982000000000,"state":"active","ping":105},{"user_id":670,"name":"strawberry","steam_id":76561198101926397,"connected_time":1130000000000,"state":"active","ping":102},{"user_id":644,"name":"ribs","steam_id":76561198044018409,"connected_time":3109000000000,"state":"active","ping":84},{"user_id":678,"name":"MrLeftTurn","steam_id":76561198856743969,"connected_time":137000000000,"state":"active","ping":101},{"user_id":669,"name":"ForAPessimistImPrettyOptimistic","steam_id":76561198170128009,"connected_time":1134000000000,"state":"active","ping":55},{"user_id":651,"name":"teh mummy","steam_id":76561198044123636,"connected_time":2807000000000,"state":"active","ping":51},{"user_id":679,"name":"Team Fortress 2","steam_id":76561198334059206,"connected_time":96000000000,"state":"active","ping":56},{"user_id":594,"name":"Red Vox enjoyer","steam_id":76561198803732690,"connected_time":5992000000000,"state":"active","ping":64},{"user_id":682,"name":"dave strider","steam_id":76561198065112186,"connected_time":20000000000,"state":"spawning","ping":61},{"user_id":683,"name":"pathulhu","steam_id":76561198323941614,"connected_time":0,"state":"spawning","ping":36},{"user_id":667,"name":"BasedGod","steam_id":76561198061177973,"connected_time":1627000000000,"state":"active","ping":45},{"user_id":621,"name":"Idontknow","steam_id":76561199207044048,"connected_time":4510000000000,"state":"active","ping":104},{"user_id":542,"name":"assassincrazy18","steam_id":76561199465661561,"connected_time":9868000000000,"state":"active","ping":77},{"user_id":620,"name":"kr1tsurf3r","steam_id":76561198076402476,"connected_time":4566000000000,"state":"active","ping":66}]},{"server_id":18,"name":"Uncletopia | San Francisco | 2 | All Maps","name_short":"sfo-2","host":"sfo-1.us.uncletopia.com","port":27025,"enabled":true,"region":"us-west","cc":"us","latitude":37.77397,"longitude":-122.4313,"reserved":0,"last_update":"0001-01-01T00:00:00Z","name_a2s":"Uncletopia | San Francisco | 2 | All Maps","protocol":17,"map":"pl_barnblitz","folder":"tf","game":"Team Fortress","app_id":440,"player_count":22,"max_players":24,"Bots":0,"server_type":"Dedicated","server_os":"Linux","password":true,"vac":true,"version":"7757534","steam_id":85568392924470000,"keywords":["nocrits","nodmgspread","payload","uncletopia"],"game_id":440,"stv_port":27026,"stv_name":"Uncletopia | San Francisco | 2 | All Maps | STV","players":[{"user_id":148,"name":"the meat man","steam_id":76561198037921140,"connected_time":447000000000,"state":"active","ping":52},{"user_id":155,"name":"Hifumi Togo","steam_id":76561198074930636,"connected_time":246000000000,"state":"active","ping":90},{"user_id":156,"name":"Spoofle","steam_id":76561199003655066,"connected_time":158000000000,"state":"active","ping":55},{"user_id":134,"name":"DASmallWorlds - 大學中","steam_id":76561198139546606,"connected_time":1656000000000,"state":"active","ping":73},{"user_id":135,"name":"Underwear Monster","steam_id":76561198175742775,"connected_time":1591000000000,"state":"active","ping":104},{"user_id":150,"name":"'^ '","steam_id":76561198125261443,"connected_time":409000000000,"state":"active","ping":76},{"user_id":147,"name":"nella","steam_id":76561198079349621,"connected_time":464000000000,"state":"active","ping":64},{"user_id":153,"name":"Magician357","steam_id":76561198009308255,"connected_time":390000000000,"state":"active","ping":56},{"user_id":116,"name":"Lane","steam_id":76561197965828506,"connected_time":4915000000000,"state":"active","ping":81},{"user_id":104,"name":"horse plinko","steam_id":76561198433345421,"connected_time":5463000000000,"state":"active","ping":59},{"user_id":152,"name":"milfs hmu","steam_id":76561198123477485,"connected_time":401000000000,"state":"active","ping":48},{"user_id":85,"name":"cookypuss","steam_id":76561197961275239,"connected_time":6135000000000,"state":"active","ping":67},{"user_id":157,"name":"Butman902","steam_id":76561198190200054,"connected_time":121000000000,"state":"active","ping":102},{"user_id":139,"name":"Livin' Like Larry","steam_id":76561198313360974,"connected_time":1351000000000,"state":"active","ping":41},{"user_id":140,"name":"UFO COP","steam_id":76561198116240274,"connected_time":1342000000000,"state":"active","ping":55},{"user_id":37,"name":"Iroquois Pliskin","steam_id":76561198056704533,"connected_time":9304000000000,"state":"active","ping":72},{"user_id":142,"name":"mmmBoyo","steam_id":76561198821360261,"connected_time":1280000000000,"state":"active","ping":83},{"user_id":158,"name":"Turtle","steam_id":76561198262110064,"connected_time":120000000000,"state":"active","ping":115},{"user_id":154,"name":"wesker can hit it tbh","steam_id":76561197968351430,"connected_time":385000000000,"state":"active","ping":60},{"user_id":42,"name":"Awildrock","steam_id":76561198040401086,"connected_time":9216000000000,"state":"active","ping":98},{"user_id":129,"name":"nothowon","steam_id":76561198937601452,"connected_time":3218000000000,"state":"active","ping":114},{"user_id":114,"name":"DeckofDragons","steam_id":76561198057398213,"connected_time":5304000000000,"state":"active","ping":84}]},{"server_id":19,"name":"Uncletopia | San Francisco | 3 | Stopwatch Beta","name_short":"sfo-3","host":"sfo-1.us.uncletopia.com","port":27035,"enabled":true,"region":"us-west","cc":"us","latitude":37.77397,"longitude":-122.4313,"reserved":0,"last_update":"0001-01-01T00:00:00Z","name_a2s":"Uncletopia | San Francisco | 3 | Stopwatch Beta","protocol":17,"map":"koth_viaduct","folder":"tf","game":"Team Fortress","app_id":440,"player_count":0,"max_players":24,"Bots":0,"server_type":"Dedicated","server_os":"Linux","password":true,"vac":true,"version":"7757534","steam_id":85568392924742824,"keywords":["cp","nocrits","nodmgspread","uncletopia"],"game_id":440,"stv_port":27036,"stv_name":"Uncletopia | San Francisco | 3 | Stopwatch Beta | STV","players":null},{"server_id":20,"name":"Uncletopia | San Francisco | 4 | Community","name_short":"sfo-4","host":"sfo-1.us.uncletopia.com","port":27045,"enabled":true,"region":"us-west","cc":"us","latitude":37.77397,"longitude":-122.4313,"reserved":0,"last_update":"0001-01-01T00:00:00Z","name_a2s":"Uncletopia | San Francisco | 4 | Community","protocol":17,"map":"workshop/rd_asteroid_redux_b1.ugc2154902912","folder":"tf","game":"Team Fortress","app_id":440,"player_count":10,"max_players":24,"Bots":0,"server_type":"Dedicated","server_os":"Linux","password":true,"vac":true,"version":"7757534","steam_id":85568392924742826,"keywords":["beta","nocrits","nodmgspread","rd","uncletopia"],"game_id":440,"stv_port":27046,"stv_name":"Uncletopia | San Francisco | 4 | Community | STV","players":[{"user_id":433,"name":"Riot","steam_id":76561198094030665,"connected_time":1772000000000,"state":"active","ping":60},{"user_id":448,"name":"warman212","steam_id":76561198009355865,"connected_time":626000000000,"state":"active","ping":126},{"user_id":430,"name":"fukfuk the friendly dinosaur","steam_id":76561198111878431,"connected_time":1943000000000,"state":"active","ping":82},{"user_id":420,"name":"Wumbology","steam_id":76561198045252710,"connected_time":2354000000000,"state":"active","ping":81},{"user_id":442,"name":"germba","steam_id":76561198421591995,"connected_time":1140000000000,"state":"active","ping":84},{"user_id":446,"name":"Burritozilla","steam_id":76561198248008802,"connected_time":924000000000,"state":"active","ping":69},{"user_id":432,"name":"Ubuntu Phone","steam_id":76561198008110407,"connected_time":1840000000000,"state":"active","ping":91},{"user_id":447,"name":"usasan","steam_id":76561198044654399,"connected_time":916000000000,"state":"active","ping":56},{"user_id":449,"name":"DirtyDan","steam_id":76561198103631439,"connected_time":619000000000,"state":"active","ping":127},{"user_id":418,"name":"-REKT- Salty Boi","steam_id":76561198062190334,"connected_time":2418000000000,"state":"active","ping":72}]},{"server_id":141,"name":"Uncletopia | Sydney | 1 | All Maps","name_short":"syd-1","host":"syd-1.au.uncletopia.com","port":27015,"enabled":true,"region":"au","cc":"au","latitude":-33.865143,"longitude":151.2099,"reserved":0,"last_update":"0001-01-01T00:00:00Z","name_a2s":"Uncletopia | Sydney | 1 | All Maps","protocol":17,"map":"pl_upward","folder":"tf","game":"Team Fortress","app_id":440,"player_count":24,"max_players":24,"Bots":0,"server_type":"Dedicated","server_os":"Linux","password":true,"vac":true,"version":"7757534","steam_id":85568392924470001,"keywords":["nocrits","nodmgspread","payload","uncletopia"],"game_id":440,"stv_port":27016,"stv_name":"Uncletopia | Sydney | 1 | All Maps | STV","players":[{"user_id":88,"name":"grab a stubby mate","steam_id":76561198075320354,"connected_time":5018000000000,"state":"active","ping":50},{"user_id":129,"name":"Morgenstern","steam_id":76561198253080474,"connected_time":1507000000000,"state":"active","ping":67},{"user_id":146,"name":"jim :)","steam_id":76561198127508905,"connected_time":271000000000,"state":"active","ping":32},{"user_id":147,"name":"zebulon","steam_id":76561198063481761,"connected_time":252000000000,"state":"active","ping":44},{"user_id":122,"name":"Wet Wizard","steam_id":76561198277879991,"connected_time":2155000000000,"state":"active","ping":58},{"user_id":71,"name":"Wake'n'Bake'n'Make'n'Bacon","steam_id":76561198061960926,"connected_time":5966000000000,"state":"active","ping":98},{"user_id":59,"name":"Cup","steam_id":76561198038485845,"connected_time":7094000000000,"state":"active","ping":41},{"user_id":100,"name":"MikkyD","steam_id":76561198043452962,"connected_time":4266000000000,"state":"active","ping":60},{"user_id":149,"name":"Livid","steam_id":76561198060024585,"connected_time":143000000000,"state":"active","ping":42},{"user_id":109,"name":"Piklz","steam_id":76561198043384139,"connected_time":3448000000000,"state":"active","ping":55},{"user_id":115,"name":"Monad (Trans-Girl Arc)","steam_id":76561198895999428,"connected_time":2583000000000,"state":"active","ping":72},{"user_id":119,"name":"Milk Man","steam_id":76561198882677157,"connected_time":2296000000000,"state":"active","ping":55},{"user_id":131,"name":"Whyyan","steam_id":76561198123825900,"connected_time":610000000000,"state":"active","ping":65},{"user_id":102,"name":"old chunk of coal","steam_id":76561197990537324,"connected_time":3886000000000,"state":"active","ping":104},{"user_id":121,"name":"FyreFeat","steam_id":76561198068428930,"connected_time":2203000000000,"state":"active","ping":55},{"user_id":141,"name":"Aster (Morgy's Medic Girlfriend","steam_id":76561199245122695,"connected_time":398000000000,"state":"active","ping":84},{"user_id":130,"name":"Rizeo","steam_id":76561198147901488,"connected_time":1200000000000,"state":"active","ping":72},{"user_id":86,"name":"wombraider","steam_id":76561199375834537,"connected_time":5400000000000,"state":"active","ping":120},{"user_id":148,"name":"Piyo.","steam_id":76561197985114373,"connected_time":160000000000,"state":"active","ping":70},{"user_id":125,"name":"the rot consumes","steam_id":76561199445490119,"connected_time":1839000000000,"state":"active","ping":32},{"user_id":95,"name":"dingo","steam_id":76561198315774295,"connected_time":4665000000000,"state":"active","ping":61},{"user_id":96,"name":"Jetfire","steam_id":76561198047370036,"connected_time":4598000000000,"state":"active","ping":75},{"user_id":144,"name":"Sulu","steam_id":76561198298126905,"connected_time":282000000000,"state":"active","ping":63},{"user_id":150,"name":"ttv/ca7x3","steam_id":76561198181194862,"connected_time":142000000000,"state":"active","ping":58}]},{"server_id":123,"name":"Uncletopia | Sydney | 2 | All Maps","name_short":"syd-2","host":"syd-1.au.uncletopia.com","port":27025,"enabled":true,"region":"au","cc":"au","latitude":-33.865143,"longitude":151.2099,"reserved":0,"last_update":"0001-01-01T00:00:00Z","name_a2s":"Uncletopia | Sydney | 2 | All Maps","protocol":17,"map":"cp_dustbowl","folder":"tf","game":"Team Fortress","app_id":440,"player_count":15,"max_players":24,"Bots":0,"server_type":"Dedicated","server_os":"Linux","password":true,"vac":true,"version":"7757534","steam_id":85568392924470002,"keywords":["cp","nocrits","nodmgspread","uncletopia"],"game_id":440,"stv_port":27026,"stv_name":"Uncletopia | Sydney | 2 | All Maps | STV","players":[{"user_id":11,"name":"divdex","steam_id":76561198293586417,"connected_time":1006000000000,"state":"active","ping":59},{"user_id":13,"name":"A Slight Disadvantage","steam_id":76561198200067686,"connected_time":679000000000,"state":"active","ping":46},{"user_id":31,"name":"Nico","steam_id":76561198208774897,"connected_time":137000000000,"state":"active","ping":54},{"user_id":34,"name":"Bowl","steam_id":76561198345777684,"connected_time":61000000000,"state":"active","ping":60},{"user_id":21,"name":"Lego Mini-figure","steam_id":76561199435507484,"connected_time":370000000000,"state":"active","ping":368},{"user_id":18,"name":"Lickle em' Lipsons","steam_id":76561199083645515,"connected_time":423000000000,"state":"active","ping":60},{"user_id":22,"name":"Explode","steam_id":76561198114594884,"connected_time":368000000000,"state":"active","ping":83},{"user_id":23,"name":"praveus","steam_id":76561199227557263,"connected_time":344000000000,"state":"active","ping":334},{"user_id":26,"name":"Glockenspe (She/Her)","steam_id":76561199184115241,"connected_time":255000000000,"state":"active","ping":50},{"user_id":25,"name":"Locker633","steam_id":76561198132624042,"connected_time":298000000000,"state":"active","ping":84},{"user_id":28,"name":"AfroMeerkat","steam_id":76561197995499647,"connected_time":254000000000,"state":"active","ping":62},{"user_id":29,"name":"SassnCheeky","steam_id":76561197993875592,"connected_time":250000000000,"state":"active","ping":53},{"user_id":30,"name":"Ganome Chilled","steam_id":76561198064898965,"connected_time":218000000000,"state":"active","ping":87},{"user_id":32,"name":"terrablade_master","steam_id":76561198997249192,"connected_time":120000000000,"state":"active","ping":74},{"user_id":33,"name":"hive","steam_id":76561199099744527,"connected_time":118000000000,"state":"active","ping":45}]},{"server_id":395,"name":"Uncletopia | Sydney | 3 | All Maps","name_short":"syd-3","host":"syd-1.au.uncletopia.com","port":27035,"enabled":true,"region":"au","cc":"au","latitude":-33.865143,"longitude":151.2099,"reserved":0,"last_update":"0001-01-01T00:00:00Z","name_a2s":"Uncletopia | Sydney | 3 | All Maps","protocol":17,"map":"koth_viaduct","folder":"tf","game":"Team Fortress","app_id":440,"player_count":0,"max_players":24,"Bots":0,"server_type":"Dedicated","server_os":"Linux","password":true,"vac":true,"version":"7757534","steam_id":85568392925194467,"keywords":["cp","nocrits","nodmgspread","uncletopia"],"game_id":440,"stv_port":27036,"stv_name":"Uncletopia | Sydney | 3 | All Maps | STV","players":null},{"server_id":396,"name":"Uncletopia | Sydney | 4 | All Maps","name_short":"syd-4","host":"syd-1.au.uncletopia.com","port":27045,"enabled":true,"region":"au","cc":"au","latitude":-33.865143,"longitude":151.2099,"reserved":0,"last_update":"0001-01-01T00:00:00Z","name_a2s":"Uncletopia | Sydney | 4 | All Maps","protocol":17,"map":"cp_altitude","folder":"tf","game":"Team Fortress","app_id":440,"player_count":0,"max_players":24,"Bots":0,"server_type":"Dedicated","server_os":"Linux","password":true,"vac":true,"version":"7757534","steam_id":85568392925397958,"keywords":["cp","nocrits","nodmgspread","uncletopia"],"game_id":440,"stv_port":27046,"stv_name":"Uncletopia | Sydney | 4 | All Maps | STV","players":null},{"server_id":58,"name":"Uncletopia | Sydney | 5 | Stopwatch Beta","name_short":"syd-5","host":"syd-1.au.uncletopia.com","port":27055,"enabled":true,"region":"au","cc":"au","latitude":-33.865143,"longitude":151.2099,"reserved":0,"last_update":"0001-01-01T00:00:00Z","name_a2s":"Uncletopia | Sydney | 5 | Stopwatch Beta","protocol":17,"map":"pl_barnblitz","folder":"tf","game":"Team Fortress","app_id":440,"player_count":0,"max_players":24,"Bots":0,"server_type":"Dedicated","server_os":"Linux","password":true,"vac":true,"version":"7757534","steam_id":85568392925397959,"keywords":["nocrits","nodmgspread","payload","uncletopia"],"game_id":440,"stv_port":27056,"stv_name":"Uncletopia | Sydney | 5 | Stopwatch Beta | STV","players":null},{"server_id":59,"name":"Uncletopia | Sydney | 6 | Community","name_short":"syd-6","host":"syd-1.au.uncletopia.com","port":27065,"enabled":true,"region":"au","cc":"au","latitude":-33.865143,"longitude":151.2099,"reserved":0,"last_update":"0001-01-01T00:00:00Z","name_a2s":"Uncletopia | Sydney | 6 | Community","protocol":17,"map":"workshop/koth_ramjam_rc1.ugc459778887","folder":"tf","game":"Team Fortress","app_id":440,"player_count":0,"max_players":24,"Bots":0,"server_type":"Dedicated","server_os":"Linux","password":true,"vac":true,"version":"7757534","steam_id":85568392925397960,"keywords":["cp","nocrits","nodmgspread","uncletopia"],"game_id":440,"stv_port":27066,"stv_name":"Uncletopia | Sydney | 6 | Community | STV","players":null},{"server_id":49,"name":"Uncletopia | Warsaw | 1 | All Maps","name_short":"waw-1","host":"waw-1.pl.uncletopia.com","port":27015,"enabled":true,"region":"eu","cc":"pl","latitude":52.2297,"longitude":21.017532,"reserved":0,"last_update":"0001-01-01T00:00:00Z","name_a2s":"","protocol":0,"map":"","folder":"","game":"","app_id":0,"player_count":0,"max_players":0,"Bots":0,"server_type":"","server_os":"","password":false,"vac":false,"version":"","steam_id":0,"keywords":null,"game_id":0,"stv_port":0,"stv_name":"","players":null},{"server_id":50,"name":"Uncletopia | Warsaw | 2 | All Maps","name_short":"waw-2","host":"waw-1.pl.uncletopia.com","port":27025,"enabled":true,"region":"eu","cc":"pl","latitude":52.2297,"longitude":21.017532,"reserved":0,"last_update":"0001-01-01T00:00:00Z","name_a2s":"Uncletopia | Warsaw | 2 | All Maps","protocol":17,"map":"cp_dustbowl","folder":"tf","game":"Team Fortress","app_id":440,"player_count":0,"max_players":24,"Bots":0,"server_type":"Dedicated","server_os":"Linux","password":true,"vac":true,"version":"7757534","steam_id":85568392925397851,"keywords":["cp","nocrits","nodmgspread","uncletopia"],"game_id":440,"stv_port":27026,"stv_name":"Uncletopia | Warsaw | 2 | All Maps | STV","players":null},{"server_id":51,"name":"Uncletopia | Warsaw | 3 | All Maps","name_short":"waw-3","host":"waw-1.pl.uncletopia.com","port":27035,"enabled":true,"region":"eu","cc":"pl","latitude":52.2297,"longitude":21.017532,"reserved":0,"last_update":"0001-01-01T00:00:00Z","name_a2s":"Uncletopia | Warsaw | 3 | All Maps","protocol":17,"map":"pl_badwater","folder":"tf","game":"Team Fortress","app_id":440,"player_count":0,"max_players":24,"Bots":0,"server_type":"Dedicated","server_os":"Linux","password":true,"vac":true,"version":"7757534","steam_id":85568392925397852,"keywords":["nocrits","nodmgspread","payload","uncletopia"],"game_id":440,"stv_port":27036,"stv_name":"Uncletopia | Warsaw | 3 | All Maps | STV","players":null},{"server_id":52,"name":"Uncletopia | Warsaw | 4 | All Maps","name_short":"waw-4","host":"waw-1.pl.uncletopia.com","port":27045,"enabled":true,"region":"eu","cc":"pl","latitude":52.2297,"longitude":21.017532,"reserved":0,"last_update":"0001-01-01T00:00:00Z","name_a2s":"Uncletopia | Warsaw | 4 | All Maps","protocol":17,"map":"koth_highpass","folder":"tf","game":"Team Fortress","app_id":440,"player_count":0,"max_players":24,"Bots":0,"server_type":"Dedicated","server_os":"Linux","password":true,"vac":true,"version":"7757534","steam_id":85568392925397853,"keywords":["cp","nocrits","nodmgspread","uncletopia"],"game_id":440,"stv_port":27046,"stv_name":"Uncletopia | Warsaw | 4 | All Maps | STV","players":null},{"server_id":53,"name":"Uncletopia | Warsaw | 5 | Stopwatch Beta","name_short":"waw-5","host":"waw-1.pl.uncletopia.com","port":27055,"enabled":true,"region":"eu","cc":"pl","latitude":52.2297,"longitude":21.017532,"reserved":0,"last_update":"0001-01-01T00:00:00Z","name_a2s":"Uncletopia | Warsaw | 5 | Stopwatch Beta","protocol":17,"map":"pl_borneo","folder":"tf","game":"Team Fortress","app_id":440,"player_count":0,"max_players":24,"Bots":0,"server_type":"Dedicated","server_os":"Linux","password":true,"vac":true,"version":"7757534","steam_id":85568392925397854,"keywords":["nocrits","nodmgspread","payload","uncletopia"],"game_id":440,"stv_port":27056,"stv_name":"Uncletopia | Warsaw | 5 | Stopwatch Beta | STV","players":null},{"server_id":54,"name":"Uncletopia | Warsaw | 6 | Community","name_short":"waw-6","host":"waw-1.pl.uncletopia.com","port":27065,"enabled":true,"region":"eu","cc":"pl","latitude":52.2297,"longitude":21.017532,"reserved":0,"last_update":"0001-01-01T00:00:00Z","name_a2s":"Uncletopia | Warsaw | 6 | Community","protocol":17,"map":"workshop/rd_asteroid_redux_b1.ugc2154902912","folder":"tf","game":"Team Fortress","app_id":440,"player_count":0,"max_players":24,"Bots":0,"server_type":"Dedicated","server_os":"Linux","password":true,"vac":true,"version":"7757534","steam_id":85568392925397856,"keywords":["beta","nocrits","nodmgspread","rd","uncletopia"],"game_id":440,"stv_port":27066,"stv_name":"Uncletopia | Warsaw | 6 | Community | STV","players":null}]}