{"status":true,"message":"","result":[{"server_id":9,"name":"Uncletopia | Atlanta | 1 | All Maps","name_short":"atl-1","host":"atl-1.us.uncletopia.com","port":27015,"enabled":true,"region":"us-east","cc":"us","latitude":33.753746,"longitude":-84.38633,"reserved":0,"last_update":"0001-01-01T00:00:00Z","name_a2s":"Uncletopia | Atlanta | 1 | All Maps","protocol":17,"map":"pl_barnblitz","folder":"tf","game":"Team Fortress","app_id":440,"player_count":24,"max_players":24,"Bots":0,"server_type":"Dedicated","server_os":"Linux","password":true,"vac":true,"version":"7757534","steam_id":85568392924469982,"keywords":["nocrits","nodmgspread","payload","uncletopia"],"game_id":440,"stv_port":27016,"stv_name":"Uncletopia | Atlanta | 1 | All Maps | STV","players":[{"user_id":459,"name":"lu","steam_id":76561198080731872,"connected_time":368000000000,"state":"active","ping":73},{"user_id":426,"name":"BLU1 | Lav4ie they/them","steam_id":76561198825997674,"connected_time":3297000000000,"state":"active","ping":49},{"user_id":386,"name":"BLU1 | cola","steam_id":76561198374390458,"connected_time":6350000000000,"state":"active","ping":54},{"user_id":268,"name":"RED1 | eish","steam_id":76561198089463603,"connected_time":14921000000000,"state":"active","ping":123},{"user_id":438,"name":"BLU1 Save your wifi","steam_id":76561198286147372,"connected_time":2066000000000,"state":"active","ping":58},{"user_id":432,"name":"Acute Surrealism","steam_id":76561198109618175,"connected_time":2421000000000,"state":"active","ping":78},{"user_id":453,"name":"Dreszerg","steam_id":76561198838757422,"connected_time":603000000000,"state":"active","ping":82},{"user_id":445,"name":"HARRY","steam_id":76561198842067238,"connected_time":1705000000000,"state":"active","ping":63},{"user_id":429,"name":"MIA1 | TuaTooter","steam_id":76561198133033974,"connected_time":2760000000000,"state":"active","ping":85},{"user_id":435,"name":"BLU1 | Flint","steam_id":76561198066547582,"connected_time":2101000000000,"state":"active","ping":116},{"user_id":456,"name":"Ground Control to Majortom","steam_id":76561198065589126,"connected_time":582000000000,"state":"active","ping":86},{"user_id":458,"name":"no-longer-festive pork trooper","steam_id":76561198150327877,"connected_time":505000000000,"state":"active","ping":45},{"user_id":437,"name":"com lag","steam_id":76561198019019392,"connected_time":2078000000000,"state":"active","ping":65},{"user_id":452,"name":"Mage","steam_id":76561198285026879,"connected_time":874000000000,"state":"active","ping":80},{"user_id":434,"name":"BLU1 l Epifiny","steam_id":76561198027958086,"connected_time":2212000000000,"state":"active","ping":84},{"user_id":416,"name":"RED1 | Pharaxer™","steam_id":76561198051236069,"connected_time":3629000000000,"state":"active","ping":147},{"user_id":439,"name":"Al'","steam_id":76561198105420574,"connected_time":2060000000000,"state":"active","ping":70},{"user_id":412,"name":"Intro Bonito","steam_id":76561198119478838,"connected_time":3979000000000,"state":"active","ping":60},{"user_id":389,"name":"poompis","steam_id":76561198160850933,"connected_time":6211000000000,"state":"active","ping":99},{"user_id":436,"name":"Oddball","steam_id":76561198040440984,"connected_time":2090000000000,"state":"active","ping":92},{"user_id":455,"name":"ash","steam_id":76561198127890645,"connected_time":589000000000,"state":"active","ping":71},{"user_id":447,"name":"RED1 | ma0re","steam_id":76561199231971506,"connected_time":1199000000000,"state":"active","ping":58},{"user_id":390,"name":"MenacingMekhet","steam_id":76561198053165462,"connected_time":6139000000000,"state":"active","ping":67},{"user_id":441,"name":"Avizzo","steam_id":76561198127023219,"connected_time":2010000000000,"state":"active","ping":73}]},{"server_id":400,"name":"Uncletopia | Atlanta | 3 | Stopwatch Beta","name_short":"atl-3","host":"atl-1.us.uncletopia.com","port":27035,"enabled":true,"region":"us-east","cc":"us","latitude":33.753746,"longitude":-84.38633,"reserved":0,"last_update":"0001-01-01T00:00:00Z","name_a2s":"Uncletopia | Atlanta | 3 | Stopwatch Beta","protocol":17,"map":"cp_sunshine","folder":"tf","game":"Team Fortress","app_id":440,"player_count":24,"max_players":24,"Bots":0,"server_type":"Dedicated","server_os":"Linux","password":true,"vac":true,"version":"7757534","steam_id":85568392924515187,"keywords":["cp","nocrits","nodmgspread","uncletopia"],"game_id":440,"stv_port":27036,"stv_name":"Uncletopia | Atlanta | 3 | Stopwatch Beta | STV","players":[{"user_id":80,"name":"Dog","steam_id":76561197979056451,"connected_time":443000000000,"state":"active","ping":106},{"user_id":47,"name":"Goob","steam_id":76561198326469586,"connected_time":2512000000000,"state":"active","ping":92},{"user_id":82,"name":"Roberto Del Fuego","steam_id":76561198043458554,"connected_time":220000000000,"state":"active","ping":68},{"user_id":77,"name":"B.B.","steam_id":76561199149628610,"connected_time":673000000000,"state":"active","ping":60},{"user_id":52,"name":"SirDanforth","steam_id":76561198183561825,"connected_time":1655000000000,"state":"active","ping":81},{"user_id":81,"name":"Wew Lad","steam_id":76561198085646471,"connected_time":415000000000,"state":"active","ping":85},{"user_id":53,"name":"Snow","steam_id":76561198151556270,"connected_time":1461000000000,"state":"active","ping":106},{"user_id":54,"name":"Honda Element","steam_id":76561198086907573,"connected_time":1435000000000,"state":"active","ping":64},{"user_id":64,"name":"ray (the based god)","steam_id":76561198311984941,"connected_time":1060000000000,"state":"active","ping":88},{"user_id":65,"name":"OldFishPool","steam_id":76561198126632005,"connected_time":1025000000000,"state":"active","ping":76},{"user_id":63,"name":"CapnCoolaid","steam_id":76561199120332919,"connected_time":1087000000000,"state":"active","ping":101},{"user_id":58,"name":"ribs","steam_id":76561198044018409,"connected_time":1180000000000,"state":"active","ping":127},{"user_id":59,"name":"im fukin hihg","steam_id":76561198178321638,"connected_time":1179000000000,"state":"active","ping":76},{"user_id":60,"name":"[TSG] Turner's Chocolate Milk","steam_id":76561198058963288,"connected_time":1170000000000,"state":"active","ping":68},{"user_id":66,"name":"Galaxyglyder","steam_id":76561198446508006,"connected_time":1023000000000,"state":"active","ping":86},{"user_id":67,"name":"cherester","steam_id":76561198192269821,"connected_time":1016000000000,"state":"active","ping":77},{"user_id":78,"name":"PhaserLazer","steam_id":76561198407341298,"connected_time":640000000000,"state":"active","ping":90},{"user_id":69,"name":"Godfinger","steam_id":76561198426346549,"connected_time":948000000000,"state":"active","ping":49},{"user_id":83,"name":"Round King","steam_id":76561198273185290,"connected_time":215000000000,"state":"active","ping":97},{"user_id":84,"name":"Seal","steam_id":76561197970204043,"connected_time":202000000000,"state":"active","ping":103},{"user_id":72,"name":"Spraxinator","steam_id":76561199083563607,"connected_time":931000000000,"state":"active","ping":135},{"user_id":73,"name":"Draikel","steam_id":76561198029010525,"connected_time":930000000000,"state":"active","ping":134},{"user_id":86,"name":"Cyclops_672","steam_id":76561198080169497,"connected_time":97000000000,"state":"active","ping":52},{"user_id":75,"name":"Bottle","steam_id":76561198044031558,"connected_time":864000000000,"state":"active","ping":65}]},{"server_id":401,"name":"Uncletopia | Atlanta | 4 | No Payload","name_short":"atl-4","host":"atl-1.us.uncletopia.com","port":27045,"enabled":true,"region":"us-east","cc":"us","latitude":33.753746,"longitude":-84.38633,"reserved":0,"last_update":"0001-01-01T00:00:00Z","name_a2s":"Uncletopia | Atlanta | 4 | No Payload","protocol":17,"map":"pl_pier","folder":"tf","game":"Team Fortress","app_id":440,"player_count":0,"max_players":24,"Bots":0,"server_type":"Dedicated","server_os":"Linux","password":true,"vac":true,"version":"7723704","steam_id":85568392924515188,"keywords":["nocrits","nodmgspread","payload","uncletopia"],"game_id":440,"stv_port":27046,"stv_name":"Uncletopia | Atlanta | 4 | No Payload | STV","players":null},{"server_id":2,"name":"Uncletopia | Chicago | 1 | All Maps","name_short":"chi-1","host":"chi-1.us.uncletopia.com","port":27015,"enabled":true,"region":"us-central","cc":"us","latitude":41.881832,"longitude":-87.62318,"reserved":0,"last_update":"0001-01-01T00:00:00Z","name_a2s":"Uncletopia | Chicago | 1 | All Maps","protocol":17,"map":"pl_pier","folder":"tf","game":"Team Fortress","app_id":440,"player_count":24,"max_players":24,"Bots":0,"server_type":"Dedicated","server_os":"Linux","password":true,"vac":true,"version":"7757534","steam_id":85568392924469984,"keywords":["nocrits","nodmgspread","payload","uncletopia"],"game_id":440,"stv_port":27016,"stv_name":"Uncletopia | Chicago | 1 | All Maps | STV","players":[{"user_id":677,"name":"caption cool","steam_id":76561197990612056,"connected_time":36000000000,"state":"active","ping":45},{"user_id":554,"name":"Finn","steam_id":76561198179960193,"connected_time":10964000000000,"state":"active","ping":125},{"user_id":670,"name":"egg","steam_id":76561198123356212,"connected_time":1400000000000,"state":"active","ping":72},{"user_id":678,"name":"bloard","steam_id":76561198083206034,"connected_time":26000000000,"state":"active","ping":79},{"user_id":662,"name":"vcx","steam_id":76561198139371143,"connected_time":1993000000000,"state":"active","ping":61},{"user_id":637,"name":"the deadliest pyroshark","steam_id":76561198374227766,"connected_time":4390000000000,"state":"active","ping":69},{"user_id":570,"name":"Sarii","steam_id":76561199155102111,"connected_time":9652000000000,"state":"active","ping":177},{"user_id":672,"name":"Level 1 Crook","steam_id":76561198441098132,"connected_time":1248000000000,"state":"active","ping":56},{"user_id":653,"name":"richard clock","steam_id":76561198048455671,"connected_time":2747000000000,"state":"active","ping":60},{"user_id":671,"name":"Johnny Lawrence #JohnnyMaxxing","steam_id":76561199367141671,"connected_time":1330000000000,"state":"active","ping":60},{"user_id":666,"name":"Silly Scientist","steam_id":76561199199886079,"connected_time":1968000000000,"state":"active","ping":58},{"user_id":581,"name":"Astoriae!","steam_id":76561199090168858,"connected_time":9033000000000,"state":"active","ping":73},{"user_id":675,"name":"deimos","steam_id":76561198148357768,"connected_time":99000000000,"state":"active","ping":62},{"user_id":593,"name":"eWVra2Vy","steam_id":76561198453565942,"connected_time":7971000000000,"state":"active","ping":84},{"user_id":673,"name":"lil bro","steam_id":76561198031675881,"connected_time":1021000000000,"state":"active","ping":67},{"user_id":521,"name":"Lia_Rein","steam_id":76561198151569597,"connected_time":13467000000000,"state":"active","ping":144},{"user_id":658,"name":"Strike Force Lightning","steam_id":76561198271519776,"connected_time":2616000000000,"state":"active","ping":74},{"user_id":642,"name":"B45Guy","steam_id":76561198117290531,"connected_time":3934000000000,"state":"active","ping":63},{"user_id":619,"name":"Cleric","steam_id":76561198045887994,"connected_time":5659000000000,"state":"active","ping":48},{"user_id":668,"name":"HumFreY","steam_id":76561198076639682,"connected_time":1960000000000,"state":"active","ping":74},{"user_id":622,"name":"Spectatorz","steam_id":76561199103504750,"connected_time":5618000000000,"state":"active","ping":81},{"user_id":636,"name":"Crayfry","steam_id":76561198146525237,"connected_time":5132000000000,"state":"active","ping":49},{"user_id":676,"name":"Big Phony","steam_id":76561199092395311,"connected_time":99000000000,"state":"active","ping":68},{"user_id":626,"name":"capybara","steam_id":76561198798828328,"connected_time":5511000000000,"state":"active","ping":45}]},{"server_id":106,"name":"Uncletopia | Chicago | 2 | All Maps","name_short":"chi-2","host":"chi-1.us.uncletopia.com","port":27025,"enabled":true,"region":"us-central","cc":"us","latitude":41.881832,"longitude":-87.62318,"reserved":0,"last_update":"0001-01-01T00:00:00Z","name_a2s":"Uncletopia | Chicago | 2 | All Maps","protocol":17,"map":"pl_swiftwater_final1","folder":"tf","game":"Team Fortress","app_id":440,"player_count":24,"max_players":24,"Bots":0,"server_type":"Dedicated","server_os":"Linux","password":true,"vac":true,"version":"7757534","steam_id":85568392924469985,"keywords":["nocrits","nodmgspread","payload","uncletopia"],"game_id":440,"stv_port":27026,"stv_name":"Uncletopia | Chicago | 2 | All Maps | STV","players":[{"user_id":272,"name":"God of bread","steam_id":76561198373688035,"connected_time":1321000000000,"state":"active","ping":52},{"user_id":268,"name":"Spyfall","steam_id":76561198081729993,"connected_time":1519000000000,"state":"active","ping":70},{"user_id":290,"name":"$3.99 Shrimps","steam_id":76561198077272494,"connected_time":29000000000,"state":"active","ping":52},{"user_id":208,"name":"self sufficient kitten","steam_id":76561197960592612,"connected_time":4946000000000,"state":"active","ping":102},{"user_id":276,"name":"The_Quiet_One","steam_id":76561198132476501,"connected_time":707000000000,"state":"active","ping":52},{"user_id":245,"name":"twink-182","steam_id":76561198189293298,"connected_time":3377000000000,"state":"active","ping":56},{"user_id":280,"name":"Quark","steam_id":76561198328155605,"connected_time":247000000000,"state":"active","ping":59},{"user_id":263,"name":"Turtlin'","steam_id":76561198885096042,"connected_time":2266000000000,"state":"active","ping":64},{"user_id":218,"name":"trasho","steam_id":76561198066867150,"connected_time":4165000000000,"state":"active","ping":61},{"user_id":222,"name":"pathulhu","steam_id":76561198323941614,"connected_time":3975000000000,"state":"active","ping":66},{"user_id":251,"name":"MilkDust","steam_id":76561199130046427,"connected_time":2857000000000,"state":"active","ping":62},{"user_id":279,"name":"Candy Sparkles","steam_id":76561198126871264,"connected_time":257000000000,"state":"active","ping":84},{"user_id":281,"name":"maS","steam_id":76561198033846407,"connected_time":239000000000,"state":"active","ping":60},{"user_id":289,"name":"SVJ","steam_id":76561198060130406,"connected_time":131000000000,"state":"active","ping":76},{"user_id":259,"name":"Spoods","steam_id":76561198245568710,"connected_time":2759000000000,"state":"active","ping":79},{"user_id":285,"name":"Pyromanncer TF","steam_id":76561198018508494,"connected_time":217000000000,"state":"active","ping":88},{"user_id":282,"name":"LaserClaw","steam_id":76561198227648940,"connected_time":236000000000,"state":"active","ping":47},{"user_id":191,"name":"❤ Ashley ❤","steam_id":76561198056428303,"connected_time":5656000000000,"state":"active","ping":101},{"user_id":283,"name":"(TTV) The_Astrum_Guardian","steam_id":76561198130134103,"connected_time":225000000000,"state":"active","ping":80},{"user_id":284,"name":"+Regen+","steam_id":76561198121219865,"connected_time":221000000000,"state":"active","ping":161},{"user_id":286,"name":"Mancer","steam_id":76561198002825637,"connected_time":215000000000,"state":"active","ping":92},{"user_id":273,"name":"TastesLikeTriangle","steam_id":76561198109705599,"connected_time":1315000000000,"state":"active","ping":98},{"user_id":287,"name":"Jinx","steam_id":76561198010088266,"connected_time":206000000000,"state":"active","ping":98},{"user_id":288,"name":"Totes Adorbs!","steam_id":76561197994655618,"connected_time":201000000000,"state":"active","ping":73}]},{"server_id":402,"name":"Uncletopia | Chicago | 3 | All Maps","name_short":"chi-3","host":"chi-1.us.uncletopia.com","port":27035,"enabled":true,"region":"us-central","cc":"us","latitude":41.881832,"longitude":-87.62318,"reserved":0,"last_update":"0001-01-01T00:00:00Z","name_a2s":"Uncletopia | Chicago | 3 | All Maps","protocol":17,"map":"cp_dustbowl","folder":"tf","game":"Team Fortress","app_id":440,"player_count":24,"max_players":24,"Bots":0,"server_type":"Dedicated","server_os":"Linux","password":true,"vac":true,"version":"7757534","steam_id":85568392924515191,"keywords":["cp","nocrits","nodmgspread","uncletopia"],"game_id":440,"stv_port":27036,"stv_name":"Uncletopia | Chicago | 3 | All Maps | STV","players":[{"user_id":387,"name":"Null","steam_id":76561198062791227,"connected_time":1190000000000,"state":"active","ping":66},{"user_id":376,"name":"Dilly Pickles","steam_id":76561198312068499,"connected_time":1654000000000,"state":"active","ping":86},{"user_id":364,"name":"eee","steam_id":76561198006886607,"connected_time":2557000000000,"state":"active","ping":63},{"user_id":374,"name":"Crossing Jupiter","steam_id":76561198030126031,"connected_time":1723000000000,"state":"active","ping":68},{"user_id":384,"name":"JetZ","steam_id":76561199122488957,"connected_time":1361000000000,"state":"active","ping":65},{"user_id":368,"name":"Grandma Jean","steam_id":76561198077837513,"connected_time":2089000000000,"state":"active","ping":59},{"user_id":308,"name":"Luffy","steam_id":76561198120914343,"connected_time":4214000000000,"state":"active","ping":70},{"user_id":375,"name":"[S]Mr. X [No Monitor]","steam_id":76561197963746035,"connected_time":1677000000000,"state":"active","ping":105},{"user_id":366,"name":"Lawlessbacon","steam_id":76561198829997780,"connected_time":2257000000000,"state":"active","ping":70},{"user_id":369,"name":"Glanderson booper","steam_id":76561198021223747,"connected_time":1899000000000,"state":"active","ping":124},{"user_id":367,"name":"McGangBang","steam_id":76561198862379865,"connected_time":2137000000000,"state":"active","ping":57},{"user_id":394,"name":"Ivy","steam_id":76561198047758442,"connected_time":150000000000,"state":"active","ping":95},{"user_id":351,"name":"ghostyAlchemist","steam_id":76561198448078291,"connected_time":3018000000000,"state":"active","ping":73},{"user_id":391,"name":"Sunvaar","steam_id":76561198852679851,"connected_time":940000000000,"state":"active","ping":53},{"user_id":382,"name":"Feed","steam_id":76561199066148889,"connected_time":1532000000000,"state":"active","ping":68},{"user_id":344,"name":"cheese.","steam_id":76561198093688740,"connected_time":3406000000000,"state":"active","ping":76},{"user_id":371,"name":"Mr.Hands","steam_id":76561199024146278,"connected_time":1842000000000,"state":"active","ping":111},{"user_id":362,"name":"eggbert","steam_id":76561198042394402,"connected_time":2580000000000,"state":"active","ping":68},{"user_id":393,"name":"mitya.t","steam_id":76561197975079473,"connected_time":798000000000,"state":"active","ping":112},{"user_id":389,"name":"Jøēÿ","steam_id":76561198864691307,"connected_time":1049000000000,"state":"active","ping":71},{"user_id":388,"name":"tf2 gaming","steam_id":76561199155179026,"connected_time":1141000000000,"state":"active","ping":102},{"user_id":385,"name":"Kdash","steam_id":76561198043829155,"connected_time":1350000000000,"state":"active","ping":73},{"user_id":392,"name":"squaggles!","steam_id":76561197994995011,"connected_time":884000000000,"state":"active","ping":54},{"user_id":304,"name":"wroh2801","steam_id":76561199103292218,"connected_time":4319000000000,"state":"active","ping":66}]},{"server_id":403,"name":"Uncletopia | Chicago | 4 | All Maps","name_short":"chi-4","host":"chi-1.us.uncletopia.com","port":27045,"enabled":true,"region":"us-central","cc":"us","latitude":41.881832,"longitude":-87.62318,"reserved":0,"last_update":"0001-01-01T00:00:00Z","name_a2s":"Uncletopia | Chicago | 4 | All Maps","protocol":17,"map":"pl_barnblitz","folder":"tf","game":"Team Fortress","app_id":440,"player_count":23,"max_players":24,"Bots":0,"server_type":"Dedicated","server_os":"Linux","password":true,"vac":true,"version":"7757534","steam_id":85568392924515193,"keywords":["nocrits","nodmgspread","payload","uncletopia"],"game_id":440,"stv_port":27046,"stv_name":"Uncletopia | Chicago | 4 | All Maps | STV","players":[{"user_id":693,"name":"Hameas","steam_id":76561198195620918,"connected_time":1590000000000,"state":"active","ping":111},{"user_id":679,"name":"Julage","steam_id":76561198313058677,"connected_time":2111000000000,"state":"active","ping":75},{"user_id":697,"name":"BillButtLicker69","steam_id":76561198070119268,"connected_time":1086000000000,"state":"active","ping":107},{"user_id":664,"name":"Molly Wapped","steam_id":76561199014046857,"connected_time":2810000000000,"state":"active","ping":45},{"user_id":702,"name":"volta","steam_id":76561199214283884,"connected_time":431000000000,"state":"active","ping":95},{"user_id":713,"name":"scrapheap","steam_id":76561198202407087,"connected_time":73000000000,"state":"active","ping":70},{"user_id":650,"name":"Soldier Impact","steam_id":76561198157004224,"connected_time":3653000000000,"state":"active","ping":67},{"user_id":683,"name":"Isopentyl Ethanoate","steam_id":76561198116389072,"connected_time":1971000000000,"state":"active","ping":115},{"user_id":711,"name":"Wwaz","steam_id":76561198000240092,"connected_time":196000000000,"state":"active","ping":48},{"user_id":704,"name":"e","steam_id":76561198131245396,"connected_time":413000000000,"state":"active","ping":51},{"user_id":682,"name":"Casper","steam_id":76561198142131926,"connected_time":2007000000000,"state":"active","ping":89},{"user_id":706,"name":"JAke","steam_id":76561198141382684,"connected_time":384000000000,"state":"active","ping":89},{"user_id":694,"name":"Dolphiniz","steam_id":76561199093367765,"connected_time":1563000000000,"state":"active","ping":99},{"user_id":667,"name":"Do Moose go Moo?","steam_id":76561198073550620,"connected_time":2801000000000,"state":"active","ping":45},{"user_id":680,"name":"Flyingcat9000","steam_id":76561198179561797,"connected_time":2109000000000,"state":"active","ping":88},{"user_id":674,"name":"BernardBull","steam_id":76561198036138813,"connected_time":2269000000000,"state":"active","ping":86},{"user_id":708,"name":"Eric4bz","steam_id":76561198054439606,"connected_time":329000000000,"state":"active","ping":104},{"user_id":681,"name":"wcyv","steam_id":76561198956707902,"connected_time":2108000000000,"state":"active","ping":76},{"user_id":695,"name":"Not ♥ Dolphiniz ♥","steam_id":76561199111042182,"connected_time":1503000000000,"state":"active","ping":86},{"user_id":712,"name":"DJULTRA7","steam_id":76561198073265490,"connected_time":191000000000,"state":"active","ping":112},{"user_id":670,"name":"WitheringLeo","steam_id":76561198046722918,"connected_time":2725000000000,"state":"active","ping":78},{"user_id":686,"name":"Discourse","steam_id":76561198984286678,"connected_time":1809000000000,"state":"active","ping":56},{"user_id":709,"name":"Archer","steam_id":76561198132860299,"connected_time":314000000000,"state":"active","ping":58}]},{"server_id":36,"name":"Uncletopia | Chicago | 5 | All Maps","name_short":"chi-5","host":"chi-2.us.uncletopia.com","port":27015,"enabled":true,"region":"us-central","cc":"us","latitude":41.881832,"longitude":-87.62318,"reserved":0,"last_update":"0001-01-01T00:00:00Z","name_a2s":"Uncletopia | Chicago | 5 | All Maps","protocol":17,"map":"pl_pier","folder":"tf","game":"Team Fortress","app_id":440,"player_count":1,"max_players":24,"Bots":0,"server_type":"Dedicated","server_os":"Linux","password":true,"vac":true,"version":"7757534","steam_id":85568392924866362,"keywords":["nocrits","nodmgspread","payload","uncletopia"],"game_id":440,"stv_port":27016,"stv_name":"Uncletopia | Chicago | 5 | All Maps | STV","players":[{"user_id":41,"name":"ScottishScott","steam_id":76561198388864694,"connected_time":472000000000,"state":"active","ping":59}]},{"server_id":37,"name":"Uncletopia | Chicago | 6 | All Maps","name_short":"chi-6","host":"chi-2.us.uncletopia.com","port":27025,"enabled":true,"region":"us-central","cc":"us","latitude":41.881832,"longitude":-87.62318,"reserved":0,"last_update":"0001-01-01T00:00:00Z","name_a2s":"Uncletopia | Chicago | 6 | All Maps","protocol":17,"map":"koth_highpass","folder":"tf","game":"Team Fortress","app_id":440,"player_count":23,"max_players":24,"Bots":0,"server_type":"Dedicated","server_os":"Linux","password":true,"vac":true,"version":"7757534","steam_id":85568392924866363,"keywords":["cp","nocrits","nodmgspread","uncletopia"],"game_id":440,"stv_port":27026,"stv_name":"Uncletopia | Chicago | 6 | All Maps | STV","players":[{"user_id":246,"name":"droobie","steam_id":76561197991524964,"connected_time":322000000000,"state":"active","ping":59},{"user_id":228,"name":"Generic Username","steam_id":76561199054415308,"connected_time":906000000000,"state":"active","ping":79},{"user_id":252,"name":"Persona 5 Gaming","steam_id":76561198362884509,"connected_time":20000000000,"state":"active","ping":62},{"user_id":253,"name":"BuddyMocha","steam_id":76561198054654515,"connected_time":3000000000,"state":"spawning","ping":45},{"user_id":234,"name":"ouijajuice","steam_id":76561198207325057,"connected_time":829000000000,"state":"active","ping":63},{"user_id":226,"name":"LeRoy42","steam_id":76561198035591428,"connected_time":938000000000,"state":"active","ping":79},{"user_id":204,"name":"birch","steam_id":76561198054041094,"connected_time":2199000000000,"state":"active","ping":125},{"user_id":232,"name":"MagikarpEX","steam_id":76561198166172279,"connected_time":846000000000,"state":"active","ping":62},{"user_id":211,"name":"Perhaps a Slug","steam_id":76561198062956313,"connected_time":2030000000000,"state":"active","ping":75},{"user_id":251,"name":"heavyArmor","steam_id":76561198191056059,"connected_time":60000000000,"state":"active","ping":60},{"user_id":242,"name":"haydensity","steam_id":76561198000626558,"connected_time":686000000000,"state":"active","ping":69},{"user_id":233,"name":"Clanker","steam_id":76561198164315915,"connected_time":843000000000,"state":"active","ping":75},{"user_id":201,"name":"Kubloo","steam_id":76561198067391168,"connected_time":2387000000000,"state":"active","ping":59},{"user_id":179,"name":"SuperFresh","steam_id":76561198200723198,"connected_time":3786000000000,"state":"active","ping":41},{"user_id":231,"name":"ReapinRuns","steam_id":76561199356961069,"connected_time":873000000000,"state":"active","ping":87},{"user_id":235,"name":"-","steam_id":76561198021308963,"connected_time":822000000000,"state":"active","ping":64},{"user_id":240,"name":"snus lord","steam_id":76561197996568635,"connected_time":717000000000,"state":"active","ping":39},{"user_id":222,"name":"extinct111","steam_id":76561199013696367,"connected_time":1070000000000,"state":"active","ping":71},{"user_id":237,"name":"mellowhype","steam_id":76561198040675606,"connected_time":781000000000,"state":"active","ping":70},{"user_id":249,"name":"[chef] iron","steam_id":76561197970888616,"connected_time":161000000000,"state":"active","ping":44},{"user_id":239,"name":"Jagged Joker","steam_id":76561198078043022,"connected_time":756000000000,"state":"active","ping":69},{"user_id":129,"name":"majorbobfunction","steam_id":76561198042464632,"connected_time":6516000000000,"state":"active","ping":59},{"user_id":245,"name":"Puke Skyfucker","steam_id":76561198012846213,"connected_time":622000000000,"state":"active","ping":69}]},{"server_id":38,"name":"Uncletopia | Chicago | 7 | Stopwatch Beta","name_short":"chi-7","host":"chi-2.us.uncletopia.com","port":27035,"enabled":true,"region":"us-central","cc":"us","latitude":41.881832,"longitude":-87.62318,"reserved":0,"last_update":"0001-01-01T00:00:00Z","name_a2s":"Uncletopia | Chicago | 7 | Stopwatch Beta","protocol":17,"map":"workshop/koth_bagel_rc5.ugc2514036946","folder":"tf","game":"Team Fortress","app_id":440,"player_count":0,"max_players":24,"Bots":0,"server_type":"Dedicated","server_os":"Linux","password":true,"vac":true,"version":"7757534","steam_id":85568392924866364,"keywords":["cp","nocrits","nodmgspread","uncletopia"],"game_id":440,"stv_port":27036,"stv_name":"Uncletopia | Chicago | 7 | Stopwatch Beta | STV","players":null},{"server_id":39,"name":"Uncletopia | Chicago | 8 | Community","name_short":"chi-8","host":"chi-2.us.uncletopia.com","port":27045,"enabled":true,"region":"us-central","cc":"us","latitude":41.881832,"longitude":-87.62318,"reserved":0,"last_update":"0001-01-01T00:00:00Z","name_a2s":"Uncletopia | Chicago | 8 | Community","protocol":17,"map":"workshop/koth_bagel_rc5.ugc2514036946","folder":"tf","game":"Team Fortress","app_id":440,"player_count":0,"max_players":24,"Bots":0,"server_type":"Dedicated","server_os":"Linux","password":true,"vac":true,"version":"7757534","steam_id":85568392924866365,"keywords":["cp","nocrits","nodmgspread","uncletopia"],"game_id":440,"stv_port":27046,"stv_name":"Uncletopia | Chicago | 8 | Community | STV","players":null},{"server_id":8,"name":"Uncletopia | Dallas | 1 | All Maps","name_short":"dal-1","host":"dal-1.us.uncletopia.com","port":27015,"enabled":true,"region":"us-central","cc":"us","latitude":32.779167,"longitude":-96.80889,"reserved":0,"last_update":"0001-01-01T00:00:00Z","name_a2s":"Uncletopia | Dallas | 1 | All Maps","protocol":17,"map":"cp_dustbowl","folder":"tf","game":"Team Fortress","app_id":440,"player_count":23,"max_players":24,"Bots":0,"server_type":"Dedicated","server_os":"Linux","password":true,"vac":true,"version":"7757534","steam_id":85568392924469986,"keywords":["cp","nocrits","nodmgspread","uncletopia"],"game_id":440,"stv_port":27016,"stv_name":"Uncletopia | Dallas | 1 | All Maps | STV","players":[{"user_id":787,"name":"Chagalicious","steam_id":76561198044128240,"connected_time":354000000000,"state":"active","ping":54},{"user_id":723,"name":"Ozone-flavored Starburst","steam_id":76561199163688421,"connected_time":4454000000000,"state":"active","ping":79},{"user_id":794,"name":"Samsiel","steam_id":76561198094134951,"connected_time":228000000000,"state":"active","ping":100},{"user_id":793,"name":"Redd Guy","steam_id":76561198041034155,"connected_time":248000000000,"state":"active","ping":71},{"user_id":691,"name":"DeckofDragons","steam_id":76561198057398213,"connected_time":6831000000000,"state":"active","ping":68},{"user_id":783,"name":"Heartgold","steam_id":76561199062592062,"connected_time":945000000000,"state":"active","ping":92},{"user_id":776,"name":"Kirbothebrony","steam_id":76561198971911330,"connected_time":1170000000000,"state":"active","ping":70},{"user_id":790,"name":"Inadequate","steam_id":76561198108263810,"connected_time":273000000000,"state":"active","ping":107},{"user_id":795,"name":"Little Boy Two Shoes","steam_id":76561198344930443,"connected_time":195000000000,"state":"active","ping":106},{"user_id":741,"name":"bendera","steam_id":76561197965486503,"connected_time":3640000000000,"state":"active","ping":88},{"user_id":779,"name":"soup","steam_id":76561198099977572,"connected_time":1146000000000,"state":"active","ping":56},{"user_id":748,"name":"BOR XOR","steam_id":76561198063294776,"connected_time":3209000000000,"state":"active","ping":69},{"user_id":789,"name":"TOKENLIZARD","steam_id":76561198218765205,"connected_time":341000000000,"state":"active","ping":58},{"user_id":747,"name":"MR.Badatgames","steam_id":76561198820423721,"connected_time":3219000000000,"state":"active","ping":63},{"user_id":796,"name":"Bobbn","steam_id":76561198876124683,"connected_time":118000000000,"state":"active","ping":105},{"user_id":791,"name":"Zomb3Red","steam_id":76561198075677894,"connected_time":272000000000,"state":"active","ping":87},{"user_id":559,"name":"nekomancer","steam_id":76561198926092597,"connected_time":12568000000000,"state":"active","ping":113},{"user_id":784,"name":"MajorGrayson","steam_id":76561198849651106,"connected_time":451000000000,"state":"active","ping":99},{"user_id":797,"name":"akirajimbo","steam_id":76561197979960008,"connected_time":102000000000,"state":"active","ping":76},{"user_id":781,"name":"Rhutebeer","steam_id":76561198018302761,"connected_time":1128000000000,"state":"active","ping":82},{"user_id":798,"name":"LAB8","steam_id":76561198047743526,"connected_time":33000000000,"state":"active","ping":98},{"user_id":774,"name":"Nurew","steam_id":76561198052589498,"connected_time":1516000000000,"state":"active","ping":95},{"user_id":785,"name":"901 Milk","steam_id":76561198332647911,"connected_time":449000000000,"state":"active","ping":99}]},{"server_id":108,"name":"Uncletopia | Dallas | 2 | All Maps","name_short":"dal-2","host":"dal-1.us.uncletopia.com","port":27025,"enabled":true,"region":"us-central","cc":"us","latitude":32.779167,"longitude":-96.80889,"reserved":0,"last_update":"0001-01-01T00:00:00Z","name_a2s":"Uncletopia | Dallas | 2 | All Maps","protocol":17,"map":"pl_pier","folder":"tf","game":"Team Fortress","app_id":440,"player_count":18,"max_players":24,"Bots":0,"server_type":"Dedicated","server_os":"Linux","password":true,"vac":true,"version":"7757534","steam_id":85568392924469988,"keywords":["nocrits","nodmgspread","payload","uncletopia"],"game_id":440,"stv_port":27026,"stv_name":"Uncletopia | Dallas | 2 | All Maps | STV","players":[{"user_id":479,"name":"wolf cruncher","steam_id":76561198000564263,"connected_time":1851000000000,"state":"active","ping":73},{"user_id":303,"name":"lanoc","steam_id":76561198055415367,"connected_time":12977000000000,"state":"active","ping":60},{"user_id":498,"name":"hajime.oj","steam_id":76561198810946967,"connected_time":352000000000,"state":"active","ping":54},{"user_id":503,"name":"Marina","steam_id":76561198217388008,"connected_time":70000000000,"state":"active","ping":62},{"user_id":500,"name":"O bez","steam_id":76561198841579939,"connected_time":264000000000,"state":"active","ping":89},{"user_id":504,"name":"white ray","steam_id":76561198026664629,"connected_time":40000000000,"state":"active","ping":66},{"user_id":501,"name":"Venezia","steam_id":76561197994107407,"connected_time":176000000000,"state":"active","ping":96},{"user_id":502,"name":"Emma","steam_id":76561198318093783,"connected_time":133000000000,"state":"active","ping":60},{"user_id":421,"name":"AlecTheNefarious","steam_id":76561198035291230,"connected_time":5696000000000,"state":"active","ping":45},{"user_id":472,"name":"Give me the Jizzard","steam_id":76561198010019214,"connected_time":2537000000000,"state":"active","ping":66},{"user_id":487,"name":"GumZie","steam_id":76561198202584223,"connected_time":1052000000000,"state":"active","ping":67},{"user_id":492,"name":"sockman","steam_id":76561198306826566,"connected_time":951000000000,"state":"active","ping":89},{"user_id":486,"name":"TheAntiSocialButterfly","steam_id":76561198045505509,"connected_time":1074000000000,"state":"active","ping":57},{"user_id":495,"name":"engi","steam_id":76561199193020423,"connected_time":822000000000,"state":"active","ping":78},{"user_id":474,"name":"nabroleon","steam_id":76561198038080028,"connected_time":2197000000000,"state":"active","ping":74},{"user_id":489,"name":"cder3","steam_id":76561198053912703,"connected_time":1034000000000,"state":"active","ping":75},{"user_id":496,"name":"Andraw","steam_id":76561198057499385,"connected_time":684000000000,"state":"active","ping":57},{"user_id":490,"name":"Smeller","steam_id":76561198041767882,"connected_time":1013000000000,"state":"active","ping":45}]},{"server_id":5,"name":"Uncletopia | Frankfurt | 1 | All Maps","name_short":"frk-1","host":"frk-1.de.uncletopia.com","port":27015,"enabled":true,"region":"eu","cc":"de","latitude":50.110924,"longitude":8.682127,"reserved":0,"last_update":"0001-01-01T00:00:00Z","name_a2s":"Uncletopia | Frankfurt | 1 | All Maps","protocol":17,"map":"koth_viaduct","folder":"tf","game":"Team Fortress","app_id":440,"player_count":0,"max_players":24,"Bots":0,"server_type":"Dedicated","server_os":"Linux","password":true,"vac":true,"version":"7757534","steam_id":85568392924469989,"keywords":["cp","nocrits","nodmgspread","uncletopia"],"game_id":440,"stv_port":27016,"stv_name":"Uncletopia | Frankfurt | 1 | All Maps | STV","players":null},{"server_id":110,"name":"Uncletopia | Frankfurt | 2 | All Maps","name_short":"frk-2","host":"frk-1.de.uncletopia.com","port":27025,"enabled":true,"region":"eu","cc":"de","latitude":50.110924,"longitude":8.682127,"reserved":0,"last_update":"0001-01-01T00:00:00Z","name_a2s":"Uncletopia | Frankfurt | 2 | All Maps","protocol":17,"map":"koth_highpass","folder":"tf","game":"Team Fortress","app_id":440,"player_count":0,"max_players":24,"Bots":0,"server_type":"Dedicated","server_os":"Linux","password":true,"vac":true,"version":"7757534","steam_id":85568392924469990,"keywords":["cp","nocrits","nodmgspread","uncletopia"],"game_id":440,"stv_port":27026,"stv_name":"Uncletopia | Frankfurt | 2 | All Maps | STV","players":null},{"server_id":308,"name":"Uncletopia | Frankfurt | 3 | All Maps","name_short":"frk-3","host":"frk-1.de.uncletopia.com","port":27035,"enabled":true,"region":"eu","cc":"de","latitude":50.110924,"longitude":8.682127,"reserved":0,"last_update":"0001-01-01T00:00:00Z","name_a2s":"Uncletopia | Frankfurt | 3 | All Maps","protocol":17,"map":"pl_snowycoast","folder":"tf","game":"Team Fortress","app_id":440,"player_count":0,"max_players":24,"Bots":0,"server_type":"Dedicated","server_os":"Linux","password":true,"vac":true,"version":"7757534","steam_id":85568392924504274,"keywords":["nocrits","nodmgspread","payload","uncletopia"],"game_id":440,"stv_port":27036,"stv_name":"Uncletopia | Frankfurt | 3 | All Maps | STV","players":null},{"server_id":309,"name":"Uncletopia | Frankfurt | 4 | All Maps","name_short":"frk-4","host":"frk-1.de.uncletopia.com","port":27045,"enabled":true,"region":"eu","cc":"de","latitude":50.110924,"longitude":8.682127,"reserved":0,"last_update":"0001-01-01T00:00:00Z","name_a2s":"Uncletopia | Frankfurt | 4 | All Maps","protocol":17,"map":"koth_lakeside_final","folder":"tf","game":"Team Fortress","app_id":440,"player_count":0,"max_players":24,"Bots":0,"server_type":"Dedicated","server_os":"Linux","password":true,"vac":true,"version":"7757534","steam_id":85568392924504275,"keywords":["cp","nocrits","nodmgspread","uncletopia"],"game_id":440,"stv_port":27046,"stv_name":"Uncletopia | Frankfurt | 4 | All Maps | STV","players":null},{"server_id":310,"name":"Uncletopia | Frankfurt | 5 | All Maps","name_short":"frk-5","host":"frk-1.de.uncletopia.com","port":27055,"enabled":true,"region":"eu","cc":"de","latitude":50.110924,"longitude":8.682127,"reserved":0,"last_update":"0001-01-01T00:00:00Z","name_a2s":"Uncletopia | Frankfurt | 5 | All Maps","protocol":17,"map":"pl_swiftwater_final1","folder":"tf","game":"Team Fortress","app_id":440,"player_count":0,"max_players":24,"Bots":0,"server_type":"Dedicated","server_os":"Linux","password":true,"vac":true,"version":"7757534","steam_id":85568392924504277,"keywords":["nocrits","nodmgspread","payload","uncletopia"],"game_id":440,"stv_port":27056,"stv_name":"Uncletopia | Frankfurt | 5 | All Maps | STV","players":null},{"server_id":311,"name":"Uncletopia | Frankfurt | 6 | All Maps","name_short":"frk-6","host":"frk-1.de.uncletopia.com","port":27065,"enabled":true,"region":"eu","cc":"de","latitude":50.110924,"longitude":8.682127,"reserved":0,"last_update":"0001-01-01T00:00:00Z","name_a2s":"Uncletopia | Frankfurt | 6 | All Maps","protocol":17,"map":"koth_lakeside_final","folder":"tf","game":"Team Fortress","app_id":440,"player_count":0,"max_players":24,"Bots":0,"server_type":"Dedicated","server_os":"Linux","password":true,"vac":true,"version":"7757534","steam_id":85568392924504278,"keywords":["cp","nocrits","nodmgspread","uncletopia"],"game_id":440,"stv_port":27066,"stv_name":"Uncletopia | Frankfurt | 6 | All Maps | STV","players":null},{"server_id":23,"name":"Uncletopia | Frankfurt | 7 | Stopwatch Beta","name_short":"frk-7","host":"frk-1.de.uncletopia.com","port":27075,"enabled":true,"region":"eu","cc":"de","latitude":50.110924,"longitude":8.682127,"reserved":0,"last_update":"0001-01-01T00:00:00Z","name_a2s":"Uncletopia | Frankfurt | 7 | Stopwatch Beta","protocol":17,"map":"workshop/koth_bagel_rc5.ugc2514036946","folder":"tf","game":"Team Fortress","app_id":440,"player_count":0,"max_players":24,"Bots":0,"server_type":"Dedicated","server_os":"Linux","password":true,"vac":true,"version":"7757534","steam_id":85568392924742827,"keywords":["cp","nocrits","nodmgspread","uncletopia"],"game_id":440,"stv_port":27076,"stv_name":"Uncletopia | Frankfurt | 7 | Stopwatch Beta | STV","players":null},{"server_id":24,"name":"Uncletopia | Frankfurt | 8 | Community","name_short":"frk-8","host":"frk-1.de.uncletopia.com","port":27085,"enabled":true,"region":"eu","cc":"de","latitude":50.110924,"longitude":8.682127,"reserved":0,"last_update":"0001-01-01T00:00:00Z","name_a2s":"Uncletopia | Frankfurt | 8 | Community","protocol":17,"map":"workshop/koth_product_final.ugc454272353","folder":"tf","game":"Team Fortress","app_id":440,"player_count":0,"max_players":24,"Bots":0,"server_type":"Dedicated","server_os":"Linux","password":true,"vac":true,"version":"7757534","steam_id":85568392924742828,"keywords":["cp","nocrits","nodmgspread","uncletopia"],"game_id":440,"stv_port":27086,"stv_name":"Uncletopia | Frankfurt | 8 | Community | STV","players":null},{"server_id":202,"name":"Uncletopia | Hong Kong | 1 | All Maps","name_short":"hgk-1","host":"hgk-1.hk.uncletopia.com","port":27015,"enabled":true,"region":"asia","cc":"hk","latitude":22.302711,"longitude":114.177216,"reserved":0,"last_update":"0001-01-01T00:00:00Z","name_a2s":"Uncletopia | Hong Kong | 1 | All Maps","protocol":17,"map":"pl_frontier_final","folder":"tf","game":"Team Fortress","app_id":440,"player_count":0,"max_players":24,"Bots":0,"server_type":"Dedicated","server_os":"Linux","password":true,"vac":true,"version":"7757534","steam_id":85568392924494504,"keywords":["nocrits","nodmgspread","payload","uncletopia"],"game_id":440,"stv_port":27016,"stv_name":"Uncletopia | Hong Kong | 1 | All Maps | STV","players":null},{"server_id":1,"name":"Uncletopia | Los Angeles | 1 | All Maps","name_short":"lax-1","host":"lax-1.us.uncletopia.com","port":27015,"enabled":true,"region":"us-west","cc":"us","latitude":33.94279,"longitude":-118.41004,"reserved":0,"last_update":"0001-01-01T00:00:00Z","name_a2s":"Uncletopia | Los Angeles | 1 | All Maps","protocol":17,"map":"pl_snowycoast","folder":"tf","game":"Team Fortress","app_id":440,"player_count":0,"max_players":24,"Bots":0,"server_type":"Dedicated","server_os":"Linux","password":true,"vac":true,"version":"7757534","steam_id":85568392924469991,"keywords":["nocrits","nodmgspread","payload","uncletopia"],"game_id":440,"stv_port":27016,"stv_name":"Uncletopia | Los Angeles | 1 | All Maps | STV","players":null},{"server_id":112,"name":"Uncletopia | Los Angeles | 2 | All Maps","name_short":"lax-2","host":"lax-1.us.uncletopia.com","port":27025,"enabled":true,"region":"us-west","cc":"us","latitude":33.94279,"longitude":-118.41004,"reserved":0,"last_update":"0001-01-01T00:00:00Z","name_a2s":"Uncletopia | Los Angeles | 2 | All Maps","protocol":17,"map":"pl_pier","folder":"tf","game":"Team Fortress","app_id":440,"player_count":24,"max_players":24,"Bots":0,"server_type":"Dedicated","server_os":"Linux","password":true,"vac":true,"version":"7757534","steam_id":85568392924469992,"keywords":["nocrits","nodmgspread","payload","uncletopia"],"game_id":440,"stv_port":27026,"stv_name":"Uncletopia | Los Angeles | 2 | All Maps | STV","players":[{"user_id":102,"name":"UnsettlingVoice","steam_id":76561198036614583,"connected_time":595000000000,"state":"active","ping":98},{"user_id":91,"name":"Sergeant Joker #savetf2","steam_id":76561198854616604,"connected_time":1416000000000,"state":"active","ping":120},{"user_id":88,"name":"Frazzer","steam_id":76561198088679707,"connected_time":1487000000000,"state":"active","ping":44},{"user_id":89,"name":"wait no stop dont do that","steam_id":76561199117157198,"connected_time":1486000000000,"state":"active","ping":80},{"user_id":101,"name":"walrooos","steam_id":76561198024521839,"connected_time":618000000000,"state":"active","ping":50},{"user_id":108,"name":"teh mummy","steam_id":76561198044123636,"connected_time":63000000000,"state":"active","ping":37},{"user_id":81,"name":"skittle ducks jr.","steam_id":76561198309823950,"connected_time":2437000000000,"state":"active","ping":74},{"user_id":69,"name":"phoonwax","steam_id":76561198433114405,"connected_time":3078000000000,"state":"active","ping":54},{"user_id":90,"name":"0ll0","steam_id":76561198841446030,"connected_time":1481000000000,"state":"active","ping":56},{"user_id":44,"name":"Ari","steam_id":76561198183269215,"connected_time":4649000000000,"state":"active","ping":61},{"user_id":34,"name":"Yoshimelon","steam_id":76561198253054325,"connected_time":5500000000000,"state":"active","ping":74},{"user_id":77,"name":"NeoN","steam_id":76561198117608366,"connected_time":2562000000000,"state":"active","ping":85},{"user_id":85,"name":"Delimeat","steam_id":76561198043824595,"connected_time":1506000000000,"state":"active","ping":45},{"user_id":83,"name":"nolife","steam_id":76561198414300607,"connected_time":2184000000000,"state":"active","ping":63},{"user_id":103,"name":"Rakk","steam_id":76561198855176174,"connected_time":592000000000,"state":"active","ping":52},{"user_id":61,"name":"BigBattleToaster","steam_id":76561199087551431,"connected_time":3930000000000,"state":"active","ping":100},{"user_id":100,"name":"lukamine","steam_id":76561198166827208,"connected_time":715000000000,"state":"active","ping":76},{"user_id":57,"name":"Lilly","steam_id":76561198255786125,"connected_time":4080000000000,"state":"active","ping":113},{"user_id":51,"name":"Preacher","steam_id":76561198808228080,"connected_time":4329000000000,"state":"active","ping":114},{"user_id":104,"name":"SuperEvilPasta","steam_id":76561198078258907,"connected_time":586000000000,"state":"active","ping":53},{"user_id":105,"name":"Bad Medic Buddy","steam_id":76561198093222632,"connected_time":584000000000,"state":"active","ping":118},{"user_id":59,"name":"Dark_Zombie","steam_id":76561198262352990,"connected_time":4062000000000,"state":"active","ping":94},{"user_id":106,"name":"KingSteve42","steam_id":76561198409455888,"connected_time":581000000000,"state":"active","ping":108}]},{"server_id":324,"name":"Uncletopia | Los Angeles | 3 | All Maps","name_short":"lax-3","host":"lax-1.us.uncletopia.com","port":27035,"enabled":true,"region":"us-west","cc":"us","latitude":33.94279,"longitude":-118.41004,"reserved":0,"last_update":"0001-01-01T00:00:00Z","name_a2s":"Uncletopia | Los Angeles | 3 | All Maps","protocol":17,"map":"pl_upward","folder":"tf","game":"Team Fortress","app_id":440,"player_count":22,"max_players":24,"Bots":0,"server_type":"Dedicated","server_os":"Linux","password":true,"vac":true,"version":"7757534","steam_id":85568392924510198,"keywords":["nocrits","nodmgspread","payload","uncletopia"],"game_id":440,"stv_port":27036,"stv_name":"Uncletopia | Los Angeles | 3 | All Maps | STV","players":[{"user_id":410,"name":"Pluto","steam_id":76561198012630802,"connected_time":2160000000000,"state":"active","ping":65},{"user_id":416,"name":"Crustiest_Bill","steam_id":76561198842722858,"connected_time":1388000000000,"state":"active","ping":68},{"user_id":406,"name":"Communist Party of Wutville","steam_id":76561198844003641,"connected_time":2568000000000,"state":"active","ping":57},{"user_id":417,"name":"\u003c3","steam_id":76561198196829267,"connected_time":1386000000000,"state":"active","ping":51},{"user_id":420,"name":"WaterWorks","steam_id":76561198801899310,"connected_time":1307000000000,"state":"active","ping":40},{"user_id":411,"name":"dndplayer2000","steam_id":76561199187895660,"connected_time":1761000000000,"state":"active","ping":57},{"user_id":418,"name":"Magikarp_Gamer","steam_id":76561198143910511,"connected_time":1381000000000,"state":"active","ping":81},{"user_id":430,"name":"Project 101","steam_id":76561199013370349,"connected_time":729000000000,"state":"active","ping":83},{"user_id":429,"name":"Johner","steam_id":76561199126557063,"connected_time":1068000000000,"state":"active","ping":107},{"user_id":427,"name":"Super crak 202 9","steam_id":76561199176207530,"connected_time":1122000000000,"state":"active","ping":85},{"user_id":368,"name":"Soft Fuzzy Horse","steam_id":76561198005777544,"connected_time":4998000000000,"state":"active","ping":101},{"user_id":423,"name":"Ranger Lugi","steam_id":76561198143611016,"connected_time":1292000000000,"state":"active","ping":80},{"user_id":424,"name":"EXPERIENCED INDIVIDUAL","steam_id":76561198140231083,"connected_time":1276000000000,"state":"active","ping":83},{"user_id":409,"name":"warrior","steam_id":76561198361999761,"connected_time":2215000000000,"state":"active","ping":52},{"user_id":324,"name":"Gundam Guy","steam_id":76561198178453993,"connected_time":7485000000000,"state":"active","ping":70},{"user_id":431,"name":"jawnymac","steam_id":76561198179529599,"connected_time":518000000000,"state":"active","ping":67},{"user_id":432,"name":"AndrewTateHustlersUniversity","steam_id":76561198036162718,"connected_time":479000000000,"state":"active","ping":103},{"user_id":428,"name":"oil","steam_id":76561198099980149,"connected_time":1106000000000,"state":"active","ping":47},{"user_id":380,"name":"FATHER","steam_id":76561198041308977,"connected_time":4275000000000,"state":"active","ping":69},{"user_id":385,"name":"Jax O'Gaytor","steam_id":76561198288922168,"connected_time":3438000000000,"state":"active","ping":71},{"user_id":404,"name":"CrazyM3rc","steam_id":76561199025383150,"connected_time":2628000000000,"state":"active","ping":89},{"user_id":426,"name":"byeah","steam_id":76561199229966290,"connected_time":1219000000000,"state":"active","ping":104}]},{"server_id":25,"name":"Uncletopia | Los Angeles | 4 | Stopwatch Beta","name_short":"lax-4","host":"lax-1.us.uncletopia.com","port":27045,"enabled":true,"region":"us-west","cc":"us","latitude":33.94279,"longitude":-118.41004,"reserved":0,"last_update":"0001-01-01T00:00:00Z","name_a2s":"Uncletopia | Los Angeles | 4 | Stopwatch Beta","protocol":17,"map":"koth_viaduct","folder":"tf","game":"Team Fortress","app_id":440,"player_count":0,"max_players":24,"Bots":0,"server_type":"Dedicated","server_os":"Linux","password":true,"vac":true,"version":"7757534","steam_id":85568392924510199,"keywords":["cp","nocrits","nodmgspread","uncletopia"],"game_id":440,"stv_port":27046,"stv_name":"Uncletopia | Los Angeles | 4 | Stopwatch Beta | STV","players":null},{"server_id":11,"name":"Uncletopia | London | 1 | All Maps","name_short":"lon-1","host":"lon-1.uk.uncletopia.com","port":27015,"enabled":true,"region":"eu","cc":"gb","latitude":51.509865,"longitude":-0.118092,"reserved":0,"last_update":"0001-01-01T00:00:00Z","name_a2s":"Uncletopia | London | 1 | All Maps","protocol":17,"map":"pl_borneo","folder":"tf","game":"Team Fortress","app_id":440,"player_count":0,"max_players":24,"Bots":0,"server_type":"Dedicated","server_os":"Linux","password":true,"vac":true,"version":"7757534","steam_id":85568392924367362,"keywords":["nocrits","nodmgspread","payload","uncletopia"],"game_id":440,"stv_port":27016,"stv_name":"Uncletopia | London | 1 | All Maps | STV","players":null},{"server_id":114,"name":"Uncletopia | London | 2 | All Maps","name_short":"lon-2","host":"lon-1.uk.uncletopia.com","port":27025,"enabled":true,"region":"eu","cc":"gb","latitude":51.509865,"longitude":-0.118092,"reserved":0,"last_update":"0001-01-01T00:00:00Z","name_a2s":"Uncletopia | London | 2 | All Maps","protocol":17,"map":"pl_frontier_final","folder":"tf","game":"Team Fortress","app_id":440,"player_count":0,"max_players":24,"Bots":0,"server_type":"Dedicated","server_os":"Linux","password":true,"vac":true,"version":"7757534","steam_id":85568392924470941,"keywords":["nocrits","nodmgspread","payload","uncletopia"],"game_id":440,"stv_port":27026,"stv_name":"Uncletopia | London | 2 | All Maps | STV","players":null},{"server_id":320,"name":"Uncletopia | London | 3 | All Maps","name_short":"lon-3","host":"lon-1.uk.uncletopia.com","port":27035,"enabled":true,"region":"eu","cc":"gb","latitude":51.509865,"longitude":-0.118092,"reserved":0,"last_update":"0001-01-01T00:00:00Z","name_a2s":"Uncletopia | London | 3 | All Maps","protocol":17,"map":"koth_lakeside_final","folder":"tf","game":"Team Fortress","app_id":440,"player_count":0,"max_players":24,"Bots":0,"server_type":"Dedicated","server_os":"Linux","password":true,"vac":true,"version":"7757534","steam_id":85568392924510192,"keywords":["cp","nocrits","nodmgspread","uncletopia"],"game_id":440,"stv_port":27036,"stv_name":"Uncletopia | London | 3 | All Maps | STV","players":null},{"server_id":321,"name":"Uncletopia | London | 4 | All Maps","name_short":"lon-4","host":"lon-1.uk.uncletopia.com","port":27045,"enabled":true,"region":"eu","cc":"gb","latitude":51.509865,"longitude":-0.118092,"reserved":0,"last_update":"0001-01-01T00:00:00Z","name_a2s":"Uncletopia | London | 4 | All Maps","protocol":17,"map":"pl_barnblitz","folder":"tf","game":"Team Fortress","app_id":440,"player_count":24,"max_players":24,"Bots":0,"server_type":"Dedicated","server_os":"Linux","password":true,"vac":true,"version":"7757534","steam_id":85568392924510193,"keywords":["nocrits","nodmgspread","payload","uncletopia"],"game_id":440,"stv_port":27046,"stv_name":"Uncletopia | London | 4 | All Maps | STV","players":[{"user_id":787,"name":"Gety0","steam_id":76561198044387185,"connected_time":2591000000000,"state":"active","ping":85},{"user_id":820,"name":"Mr. Fox","steam_id":76561198803610709,"connected_time":300000000000,"state":"active","ping":114},{"user_id":806,"name":"spooky man","steam_id":76561198286137382,"connected_time":1346000000000,"state":"active","ping":44},{"user_id":819,"name":"AntiVolt","steam_id":76561198108768295,"connected_time":359000000000,"state":"active","ping":75},{"user_id":782,"name":"Tsuruko","steam_id":76561198063618114,"connected_time":2738000000000,"state":"active","ping":72},{"user_id":803,"name":"eddiehobbs","steam_id":76561198384635410,"connected_time":1616000000000,"state":"active","ping":88},{"user_id":790,"name":"Thalgorock","steam_id":76561198195315022,"connected_time":2470000000000,"state":"active","ping":79},{"user_id":788,"name":"dirty rascal","steam_id":76561198000871038,"connected_time":2584000000000,"state":"active","ping":43},{"user_id":754,"name":"Unfortunate ❤","steam_id":76561198125500777,"connected_time":4358000000000,"state":"active","ping":98},{"user_id":826,"name":"rainy day fund","steam_id":76561198357894803,"connected_time":17000000000,"state":"active","ping":96},{"user_id":816,"name":"alice","steam_id":76561198180361759,"connected_time":766000000000,"state":"active","ping":56},{"user_id":821,"name":"SLEEPY CATBOY ZZZZZ","steam_id":76561198059713483,"connected_time":288000000000,"state":"active","ping":45},{"user_id":809,"name":"E1s (Neo-Kemalist)","steam_id":76561198894958917,"connected_time":1291000000000,"state":"active","ping":48},{"user_id":796,"name":"MS","steam_id":76561198037560108,"connected_time":2153000000000,"state":"active","ping":44},{"user_id":746,"name":"Borat","steam_id":76561198122226417,"connected_time":5316000000000,"state":"active","ping":42},{"user_id":823,"name":"Christmas Ham","steam_id":76561198119601623,"connected_time":142000000000,"state":"active","ping":53},{"user_id":805,"name":"Skeletros","steam_id":76561198130969152,"connected_time":1390000000000,"state":"active","ping":146},{"user_id":743,"name":"cinny","steam_id":76561198832112629,"connected_time":5363000000000,"state":"active","ping":81},{"user_id":810,"name":"LOLTRASHXD","steam_id":76561199103741403,"connected_time":1258000000000,"state":"active","ping":98},{"user_id":777,"name":"Kris","steam_id":76561198240638652,"connected_time":2978000000000,"state":"active","ping":43},{"user_id":779,"name":"SuperBob103","steam_id":76561199175360012,"connected_time":2957000000000,"state":"active","ping":48},{"user_id":824,"name":"Smeelio","steam_id":76561198079480058,"connected_time":131000000000,"state":"active","ping":42},{"user_id":812,"name":"BurningMudd","steam_id":76561199469224286,"connected_time":1135000000000,"state":"active","ping":166},{"user_id":814,"name":"ORISHINGGG","steam_id":76561198238112744,"connected_time":1008000000000,"state":"active","ping":93}]},{"server_id":21,"name":"Uncletopia | London | 5 | All Maps","name_short":"lon-5","host":"lon-1.uk.uncletopia.com","port":27055,"enabled":true,"region":"eu","cc":"gb","latitude":51.509865,"longitude":-0.118092,"reserved":0,"last_update":"0001-01-01T00:00:00Z","name_a2s":"Uncletopia | London | 5 | All Maps","protocol":17,"map":"cp_dustbowl","folder":"tf","game":"Team Fortress","app_id":440,"player_count":21,"max_players":24,"Bots":0,"server_type":"Dedicated","server_os":"Linux","password":true,"vac":true,"version":"7757534","steam_id":85568392924742829,"keywords":["cp","nocrits","nodmgspread","uncletopia"],"game_id":440,"stv_port":27056,"stv_name":"Uncletopia | London | 5 | All Maps | STV","players":[{"user_id":751,"name":"R A S M U S","steam_id":76561198279799226,"connected_time":7563000000000,"state":"active","ping":71},{"user_id":839,"name":"Stotty","steam_id":76561198042158211,"connected_time":112000000000,"state":"active","ping":65},{"user_id":826,"name":"Mantis Toboggan, M.D","steam_id":76561197963562704,"connected_time":1513000000000,"state":"active","ping":74},{"user_id":798,"name":"`Fox","steam_id":76561198079000692,"connected_time":3558000000000,"state":"active","ping":146},{"user_id":822,"name":"Jess","steam_id":76561198015022965,"connected_time":1724000000000,"state":"active","ping":46},{"user_id":812,"name":"Johnny Cockroach","steam_id":76561198049648277,"connected_time":2544000000000,"state":"active","ping":97},{"user_id":828,"name":"Canis[Magnus]Pectus","steam_id":76561198363775072,"connected_time":1285000000000,"state":"active","ping":136},{"user_id":787,"name":"New","steam_id":76561198402195911,"connected_time":5003000000000,"state":"active","ping":107},{"user_id":805,"name":"will pocket enemy spies","steam_id":76561198042774930,"connected_time":2769000000000,"state":"active","ping":57},{"user_id":806,"name":"DeDMeeT (Femboy Coffee)","steam_id":76561198135686475,"connected_time":2756000000000,"state":"active","ping":35},{"user_id":838,"name":"kinars","steam_id":76561198857791409,"connected_time":267000000000,"state":"active","ping":63},{"user_id":784,"name":"Femboy Foxi","steam_id":76561198108635769,"connected_time":5232000000000,"state":"active","ping":55},{"user_id":840,"name":"jasperdengode","steam_id":76561198165748156,"connected_time":50000000000,"state":"active","ping":60},{"user_id":842,"name":"Famfrit","steam_id":76561198034055703,"connected_time":5000000000,"state":"spawning","ping":34},{"user_id":810,"name":"ɘƚɒ⅃ɘƚɒ⅃ /./ =)(= \\.\\","steam_id":76561198053339372,"connected_time":2563000000000,"state":"active","ping":74},{"user_id":834,"name":"vulvor","steam_id":76561197982382171,"connected_time":687000000000,"state":"active","ping":47},{"user_id":837,"name":"kuso","steam_id":76561198058031466,"connected_time":307000000000,"state":"active","ping":71},{"user_id":835,"name":"Rem","steam_id":76561198867480648,"connected_time":519000000000,"state":"active","ping":45},{"user_id":775,"name":"Ember The Femboy","steam_id":76561198139630565,"connected_time":6546000000000,"state":"active","ping":59},{"user_id":815,"name":"Lubrsi","steam_id":76561198040208195,"connected_time":2175000000000,"state":"active","ping":49},{"user_id":818,"name":"OG Zeus","steam_id":76561198306050135,"connected_time":2082000000000,"state":"active","ping":74}]},{"server_id":22,"name":"Uncletopia | London | 6 | All Maps","name_short":"lon-6","host":"lon-1.uk.uncletopia.com","port":27065,"enabled":true,"region":"eu","cc":"gb","latitude":51.509865,"longitude":-0.118092,"reserved":0,"last_update":"0001-01-01T00:00:00Z","name_a2s":"Uncletopia | London | 6 | All Maps","protocol":17,"map":"koth_cascade","folder":"tf","game":"Team Fortress","app_id":440,"player_count":0,"max_players":24,"Bots":0,"server_type":"Dedicated","server_os":"Linux","password":true,"vac":true,"version":"7757534","steam_id":85568392924742830,"keywords":["cp","nocrits","nodmgspread","uncletopia"],"game_id":440,"stv_port":27066,"stv_name":"Uncletopia | London | 6 | All Maps | STV","players":null},{"server_id":40,"name":"Uncletopia | London | 7 | No Payload","name_short":"lon-7","host":"lon-1.uk.uncletopia.com","port":27075,"enabled":true,"region":"eu","cc":"gb","latitude":51.509865,"longitude":-0.118092,"reserved":0,"last_update":"0001-01-01T00:00:00Z","name_a2s":"Uncletopia | London | 7 | No Payload","protocol":17,"map":"koth_brazil","folder":"tf","game":"Team Fortress","app_id":440,"player_count":0,"max_players":24,"Bots":0,"server_type":"Dedicated","server_os":"Linux","password":true,"vac":true,"version":"7757534","steam_id":85568392924964314,"keywords":["cp","nocrits","nodmgspread","uncletopia"],"game_id":440,"stv_port":27076,"stv_name":"Uncletopia | London | 7 | No Payload | STV","players":null},{"server_id":41,"name":"Uncletopia | London | 8 | Community","name_short":"lon-8","host":"lon-1.uk.uncletopia.com","port":27085,"enabled":true,"region":"eu","cc":"gb","latitude":51.509865,"longitude":-0.118092,"reserved":0,"last_update":"0001-01-01T00:00:00Z","name_a2s":"Uncletopia | London | 8 | Community","protocol":17,"map":"workshop/koth_product_final.ugc454272353","folder":"tf","game":"Team Fortress","app_id":440,"player_count":0,"max_players":24,"Bots":0,"server_type":"Dedicated","server_os":"Linux","password":true,"vac":true,"version":"7757534","steam_id":85568392924964315,"keywords":["cp","nocrits","nodmgspread","uncletopia"],"game_id":440,"stv_port":27086,"stv_name":"Uncletopia | London | 8 | Community | STV","players":null},{"server_id":300,"name":"Uncletopia | Montréal | 1 | All Maps","name_short":"mtl-1","host":"mtl-1.ca.uncletopia.com","port":27015,"enabled":true,"region":"us-east","cc":"ca","latitude":45.50889,"longitude":-73.56167,"reserved":0,"last_update":"0001-01-01T00:00:00Z","name_a2s":"Uncletopia | Montréal | 1 | All Maps","protocol":17,"map":"koth_cascade","folder":"tf","game":"Team Fortress","app_id":440,"player_count":0,"max_players":24,"Bots":0,"server_type":"Dedicated","server_os":"Linux","password":true,"vac":true,"version":"7757534","steam_id":85568392924500087,"keywords":["cp","nocrits","nodmgspread","uncletopia"],"game_id":440,"stv_port":27016,"stv_name":"Uncletopia | Montréal | 1 | All Maps | STV","players":null},{"server_id":301,"name":"Uncletopia | Montréal | 2 | All Maps","name_short":"mtl-2","host":"mtl-1.ca.uncletopia.com","port":27025,"enabled":true,"region":"us-east","cc":"ca","latitude":45.50889,"longitude":-73.56167,"reserved":0,"last_update":"0001-01-01T00:00:00Z","name_a2s":"Uncletopia | Montréal | 2 | All Maps","protocol":17,"map":"pl_upward","folder":"tf","game":"Team Fortress","app_id":440,"player_count":23,"max_players":24,"Bots":0,"server_type":"Dedicated","server_os":"Linux","password":true,"vac":true,"version":"7757534","steam_id":85568392924500088,"keywords":["nocrits","nodmgspread","payload","uncletopia"],"game_id":440,"stv_port":27026,"stv_name":"Uncletopia | Montréal | 2 | All Maps | STV","players":[{"user_id":11,"name":"dicksnip","steam_id":76561198356515396,"connected_time":1642000000000,"state":"active","ping":107},{"user_id":12,"name":"Supr","steam_id":76561198093790672,"connected_time":1404000000000,"state":"active","ping":59},{"user_id":13,"name":"CrimsonPants","steam_id":76561198011169950,"connected_time":1395000000000,"state":"active","ping":116},{"user_id":14,"name":"ProfessorCagan","steam_id":76561198141372356,"connected_time":1358000000000,"state":"active","ping":81},{"user_id":15,"name":"crabapples","steam_id":76561198075818655,"connected_time":1261000000000,"state":"active","ping":76},{"user_id":16,"name":"wildbryar","steam_id":76561198196408974,"connected_time":1257000000000,"state":"active","ping":113},{"user_id":17,"name":"butch cowboy monkey","steam_id":76561198097175164,"connected_time":1100000000000,"state":"active","ping":55},{"user_id":29,"name":"Vince","steam_id":76561197963415882,"connected_time":510000000000,"state":"active","ping":53},{"user_id":35,"name":"DO NOT call me BART SIMPSON!!","steam_id":76561198069113375,"connected_time":369000000000,"state":"active","ping":53},{"user_id":20,"name":"kametro4","steam_id":76561198835430429,"connected_time":998000000000,"state":"active","ping":72},{"user_id":21,"name":"A Duck Phone!?","steam_id":76561198044707749,"connected_time":861000000000,"state":"active","ping":56},{"user_id":22,"name":"Roll9898","steam_id":76561198066939657,"connected_time":809000000000,"state":"active","ping":88},{"user_id":23,"name":"Doppler Effect","steam_id":76561198046713998,"connected_time":768000000000,"state":"active","ping":45},{"user_id":24,"name":"TYRANSIS","steam_id":76561199003614175,"connected_time":761000000000,"state":"active","ping":115},{"user_id":25,"name":"Drae Wulf","steam_id":76561198267422906,"connected_time":757000000000,"state":"active","ping":56},{"user_id":26,"name":"Shay","steam_id":76561198108143601,"connected_time":749000000000,"state":"active","ping":58},{"user_id":27,"name":"Lore","steam_id":76561198098407538,"connected_time":653000000000,"state":"active","ping":64},{"user_id":30,"name":"Some Octopus Wizard","steam_id":76561198005470354,"connected_time":443000000000,"state":"active","ping":90},{"user_id":31,"name":"golf (backspin edition)","steam_id":76561198007464245,"connected_time":414000000000,"state":"active","ping":85},{"user_id":32,"name":"FBI","steam_id":76561199127005171,"connected_time":399000000000,"state":"active","ping":147},{"user_id":33,"name":"Dixie Nourmas","steam_id":76561198003731400,"connected_time":391000000000,"state":"active","ping":112},{"user_id":34,"name":"ramato#SaveTf2","steam_id":76561198028703754,"connected_time":380000000000,"state":"active","ping":94},{"user_id":36,"name":"Deranged_Fish","steam_id":76561198104169579,"connected_time":270000000000,"state":"active","ping":64}]},{"server_id":302,"name":"Uncletopia | Montréal | 3 | All Maps","name_short":"mtl-3","host":"mtl-1.ca.uncletopia.com","port":27035,"enabled":true,"region":"us-east","cc":"ca","latitude":45.50889,"longitude":-73.56167,"reserved":0,"last_update":"0001-01-01T00:00:00Z","name_a2s":"Uncletopia | Montréal | 3 | All Maps","protocol":17,"map":"pl_borneo","folder":"tf","game":"Team Fortress","app_id":440,"player_count":20,"max_players":24,"Bots":0,"server_type":"Dedicated","server_os":"Linux","password":true,"vac":true,"version":"7757534","steam_id":85568392924500089,"keywords":["nocrits","nodmgspread","payload","uncletopia"],"game_id":440,"stv_port":27036,"stv_name":"Uncletopia | Montréal | 3 | All Maps | STV","players":[{"user_id":432,"name":"luser","steam_id":76561199186893169,"connected_time":31000000000,"state":"active","ping":65},{"user_id":431,"name":"Aviyarn","steam_id":76561199074194652,"connected_time":65000000000,"state":"active","ping":78},{"user_id":419,"name":"M249 | Spectre","steam_id":76561198118334485,"connected_time":954000000000,"state":"active","ping":87},{"user_id":421,"name":"Glass Joe","steam_id":76561198317365741,"connected_time":613000000000,"state":"active","ping":49},{"user_id":395,"name":"TheUglyBarnacle16","steam_id":76561198326153876,"connected_time":2492000000000,"state":"active","ping":59},{"user_id":433,"name":"totally not a pile of beans","steam_id":76561198119851931,"connected_time":6000000000,"state":"spawning","ping":67},{"user_id":434,"name":"TrIcKiNgX3","steam_id":76561198243231748,"connected_time":2000000000,"state":"spawning","ping":68},{"user_id":397,"name":"LalitoTV","steam_id":76561198334302951,"connected_time":2452000000000,"state":"active","ping":115},{"user_id":412,"name":"Nahvee","steam_id":76561198119759695,"connected_time":1686000000000,"state":"active","ping":95},{"user_id":414,"name":"Brendan","steam_id":76561198041079914,"connected_time":1637000000000,"state":"active","ping":58},{"user_id":413,"name":"resh","steam_id":76561198066619792,"connected_time":1678000000000,"state":"active","ping":98},{"user_id":424,"name":"ʕ•ᴥ•ʔ the bear","steam_id":76561197989591976,"connected_time":452000000000,"state":"active","ping":67},{"user_id":399,"name":"Two-Teste Tommy","steam_id":76561198064308936,"connected_time":2394000000000,"state":"active","ping":63},{"user_id":418,"name":"logg","steam_id":76561198179595013,"connected_time":1257000000000,"state":"active","ping":58},{"user_id":428,"name":"[12V] Marv","steam_id":76561198158638384,"connected_time":112000000000,"state":"active","ping":71},{"user_id":415,"name":"Milk","steam_id":76561198175903221,"connected_time":1568000000000,"state":"active","ping":77},{"user_id":429,"name":"do you remember poptropica?","steam_id":76561199025227085,"connected_time":107000000000,"state":"active","ping":64},{"user_id":416,"name":"Tok Hakaay","steam_id":76561199311828303,"connected_time":1564000000000,"state":"active","ping":78},{"user_id":368,"name":"the nose porblem","steam_id":76561198086008437,"connected_time":5005000000000,"state":"active","ping":89},{"user_id":430,"name":"Zokie0","steam_id":76561198056035567,"connected_time":91000000000,"state":"active","ping":55}]},{"server_id":303,"name":"Uncletopia | Montréal | 4 | No Payload","name_short":"mtl-4","host":"mtl-1.ca.uncletopia.com","port":27045,"enabled":true,"region":"us-east","cc":"ca","latitude":45.50889,"longitude":-73.56167,"reserved":0,"last_update":"0001-01-01T00:00:00Z","name_a2s":"Uncletopia | Montréal | 4 | No Payload","protocol":17,"map":"koth_highpass","folder":"tf","game":"Team Fortress","app_id":440,"player_count":0,"max_players":24,"Bots":0,"server_type":"Dedicated","server_os":"Linux","password":true,"vac":true,"version":"7757534","steam_id":85568392924500090,"keywords":["cp","nocrits","nodmgspread","uncletopia"],"game_id":440,"stv_port":27046,"stv_name":"Uncletopia | Montréal | 4 | No Payload | STV","players":null},{"server_id":13,"name":"Uncletopia | New York City | 1 | All Maps","name_short":"nyc-1","host":"nyc-1.us.uncletopia.com","port":27015,"enabled":true,"region":"us-east","cc":"us","latitude":40.73061,"longitude":-73.93524,"reserved":0,"last_update":"0001-01-01T00:00:00Z","name_a2s":"Uncletopia | New York City | 1 | All Maps","protocol":17,"map":"cp_dustbowl","folder":"tf","game":"Team Fortress","app_id":440,"player_count":24,"max_players":24,"Bots":0,"server_type":"Dedicated","server_os":"Linux","password":true,"vac":true,"version":"7757534","steam_id":85568392924469993,"keywords":["cp","nocrits","nodmgspread","uncletopia"],"game_id":440,"stv_port":27016,"stv_name":"Uncletopia | New York City | 1 | All Maps | STV","players":[{"user_id":633,"name":"The_Skull_boy","steam_id":76561198227692664,"connected_time":117000000000,"state":"active","ping":122},{"user_id":631,"name":"Herr Doktor","steam_id":76561198025473302,"connected_time":179000000000,"state":"active","ping":90},{"user_id":541,"name":"PinkLemonade","steam_id":76561198799286228,"connected_time":5911000000000,"state":"active","ping":50},{"user_id":603,"name":"Walmart Employee","steam_id":76561198840373909,"connected_time":2064000000000,"state":"active","ping":100},{"user_id":605,"name":"Mario2109","steam_id":76561198431842219,"connected_time":2041000000000,"state":"active","ping":41},{"user_id":627,"name":"muzikelretifhbr","steam_id":76561198445169719,"connected_time":315000000000,"state":"active","ping":123},{"user_id":634,"name":"Squid121","steam_id":76561198038832034,"connected_time":94000000000,"state":"active","ping":121},{"user_id":589,"name":"Xavibite","steam_id":76561198209380493,"connected_time":2996000000000,"state":"active","ping":44},{"user_id":607,"name":"SnowBro","steam_id":76561198035661766,"connected_time":2004000000000,"state":"active","ping":81},{"user_id":608,"name":"killjolt","steam_id":76561198874271790,"connected_time":1982000000000,"state":"active","ping":361},{"user_id":617,"name":"Weeb_tard","steam_id":76561198220027748,"connected_time":997000000000,"state":"active","ping":355},{"user_id":618,"name":"Khallaria","steam_id":76561198000706490,"connected_time":702000000000,"state":"active","ping":132},{"user_id":624,"name":"Numanis","steam_id":76561199229661082,"connected_time":583000000000,"state":"active","ping":85},{"user_id":632,"name":"Rostovne","steam_id":76561198050293434,"connected_time":175000000000,"state":"active","ping":51},{"user_id":580,"name":"Baron von Whoopsie","steam_id":76561197996691013,"connected_time":3423000000000,"state":"active","ping":62},{"user_id":635,"name":"MitcheyHD","steam_id":76561198066489645,"connected_time":62000000000,"state":"active","ping":64},{"user_id":566,"name":"A Puppy","steam_id":76561198828184456,"connected_time":4253000000000,"state":"active","ping":48},{"user_id":616,"name":"DarrakG","steam_id":76561199000514087,"connected_time":1154000000000,"state":"active","ping":75},{"user_id":636,"name":"||:♩♩♩♪:|| Opplydead","steam_id":76561198028630334,"connected_time":55000000000,"state":"active","ping":117},{"user_id":614,"name":"The fancy pepper","steam_id":76561198111921270,"connected_time":1926000000000,"state":"active","ping":82},{"user_id":637,"name":"MONKEY EEE OOO","steam_id":76561198009409744,"connected_time":12000000000,"state":"active","ping":55},{"user_id":620,"name":"Hephaestus","steam_id":76561198236179078,"connected_time":696000000000,"state":"active","ping":168},{"user_id":613,"name":"Papa Meme a la Cream","steam_id":76561198067810973,"connected_time":1946000000000,"state":"active","ping":72},{"user_id":588,"name":"Peta","steam_id":76561198392223360,"connected_time":3066000000000,"state":"active","ping":53}]},{"server_id":14,"name":"Uncletopia | New York City | 2 | All Maps","name_short":"nyc-2","host":"nyc-1.us.uncletopia.com","port":27025,"enabled":true,"region":"us-east","cc":"us","latitude":40.73061,"longitude":-73.93524,"reserved":0,"last_update":"0001-01-01T00:00:00Z","name_a2s":"Uncletopia | New York City | 2 | All Maps","protocol":17,"map":"pl_badwater","folder":"tf","game":"Team Fortress","app_id":440,"player_count":24,"max_players":24,"Bots":0,"server_type":"Dedicated","server_os":"Linux","password":true,"vac":true,"version":"7757534","steam_id":85568392924469994,"keywords":["nocrits","nodmgspread","payload","uncletopia"],"game_id":440,"stv_port":27026,"stv_name":"Uncletopia | New York City | 2 | All Maps | STV","players":[{"user_id":128,"name":"Gram Tokers Count Doinkula","steam_id":76561198112811565,"connected_time":5157000000000,"state":"active","ping":93},{"user_id":185,"name":"Gugomo","steam_id":76561198121428316,"connected_time":224000000000,"state":"active","ping":106},{"user_id":184,"name":"Banana King","steam_id":76561198077784214,"connected_time":339000000000,"state":"active","ping":81},{"user_id":87,"name":"Benedictus9","steam_id":76561198097260672,"connected_time":8490000000000,"state":"active","ping":155},{"user_id":172,"name":"TheGrassMan (He/Him)","steam_id":76561198118984048,"connected_time":2116000000000,"state":"active","ping":68},{"user_id":174,"name":"Nic0","steam_id":76561198305690218,"connected_time":1757000000000,"state":"active","ping":59},{"user_id":123,"name":"flappyflap2","steam_id":76561198285048973,"connected_time":5662000000000,"state":"active","ping":49},{"user_id":135,"name":"potty trained","steam_id":76561198141557766,"connected_time":4938000000000,"state":"active","ping":57},{"user_id":178,"name":"Tingus Pingus","steam_id":76561198155412348,"connected_time":919000000000,"state":"active","ping":84},{"user_id":163,"name":"athletesfoot","steam_id":76561197997331867,"connected_time":3069000000000,"state":"active","ping":44},{"user_id":173,"name":"Uncle Majic the Hip Hop Magicia","steam_id":76561198107924303,"connected_time":2111000000000,"state":"active","ping":56},{"user_id":179,"name":"paxerprime","steam_id":76561198148266612,"connected_time":909000000000,"state":"active","ping":93},{"user_id":175,"name":"Jadthegamerofgames","steam_id":76561198310575719,"connected_time":1736000000000,"state":"active","ping":57},{"user_id":148,"name":"Unusual Albert","steam_id":76561198986836562,"connected_time":4267000000000,"state":"active","ping":89},{"user_id":106,"name":"Ghost","steam_id":76561198110914180,"connected_time":7376000000000,"state":"active","ping":167},{"user_id":177,"name":"Ballin \u0026 Can't Get Up","steam_id":76561198047394013,"connected_time":1215000000000,"state":"active","ping":62},{"user_id":183,"name":"Chewbacca","steam_id":76561198041927925,"connected_time":690000000000,"state":"active","ping":58},{"user_id":112,"name":"BloodAngelMutant","steam_id":76561199006378093,"connected_time":7000000000000,"state":"active","ping":84},{"user_id":159,"name":"Subway Fan","steam_id":76561198336372790,"connected_time":3473000000000,"state":"active","ping":31},{"user_id":140,"name":"PoltergussyLordoftheAsstralVoid","steam_id":76561199195004708,"connected_time":4880000000000,"state":"active","ping":119},{"user_id":150,"name":"Solaire","steam_id":76561198035762837,"connected_time":4170000000000,"state":"active","ping":89},{"user_id":181,"name":"Lichy","steam_id":76561198310682841,"connected_time":884000000000,"state":"active","ping":38},{"user_id":182,"name":"the222attacker","steam_id":76561198969690191,"connected_time":874000000000,"state":"active","ping":59},{"user_id":176,"name":"Moz73","steam_id":76561198212934737,"connected_time":1576000000000,"state":"active","ping":140}]},{"server_id":15,"name":"Uncletopia | New York City | 3 | Stopwatch Beta","name_short":"nyc-3","host":"nyc-1.us.uncletopia.com","port":27035,"enabled":true,"region":"us-east","cc":"us","latitude":40.73061,"longitude":-73.93524,"reserved":0,"last_update":"0001-01-01T00:00:00Z","name_a2s":"Uncletopia | New York City | 3 | Stopwatch Beta","protocol":17,"map":"workshop/koth_clearcut_b15.ugc2107050255","folder":"tf","game":"Team Fortress","app_id":440,"player_count":0,"max_players":24,"Bots":0,"server_type":"Dedicated","server_os":"Linux","password":true,"vac":true,"version":"7757534","steam_id":85568392924742820,"keywords":["cp","nocrits","nodmgspread","uncletopia"],"game_id":440,"stv_port":27036,"stv_name":"Uncletopia | New York City | 3 | Stopwatch Beta | STV","players":null},{"server_id":16,"name":"Uncletopia | New York City | 4 | Community","name_short":"nyc-4","host":"nyc-1.us.uncletopia.com","port":27045,"enabled":true,"region":"us-east","cc":"us","latitude":40.73061,"longitude":-73.93524,"reserved":0,"last_update":"0001-01-01T00:00:00Z","name_a2s":"Uncletopia | New York City | 4 | Community","protocol":17,"map":"workshop/cp_overgrown_rc7b.ugc503939302","folder":"tf","game":"Team Fortress","app_id":440,"player_count":0,"max_players":24,"Bots":0,"server_type":"Dedicated","server_os":"Linux","password":true,"vac":true,"version":"7757534","steam_id":85568392924742821,"keywords":["cp","nocrits","nodmgspread","uncletopia"],"game_id":440,"stv_port":27046,"stv_name":"Uncletopia | New York City | 4 | Community | STV","players":null},{"server_id":142,"name":"Uncletopia | São Paulo | 1 | All Maps","name_short":"sao-1","host":"sao-1.br.uncletopia.com","port":27015,"enabled":true,"region":"sa","cc":"br","latitude":-23.533773,"longitude":-46.62529,"reserved":0,"last_update":"0001-01-01T00:00:00Z","name_a2s":"Uncletopia | São Paulo | 1 | All Maps","protocol":17,"map":"koth_viaduct","folder":"tf","game":"Team Fortress","app_id":440,"player_count":3,"max_players":24,"Bots":0,"server_type":"Dedicated","server_os":"Linux","password":true,"vac":true,"version":"7757534","steam_id":85568392924469996,"keywords":["cp","nocrits","nodmgspread","uncletopia"],"game_id":440,"stv_port":27016,"stv_name":"Uncletopia | São Paulo | 1 | All Maps | STV","players":[{"user_id":31,"name":"Kakaroto 286","steam_id":76561199006539437,"connected_time":1979000000000,"state":"active","ping":39},{"user_id":32,"name":"Paquito","steam_id":76561198865594419,"connected_time":1828000000000,"state":"active","ping":46},{"user_id":33,"name":"Bellesi","steam_id":76561198056750369,"connected_time":1652000000000,"state":"active","ping":59}]},{"server_id":143,"name":"Uncletopia | São Paulo | 2 | All Maps","name_short":"sao-2","host":"sao-2.br.uncletopia.com","port":27015,"enabled":true,"region":"sa","cc":"br","latitude":-23.533773,"longitude":-46.62529,"reserved":0,"last_update":"0001-01-01T00:00:00Z","name_a2s":"Uncletopia | São Paulo | 2 | All Maps","protocol":17,"map":"koth_lakeside_final","folder":"tf","game":"Team Fortress","app_id":440,"player_count":0,"max_players":24,"Bots":0,"server_type":"Dedicated","server_os":"Linux","password":true,"vac":true,"version":"7757534","steam_id":85568392924485349,"keywords":["cp","nocrits","nodmgspread","uncletopia"],"game_id":440,"stv_port":27016,"stv_name":"Uncletopia | São Paulo | 2 | All Maps | STV","players":null},{"server_id":7,"name":"Uncletopia | Seattle | 1 | All Maps","name_short":"sea-1","host":"sea-1.us.uncletopia.com","port":27015,"enabled":true,"region":"us-west","cc":"us","latitude":47.608013,"longitude":-122.33517,"reserved":0,"last_update":"0001-01-01T00:00:00Z","name_a2s":"Uncletopia | Seattle | 1 | All Maps","protocol":17,"map":"ctf_2fort","folder":"tf","game":"Team Fortress","app_id":440,"player_count":24,"max_players":24,"Bots":0,"server_type":"Dedicated","server_os":"Linux","password":true,"vac":true,"version":"7757534","steam_id":85568392924469997,"keywords":["ctf","nocrits","nodmgspread","uncletopia"],"game_id":440,"stv_port":27016,"stv_name":"Uncletopia | Seattle | 1 | All Maps | STV","players":[{"user_id":271,"name":"snub","steam_id":76561198312106312,"connected_time":2418000000000,"state":"active","ping":58},{"user_id":272,"name":"Jarryl97","steam_id":76561198055451373,"connected_time":2409000000000,"state":"active","ping":110},{"user_id":285,"name":"Huntsman Legend","steam_id":76561199122670387,"connected_time":1210000000000,"state":"active","ping":99},{"user_id":221,"name":"rat gets the cheese","steam_id":76561198031234032,"connected_time":6587000000000,"state":"active","ping":104},{"user_id":293,"name":"zuna","steam_id":76561199038981515,"connected_time":572000000000,"state":"active","ping":85},{"user_id":279,"name":"lavinia whately","steam_id":76561198325306660,"connected_time":2182000000000,"state":"active","ping":57},{"user_id":288,"name":"Stev the Prurient Oxymoron","steam_id":76561197999442625,"connected_time":1046000000000,"state":"active","ping":56},{"user_id":297,"name":"Vem","steam_id":76561198117273112,"connected_time":159000000000,"state":"active","ping":122},{"user_id":232,"name":"🎄AndreaJingling🎄","steam_id":76561198198658783,"connected_time":5844000000000,"state":"active","ping":62},{"user_id":274,"name":"Mr.CannibalTaco","steam_id":76561198117288713,"connected_time":2392000000000,"state":"active","ping":99},{"user_id":294,"name":"Diesel","steam_id":76561198448815852,"connected_time":523000000000,"state":"active","ping":59},{"user_id":239,"name":"Ediot","steam_id":76561199349494096,"connected_time":5243000000000,"state":"active","ping":135},{"user_id":203,"name":"ChuChu","steam_id":76561199443647976,"connected_time":9177000000000,"state":"active","ping":102},{"user_id":296,"name":"Stavbearer","steam_id":76561198345488519,"connected_time":228000000000,"state":"active","ping":62},{"user_id":280,"name":"Mothman","steam_id":76561198050672409,"connected_time":1524000000000,"state":"active","ping":87},{"user_id":260,"name":"Elias","steam_id":76561198031295139,"connected_time":3327000000000,"state":"active","ping":50},{"user_id":276,"name":"Aardappel","steam_id":76561198030894676,"connected_time":2330000000000,"state":"active","ping":74},{"user_id":295,"name":"General French","steam_id":76561198321617148,"connected_time":452000000000,"state":"active","ping":105},{"user_id":266,"name":"NASA PEEPO","steam_id":76561198024982267,"connected_time":2702000000000,"state":"active","ping":74},{"user_id":290,"name":"reem","steam_id":76561198050767193,"connected_time":793000000000,"state":"active","ping":75},{"user_id":219,"name":"young sheldon","steam_id":76561198380018244,"connected_time":7851000000000,"state":"active","ping":69},{"user_id":298,"name":"CountryBumpkin","steam_id":76561199180470175,"connected_time":38000000000,"state":"active","ping":85},{"user_id":226,"name":"Uta","steam_id":76561198271964253,"connected_time":6575000000000,"state":"active","ping":63},{"user_id":286,"name":"Asphodel","steam_id":76561198750101819,"connected_time":1209000000000,"state":"active","ping":89}]},{"server_id":119,"name":"Uncletopia | Seattle | 2 | All Maps","name_short":"sea-2","host":"sea-1.us.uncletopia.com","port":27025,"enabled":true,"region":"us-west","cc":"us","latitude":47.608013,"longitude":-122.33517,"reserved":0,"last_update":"0001-01-01T00:00:00Z","name_a2s":"Uncletopia | Seattle | 2 | All Maps","protocol":17,"map":"koth_badlands","folder":"tf","game":"Team Fortress","app_id":440,"player_count":23,"max_players":24,"Bots":0,"server_type":"Dedicated","server_os":"Linux","password":true,"vac":true,"version":"7757534","steam_id":85568392924469998,"keywords":["cp","nocrits","nodmgspread","uncletopia"],"game_id":440,"stv_port":27026,"stv_name":"Uncletopia | Seattle | 2 | All Maps | STV","players":[{"user_id":292,"name":"Rusty","steam_id":76561198055585129,"connected_time":828000000000,"state":"active","ping":45},{"user_id":284,"name":"DocDankDandy","steam_id":76561197999440195,"connected_time":1550000000000,"state":"active","ping":60},{"user_id":264,"name":"twitch.tv/ladyloki_ch","steam_id":76561198280150602,"connected_time":3168000000000,"state":"active","ping":59},{"user_id":271,"name":"MisterManne","steam_id":76561198106598600,"connected_time":2250000000000,"state":"active","ping":54},{"user_id":290,"name":"pumba","steam_id":76561198207881077,"connected_time":968000000000,"state":"active","ping":105},{"user_id":302,"name":"Yoshi62","steam_id":76561199103748704,"connected_time":124000000000,"state":"active","ping":178},{"user_id":299,"name":"Agent Q","steam_id":76561198830829003,"connected_time":234000000000,"state":"active","ping":104},{"user_id":297,"name":"weed","steam_id":76561199128192017,"connected_time":484000000000,"state":"active","ping":56},{"user_id":300,"name":"TeamLeaf","steam_id":76561198123563207,"connected_time":189000000000,"state":"active","ping":55},{"user_id":245,"name":"Mike Hawk","steam_id":76561198045053326,"connected_time":4290000000000,"state":"active","ping":45},{"user_id":244,"name":"jayeskae","steam_id":76561198144220801,"connected_time":4304000000000,"state":"active","ping":46},{"user_id":294,"name":"Moscow Medic","steam_id":76561198071040516,"connected_time":691000000000,"state":"active","ping":112},{"user_id":296,"name":"Murgatroyd","steam_id":76561198077350331,"connected_time":605000000000,"state":"active","ping":75},{"user_id":282,"name":"PopcornNinja101","steam_id":76561198330680181,"connected_time":1618000000000,"state":"active","ping":47},{"user_id":301,"name":"Jface1221","steam_id":76561198188082091,"connected_time":144000000000,"state":"active","ping":73},{"user_id":258,"name":"Elias","steam_id":76561198106431732,"connected_time":3707000000000,"state":"active","ping":102},{"user_id":279,"name":"autumnal.messenger","steam_id":76561199345816635,"connected_time":1974000000000,"state":"active","ping":74},{"user_id":263,"name":"ShidFard|RayWilliamJohnsonGamin","steam_id":76561198207800784,"connected_time":3322000000000,"state":"active","ping":44},{"user_id":303,"name":"CRUNCH crunch","steam_id":76561198323173762,"connected_time":97000000000,"state":"active","ping":129},{"user_id":283,"name":"trackpad gaming | f2p","steam_id":76561198840414371,"connected_time":1601000000000,"state":"active","ping":44},{"user_id":251,"name":"Peppy","steam_id":76561198866629645,"connected_time":3835000000000,"state":"active","ping":121},{"user_id":304,"name":"SquirrelAway™","steam_id":76561197998828619,"connected_time":89000000000,"state":"active","ping":77},{"user_id":305,"name":"Skaði","steam_id":76561198063949642,"connected_time":88000000000,"state":"active","ping":33}]},{"server_id":406,"name":"Uncletopia | Seattle | 3 | Stopwatch Beta","name_short":"sea-3","host":"sea-1.us.uncletopia.com","port":27035,"enabled":true,"region":"us-west","cc":"us","latitude":47.608013,"longitude":-122.33517,"reserved":0,"last_update":"0001-01-01T00:00:00Z","name_a2s":"Uncletopia | Seattle | 3 | Stopwatch Beta","protocol":17,"map":"pl_swiftwater_final1","folder":"tf","game":"Team Fortress","app_id":440,"player_count":0,"max_players":24,"Bots":0,"server_type":"Dedicated","server_os":"Linux","password":true,"vac":true,"version":"7757534","steam_id":85568392924515217,"keywords":["nocrits","nodmgspread","payload","uncletopia"],"game_id":440,"stv_port":27036,"stv_name":"Uncletopia | Seattle | 3 | Stopwatch Beta | STV","players":null},{"server_id":17,"name":"Uncletopia | San Francisco | 1 | All Maps","name_short":"sfo-1","host":"sfo-1.us.uncletopia.com","port":27015,"enabled":true,"region":"us-west","cc":"us","latitude":37.77397,"longitude":-122.4313,"reserved":0,"last_update":"0001-01-01T00:00:00Z","name_a2s":"Uncletopia | San Francisco | 1 | All Maps","protocol":17,"map":"cp_process_final","folder":"tf","game":"Team Fortress","app_id":440,"player_count":0,"max_players":24,"Bots":0,"server_type":"Dedicated","server_os":"Linux","password":true,"vac":true,"version":"7757534","steam_id":85568392924469999,"keywords":["cp","nocrits","nodmgspread","uncletopia"],"game_id":440,"stv_port":27016,"stv_name":"Uncletopia | San Francisco | 1 | All Maps | STV","players":null},{"server_id":18,"name":"Uncletopia | San Francisco | 2 | All Maps","name_short":"sfo-2","host":"sfo-1.us.uncletopia.com","port":27025,"enabled":true,"region":"us-west","cc":"us","latitude":37.77397,"longitude":-122.4313,"reserved":0,"last_update":"0001-01-01T00:00:00Z","name_a2s":"Uncletopia | San Francisco | 2 | All Maps","protocol":17,"map":"plr_bananabay","folder":"tf","game":"Team Fortress","app_id":440,"player_count":0,"max_players":24,"Bots":0,"server_type":"Dedicated","server_os":"Linux","password":true,"vac":true,"version":"7757534","steam_id":85568392924470000,"keywords":["nocrits","nodmgspread","payload","uncletopia"],"game_id":440,"stv_port":27026,"stv_name":"Uncletopia | San Francisco | 2 | All Maps | STV","players":null},{"server_id":19,"name":"Uncletopia | San Francisco | 3 | Stopwatch Beta","name_short":"sfo-3","host":"sfo-1.us.uncletopia.com","port":27035,"enabled":true,"region":"us-west","cc":"us","latitude":37.77397,"longitude":-122.4313,"reserved":0,"last_update":"0001-01-01T00:00:00Z","name_a2s":"Uncletopia | San Francisco | 3 | Stopwatch Beta","protocol":17,"map":"koth_viaduct","folder":"tf","game":"Team Fortress","app_id":440,"player_count":0,"max_players":24,"Bots":0,"server_type":"Dedicated","server_os":"Linux","password":true,"vac":true,"version":"7757534","steam_id":85568392924742824,"keywords":["cp","nocrits","nodmgspread","uncletopia"],"game_id":440,"stv_port":27036,"stv_name":"Uncletopia | San Francisco | 3 | Stopwatch Beta | STV","players":null},{"server_id":20,"name":"Uncletopia | San Francisco | 4 | Community","name_short":"sfo-4","host":"sfo-1.us.uncletopia.com","port":27045,"enabled":true,"region":"us-west","cc":"us","latitude":37.77397,"longitude":-122.4313,"reserved":0,"last_update":"0001-01-01T00:00:00Z","name_a2s":"Uncletopia | San Francisco | 4 | Community","protocol":17,"map":"pl_borneo","folder":"tf","game":"Team Fortress","app_id":440,"player_count":0,"max_players":24,"Bots":0,"server_type":"Dedicated","server_os":"Linux","password":true,"vac":true,"version":"7757534","steam_id":85568392924742826,"keywords":["nocrits","nodmgspread","payload","uncletopia"],"game_id":440,"stv_port":27046,"stv_name":"Uncletopia | San Francisco | 4 | Community | STV","players":null},{"server_id":141,"name":"Uncletopia | Sydney | 1 | All Maps","name_short":"syd-1","host":"syd-1.au.uncletopia.com","port":27015,"enabled":true,"region":"au","cc":"au","latitude":-33.865143,"longitude":151.2099,"reserved":0,"last_update":"0001-01-01T00:00:00Z","name_a2s":"Uncletopia | Sydney | 1 | All Maps","protocol":17,"map":"cp_snakewater_final1","folder":"tf","game":"Team Fortress","app_id":440,"player_count":12,"max_players":24,"Bots":0,"server_type":"Dedicated","server_os":"Linux","password":true,"vac":true,"version":"7757534","steam_id":85568392924470001,"keywords":["cp","nocrits","nodmgspread","uncletopia"],"game_id":440,"stv_port":27016,"stv_name":"Uncletopia | Sydney | 1 | All Maps | STV","players":[{"user_id":89,"name":"groggy gary","steam_id":76561198311152272,"connected_time":632000000000,"state":"active","ping":60},{"user_id":81,"name":"the real amity blight","steam_id":76561198324454551,"connected_time":982000000000,"state":"active","ping":59},{"user_id":68,"name":"Manic","steam_id":76561198429106085,"connected_time":1760000000000,"state":"active","ping":60},{"user_id":95,"name":"JBoss","steam_id":76561198321937857,"connected_time":63000000000,"state":"active","ping":74},{"user_id":55,"name":"Mikey","steam_id":76561198438203131,"connected_time":2384000000000,"state":"active","ping":59},{"user_id":57,"name":"Tiger_Tan","steam_id":76561198221733844,"connected_time":2308000000000,"state":"active","ping":61},{"user_id":94,"name":"dinxie","steam_id":76561199448765541,"connected_time":211000000000,"state":"active","ping":68},{"user_id":70,"name":"Rashid Of The Dank Memes","steam_id":76561198281398078,"connected_time":1536000000000,"state":"active","ping":63},{"user_id":67,"name":"ziah","steam_id":76561198159375596,"connected_time":1810000000000,"state":"active","ping":54},{"user_id":75,"name":"zebulon","steam_id":76561198063481761,"connected_time":1328000000000,"state":"active","ping":45},{"user_id":83,"name":"Owlenstein™","steam_id":76561198093983826,"connected_time":922000000000,"state":"active","ping":114},{"user_id":84,"name":"osiris","steam_id":76561198172640226,"connected_time":827000000000,"state":"active","ping":59}]},{"server_id":123,"name":"Uncletopia | Sydney | 2 | All Maps","name_short":"syd-2","host":"syd-1.au.uncletopia.com","port":27025,"enabled":true,"region":"au","cc":"au","latitude":-33.865143,"longitude":151.2099,"reserved":0,"last_update":"0001-01-01T00:00:00Z","name_a2s":"Uncletopia | Sydney | 2 | All Maps","protocol":17,"map":"koth_cascade","folder":"tf","game":"Team Fortress","app_id":440,"player_count":0,"max_players":24,"Bots":0,"server_type":"Dedicated","server_os":"Linux","password":true,"vac":true,"version":"7757534","steam_id":85568392924470002,"keywords":["cp","nocrits","nodmgspread","uncletopia"],"game_id":440,"stv_port":27026,"stv_name":"Uncletopia | Sydney | 2 | All Maps | STV","players":null},{"server_id":395,"name":"Uncletopia | Sydney | 3 | All Maps","name_short":"syd-3","host":"syd-1.au.uncletopia.com","port":27035,"enabled":true,"region":"au","cc":"au","latitude":-33.865143,"longitude":151.2099,"reserved":0,"last_update":"0001-01-01T00:00:00Z","name_a2s":"Uncletopia | Sydney | 3 | All Maps","protocol":17,"map":"koth_viaduct","folder":"tf","game":"Team Fortress","app_id":440,"player_count":0,"max_players":24,"Bots":0,"server_type":"Dedicated","server_os":"Linux","password":true,"vac":true,"version":"7757534","steam_id":85568392925194467,"keywords":["cp","nocrits","nodmgspread","uncletopia"],"game_id":440,"stv_port":27036,"stv_name":"Uncletopia | Sydney | 3 | All Maps | STV","players":null},{"server_id":396,"name":"Uncletopia | Sydney | 4 | All Maps","name_short":"syd-4","host":"syd-1.au.uncletopia.com","port":27045,"enabled":true,"region":"au","cc":"au","latitude":-33.865143,"longitude":151.2099,"reserved":0,"last_update":"0001-01-01T00:00:00Z","name_a2s":"Uncletopia | Sydney | 4 | All Maps","protocol":17,"map":"cp_snakewater_final1","folder":"tf","game":"Team Fortress","app_id":440,"player_count":0,"max_players":24,"Bots":0,"server_type":"Dedicated","server_os":"Linux","password":true,"vac":true,"version":"7757534","steam_id":85568392925397958,"keywords":["cp","nocrits","nodmgspread","uncletopia"],"game_id":440,"stv_port":27046,"stv_name":"Uncletopia | Sydney | 4 | All Maps | STV","players":null},{"server_id":58,"name":"Uncletopia | Sydney | 5 | Stopwatch Beta","name_short":"syd-5","host":"syd-1.au.uncletopia.com","port":27055,"enabled":true,"region":"au","cc":"au","latitude":-33.865143,"longitude":151.2099,"reserved":0,"last_update":"0001-01-01T00:00:00Z","name_a2s":"Uncletopia | Sydney | 5 | Stopwatch Beta","protocol":17,"map":"pl_barnblitz","folder":"tf","game":"Team Fortress","app_id":440,"player_count":0,"max_players":24,"Bots":0,"server_type":"Dedicated","server_os":"Linux","password":true,"vac":true,"version":"7757534","steam_id":85568392925397959,"keywords":["nocrits","nodmgspread","payload","uncletopia"],"game_id":440,"stv_port":27056,"stv_name":"Uncletopia | Sydney | 5 | Stopwatch Beta | STV","players":null},{"server_id":59,"name":"Uncletopia | Sydney | 6 | Community","name_short":"syd-6","host":"syd-1.au.uncletopia.com","port":27065,"enabled":true,"region":"au","cc":"au","latitude":-33.865143,"longitude":151.2099,"reserved":0,"last_update":"0001-01-01T00:00:00Z","name_a2s":"Uncletopia | Sydney | 6 | Community","protocol":17,"map":"workshop/pl_vigil_rc9.ugc1266210012","folder":"tf","game":"Team Fortress","app_id":440,"player_count":0,"max_players":24,"Bots":0,"server_type":"Dedicated","server_os":"Linux","password":true,"vac":true,"version":"7757534","steam_id":85568392925397960,"keywords":["nocrits","nodmgspread","payload","uncletopia"],"game_id":440,"stv_port":27066,"stv_name":"Uncletopia | Sydney | 6 | Community | STV","players":null},{"server_id":49,"name":"Uncletopia | Warsaw | 1 | All Maps","name_short":"waw-1","host":"waw-1.pl.uncletopia.com","port":27015,"enabled":true,"region":"eu","cc":"pl","latitude":52.2297,"longitude":21.017532,"reserved":0,"last_update":"0001-01-01T00:00:00Z","name_a2s":"","protocol":0,"map":"","folder":"","game":"","app_id":0,"player_count":0,"max_players":0,"Bots":0,"server_type":"","server_os":"","password":false,"vac":false,"version":"","steam_id":0,"keywords":null,"game_id":0,"stv_port":0,"stv_name":"","players":null},{"server_id":50,"name":"Uncletopia | Warsaw | 2 | All Maps","name_short":"waw-2","host":"waw-1.pl.uncletopia.com","port":27025,"enabled":true,"region":"eu","cc":"pl","latitude":52.2297,"longitude":21.017532,"reserved":0,"last_update":"0001-01-01T00:00:00Z","name_a2s":"Uncletopia | Warsaw | 2 | All Maps","protocol":17,"map":"koth_viaduct","folder":"tf","game":"Team Fortress","app_id":440,"player_count":0,"max_players":24,"Bots":0,"server_type":"Dedicated","server_os":"Linux","password":true,"vac":true,"version":"7757534","steam_id":85568392925397851,"keywords":["cp","nocrits","nodmgspread","uncletopia"],"game_id":440,"stv_port":27026,"stv_name":"Uncletopia | Warsaw | 2 | All Maps | STV","players":null},{"server_id":51,"name":"Uncletopia | Warsaw | 3 | All Maps","name_short":"waw-3","host":"waw-1.pl.uncletopia.com","port":27035,"enabled":true,"region":"eu","cc":"pl","latitude":52.2297,"longitude":21.017532,"reserved":0,"last_update":"0001-01-01T00:00:00Z","name_a2s":"Uncletopia | Warsaw | 3 | All Maps","protocol":17,"map":"koth_viaduct","folder":"tf","game":"Team Fortress","app_id":440,"player_count":0,"max_players":24,"Bots":0,"server_type":"Dedicated","server_os":"Linux","password":true,"vac":true,"version":"7757534","steam_id":85568392925397852,"keywords":["cp","nocrits","nodmgspread","uncletopia"],"game_id":440,"stv_port":27036,"stv_name":"Uncletopia | Warsaw | 3 | All Maps | STV","players":null},{"server_id":52,"name":"Uncletopia | Warsaw | 4 | All Maps","name_short":"waw-4","host":"waw-1.pl.uncletopia.com","port":27045,"enabled":true,"region":"eu","cc":"pl","latitude":52.2297,"longitude":21.017532,"reserved":0,"last_update":"0001-01-01T00:00:00Z","name_a2s":"Uncletopia | Warsaw | 4 | All Maps","protocol":17,"map":"koth_highpass","folder":"tf","game":"Team Fortress","app_id":440,"player_count":0,"max_players":24,"Bots":0,"server_type":"Dedicated","server_os":"Linux","password":true,"vac":true,"version":"7757534","steam_id":85568392925397853,"keywords":["cp","nocrits","nodmgspread","uncletopia"],"game_id":440,"stv_port":27046,"stv_name":"Uncletopia | Warsaw | 4 | All Maps | STV","players":null},{"server_id":53,"name":"Uncletopia | Warsaw | 5 | Stopwatch Beta","name_short":"waw-5","host":"waw-1.pl.uncletopia.com","port":27055,"enabled":true,"region":"eu","cc":"pl","latitude":52.2297,"longitude":21.017532,"reserved":0,"last_update":"0001-01-01T00:00:00Z","name_a2s":"Uncletopia | Warsaw | 5 | Stopwatch Beta","protocol":17,"map":"pl_upward","folder":"tf","game":"Team Fortress","app_id":440,"player_count":0,"max_players":24,"Bots":0,"server_type":"Dedicated","server_os":"Linux","password":true,"vac":true,"version":"7757534","steam_id":85568392925397854,"keywords":["nocrits","nodmgspread","payload","uncletopia"],"game_id":440,"stv_port":27056,"stv_name":"Uncletopia | Warsaw | 5 | Stopwatch Beta | STV","players":null},{"server_id":54,"name":"Uncletopia | Warsaw | 6 | Community","name_short":"waw-6","host":"waw-1.pl.uncletopia.com","port":27065,"enabled":true,"region":"eu","cc":"pl","latitude":52.2297,"longitude":21.017532,"reserved":0,"last_update":"0001-01-01T00:00:00Z","name_a2s":"Uncletopia | Warsaw | 6 | Community","protocol":17,"map":"workshop/koth_synthetic_rc6a.ugc1549817316","folder":"tf","game":"Team Fortress","app_id":440,"player_count":0,"max_players":24,"Bots":0,"server_type":"Dedicated","server_os":"Linux","password":true,"vac":true,"version":"7757534","steam_id":85568392925397856,"keywords":["cp","nocrits","nodmgspread","uncletopia"],"game_id":440,"stv_port":27066,"stv_name":"Uncletopia | Warsaw | 6 | Community | STV","players":null}]}