{"status":true,"message":"","result":[{"server_id":9,"name":"Uncletopia | Atlanta | 1 | All Maps","name_short":"atl-1","host":"atl-1.us.uncletopia.com","port":27015,"enabled":true,"region":"us-east","cc":"us","latitude":33.753746,"longitude":-84.38633,"reserved":0,"last_update":"0001-01-01T00:00:00Z","name_a2s":"Uncletopia | Atlanta | 1 | All Maps","protocol":17,"map":"pl_frontier_final","folder":"tf","game":"Team Fortress","app_id":440,"player_count":24,"max_players":24,"Bots":0,"server_type":"Dedicated","server_os":"Linux","password":true,"vac":true,"version":"7708610","steam_id":85568392924469982,"keywords":["nocrits","nodmgspread","payload","uncletopia"],"game_id":440,"stv_port":27016,"stv_name":"Uncletopia | Atlanta | 1 | All Maps | STV","players":[{"user_id":333,"name":"ATL1 | Kramer","steam_id":76561198083595936,"connected_time":2083000000000,"state":"active","ping":81},{"user_id":332,"name":"stink","steam_id":76561198099318923,"connected_time":2150000000000,"state":"active","ping":87},{"user_id":227,"name":"SuperJagops","steam_id":76561198034689716,"connected_time":11327000000000,"state":"active","ping":78},{"user_id":345,"name":"Underscore","steam_id":76561198374209415,"connected_time":880000000000,"state":"active","ping":71},{"user_id":287,"name":"--_Cook_--","steam_id":76561198080855748,"connected_time":5535000000000,"state":"active","ping":49},{"user_id":331,"name":"ATL0 Dedi Le4n!!!","steam_id":76561198045522596,"connected_time":2166000000000,"state":"active","ping":72},{"user_id":348,"name":"ATL1 | Decolour","steam_id":76561199045608372,"connected_time":458000000000,"state":"active","ping":85},{"user_id":317,"name":"Jin Gulilo","steam_id":76561198065151242,"connected_time":3178000000000,"state":"active","ping":71},{"user_id":312,"name":"remedu","steam_id":76561198005152587,"connected_time":4065000000000,"state":"active","ping":60},{"user_id":315,"name":"Jevil","steam_id":76561199061086990,"connected_time":3354000000000,"state":"active","ping":155},{"user_id":338,"name":"nhbiker","steam_id":76561198081277675,"connected_time":1264000000000,"state":"active","ping":60},{"user_id":349,"name":"David De Bergerac","steam_id":76561198010306294,"connected_time":19000000000,"state":"active","ping":84},{"user_id":334,"name":"V!CT!M","steam_id":76561198962721502,"connected_time":1680000000000,"state":"active","ping":86},{"user_id":322,"name":"Smoky","steam_id":76561198418262145,"connected_time":3089000000000,"state":"active","ping":104},{"user_id":298,"name":"Temina","steam_id":76561198978778718,"connected_time":4909000000000,"state":"active","ping":131},{"user_id":335,"name":"jpuck","steam_id":76561198025018960,"connected_time":1536000000000,"state":"active","ping":58},{"user_id":340,"name":"Firerise9402","steam_id":76561199158500661,"connected_time":1247000000000,"state":"active","ping":64},{"user_id":274,"name":"Lord Vile the Impaler","steam_id":76561198040425096,"connected_time":7073000000000,"state":"active","ping":53},{"user_id":341,"name":"Red Physical","steam_id":76561198151864382,"connected_time":1211000000000,"state":"active","ping":108},{"user_id":325,"name":"ppoosk","steam_id":76561198055743341,"connected_time":2996000000000,"state":"active","ping":105},{"user_id":343,"name":"Slug Warrior","steam_id":76561197996052704,"connected_time":1126000000000,"state":"active","ping":77},{"user_id":305,"name":"jacix3 [gay wolfgirl]{she/it}","steam_id":76561198205004165,"connected_time":4529000000000,"state":"active","ping":123},{"user_id":314,"name":"SnowStorm","steam_id":76561198095817025,"connected_time":3426000000000,"state":"active","ping":41},{"user_id":351,"name":"Eins","steam_id":76561199030343810,"connected_time":17000000000,"state":"spawning","ping":52}]},{"server_id":400,"name":"Uncletopia | Atlanta | 3 | All Maps","name_short":"atl-3","host":"atl-1.us.uncletopia.com","port":27035,"enabled":true,"region":"us-east","cc":"us","latitude":33.753746,"longitude":-84.38633,"reserved":0,"last_update":"0001-01-01T00:00:00Z","name_a2s":"Uncletopia | Atlanta | 3 | All Maps","protocol":17,"map":"pl_borneo","folder":"tf","game":"Team Fortress","app_id":440,"player_count":24,"max_players":24,"Bots":0,"server_type":"Dedicated","server_os":"Linux","password":true,"vac":true,"version":"7708610","steam_id":85568392924515187,"keywords":["nocrits","nodmgspread","payload","uncletopia"],"game_id":440,"stv_port":27036,"stv_name":"Uncletopia | Atlanta | 3 | All Maps | STV","players":[{"user_id":159,"name":"gnome \"kooky ass mf\" fan","steam_id":76561198148199120,"connected_time":1928000000000,"state":"active","ping":77},{"user_id":160,"name":"Lemony Lilly (She/Her)","steam_id":76561198042479066,"connected_time":1683000000000,"state":"active","ping":62},{"user_id":161,"name":"Quansen","steam_id":76561198151594550,"connected_time":1634000000000,"state":"active","ping":75},{"user_id":187,"name":"haha yeah \u003c/3","steam_id":76561198986281248,"connected_time":812000000000,"state":"active","ping":65},{"user_id":162,"name":"tis but a jest","steam_id":76561198072095399,"connected_time":1614000000000,"state":"active","ping":47},{"user_id":189,"name":"Sheppy","steam_id":76561198295126940,"connected_time":801000000000,"state":"active","ping":74},{"user_id":163,"name":"tf2s worst player","steam_id":76561199108820058,"connected_time":1602000000000,"state":"active","ping":66},{"user_id":186,"name":"Dougtherouge","steam_id":76561198211300573,"connected_time":984000000000,"state":"active","ping":68},{"user_id":192,"name":"i pocket spies :)","steam_id":76561198064194222,"connected_time":763000000000,"state":"active","ping":75},{"user_id":174,"name":"Shmiel","steam_id":76561198175734166,"connected_time":1361000000000,"state":"active","ping":57},{"user_id":175,"name":"LordCasuel6173","steam_id":76561199389029201,"connected_time":1333000000000,"state":"active","ping":89},{"user_id":167,"name":"fudge lord","steam_id":76561198118318422,"connected_time":1511000000000,"state":"active","ping":64},{"user_id":168,"name":"The unsung hero","steam_id":76561199198863237,"connected_time":1453000000000,"state":"active","ping":69},{"user_id":170,"name":"Sp0n","steam_id":76561198115075419,"connected_time":1439000000000,"state":"active","ping":101},{"user_id":194,"name":"Onyx","steam_id":76561198275349640,"connected_time":438000000000,"state":"active","ping":74},{"user_id":196,"name":"Sigiferd","steam_id":76561198148788110,"connected_time":299000000000,"state":"active","ping":105},{"user_id":151,"name":"Razz","steam_id":76561198119698950,"connected_time":2570000000000,"state":"active","ping":122},{"user_id":177,"name":"peace, love \u0026 tranquilizers","steam_id":76561198078721142,"connected_time":1193000000000,"state":"active","ping":61},{"user_id":195,"name":"Rudy","steam_id":76561198013456828,"connected_time":414000000000,"state":"active","ping":71},{"user_id":123,"name":"The Figgler","steam_id":76561198168295944,"connected_time":5778000000000,"state":"active","ping":86},{"user_id":181,"name":"TheBigJabroni™","steam_id":76561198066208423,"connected_time":1103000000000,"state":"active","ping":65},{"user_id":185,"name":"V1CC V1NEGAR","steam_id":76561198154942431,"connected_time":1039000000000,"state":"active","ping":79},{"user_id":148,"name":"John Darksoul","steam_id":76561198999712284,"connected_time":2875000000000,"state":"active","ping":90},{"user_id":183,"name":"Cat_Soldier","steam_id":76561198799974610,"connected_time":1070000000000,"state":"active","ping":52}]},{"server_id":401,"name":"Uncletopia | Atlanta | 4 | No Payload","name_short":"atl-4","host":"atl-1.us.uncletopia.com","port":27045,"enabled":true,"region":"us-east","cc":"us","latitude":33.753746,"longitude":-84.38633,"reserved":0,"last_update":"0001-01-01T00:00:00Z","name_a2s":"Uncletopia | Atlanta | 4 | No Payload","protocol":17,"map":"cp_foundry","folder":"tf","game":"Team Fortress","app_id":440,"player_count":0,"max_players":24,"Bots":0,"server_type":"Dedicated","server_os":"Linux","password":true,"vac":true,"version":"7708610","steam_id":85568392924515188,"keywords":["cp","nocrits","nodmgspread","uncletopia"],"game_id":440,"stv_port":27046,"stv_name":"Uncletopia | Atlanta | 4 | No Payload | STV","players":null},{"server_id":2,"name":"Uncletopia | Chicago | 1 | All Maps","name_short":"chi-1","host":"chi-1.us.uncletopia.com","port":27015,"enabled":true,"region":"us-central","cc":"us","latitude":41.881832,"longitude":-87.62318,"reserved":0,"last_update":"0001-01-01T00:00:00Z","name_a2s":"Uncletopia | Chicago | 1 | All Maps","protocol":17,"map":"pl_pier","folder":"tf","game":"Team Fortress","app_id":440,"player_count":23,"max_players":24,"Bots":0,"server_type":"Dedicated","server_os":"Linux","password":true,"vac":true,"version":"7708610","steam_id":85568392924469984,"keywords":["nocrits","nodmgspread","payload","uncletopia"],"game_id":440,"stv_port":27016,"stv_name":"Uncletopia | Chicago | 1 | All Maps | STV","players":[{"user_id":436,"name":"GREG","steam_id":76561198073021168,"connected_time":1006000000000,"state":"active","ping":74},{"user_id":451,"name":"gracie","steam_id":76561199162583201,"connected_time":28000000000,"state":"spawning","ping":85},{"user_id":411,"name":"Enderneer","steam_id":76561198012136653,"connected_time":2477000000000,"state":"active","ping":60},{"user_id":426,"name":"Riske","steam_id":76561198115840568,"connected_time":1748000000000,"state":"active","ping":72},{"user_id":446,"name":"SpockASD #ikeepitG6","steam_id":76561198307516731,"connected_time":287000000000,"state":"active","ping":76},{"user_id":380,"name":"Chode Mode","steam_id":76561198353840477,"connected_time":4706000000000,"state":"active","ping":53},{"user_id":386,"name":"ultrax.extremex","steam_id":76561199201770653,"connected_time":4153000000000,"state":"active","ping":67},{"user_id":406,"name":"emctwo","steam_id":76561198095082517,"connected_time":2757000000000,"state":"active","ping":61},{"user_id":415,"name":"harry","steam_id":76561198263271697,"connected_time":2233000000000,"state":"active","ping":33},{"user_id":393,"name":"jeff","steam_id":76561198059450566,"connected_time":3485000000000,"state":"active","ping":56},{"user_id":443,"name":"roona","steam_id":76561198797883869,"connected_time":339000000000,"state":"active","ping":64},{"user_id":407,"name":"SHADOW","steam_id":76561198207768148,"connected_time":2752000000000,"state":"active","ping":105},{"user_id":392,"name":"women fish me","steam_id":76561198153245906,"connected_time":3505000000000,"state":"active","ping":62},{"user_id":405,"name":"John Darksoul","steam_id":76561198031675881,"connected_time":2786000000000,"state":"active","ping":46},{"user_id":397,"name":"Pan Wizard","steam_id":76561198031939694,"connected_time":3350000000000,"state":"active","ping":81},{"user_id":441,"name":"CowTipper","steam_id":76561198068024343,"connected_time":717000000000,"state":"active","ping":50},{"user_id":442,"name":"cigarette consumer","steam_id":76561198201259645,"connected_time":710000000000,"state":"active","ping":71},{"user_id":430,"name":"Neil Degrassy","steam_id":76561198132980934,"connected_time":1257000000000,"state":"active","ping":57},{"user_id":440,"name":"grey","steam_id":76561198050618142,"connected_time":771000000000,"state":"active","ping":100},{"user_id":423,"name":"Bootstrap","steam_id":76561199110353614,"connected_time":1889000000000,"state":"active","ping":80},{"user_id":373,"name":"早上好，现在我有冰淇","steam_id":76561198315509912,"connected_time":4905000000000,"state":"active","ping":50},{"user_id":422,"name":"BIG LION","steam_id":76561199229169396,"connected_time":1989000000000,"state":"active","ping":67},{"user_id":420,"name":"squid game","steam_id":76561199248960166,"connected_time":2171000000000,"state":"active","ping":96}]},{"server_id":106,"name":"Uncletopia | Chicago | 2 | All Maps","name_short":"chi-2","host":"chi-1.us.uncletopia.com","port":27025,"enabled":true,"region":"us-central","cc":"us","latitude":41.881832,"longitude":-87.62318,"reserved":0,"last_update":"0001-01-01T00:00:00Z","name_a2s":"Uncletopia | Chicago | 2 | All Maps","protocol":17,"map":"pl_borneo","folder":"tf","game":"Team Fortress","app_id":440,"player_count":24,"max_players":24,"Bots":0,"server_type":"Dedicated","server_os":"Linux","password":true,"vac":true,"version":"7708610","steam_id":85568392924469985,"keywords":["nocrits","nodmgspread","payload","uncletopia"],"game_id":440,"stv_port":27026,"stv_name":"Uncletopia | Chicago | 2 | All Maps | STV","players":[{"user_id":295,"name":"BigBubble42","steam_id":76561198136286123,"connected_time":610000000000,"state":"active","ping":63},{"user_id":290,"name":"BaguetteThief","steam_id":76561197962257656,"connected_time":768000000000,"state":"active","ping":68},{"user_id":291,"name":"Corbe","steam_id":76561198353893927,"connected_time":723000000000,"state":"active","ping":44},{"user_id":263,"name":"hedahman","steam_id":76561198052398134,"connected_time":2130000000000,"state":"active","ping":95},{"user_id":299,"name":"Yoyo","steam_id":76561199122577289,"connected_time":187000000000,"state":"active","ping":72},{"user_id":296,"name":"OneTrueCorvid","steam_id":76561199012953221,"connected_time":530000000000,"state":"active","ping":128},{"user_id":286,"name":"JimboMcJimmy","steam_id":76561198030656209,"connected_time":885000000000,"state":"active","ping":136},{"user_id":281,"name":"Dark Lord","steam_id":76561198044199150,"connected_time":1407000000000,"state":"active","ping":72},{"user_id":292,"name":"The Coffee","steam_id":76561198171941807,"connected_time":705000000000,"state":"active","ping":48},{"user_id":232,"name":"Dude Named Bob","steam_id":76561198310448093,"connected_time":5252000000000,"state":"active","ping":45},{"user_id":288,"name":"...","steam_id":76561198312298321,"connected_time":780000000000,"state":"active","ping":55},{"user_id":268,"name":"Devcronz","steam_id":76561198392905391,"connected_time":1943000000000,"state":"active","ping":66},{"user_id":199,"name":"ChillSasquatch","steam_id":76561198068408798,"connected_time":7356000000000,"state":"active","ping":60},{"user_id":258,"name":"DiHMO","steam_id":76561198030130169,"connected_time":2845000000000,"state":"active","ping":45},{"user_id":293,"name":"Coup de Grass","steam_id":76561198011643226,"connected_time":694000000000,"state":"active","ping":46},{"user_id":270,"name":"Fudgely","steam_id":76561198039425862,"connected_time":1867000000000,"state":"active","ping":76},{"user_id":252,"name":"TheGhostThatWas","steam_id":76561198055836483,"connected_time":3318000000000,"state":"active","ping":59},{"user_id":298,"name":"fredpimpstone","steam_id":76561198201872929,"connected_time":350000000000,"state":"active","ping":72},{"user_id":272,"name":"Totouri","steam_id":76561198004229789,"connected_time":1800000000000,"state":"active","ping":54},{"user_id":245,"name":"Pennis the Menace","steam_id":76561198254878037,"connected_time":3684000000000,"state":"active","ping":69},{"user_id":282,"name":"DeathwingTheDestroyer","steam_id":76561199147322448,"connected_time":1393000000000,"state":"active","ping":46},{"user_id":294,"name":"Custom_Name","steam_id":76561198324488763,"connected_time":693000000000,"state":"active","ping":69},{"user_id":297,"name":"dave strider","steam_id":76561198065112186,"connected_time":474000000000,"state":"active","ping":75},{"user_id":300,"name":"albert_gamer","steam_id":76561198980666751,"connected_time":63000000000,"state":"active","ping":78}]},{"server_id":402,"name":"Uncletopia | Chicago | 3 | All Maps","name_short":"chi-3","host":"chi-1.us.uncletopia.com","port":27035,"enabled":true,"region":"us-central","cc":"us","latitude":41.881832,"longitude":-87.62318,"reserved":0,"last_update":"0001-01-01T00:00:00Z","name_a2s":"Uncletopia | Chicago | 3 | All Maps","protocol":17,"map":"cp_altitude","folder":"tf","game":"Team Fortress","app_id":440,"player_count":0,"max_players":24,"Bots":0,"server_type":"Dedicated","server_os":"Linux","password":true,"vac":true,"version":"7708610","steam_id":85568392924515191,"keywords":["cp","nocrits","nodmgspread","uncletopia"],"game_id":440,"stv_port":27036,"stv_name":"Uncletopia | Chicago | 3 | All Maps | STV","players":null},{"server_id":403,"name":"Uncletopia | Chicago | 4 | All Maps","name_short":"chi-4","host":"chi-1.us.uncletopia.com","port":27045,"enabled":true,"region":"us-central","cc":"us","latitude":41.881832,"longitude":-87.62318,"reserved":0,"last_update":"0001-01-01T00:00:00Z","name_a2s":"Uncletopia | Chicago | 4 | All Maps","protocol":17,"map":"pl_upward","folder":"tf","game":"Team Fortress","app_id":440,"player_count":0,"max_players":24,"Bots":0,"server_type":"Dedicated","server_os":"Linux","password":true,"vac":true,"version":"7708610","steam_id":85568392924515193,"keywords":["nocrits","nodmgspread","payload","uncletopia"],"game_id":440,"stv_port":27046,"stv_name":"Uncletopia | Chicago | 4 | All Maps | STV","players":null},{"server_id":36,"name":"Uncletopia | Chicago | 5 | All Maps","name_short":"chi-5","host":"chi-2.us.uncletopia.com","port":27015,"enabled":true,"region":"us-central","cc":"us","latitude":41.881832,"longitude":-87.62318,"reserved":0,"last_update":"0001-01-01T00:00:00Z","name_a2s":"Uncletopia | Chicago | 5 | All Maps","protocol":17,"map":"pl_frontier_final","folder":"tf","game":"Team Fortress","app_id":440,"player_count":22,"max_players":24,"Bots":0,"server_type":"Dedicated","server_os":"Linux","password":true,"vac":true,"version":"7708610","steam_id":85568392924866362,"keywords":["nocrits","nodmgspread","payload","uncletopia"],"game_id":440,"stv_port":27016,"stv_name":"Uncletopia | Chicago | 5 | All Maps | STV","players":[{"user_id":201,"name":"Waffle Wannabe","steam_id":76561198064510650,"connected_time":2229000000000,"state":"active","ping":52},{"user_id":209,"name":"XxhollowninjaxX","steam_id":76561199054048217,"connected_time":1820000000000,"state":"active","ping":124},{"user_id":145,"name":"blob","steam_id":76561198122375328,"connected_time":6280000000000,"state":"active","ping":58},{"user_id":189,"name":"asfd","steam_id":76561198012566405,"connected_time":2616000000000,"state":"active","ping":62},{"user_id":239,"name":"Pigzilla","steam_id":76561198373968267,"connected_time":126000000000,"state":"active","ping":54},{"user_id":212,"name":"Tresthebest360","steam_id":76561198965347175,"connected_time":1612000000000,"state":"active","ping":58},{"user_id":213,"name":"snideink287","steam_id":76561198166055131,"connected_time":1605000000000,"state":"active","ping":51},{"user_id":215,"name":"Lovedaddy","steam_id":76561198006569710,"connected_time":1564000000000,"state":"active","ping":77},{"user_id":216,"name":"Eliza","steam_id":76561198108938752,"connected_time":1542000000000,"state":"active","ping":60},{"user_id":240,"name":"IPlayGamez","steam_id":76561198041387508,"connected_time":121000000000,"state":"active","ping":60},{"user_id":235,"name":"201rudolf","steam_id":76561197999260528,"connected_time":498000000000,"state":"active","ping":77},{"user_id":219,"name":"Loneie","steam_id":76561198270957843,"connected_time":1151000000000,"state":"active","ping":51},{"user_id":241,"name":"Killawashere","steam_id":76561198103214496,"connected_time":115000000000,"state":"active","ping":64},{"user_id":221,"name":"DuckMaster","steam_id":76561199099069161,"connected_time":1037000000000,"state":"active","ping":60},{"user_id":222,"name":"FrostyFrontier","steam_id":76561198370530394,"connected_time":1032000000000,"state":"active","ping":58},{"user_id":231,"name":"Hol Horse","steam_id":76561198078207743,"connected_time":773000000000,"state":"active","ping":68},{"user_id":225,"name":"Collin","steam_id":76561198341399913,"connected_time":1007000000000,"state":"active","ping":64},{"user_id":232,"name":"Pmuts","steam_id":76561198068807122,"connected_time":744000000000,"state":"active","ping":75},{"user_id":227,"name":"amrick","steam_id":76561198271788192,"connected_time":895000000000,"state":"active","ping":115},{"user_id":228,"name":"macaroni zamboni","steam_id":76561198127149121,"connected_time":891000000000,"state":"active","ping":75},{"user_id":237,"name":"the real babytron","steam_id":76561197989627918,"connected_time":303000000000,"state":"active","ping":85},{"user_id":230,"name":"DRUNK STEPDAD","steam_id":76561199105035788,"connected_time":879000000000,"state":"active","ping":70}]},{"server_id":37,"name":"Uncletopia | Chicago | 6 | All Maps","name_short":"chi-6","host":"chi-2.us.uncletopia.com","port":27025,"enabled":true,"region":"us-central","cc":"us","latitude":41.881832,"longitude":-87.62318,"reserved":0,"last_update":"0001-01-01T00:00:00Z","name_a2s":"Uncletopia | Chicago | 6 | All Maps","protocol":17,"map":"koth_cascade","folder":"tf","game":"Team Fortress","app_id":440,"player_count":0,"max_players":24,"Bots":0,"server_type":"Dedicated","server_os":"Linux","password":true,"vac":true,"version":"7708610","steam_id":85568392924866363,"keywords":["cp","nocrits","nodmgspread","uncletopia"],"game_id":440,"stv_port":0,"stv_name":"","players":null},{"server_id":38,"name":"Uncletopia | Chicago | 7 | No Payload","name_short":"chi-7","host":"chi-2.us.uncletopia.com","port":27035,"enabled":true,"region":"us-central","cc":"us","latitude":41.881832,"longitude":-87.62318,"reserved":0,"last_update":"0001-01-01T00:00:00Z","name_a2s":"Uncletopia | Chicago | 7 | No Payload","protocol":17,"map":"koth_viaduct","folder":"tf","game":"Team Fortress","app_id":440,"player_count":0,"max_players":24,"Bots":0,"server_type":"Dedicated","server_os":"Linux","password":true,"vac":true,"version":"7708610","steam_id":85568392924866364,"keywords":["cp","nocrits","nodmgspread","uncletopia"],"game_id":440,"stv_port":0,"stv_name":"","players":null},{"server_id":39,"name":"Uncletopia | Chicago | 8 | Community","name_short":"chi-8","host":"chi-2.us.uncletopia.com","port":27045,"enabled":true,"region":"us-central","cc":"us","latitude":41.881832,"longitude":-87.62318,"reserved":0,"last_update":"0001-01-01T00:00:00Z","name_a2s":"Uncletopia | Chicago | 8 | Community","protocol":17,"map":"pl_pier","folder":"tf","game":"Team Fortress","app_id":440,"player_count":0,"max_players":24,"Bots":0,"server_type":"Dedicated","server_os":"Linux","password":true,"vac":true,"version":"7708610","steam_id":85568392924866365,"keywords":["nocrits","nodmgspread","payload","uncletopia"],"game_id":440,"stv_port":0,"stv_name":"","players":null},{"server_id":8,"name":"Uncletopia | Dallas | 1 | All Maps","name_short":"dal-1","host":"dal-1.us.uncletopia.com","port":27015,"enabled":true,"region":"us-central","cc":"us","latitude":32.779167,"longitude":-96.80889,"reserved":0,"last_update":"0001-01-01T00:00:00Z","name_a2s":"Uncletopia | Dallas | 1 | All Maps","protocol":17,"map":"cp_sunshine","folder":"tf","game":"Team Fortress","app_id":440,"player_count":0,"max_players":24,"Bots":0,"server_type":"Dedicated","server_os":"Linux","password":true,"vac":true,"version":"7708610","steam_id":85568392924469986,"keywords":["cp","nocrits","nodmgspread","uncletopia"],"game_id":440,"stv_port":27016,"stv_name":"Uncletopia | Dallas | 1 | All Maps | STV","players":null},{"server_id":108,"name":"Uncletopia | Dallas | 2 | All Maps","name_short":"dal-2","host":"dal-1.us.uncletopia.com","port":27025,"enabled":true,"region":"us-central","cc":"us","latitude":32.779167,"longitude":-96.80889,"reserved":0,"last_update":"0001-01-01T00:00:00Z","name_a2s":"Uncletopia | Dallas | 2 | All Maps","protocol":17,"map":"cp_snakewater_final1","folder":"tf","game":"Team Fortress","app_id":440,"player_count":24,"max_players":24,"Bots":0,"server_type":"Dedicated","server_os":"Linux","password":true,"vac":true,"version":"7708610","steam_id":85568392924469988,"keywords":["cp","nocrits","nodmgspread","uncletopia"],"game_id":440,"stv_port":27026,"stv_name":"Uncletopia | Dallas | 2 | All Maps | STV","players":[{"user_id":67,"name":"Caboom","steam_id":76561198040221007,"connected_time":316000000000,"state":"active","ping":60},{"user_id":70,"name":"THE MASKED SINGER","steam_id":76561198051757010,"connected_time":174000000000,"state":"active","ping":83},{"user_id":61,"name":"Goofball","steam_id":76561198074189084,"connected_time":1252000000000,"state":"active","ping":75},{"user_id":54,"name":"Omar.Martinez.2005","steam_id":76561199436342861,"connected_time":1748000000000,"state":"active","ping":75},{"user_id":58,"name":"local","steam_id":76561198069537437,"connected_time":1440000000000,"state":"active","ping":81},{"user_id":65,"name":"ATL6 Deez Noel","steam_id":76561198246700372,"connected_time":599000000000,"state":"active","ping":69},{"user_id":38,"name":"happer","steam_id":76561198018252253,"connected_time":3616000000000,"state":"active","ping":81},{"user_id":68,"name":"LargerThanAverageDragon","steam_id":76561198152036300,"connected_time":213000000000,"state":"active","ping":32},{"user_id":56,"name":"Eightyy  Fourr","steam_id":76561197960374225,"connected_time":1514000000000,"state":"active","ping":45},{"user_id":64,"name":"radicalPolio","steam_id":76561197961561855,"connected_time":712000000000,"state":"active","ping":40},{"user_id":59,"name":"Timbs!!","steam_id":76561198156215344,"connected_time":1433000000000,"state":"active","ping":53},{"user_id":55,"name":"Satori Komeiji","steam_id":76561198158211423,"connected_time":1728000000000,"state":"active","ping":67},{"user_id":43,"name":"Dr. Bonair","steam_id":76561198129237487,"connected_time":2637000000000,"state":"active","ping":61},{"user_id":63,"name":"eggo","steam_id":76561198105515914,"connected_time":952000000000,"state":"active","ping":75},{"user_id":51,"name":"airbudenjoyer2012","steam_id":76561198150428763,"connected_time":1973000000000,"state":"active","ping":61},{"user_id":66,"name":"The Squid Gamer™","steam_id":76561198340621517,"connected_time":368000000000,"state":"active","ping":81},{"user_id":29,"name":"Ipseiit","steam_id":76561198294670312,"connected_time":3875000000000,"state":"active","ping":83},{"user_id":69,"name":"footoftheday","steam_id":76561198052712449,"connected_time":199000000000,"state":"active","ping":89},{"user_id":57,"name":"neet","steam_id":76561197968115168,"connected_time":1505000000000,"state":"active","ping":75},{"user_id":39,"name":"Marc G","steam_id":76561198062650363,"connected_time":3156000000000,"state":"active","ping":45},{"user_id":49,"name":"mexfrag.4 life","steam_id":76561198175961598,"connected_time":2091000000000,"state":"active","ping":100},{"user_id":42,"name":"radical larry","steam_id":76561198172246829,"connected_time":2983000000000,"state":"active","ping":60},{"user_id":37,"name":"Jaypelt","steam_id":76561198053906849,"connected_time":3713000000000,"state":"active","ping":89},{"user_id":44,"name":"RysN Yeen ♥","steam_id":76561198105359319,"connected_time":2637000000000,"state":"active","ping":82}]},{"server_id":5,"name":"Uncletopia | Frankfurt | 1 | All Maps","name_short":"frk-1","host":"frk-1.de.uncletopia.com","port":27015,"enabled":true,"region":"eu","cc":"de","latitude":50.110924,"longitude":8.682127,"reserved":0,"last_update":"0001-01-01T00:00:00Z","name_a2s":"Uncletopia | Frankfurt | 1 | All Maps","protocol":17,"map":"pl_swiftwater_final1","folder":"tf","game":"Team Fortress","app_id":440,"player_count":24,"max_players":24,"Bots":0,"server_type":"Dedicated","server_os":"Linux","password":true,"vac":true,"version":"7708610","steam_id":85568392924469989,"keywords":["nocrits","nodmgspread","payload","uncletopia"],"game_id":440,"stv_port":27016,"stv_name":"Uncletopia | Frankfurt | 1 | All Maps | STV","players":[{"user_id":549,"name":"Boobs rater","steam_id":76561198066977580,"connected_time":4051000000000,"state":"active","ping":85},{"user_id":553,"name":"LarsInABox","steam_id":76561198028329262,"connected_time":4041000000000,"state":"active","ping":71},{"user_id":576,"name":"Fales","steam_id":76561198126124929,"connected_time":663000000000,"state":"active","ping":63},{"user_id":577,"name":"Iru","steam_id":76561198077602040,"connected_time":622000000000,"state":"active","ping":59},{"user_id":547,"name":"Festdoktor","steam_id":76561198058159271,"connected_time":4073000000000,"state":"active","ping":51},{"user_id":583,"name":"Valfezant","steam_id":76561199063983797,"connected_time":473000000000,"state":"active","ping":52},{"user_id":557,"name":"Luo Lang","steam_id":76561197988802856,"connected_time":3917000000000,"state":"active","ping":55},{"user_id":587,"name":"vuggie","steam_id":76561198042227249,"connected_time":19000000000,"state":"active","ping":45},{"user_id":481,"name":"Pico","steam_id":76561198063552545,"connected_time":9096000000000,"state":"active","ping":107},{"user_id":579,"name":"Thors","steam_id":76561197968739075,"connected_time":579000000000,"state":"active","ping":45},{"user_id":563,"name":"lowdash","steam_id":76561198327827635,"connected_time":2371000000000,"state":"active","ping":73},{"user_id":519,"name":"=OKB= P4NTH3R","steam_id":76561197999204603,"connected_time":5908000000000,"state":"active","ping":55},{"user_id":558,"name":"LordTrap.exe","steam_id":76561198318089716,"connected_time":3882000000000,"state":"active","ping":55},{"user_id":585,"name":"Hopestackle","steam_id":76561198159058662,"connected_time":56000000000,"state":"active","ping":53},{"user_id":573,"name":"Bones","steam_id":76561198065081225,"connected_time":1428000000000,"state":"active","ping":58},{"user_id":569,"name":"snowii","steam_id":76561198836246326,"connected_time":2015000000000,"state":"active","ping":72},{"user_id":565,"name":"Clitorina","steam_id":76561198077570815,"connected_time":2211000000000,"state":"active","ping":54},{"user_id":559,"name":"OREO","steam_id":76561198017080006,"connected_time":3850000000000,"state":"active","ping":111},{"user_id":580,"name":"antondi","steam_id":76561198123140065,"connected_time":554000000000,"state":"active","ping":59},{"user_id":581,"name":"Tico","steam_id":76561198113287552,"connected_time":553000000000,"state":"active","ping":48},{"user_id":561,"name":"Transgender E-girl","steam_id":76561198168589809,"connected_time":3154000000000,"state":"active","ping":73},{"user_id":555,"name":"she strogan me off til i beef","steam_id":76561198166555207,"connected_time":4024000000000,"state":"active","ping":64},{"user_id":572,"name":"Sabour","steam_id":76561197963965445,"connected_time":1549000000000,"state":"active","ping":58},{"user_id":518,"name":"Serton♝","steam_id":76561198011061126,"connected_time":5944000000000,"state":"active","ping":92}]},{"server_id":110,"name":"Uncletopia | Frankfurt | 2 | All Maps","name_short":"frk-2","host":"frk-1.de.uncletopia.com","port":27025,"enabled":true,"region":"eu","cc":"de","latitude":50.110924,"longitude":8.682127,"reserved":0,"last_update":"0001-01-01T00:00:00Z","name_a2s":"Uncletopia | Frankfurt | 2 | All Maps","protocol":17,"map":"pl_frontier_final","folder":"tf","game":"Team Fortress","app_id":440,"player_count":22,"max_players":24,"Bots":0,"server_type":"Dedicated","server_os":"Linux","password":true,"vac":true,"version":"7708610","steam_id":85568392924469990,"keywords":["nocrits","nodmgspread","payload","uncletopia"],"game_id":440,"stv_port":27026,"stv_name":"Uncletopia | Frankfurt | 2 | All Maps | STV","players":[{"user_id":530,"name":"ćirno","steam_id":76561199010825303,"connected_time":3340000000000,"state":"active","ping":72},{"user_id":548,"name":"ɘƚɒ⅃ɘƚɒ⅃ /./ =)(= \\.\\","steam_id":76561198053339372,"connected_time":1628000000000,"state":"active","ping":64},{"user_id":551,"name":"Klonky","steam_id":76561199068329886,"connected_time":1539000000000,"state":"active","ping":64},{"user_id":552,"name":"banrab","steam_id":76561198083615367,"connected_time":1467000000000,"state":"active","ping":52},{"user_id":516,"name":"rosepinkyfuzz","steam_id":76561198018546334,"connected_time":4458000000000,"state":"active","ping":75},{"user_id":553,"name":"i am not famous anymore","steam_id":76561197994300335,"connected_time":1446000000000,"state":"active","ping":94},{"user_id":564,"name":"AnoMoLie","steam_id":76561197973959824,"connected_time":519000000000,"state":"active","ping":130},{"user_id":565,"name":"InYourHeart","steam_id":76561198100281792,"connected_time":504000000000,"state":"active","ping":80},{"user_id":555,"name":"zeta307","steam_id":76561198010891875,"connected_time":1396000000000,"state":"active","ping":74},{"user_id":566,"name":"ilim0ri","steam_id":76561197961231625,"connected_time":468000000000,"state":"active","ping":58},{"user_id":556,"name":"Gruel","steam_id":76561198045408509,"connected_time":1355000000000,"state":"active","ping":59},{"user_id":576,"name":"Vince","steam_id":76561199103000131,"connected_time":93000000000,"state":"active","ping":60},{"user_id":560,"name":"Pax","steam_id":76561198047797964,"connected_time":1184000000000,"state":"active","ping":58},{"user_id":561,"name":"Alibi","steam_id":76561198061845595,"connected_time":1180000000000,"state":"active","ping":64},{"user_id":563,"name":"sid","steam_id":76561198093613358,"connected_time":910000000000,"state":"active","ping":104},{"user_id":567,"name":"19archij","steam_id":76561198311296591,"connected_time":461000000000,"state":"active","ping":152},{"user_id":568,"name":"Polaris","steam_id":76561198007076931,"connected_time":443000000000,"state":"active","ping":60},{"user_id":575,"name":"[LR-Looter]MrMurk","steam_id":76561198363380956,"connected_time":171000000000,"state":"active","ping":53},{"user_id":570,"name":"[RoadtoDivine] The Doctor","steam_id":76561198127388440,"connected_time":441000000000,"state":"active","ping":52},{"user_id":571,"name":"REMOVE LIRI (5pedos on my team)","steam_id":76561198328824242,"connected_time":425000000000,"state":"active","ping":60},{"user_id":572,"name":"Human Rights","steam_id":76561198102420849,"connected_time":407000000000,"state":"active","ping":61},{"user_id":574,"name":"Jimmy's balls","steam_id":76561198841930820,"connected_time":328000000000,"state":"active","ping":93}]},{"server_id":308,"name":"Uncletopia | Frankfurt | 3 | All Maps","name_short":"frk-3","host":"frk-1.de.uncletopia.com","port":27035,"enabled":true,"region":"eu","cc":"de","latitude":50.110924,"longitude":8.682127,"reserved":0,"last_update":"0001-01-01T00:00:00Z","name_a2s":"Uncletopia | Frankfurt | 3 | All Maps","protocol":17,"map":"pl_snowycoast","folder":"tf","game":"Team Fortress","app_id":440,"player_count":0,"max_players":24,"Bots":0,"server_type":"Dedicated","server_os":"Linux","password":true,"vac":true,"version":"7708610","steam_id":85568392924504274,"keywords":["nocrits","nodmgspread","payload","uncletopia"],"game_id":440,"stv_port":27036,"stv_name":"Uncletopia | Frankfurt | 3 | All Maps | STV","players":null},{"server_id":309,"name":"Uncletopia | Frankfurt | 4 | All Maps","name_short":"frk-4","host":"frk-1.de.uncletopia.com","port":27045,"enabled":true,"region":"eu","cc":"de","latitude":50.110924,"longitude":8.682127,"reserved":0,"last_update":"0001-01-01T00:00:00Z","name_a2s":"Uncletopia | Frankfurt | 4 | All Maps","protocol":17,"map":"pl_pier","folder":"tf","game":"Team Fortress","app_id":440,"player_count":24,"max_players":24,"Bots":0,"server_type":"Dedicated","server_os":"Linux","password":true,"vac":true,"version":"7708610","steam_id":85568392924504275,"keywords":["nocrits","nodmgspread","payload","uncletopia"],"game_id":440,"stv_port":27046,"stv_name":"Uncletopia | Frankfurt | 4 | All Maps | STV","players":[{"user_id":729,"name":"Tweehoek","steam_id":76561197993796913,"connected_time":583000000000,"state":"active","ping":63},{"user_id":730,"name":"gfjhsdf","steam_id":76561198136736426,"connected_time":515000000000,"state":"active","ping":56},{"user_id":691,"name":"Utvar","steam_id":76561198131838460,"connected_time":3900000000000,"state":"active","ping":56},{"user_id":725,"name":"_Starlight_","steam_id":76561197993885738,"connected_time":1472000000000,"state":"active","ping":69},{"user_id":665,"name":"\"sniper\"","steam_id":76561198405291408,"connected_time":5393000000000,"state":"active","ping":63},{"user_id":704,"name":"Mr. Huntsman","steam_id":76561197981910397,"connected_time":2927000000000,"state":"active","ping":61},{"user_id":722,"name":"worry about it","steam_id":76561199414716848,"connected_time":2009000000000,"state":"active","ping":75},{"user_id":723,"name":"Knoxx","steam_id":76561198260692541,"connected_time":1823000000000,"state":"active","ping":66},{"user_id":721,"name":"peruna","steam_id":76561198000721196,"connected_time":2066000000000,"state":"active","ping":76},{"user_id":731,"name":"East#","steam_id":76561198126240609,"connected_time":378000000000,"state":"active","ping":89},{"user_id":706,"name":"Čika Kure","steam_id":76561199002244505,"connected_time":2897000000000,"state":"active","ping":52},{"user_id":639,"name":"LovableLeaf","steam_id":76561198854720925,"connected_time":7106000000000,"state":"active","ping":80},{"user_id":727,"name":"Graceium","steam_id":76561198271802336,"connected_time":1455000000000,"state":"active","ping":62},{"user_id":712,"name":"Труп Володя","steam_id":76561198035718457,"connected_time":2661000000000,"state":"active","ping":90},{"user_id":680,"name":"sigma female","steam_id":76561198298576765,"connected_time":4945000000000,"state":"active","ping":76},{"user_id":732,"name":"azzy","steam_id":76561198061293740,"connected_time":270000000000,"state":"active","ping":75},{"user_id":718,"name":"Capitan Boba","steam_id":76561198058624532,"connected_time":2155000000000,"state":"active","ping":58},{"user_id":733,"name":"batheman63","steam_id":76561198881818552,"connected_time":257000000000,"state":"active","ping":144},{"user_id":719,"name":"Mari_Kross","steam_id":76561198130863086,"connected_time":2149000000000,"state":"active","ping":76},{"user_id":715,"name":"Xayir","steam_id":76561198079566786,"connected_time":2340000000000,"state":"active","ping":61},{"user_id":709,"name":"BarrackOmaha","steam_id":76561198027922724,"connected_time":2809000000000,"state":"active","ping":74},{"user_id":726,"name":"Troodon","steam_id":76561198223648788,"connected_time":1469000000000,"state":"active","ping":90},{"user_id":637,"name":"christmas eve","steam_id":76561197973182789,"connected_time":7215000000000,"state":"active","ping":74},{"user_id":659,"name":"heisenburger","steam_id":76561198284589853,"connected_time":6357000000000,"state":"active","ping":80}]},{"server_id":310,"name":"Uncletopia | Frankfurt | 5 | All Maps","name_short":"frk-5","host":"frk-1.de.uncletopia.com","port":27055,"enabled":true,"region":"eu","cc":"de","latitude":50.110924,"longitude":8.682127,"reserved":0,"last_update":"0001-01-01T00:00:00Z","name_a2s":"Uncletopia | Frankfurt | 5 | All Maps","protocol":17,"map":"cp_sunshine","folder":"tf","game":"Team Fortress","app_id":440,"player_count":4,"max_players":24,"Bots":0,"server_type":"Dedicated","server_os":"Linux","password":true,"vac":true,"version":"7708610","steam_id":85568392924504277,"keywords":["cp","nocrits","nodmgspread","uncletopia"],"game_id":440,"stv_port":27056,"stv_name":"Uncletopia | Frankfurt | 5 | All Maps | STV","players":[{"user_id":352,"name":"i heal gay people","steam_id":76561198032167311,"connected_time":7000000000,"state":"spawning","ping":90},{"user_id":349,"name":"Pan Pan","steam_id":76561199074670515,"connected_time":381000000000,"state":"active","ping":86},{"user_id":350,"name":"$t@rscr3@mRD","steam_id":76561199122087824,"connected_time":191000000000,"state":"active","ping":168},{"user_id":351,"name":"saint-grume","steam_id":76561199050108821,"connected_time":143000000000,"state":"active","ping":45}]},{"server_id":311,"name":"Uncletopia | Frankfurt | 6 | All Maps","name_short":"frk-6","host":"frk-1.de.uncletopia.com","port":27065,"enabled":true,"region":"eu","cc":"de","latitude":50.110924,"longitude":8.682127,"reserved":0,"last_update":"0001-01-01T00:00:00Z","name_a2s":"Uncletopia | Frankfurt | 6 | All Maps","protocol":17,"map":"pl_frontier_final","folder":"tf","game":"Team Fortress","app_id":440,"player_count":22,"max_players":24,"Bots":0,"server_type":"Dedicated","server_os":"Linux","password":true,"vac":true,"version":"7708610","steam_id":85568392924504278,"keywords":["nocrits","nodmgspread","payload","uncletopia"],"game_id":440,"stv_port":27066,"stv_name":"Uncletopia | Frankfurt | 6 | All Maps | STV","players":[{"user_id":402,"name":"cafè","steam_id":76561198037938833,"connected_time":158000000000,"state":"active","ping":55},{"user_id":394,"name":"Winters Fall","steam_id":76561198303707290,"connected_time":773000000000,"state":"active","ping":83},{"user_id":389,"name":"worth nothing","steam_id":76561198988395944,"connected_time":1021000000000,"state":"active","ping":97},{"user_id":368,"name":"Redmailbox","steam_id":76561198042930322,"connected_time":2840000000000,"state":"active","ping":74},{"user_id":404,"name":"velvet","steam_id":76561198971389390,"connected_time":67000000000,"state":"active","ping":65},{"user_id":374,"name":"Stam","steam_id":76561199233979726,"connected_time":1925000000000,"state":"active","ping":79},{"user_id":388,"name":"Zombi3","steam_id":76561198326290621,"connected_time":1043000000000,"state":"active","ping":64},{"user_id":375,"name":"ff:ff:ff:ff:ff:ff","steam_id":76561198072122983,"connected_time":1918000000000,"state":"active","ping":69},{"user_id":390,"name":"Papi","steam_id":76561199019264139,"connected_time":898000000000,"state":"active","ping":73},{"user_id":398,"name":"Xoriss","steam_id":76561198045892147,"connected_time":672000000000,"state":"active","ping":76},{"user_id":405,"name":"SmurfAndTurf","steam_id":76561198451975459,"connected_time":8000000000,"state":"spawning","ping":149},{"user_id":296,"name":"Lux","steam_id":76561198060417740,"connected_time":6550000000000,"state":"active","ping":49},{"user_id":401,"name":"some edgy nickname","steam_id":76561198040241299,"connected_time":270000000000,"state":"active","ping":63},{"user_id":397,"name":"cslevi","steam_id":76561198142858923,"connected_time":717000000000,"state":"active","ping":74},{"user_id":383,"name":"neal","steam_id":76561198400511652,"connected_time":1290000000000,"state":"active","ping":90},{"user_id":399,"name":"KillerPotato!","steam_id":76561198071283721,"connected_time":620000000000,"state":"active","ping":79},{"user_id":360,"name":"El Gato Volador","steam_id":76561198021296882,"connected_time":3410000000000,"state":"active","ping":64},{"user_id":372,"name":"dat mann","steam_id":76561198260496395,"connected_time":2144000000000,"state":"active","ping":178},{"user_id":403,"name":"Pahlberg","steam_id":76561198208547929,"connected_time":152000000000,"state":"active","ping":91},{"user_id":358,"name":"csnipery","steam_id":76561199435280050,"connected_time":3469000000000,"state":"active","ping":62},{"user_id":366,"name":"Mancomb Seepgood","steam_id":76561197974116369,"connected_time":3070000000000,"state":"active","ping":65},{"user_id":379,"name":".pandemiC","steam_id":76561198015941460,"connected_time":1775000000000,"state":"active","ping":109}]},{"server_id":23,"name":"Uncletopia | Frankfurt | 7 | No Payload","name_short":"frk-7","host":"frk-1.de.uncletopia.com","port":27075,"enabled":true,"region":"eu","cc":"de","latitude":50.110924,"longitude":8.682127,"reserved":0,"last_update":"0001-01-01T00:00:00Z","name_a2s":"Uncletopia | Frankfurt | 7 | No Payload","protocol":17,"map":"cp_steel","folder":"tf","game":"Team Fortress","app_id":440,"player_count":14,"max_players":24,"Bots":0,"server_type":"Dedicated","server_os":"Linux","password":true,"vac":true,"version":"7708610","steam_id":85568392924742827,"keywords":["cp","nocrits","nodmgspread","uncletopia"],"game_id":440,"stv_port":27076,"stv_name":"Uncletopia | Frankfurt | 7 | No Payload | STV","players":[{"user_id":235,"name":"Fortezza","steam_id":76561198972539903,"connected_time":96000000000,"state":"active","ping":46},{"user_id":226,"name":"Bentley","steam_id":76561197978252169,"connected_time":922000000000,"state":"active","ping":67},{"user_id":231,"name":"Wrabchev* Just_Smile","steam_id":76561198040645344,"connected_time":415000000000,"state":"active","ping":65},{"user_id":219,"name":"Snowmotion","steam_id":76561198075022454,"connected_time":1231000000000,"state":"active","ping":49},{"user_id":185,"name":"YellowSwitchLine","steam_id":76561198808209786,"connected_time":3608000000000,"state":"active","ping":75},{"user_id":205,"name":"foolproof","steam_id":76561198115801132,"connected_time":2524000000000,"state":"active","ping":48},{"user_id":229,"name":"DeKritteh","steam_id":76561198113945397,"connected_time":656000000000,"state":"active","ping":79},{"user_id":221,"name":"Saint Az","steam_id":76561198156801417,"connected_time":1206000000000,"state":"active","ping":42},{"user_id":222,"name":"Darky","steam_id":76561198004733239,"connected_time":1202000000000,"state":"active","ping":44},{"user_id":223,"name":"egaruK","steam_id":76561197999314913,"connected_time":1199000000000,"state":"active","ping":47},{"user_id":197,"name":"Ork","steam_id":76561197968575924,"connected_time":3067000000000,"state":"active","ping":69},{"user_id":233,"name":"RandomName","steam_id":76561198055552108,"connected_time":243000000000,"state":"active","ping":48},{"user_id":224,"name":"Dolphin2011","steam_id":76561197997323419,"connected_time":1182000000000,"state":"active","ping":87},{"user_id":215,"name":"solveig","steam_id":76561198271713106,"connected_time":2069000000000,"state":"active","ping":140}]},{"server_id":24,"name":"Uncletopia | Frankfurt | 8 | Community","name_short":"frk-8","host":"frk-1.de.uncletopia.com","port":27085,"enabled":true,"region":"eu","cc":"de","latitude":50.110924,"longitude":8.682127,"reserved":0,"last_update":"0001-01-01T00:00:00Z","name_a2s":"Uncletopia | Frankfurt | 8 | Community","protocol":17,"map":"workshop/koth_ramjam_v2_b2.ugc2865676487","folder":"tf","game":"Team Fortress","app_id":440,"player_count":0,"max_players":24,"Bots":0,"server_type":"Dedicated","server_os":"Linux","password":true,"vac":true,"version":"7708610","steam_id":85568392924742828,"keywords":["cp","nocrits","nodmgspread","uncletopia"],"game_id":440,"stv_port":27086,"stv_name":"Uncletopia | Frankfurt | 8 | Community | STV","players":null},{"server_id":202,"name":"Uncletopia | Hong Kong | 1 | All Maps","name_short":"hgk-1","host":"hgk-1.hk.uncletopia.com","port":27015,"enabled":true,"region":"asia","cc":"hk","latitude":22.302711,"longitude":114.177216,"reserved":0,"last_update":"0001-01-01T00:00:00Z","name_a2s":"Uncletopia | Hong Kong | 1 | All Maps","protocol":17,"map":"pl_upward","folder":"tf","game":"Team Fortress","app_id":440,"player_count":0,"max_players":24,"Bots":0,"server_type":"Dedicated","server_os":"Linux","password":true,"vac":true,"version":"7708610","steam_id":85568392924494504,"keywords":["nocrits","nodmgspread","payload","uncletopia"],"game_id":440,"stv_port":0,"stv_name":"","players":null},{"server_id":1,"name":"Uncletopia | Los Angeles | 1 | All Maps","name_short":"lax-1","host":"lax-1.us.uncletopia.com","port":27015,"enabled":true,"region":"us-west","cc":"us","latitude":33.94279,"longitude":-118.41004,"reserved":0,"last_update":"0001-01-01T00:00:00Z","name_a2s":"Uncletopia | Los Angeles | 1 | All Maps","protocol":17,"map":"pl_swiftwater_final1","folder":"tf","game":"Team Fortress","app_id":440,"player_count":0,"max_players":24,"Bots":0,"server_type":"Dedicated","server_os":"Linux","password":true,"vac":true,"version":"7708610","steam_id":85568392924469991,"keywords":["nocrits","nodmgspread","payload","uncletopia"],"game_id":440,"stv_port":27016,"stv_name":"Uncletopia | Los Angeles | 1 | All Maps | STV","players":null},{"server_id":112,"name":"Uncletopia | Los Angeles | 2 | All Maps","name_short":"lax-2","host":"lax-1.us.uncletopia.com","port":27025,"enabled":true,"region":"us-west","cc":"us","latitude":33.94279,"longitude":-118.41004,"reserved":0,"last_update":"0001-01-01T00:00:00Z","name_a2s":"Uncletopia | Los Angeles | 2 | All Maps","protocol":17,"map":"cp_altitude","folder":"tf","game":"Team Fortress","app_id":440,"player_count":0,"max_players":24,"Bots":0,"server_type":"Dedicated","server_os":"Linux","password":true,"vac":true,"version":"7708610","steam_id":85568392924469992,"keywords":["cp","nocrits","nodmgspread","uncletopia"],"game_id":440,"stv_port":0,"stv_name":"","players":null},{"server_id":324,"name":"Uncletopia | Los Angeles | 3 | All Maps","name_short":"lax-3","host":"lax-1.us.uncletopia.com","port":27035,"enabled":true,"region":"us-west","cc":"us","latitude":33.94279,"longitude":-118.41004,"reserved":0,"last_update":"0001-01-01T00:00:00Z","name_a2s":"Uncletopia | Los Angeles | 3 | All Maps","protocol":17,"map":"cp_sunshine","folder":"tf","game":"Team Fortress","app_id":440,"player_count":0,"max_players":24,"Bots":0,"server_type":"Dedicated","server_os":"Linux","password":true,"vac":true,"version":"7708610","steam_id":85568392924510198,"keywords":["cp","nocrits","nodmgspread","uncletopia"],"game_id":440,"stv_port":27036,"stv_name":"Uncletopia | Los Angeles | 3 | All Maps | STV","players":null},{"server_id":25,"name":"Uncletopia | Los Angeles | 4 | No Payload","name_short":"lax-4","host":"lax-1.us.uncletopia.com","port":27045,"enabled":true,"region":"us-west","cc":"us","latitude":33.94279,"longitude":-118.41004,"reserved":0,"last_update":"0001-01-01T00:00:00Z","name_a2s":"Uncletopia | Los Angeles | 4 | No Payload","protocol":17,"map":"koth_lazarus","folder":"tf","game":"Team Fortress","app_id":440,"player_count":0,"max_players":24,"Bots":0,"server_type":"Dedicated","server_os":"Linux","password":true,"vac":true,"version":"7708610","steam_id":85568392924510199,"keywords":["cp","nocrits","nodmgspread","uncletopia"],"game_id":440,"stv_port":27046,"stv_name":"Uncletopia | Los Angeles | 4 | No Payload | STV","players":null},{"server_id":11,"name":"Uncletopia | London | 1 | All Maps","name_short":"lon-1","host":"lon-1.uk.uncletopia.com","port":27015,"enabled":true,"region":"eu","cc":"gb","latitude":51.509865,"longitude":-0.118092,"reserved":0,"last_update":"0001-01-01T00:00:00Z","name_a2s":"Uncletopia | London | 1 | All Maps","protocol":17,"map":"cp_process_final","folder":"tf","game":"Team Fortress","app_id":440,"player_count":24,"max_players":24,"Bots":0,"server_type":"Dedicated","server_os":"Linux","password":true,"vac":true,"version":"7708610","steam_id":85568392924367362,"keywords":["cp","nocrits","nodmgspread","uncletopia"],"game_id":440,"stv_port":27016,"stv_name":"Uncletopia | London | 1 | All Maps | STV","players":[{"user_id":513,"name":"BreadBaubbles","steam_id":76561198174332826,"connected_time":3772000000000,"state":"active","ping":55},{"user_id":520,"name":"stroyo","steam_id":76561198409592046,"connected_time":3095000000000,"state":"active","ping":44},{"user_id":543,"name":"abi advent calendar","steam_id":76561198166953966,"connected_time":918000000000,"state":"active","ping":51},{"user_id":535,"name":"Senator Armstrong","steam_id":76561198984346408,"connected_time":1737000000000,"state":"active","ping":76},{"user_id":338,"name":"✪ J","steam_id":76561198094911581,"connected_time":18289000000000,"state":"active","ping":46},{"user_id":524,"name":"F1-M","steam_id":76561198198409875,"connected_time":2981000000000,"state":"active","ping":124},{"user_id":491,"name":"ULTIMATE_GORDON","steam_id":76561198044470038,"connected_time":5212000000000,"state":"active","ping":44},{"user_id":555,"name":"dw about it","steam_id":76561198043850884,"connected_time":53000000000,"state":"active","ping":267},{"user_id":389,"name":"Mango","steam_id":76561198139555709,"connected_time":14586000000000,"state":"active","ping":55},{"user_id":512,"name":"ball sniffa","steam_id":76561199022705805,"connected_time":3854000000000,"state":"active","ping":44},{"user_id":542,"name":"nalapl3","steam_id":76561198197607383,"connected_time":1106000000000,"state":"active","ping":67},{"user_id":534,"name":"SOPHIIEE","steam_id":76561198443798981,"connected_time":1891000000000,"state":"active","ping":47},{"user_id":538,"name":"fr3fou","steam_id":76561198070932683,"connected_time":1709000000000,"state":"active","ping":73},{"user_id":275,"name":"festive jones","steam_id":76561198073975078,"connected_time":21172000000000,"state":"active","ping":52},{"user_id":553,"name":"dochris.2","steam_id":76561198026478625,"connected_time":478000000000,"state":"active","ping":52},{"user_id":548,"name":"Cum-pkin ❤","steam_id":76561199273774208,"connected_time":697000000000,"state":"active","ping":78},{"user_id":550,"name":"Bonca","steam_id":76561198137503531,"connected_time":591000000000,"state":"active","ping":72},{"user_id":551,"name":"category 5 tummy event","steam_id":76561198072892783,"connected_time":588000000000,"state":"active","ping":69},{"user_id":530,"name":"Lods of Emone","steam_id":76561198188642265,"connected_time":2760000000000,"state":"active","ping":46},{"user_id":531,"name":"whimsmas.","steam_id":76561198878171763,"connected_time":2448000000000,"state":"active","ping":56},{"user_id":488,"name":"chrissymas","steam_id":76561198096547662,"connected_time":5810000000000,"state":"active","ping":58},{"user_id":545,"name":"Sad Slut","steam_id":76561198838277022,"connected_time":904000000000,"state":"active","ping":78},{"user_id":546,"name":"Cinder","steam_id":76561199072130163,"connected_time":904000000000,"state":"active","ping":44},{"user_id":541,"name":"Mac","steam_id":76561198799155931,"connected_time":1350000000000,"state":"active","ping":48}]},{"server_id":114,"name":"Uncletopia | London | 2 | All Maps","name_short":"lon-2","host":"lon-1.uk.uncletopia.com","port":27025,"enabled":true,"region":"eu","cc":"gb","latitude":51.509865,"longitude":-0.118092,"reserved":0,"last_update":"0001-01-01T00:00:00Z","name_a2s":"Uncletopia | London | 2 | All Maps","protocol":17,"map":"cp_process_final","folder":"tf","game":"Team Fortress","app_id":440,"player_count":24,"max_players":24,"Bots":0,"server_type":"Dedicated","server_os":"Linux","password":true,"vac":true,"version":"7708610","steam_id":85568392924470941,"keywords":["cp","nocrits","nodmgspread","uncletopia"],"game_id":440,"stv_port":27026,"stv_name":"Uncletopia | London | 2 | All Maps | STV","players":[{"user_id":549,"name":"round object","steam_id":76561198136239861,"connected_time":2826000000000,"state":"active","ping":45},{"user_id":500,"name":"Hasamnas","steam_id":76561199125038537,"connected_time":5149000000000,"state":"active","ping":60},{"user_id":565,"name":"Poor Fucking Infantry","steam_id":76561198055978522,"connected_time":881000000000,"state":"active","ping":47},{"user_id":553,"name":"Gurgula","steam_id":76561198021253678,"connected_time":2214000000000,"state":"active","ping":73},{"user_id":568,"name":"GoofBaller","steam_id":76561198997885594,"connected_time":723000000000,"state":"active","ping":45},{"user_id":564,"name":"SimplePig","steam_id":76561198071862153,"connected_time":974000000000,"state":"active","ping":112},{"user_id":542,"name":"Wyvern786","steam_id":76561199137770636,"connected_time":3011000000000,"state":"active","ping":47},{"user_id":554,"name":"President013","steam_id":76561198107233527,"connected_time":2194000000000,"state":"active","ping":78},{"user_id":569,"name":"Turtle","steam_id":76561198262110064,"connected_time":660000000000,"state":"active","ping":170},{"user_id":520,"name":"Kylul_","steam_id":76561198042981061,"connected_time":3771000000000,"state":"active","ping":30},{"user_id":566,"name":"Cinnabyn","steam_id":76561198131623853,"connected_time":809000000000,"state":"active","ping":57},{"user_id":570,"name":"omnibombulator","steam_id":76561198025858897,"connected_time":608000000000,"state":"active","ping":50},{"user_id":540,"name":"Grim the lemon","steam_id":76561199083433988,"connected_time":3071000000000,"state":"active","ping":48},{"user_id":571,"name":"Dewotter","steam_id":76561198007653168,"connected_time":598000000000,"state":"active","ping":59},{"user_id":491,"name":"Vershal Smershal","steam_id":76561198116223995,"connected_time":5880000000000,"state":"active","ping":59},{"user_id":551,"name":"pryate","steam_id":76561198135960359,"connected_time":2662000000000,"state":"active","ping":43},{"user_id":563,"name":"Jamba Sparabo","steam_id":76561198131647600,"connected_time":1086000000000,"state":"active","ping":53},{"user_id":558,"name":"crafteen","steam_id":76561198362185755,"connected_time":1792000000000,"state":"active","ping":44},{"user_id":559,"name":"scout gaming","steam_id":76561199380974466,"connected_time":1434000000000,"state":"active","ping":89},{"user_id":484,"name":"outin","steam_id":76561198137734730,"connected_time":6146000000000,"state":"active","ping":62},{"user_id":476,"name":"Tj0ckis","steam_id":76561198108854226,"connected_time":6516000000000,"state":"active","ping":62},{"user_id":572,"name":"pigswill","steam_id":76561197999081865,"connected_time":551000000000,"state":"active","ping":138},{"user_id":524,"name":"squib","steam_id":76561198049170360,"connected_time":3556000000000,"state":"active","ping":38},{"user_id":573,"name":"breedable","steam_id":76561198010300032,"connected_time":536000000000,"state":"active","ping":73}]},{"server_id":320,"name":"Uncletopia | London | 3 | All Maps","name_short":"lon-3","host":"lon-1.uk.uncletopia.com","port":27035,"enabled":true,"region":"eu","cc":"gb","latitude":51.509865,"longitude":-0.118092,"reserved":0,"last_update":"0001-01-01T00:00:00Z","name_a2s":"Uncletopia | London | 3 | All Maps","protocol":17,"map":"pl_pier","folder":"tf","game":"Team Fortress","app_id":440,"player_count":24,"max_players":24,"Bots":0,"server_type":"Dedicated","server_os":"Linux","password":true,"vac":true,"version":"7708610","steam_id":85568392924510192,"keywords":["nocrits","nodmgspread","payload","uncletopia"],"game_id":440,"stv_port":27036,"stv_name":"Uncletopia | London | 3 | All Maps | STV","players":[{"user_id":353,"name":"nedilya","steam_id":76561198039692077,"connected_time":4919000000000,"state":"active","ping":60},{"user_id":410,"name":"kaelan!","steam_id":76561198001425310,"connected_time":996000000000,"state":"active","ping":75},{"user_id":372,"name":"Revettah","steam_id":76561198040442214,"connected_time":3536000000000,"state":"active","ping":30},{"user_id":391,"name":"Lukas","steam_id":76561198009118452,"connected_time":2594000000000,"state":"active","ping":62},{"user_id":409,"name":"Artur ☻","steam_id":76561198264297604,"connected_time":1001000000000,"state":"active","ping":62},{"user_id":422,"name":"jt7","steam_id":76561198073655162,"connected_time":586000000000,"state":"active","ping":81},{"user_id":351,"name":"Bottomest","steam_id":76561198091734693,"connected_time":5159000000000,"state":"active","ping":75},{"user_id":206,"name":"Fat Pigeon","steam_id":76561198817940142,"connected_time":14934000000000,"state":"active","ping":53},{"user_id":407,"name":"arx","steam_id":76561199150850597,"connected_time":1198000000000,"state":"active","ping":45},{"user_id":405,"name":"DEMURE","steam_id":76561198263299590,"connected_time":1820000000000,"state":"active","ping":77},{"user_id":386,"name":"Jar","steam_id":76561198156384007,"connected_time":2798000000000,"state":"active","ping":31},{"user_id":415,"name":"Vuniverse","steam_id":76561198061864217,"connected_time":805000000000,"state":"active","ping":55},{"user_id":292,"name":"Proto-arc","steam_id":76561198012776747,"connected_time":10062000000000,"state":"active","ping":53},{"user_id":361,"name":"Will Toledo's No. 1 fan","steam_id":76561198397024973,"connected_time":4399000000000,"state":"active","ping":35},{"user_id":411,"name":"cryyptt_ ★","steam_id":76561198059566837,"connected_time":994000000000,"state":"active","ping":58},{"user_id":418,"name":"gnome","steam_id":76561198262275475,"connected_time":786000000000,"state":"active","ping":147},{"user_id":401,"name":"Zigguski","steam_id":76561198022990016,"connected_time":2288000000000,"state":"active","ping":49},{"user_id":417,"name":"N3na3","steam_id":76561198149644285,"connected_time":799000000000,"state":"active","ping":96},{"user_id":399,"name":"Tarixxiv","steam_id":76561198084365415,"connected_time":2335000000000,"state":"active","ping":92},{"user_id":423,"name":"SynthBox3","steam_id":76561199094075745,"connected_time":542000000000,"state":"active","ping":90},{"user_id":425,"name":"Spoof059","steam_id":76561198356116829,"connected_time":367000000000,"state":"active","ping":52},{"user_id":408,"name":"There Was Sludge","steam_id":76561198080631634,"connected_time":1004000000000,"state":"active","ping":43},{"user_id":421,"name":"LeatheryDutchbag","steam_id":76561198800023728,"connected_time":705000000000,"state":"active","ping":60},{"user_id":403,"name":"glyph","steam_id":76561197980736364,"connected_time":2061000000000,"state":"active","ping":93}]},{"server_id":321,"name":"Uncletopia | London | 4 | All Maps","name_short":"lon-4","host":"lon-1.uk.uncletopia.com","port":27045,"enabled":true,"region":"eu","cc":"gb","latitude":51.509865,"longitude":-0.118092,"reserved":0,"last_update":"0001-01-01T00:00:00Z","name_a2s":"Uncletopia | London | 4 | All Maps","protocol":17,"map":"cp_sunshine","folder":"tf","game":"Team Fortress","app_id":440,"player_count":0,"max_players":24,"Bots":0,"server_type":"Dedicated","server_os":"Linux","password":true,"vac":true,"version":"7708610","steam_id":85568392924510193,"keywords":["cp","nocrits","nodmgspread","uncletopia"],"game_id":440,"stv_port":27046,"stv_name":"Uncletopia | London | 4 | All Maps | STV","players":null},{"server_id":21,"name":"Uncletopia | London | 5 | All Maps","name_short":"lon-5","host":"lon-1.uk.uncletopia.com","port":27055,"enabled":true,"region":"eu","cc":"gb","latitude":51.509865,"longitude":-0.118092,"reserved":0,"last_update":"0001-01-01T00:00:00Z","name_a2s":"Uncletopia | London | 5 | All Maps","protocol":17,"map":"koth_lakeside_final","folder":"tf","game":"Team Fortress","app_id":440,"player_count":0,"max_players":24,"Bots":0,"server_type":"Dedicated","server_os":"Linux","password":true,"vac":true,"version":"7708610","steam_id":85568392924742829,"keywords":["cp","nocrits","nodmgspread","uncletopia"],"game_id":440,"stv_port":0,"stv_name":"","players":null},{"server_id":22,"name":"Uncletopia | London | 6 | All Maps","name_short":"lon-6","host":"lon-1.uk.uncletopia.com","port":27065,"enabled":true,"region":"eu","cc":"gb","latitude":51.509865,"longitude":-0.118092,"reserved":0,"last_update":"0001-01-01T00:00:00Z","name_a2s":"Uncletopia | London | 6 | All Maps","protocol":17,"map":"pl_borneo","folder":"tf","game":"Team Fortress","app_id":440,"player_count":0,"max_players":24,"Bots":0,"server_type":"Dedicated","server_os":"Linux","password":true,"vac":true,"version":"7708610","steam_id":85568392924742830,"keywords":["nocrits","nodmgspread","payload","uncletopia"],"game_id":440,"stv_port":27066,"stv_name":"Uncletopia | London | 6 | All Maps | STV","players":null},{"server_id":40,"name":"Uncletopia | London | 7 | No Payload","name_short":"lon-7","host":"lon-1.uk.uncletopia.com","port":27075,"enabled":true,"region":"eu","cc":"gb","latitude":51.509865,"longitude":-0.118092,"reserved":0,"last_update":"0001-01-01T00:00:00Z","name_a2s":"Uncletopia | London | 7 | No Payload","protocol":17,"map":"plr_hightower","folder":"tf","game":"Team Fortress","app_id":440,"player_count":0,"max_players":24,"Bots":0,"server_type":"Dedicated","server_os":"Linux","password":true,"vac":true,"version":"7708610","steam_id":85568392924964314,"keywords":["nocrits","nodmgspread","payload","uncletopia"],"game_id":440,"stv_port":27076,"stv_name":"Uncletopia | London | 7 | No Payload | STV","players":null},{"server_id":41,"name":"Uncletopia | London | 8 | Community","name_short":"lon-8","host":"lon-1.uk.uncletopia.com","port":27085,"enabled":true,"region":"eu","cc":"gb","latitude":51.509865,"longitude":-0.118092,"reserved":0,"last_update":"0001-01-01T00:00:00Z","name_a2s":"Uncletopia | London | 8 | Community","protocol":17,"map":"workshop/koth_product_final.ugc454272353","folder":"tf","game":"Team Fortress","app_id":440,"player_count":0,"max_players":24,"Bots":0,"server_type":"Dedicated","server_os":"Linux","password":true,"vac":true,"version":"7708610","steam_id":85568392924964315,"keywords":["cp","nocrits","nodmgspread","uncletopia"],"game_id":440,"stv_port":27086,"stv_name":"Uncletopia | London | 8 | Community | STV","players":null},{"server_id":300,"name":"Uncletopia | Montréal | 1 | All Maps","name_short":"mtl-1","host":"mtl-1.ca.uncletopia.com","port":27015,"enabled":true,"region":"us-east","cc":"ca","latitude":45.50889,"longitude":-73.56167,"reserved":0,"last_update":"0001-01-01T00:00:00Z","name_a2s":"Uncletopia | Montréal | 1 | All Maps","protocol":17,"map":"pl_upward","folder":"tf","game":"Team Fortress","app_id":440,"player_count":0,"max_players":24,"Bots":0,"server_type":"Dedicated","server_os":"Linux","password":true,"vac":true,"version":"7708610","steam_id":85568392924500087,"keywords":["nocrits","nodmgspread","payload","uncletopia"],"game_id":440,"stv_port":27016,"stv_name":"Uncletopia | Montréal | 1 | All Maps | STV","players":null},{"server_id":301,"name":"Uncletopia | Montréal | 2 | All Maps","name_short":"mtl-2","host":"mtl-1.ca.uncletopia.com","port":27025,"enabled":true,"region":"us-east","cc":"ca","latitude":45.50889,"longitude":-73.56167,"reserved":0,"last_update":"0001-01-01T00:00:00Z","name_a2s":"Uncletopia | Montréal | 2 | All Maps","protocol":17,"map":"cp_process_final","folder":"tf","game":"Team Fortress","app_id":440,"player_count":0,"max_players":24,"Bots":0,"server_type":"Dedicated","server_os":"Linux","password":true,"vac":true,"version":"7708610","steam_id":85568392924500088,"keywords":["cp","nocrits","nodmgspread","uncletopia"],"game_id":440,"stv_port":27026,"stv_name":"Uncletopia | Montréal | 2 | All Maps | STV","players":null},{"server_id":302,"name":"Uncletopia | Montréal | 3 | All Maps","name_short":"mtl-3","host":"mtl-1.ca.uncletopia.com","port":27035,"enabled":true,"region":"us-east","cc":"ca","latitude":45.50889,"longitude":-73.56167,"reserved":0,"last_update":"0001-01-01T00:00:00Z","name_a2s":"Uncletopia | Montréal | 3 | All Maps","protocol":17,"map":"koth_highpass","folder":"tf","game":"Team Fortress","app_id":440,"player_count":0,"max_players":24,"Bots":0,"server_type":"Dedicated","server_os":"Linux","password":true,"vac":true,"version":"7708610","steam_id":85568392924500089,"keywords":["cp","nocrits","nodmgspread","uncletopia"],"game_id":440,"stv_port":27036,"stv_name":"Uncletopia | Montréal | 3 | All Maps | STV","players":null},{"server_id":303,"name":"Uncletopia | Montréal | 4 | No Payload","name_short":"mtl-4","host":"mtl-1.ca.uncletopia.com","port":27045,"enabled":true,"region":"us-east","cc":"ca","latitude":45.50889,"longitude":-73.56167,"reserved":0,"last_update":"0001-01-01T00:00:00Z","name_a2s":"Uncletopia | Montréal | 4 | No Payload","protocol":17,"map":"ctf_sawmill","folder":"tf","game":"Team Fortress","app_id":440,"player_count":0,"max_players":24,"Bots":0,"server_type":"Dedicated","server_os":"Linux","password":true,"vac":true,"version":"7708610","steam_id":85568392924500090,"keywords":["ctf","nocrits","nodmgspread","uncletopia"],"game_id":440,"stv_port":27046,"stv_name":"Uncletopia | Montréal | 4 | No Payload | STV","players":null},{"server_id":13,"name":"Uncletopia | New York City | 1 | All Maps","name_short":"nyc-1","host":"nyc-1.us.uncletopia.com","port":27015,"enabled":true,"region":"us-east","cc":"us","latitude":40.73061,"longitude":-73.93524,"reserved":0,"last_update":"0001-01-01T00:00:00Z","name_a2s":"Uncletopia | New York City | 1 | All Maps","protocol":17,"map":"koth_lakeside_final","folder":"tf","game":"Team Fortress","app_id":440,"player_count":0,"max_players":24,"Bots":0,"server_type":"Dedicated","server_os":"Linux","password":true,"vac":true,"version":"7708610","steam_id":85568392924469993,"keywords":["cp","nocrits","nodmgspread","uncletopia"],"game_id":440,"stv_port":27016,"stv_name":"Uncletopia | New York City | 1 | All Maps | STV","players":null},{"server_id":14,"name":"Uncletopia | New York City | 2 | All Maps","name_short":"nyc-2","host":"nyc-1.us.uncletopia.com","port":27025,"enabled":true,"region":"us-east","cc":"us","latitude":40.73061,"longitude":-73.93524,"reserved":0,"last_update":"0001-01-01T00:00:00Z","name_a2s":"Uncletopia | New York City | 2 | All Maps","protocol":17,"map":"ctf_turbine","folder":"tf","game":"Team Fortress","app_id":440,"player_count":24,"max_players":24,"Bots":0,"server_type":"Dedicated","server_os":"Linux","password":true,"vac":true,"version":"7708610","steam_id":85568392924469994,"keywords":["ctf","nocrits","nodmgspread","uncletopia"],"game_id":440,"stv_port":27026,"stv_name":"Uncletopia | New York City | 2 | All Maps | STV","players":[{"user_id":112,"name":"Rock Kickass","steam_id":76561198450510841,"connected_time":1434000000000,"state":"active","ping":120},{"user_id":117,"name":"kimin","steam_id":76561198263393063,"connected_time":1219000000000,"state":"active","ping":115},{"user_id":119,"name":"amazing dispenser","steam_id":76561199191568391,"connected_time":1139000000000,"state":"active","ping":53},{"user_id":80,"name":"TheAshenDerp","steam_id":76561198848585450,"connected_time":4184000000000,"state":"active","ping":42},{"user_id":132,"name":"Phocae \u003c3","steam_id":76561199317584594,"connected_time":458000000000,"state":"active","ping":62},{"user_id":126,"name":"yesoko","steam_id":76561198072917024,"connected_time":1011000000000,"state":"active","ping":72},{"user_id":91,"name":"eeveethecomic66","steam_id":76561199013856854,"connected_time":2993000000000,"state":"active","ping":69},{"user_id":105,"name":"BeerPowder","steam_id":76561198058129400,"connected_time":1934000000000,"state":"active","ping":52},{"user_id":79,"name":"on?jamal","steam_id":76561198020736672,"connected_time":4470000000000,"state":"active","ping":59},{"user_id":108,"name":"baby man?","steam_id":76561198101640057,"connected_time":1557000000000,"state":"active","ping":75},{"user_id":133,"name":"m2","steam_id":76561198078802110,"connected_time":457000000000,"state":"active","ping":91},{"user_id":68,"name":"Raincool","steam_id":76561198042953645,"connected_time":4739000000000,"state":"active","ping":47},{"user_id":136,"name":"big guapo","steam_id":76561198103228695,"connected_time":140000000000,"state":"active","ping":49},{"user_id":114,"name":"Hugh G Rection","steam_id":76561198117404218,"connected_time":1378000000000,"state":"active","ping":72},{"user_id":113,"name":"erogator","steam_id":76561199119674387,"connected_time":1421000000000,"state":"active","ping":82},{"user_id":121,"name":"holymoly1645 TWITCH","steam_id":76561198079009899,"connected_time":1134000000000,"state":"active","ping":82},{"user_id":131,"name":"Femboys R Us","steam_id":76561198071239843,"connected_time":467000000000,"state":"active","ping":75},{"user_id":122,"name":"sketti","steam_id":76561199060710804,"connected_time":1123000000000,"state":"active","ping":149},{"user_id":35,"name":"Grimaud","steam_id":76561197975272734,"connected_time":7664000000000,"state":"active","ping":92},{"user_id":135,"name":"Bevan(The Manager)","steam_id":76561198073890273,"connected_time":311000000000,"state":"active","ping":128},{"user_id":128,"name":"Aerris","steam_id":76561199178877456,"connected_time":849000000000,"state":"active","ping":79},{"user_id":127,"name":"substance","steam_id":76561198050103868,"connected_time":1007000000000,"state":"active","ping":133},{"user_id":109,"name":"comet sooicidy","steam_id":76561198025173479,"connected_time":1542000000000,"state":"active","ping":76},{"user_id":125,"name":"Shuual","steam_id":76561198004395256,"connected_time":1087000000000,"state":"active","ping":80}]},{"server_id":15,"name":"Uncletopia | New York City | 3 | All Maps","name_short":"nyc-3","host":"nyc-1.us.uncletopia.com","port":27035,"enabled":true,"region":"us-east","cc":"us","latitude":40.73061,"longitude":-73.93524,"reserved":0,"last_update":"0001-01-01T00:00:00Z","name_a2s":"Uncletopia | New York City | 3 | All Maps","protocol":17,"map":"koth_viaduct","folder":"tf","game":"Team Fortress","app_id":440,"player_count":24,"max_players":24,"Bots":0,"server_type":"Dedicated","server_os":"Linux","password":true,"vac":true,"version":"7708610","steam_id":85568392924742820,"keywords":["cp","nocrits","nodmgspread","uncletopia"],"game_id":440,"stv_port":27036,"stv_name":"Uncletopia | New York City | 3 | All Maps | STV","players":[{"user_id":91,"name":"surrender to the void","steam_id":76561198055494039,"connected_time":6072000000000,"state":"active","ping":56},{"user_id":85,"name":"Frost ♥","steam_id":76561198168870617,"connected_time":7289000000000,"state":"active","ping":52},{"user_id":141,"name":"ShinyOrion (She/Her)","steam_id":76561198408378321,"connected_time":3385000000000,"state":"active","ping":52},{"user_id":161,"name":"PrinceGrotle","steam_id":76561198206131603,"connected_time":1072000000000,"state":"active","ping":54},{"user_id":148,"name":"thepokeyen","steam_id":76561198236847572,"connected_time":2683000000000,"state":"active","ping":80},{"user_id":143,"name":"randomperson88","steam_id":76561199228822173,"connected_time":2963000000000,"state":"active","ping":78},{"user_id":170,"name":"Owl Pacino","steam_id":76561197979970666,"connected_time":91000000000,"state":"active","ping":74},{"user_id":171,"name":"McNamJam","steam_id":76561198028128686,"connected_time":35000000000,"state":"spawning","ping":172},{"user_id":162,"name":"The Great Eagle Scourge of 1822","steam_id":76561198325086209,"connected_time":1047000000000,"state":"active","ping":110},{"user_id":155,"name":"Taco","steam_id":76561198158621392,"connected_time":2123000000000,"state":"active","ping":68},{"user_id":164,"name":"kob","steam_id":76561198065109021,"connected_time":561000000000,"state":"active","ping":62},{"user_id":158,"name":"a_person_159","steam_id":76561199024416326,"connected_time":1519000000000,"state":"active","ping":68},{"user_id":168,"name":"begolds8","steam_id":76561198841069098,"connected_time":239000000000,"state":"active","ping":100},{"user_id":159,"name":"reis","steam_id":76561199232952016,"connected_time":1443000000000,"state":"active","ping":178},{"user_id":137,"name":"Nibelsnarf","steam_id":76561198137642054,"connected_time":4295000000000,"state":"active","ping":60},{"user_id":35,"name":"ToeSniffer1992","steam_id":76561199134895220,"connected_time":9913000000000,"state":"active","ping":49},{"user_id":136,"name":"BIGGEST MAC","steam_id":76561198847517098,"connected_time":4385000000000,"state":"active","ping":78},{"user_id":144,"name":"Le","steam_id":76561198817754233,"connected_time":2948000000000,"state":"active","ping":61},{"user_id":130,"name":"AmirKhaan","steam_id":76561198992403254,"connected_time":4505000000000,"state":"active","ping":59},{"user_id":149,"name":"Challenger Charles","steam_id":76561198005576553,"connected_time":2606000000000,"state":"active","ping":65},{"user_id":100,"name":"PinkLemonade","steam_id":76561198799286228,"connected_time":5699000000000,"state":"active","ping":53},{"user_id":112,"name":"Draconic Ballad","steam_id":76561198027191515,"connected_time":5021000000000,"state":"active","ping":64},{"user_id":117,"name":"chad","steam_id":76561198216109017,"connected_time":4907000000000,"state":"active","ping":52},{"user_id":154,"name":"G","steam_id":76561198960346683,"connected_time":2136000000000,"state":"active","ping":68}]},{"server_id":16,"name":"Uncletopia | New York City | 4 | Community","name_short":"nyc-4","host":"nyc-1.us.uncletopia.com","port":27045,"enabled":true,"region":"us-east","cc":"us","latitude":40.73061,"longitude":-73.93524,"reserved":0,"last_update":"0001-01-01T00:00:00Z","name_a2s":"Uncletopia | New York City | 4 | Community","protocol":17,"map":"workshop/koth_ramjam_v2_b2.ugc2865676487","folder":"tf","game":"Team Fortress","app_id":440,"player_count":0,"max_players":24,"Bots":0,"server_type":"Dedicated","server_os":"Linux","password":true,"vac":true,"version":"7708610","steam_id":85568392924742821,"keywords":["cp","nocrits","nodmgspread","uncletopia"],"game_id":440,"stv_port":27046,"stv_name":"Uncletopia | New York City | 4 | Community | STV","players":null},{"server_id":142,"name":"Uncletopia | São Paulo | 1 | All Maps","name_short":"sao-1","host":"sao-1.br.uncletopia.com","port":27015,"enabled":true,"region":"sa","cc":"br","latitude":-23.533773,"longitude":-46.62529,"reserved":0,"last_update":"0001-01-01T00:00:00Z","name_a2s":"Uncletopia | São Paulo | 1 | All Maps","protocol":17,"map":"pl_borneo","folder":"tf","game":"Team Fortress","app_id":440,"player_count":24,"max_players":24,"Bots":0,"server_type":"Dedicated","server_os":"Linux","password":true,"vac":true,"version":"7708610","steam_id":85568392924469996,"keywords":["nocrits","nodmgspread","payload","uncletopia"],"game_id":440,"stv_port":27016,"stv_name":"Uncletopia | São Paulo | 1 | All Maps | STV","players":[{"user_id":333,"name":"siirtyaoliveira","steam_id":76561199176805537,"connected_time":430000000000,"state":"active","ping":45},{"user_id":320,"name":"mvfm™","steam_id":76561198126068677,"connected_time":1140000000000,"state":"active","ping":60},{"user_id":335,"name":"Mikael_01","steam_id":76561199080253129,"connected_time":206000000000,"state":"active","ping":48},{"user_id":246,"name":"Pathetic","steam_id":76561198051056987,"connected_time":5701000000000,"state":"active","ping":60},{"user_id":332,"name":"al-maut li-israil","steam_id":76561198404679409,"connected_time":461000000000,"state":"active","ping":48},{"user_id":312,"name":"Liniker","steam_id":76561198948736406,"connected_time":1365000000000,"state":"active","ping":50},{"user_id":313,"name":"ddddavi","steam_id":76561198004606025,"connected_time":1254000000000,"state":"active","ping":58},{"user_id":301,"name":"Sky","steam_id":76561198846581356,"connected_time":2800000000000,"state":"active","ping":41},{"user_id":326,"name":"NenF | Yatosemtato","steam_id":76561199066360306,"connected_time":832000000000,"state":"active","ping":84},{"user_id":317,"name":"Stranger","steam_id":76561198065572546,"connected_time":1215000000000,"state":"active","ping":60},{"user_id":330,"name":"delta","steam_id":76561198288966901,"connected_time":619000000000,"state":"active","ping":52},{"user_id":314,"name":"Casas Bahia","steam_id":76561198144739151,"connected_time":1253000000000,"state":"active","ping":38},{"user_id":315,"name":"gibo gabo","steam_id":76561198348787458,"connected_time":1249000000000,"state":"active","ping":57},{"user_id":318,"name":"Stanley","steam_id":76561198314548765,"connected_time":1213000000000,"state":"active","ping":67},{"user_id":319,"name":"⸸ Cruz ⸸","steam_id":76561199000786065,"connected_time":1209000000000,"state":"active","ping":65},{"user_id":267,"name":"leoextremo","steam_id":76561198867928520,"connected_time":5051000000000,"state":"active","ping":59},{"user_id":325,"name":"Derretimento Geral 2017","steam_id":76561198194300069,"connected_time":840000000000,"state":"active","ping":39},{"user_id":336,"name":"Max IA","steam_id":76561198120219866,"connected_time":155000000000,"state":"active","ping":45},{"user_id":268,"name":"Zoom!","steam_id":76561198289562649,"connected_time":5034000000000,"state":"active","ping":46},{"user_id":324,"name":"ayumi","steam_id":76561197977365746,"connected_time":863000000000,"state":"active","ping":47},{"user_id":286,"name":"diego","steam_id":76561199217154329,"connected_time":3720000000000,"state":"active","ping":71},{"user_id":327,"name":"The Monio XIV","steam_id":76561198067985814,"connected_time":763000000000,"state":"active","ping":45},{"user_id":328,"name":"Brazino (0 jogo da galera)","steam_id":76561198300271789,"connected_time":716000000000,"state":"active","ping":49},{"user_id":331,"name":"PHIKILL","steam_id":76561198261514412,"connected_time":494000000000,"state":"active","ping":60}]},{"server_id":143,"name":"Uncletopia | São Paulo | 2 | All Maps","name_short":"sao-2","host":"sao-2.br.uncletopia.com","port":27015,"enabled":true,"region":"sa","cc":"br","latitude":-23.533773,"longitude":-46.62529,"reserved":0,"last_update":"0001-01-01T00:00:00Z","name_a2s":"Uncletopia | São Paulo | 2 | All Maps","protocol":17,"map":"koth_highpass","folder":"tf","game":"Team Fortress","app_id":440,"player_count":3,"max_players":24,"Bots":0,"server_type":"Dedicated","server_os":"Linux","password":true,"vac":true,"version":"7708610","steam_id":85568392924485349,"keywords":["cp","nocrits","nodmgspread","uncletopia"],"game_id":440,"stv_port":27016,"stv_name":"Uncletopia | São Paulo | 2 | All Maps | STV","players":[{"user_id":34,"name":"CBPz","steam_id":76561198258249033,"connected_time":991000000000,"state":"active","ping":33},{"user_id":35,"name":"0","steam_id":76561198431968946,"connected_time":711000000000,"state":"active","ping":77},{"user_id":36,"name":"アイザック","steam_id":76561199262736574,"connected_time":194000000000,"state":"active","ping":38}]},{"server_id":7,"name":"Uncletopia | Seattle | 1 | All Maps","name_short":"sea-1","host":"sea-1.us.uncletopia.com","port":27015,"enabled":true,"region":"us-west","cc":"us","latitude":47.608013,"longitude":-122.33517,"reserved":0,"last_update":"0001-01-01T00:00:00Z","name_a2s":"Uncletopia | Seattle | 1 | All Maps","protocol":17,"map":"pl_barnblitz","folder":"tf","game":"Team Fortress","app_id":440,"player_count":24,"max_players":24,"Bots":0,"server_type":"Dedicated","server_os":"Linux","password":true,"vac":true,"version":"7708610","steam_id":85568392924469997,"keywords":["nocrits","nodmgspread","payload","uncletopia"],"game_id":440,"stv_port":27016,"stv_name":"Uncletopia | Seattle | 1 | All Maps | STV","players":[{"user_id":19,"name":"reiidaya","steam_id":76561198325306660,"connected_time":3132000000000,"state":"active","ping":47},{"user_id":20,"name":"Gary Sinfeld","steam_id":76561198042274074,"connected_time":2890000000000,"state":"active","ping":47},{"user_id":22,"name":"tayzik","steam_id":76561199391478575,"connected_time":2747000000000,"state":"active","ping":55},{"user_id":23,"name":"laggy mcstab","steam_id":76561198106379962,"connected_time":2643000000000,"state":"active","ping":61},{"user_id":24,"name":"dodecadron","steam_id":76561198027397222,"connected_time":2524000000000,"state":"active","ping":60},{"user_id":70,"name":"Grammaring","steam_id":76561198867366139,"connected_time":323000000000,"state":"active","ping":70},{"user_id":49,"name":"Kappa Albarn","steam_id":76561198093163204,"connected_time":1545000000000,"state":"active","ping":68},{"user_id":35,"name":"Saint Laurent Don","steam_id":76561198116820706,"connected_time":2137000000000,"state":"active","ping":73},{"user_id":65,"name":"❤ Alice","steam_id":76561198869945051,"connected_time":530000000000,"state":"active","ping":87},{"user_id":73,"name":"Smiles","steam_id":76561198107197973,"connected_time":163000000000,"state":"active","ping":66},{"user_id":66,"name":"2 Point Tom","steam_id":76561198087617008,"connected_time":487000000000,"state":"active","ping":56},{"user_id":74,"name":"Herr Müller","steam_id":76561198064876829,"connected_time":130000000000,"state":"active","ping":136},{"user_id":80,"name":"CheekyMcCheek","steam_id":76561198081978491,"connected_time":73000000000,"state":"active","ping":83},{"user_id":81,"name":"High Cotton","steam_id":76561197998894854,"connected_time":18000000000,"state":"active","ping":132},{"user_id":77,"name":"is he the goat?","steam_id":76561198218347405,"connected_time":98000000000,"state":"active","ping":129},{"user_id":69,"name":"resting neutral face","steam_id":76561197999259502,"connected_time":338000000000,"state":"active","ping":64},{"user_id":40,"name":"jennco","steam_id":76561198212421513,"connected_time":2020000000000,"state":"active","ping":75},{"user_id":54,"name":"Raian","steam_id":76561199138048671,"connected_time":1220000000000,"state":"active","ping":67},{"user_id":58,"name":"Sinyeon","steam_id":76561198125363469,"connected_time":1082000000000,"state":"active","ping":155},{"user_id":78,"name":"moonage72","steam_id":76561199187008629,"connected_time":98000000000,"state":"active","ping":101},{"user_id":62,"name":"Disco Chewbacca","steam_id":76561198004324301,"connected_time":751000000000,"state":"active","ping":49},{"user_id":71,"name":"[]{}#^*+=","steam_id":76561198127039453,"connected_time":214000000000,"state":"active","ping":60},{"user_id":79,"name":"gamer","steam_id":76561198201564074,"connected_time":90000000000,"state":"active","ping":50},{"user_id":48,"name":"krootonitron","steam_id":76561198114113037,"connected_time":1678000000000,"state":"active","ping":60}]},{"server_id":119,"name":"Uncletopia | Seattle | 2 | All Maps","name_short":"sea-2","host":"sea-1.us.uncletopia.com","port":27025,"enabled":true,"region":"us-west","cc":"us","latitude":47.608013,"longitude":-122.33517,"reserved":0,"last_update":"0001-01-01T00:00:00Z","name_a2s":"Uncletopia | Seattle | 2 | All Maps","protocol":17,"map":"koth_lakeside_final","folder":"tf","game":"Team Fortress","app_id":440,"player_count":0,"max_players":24,"Bots":0,"server_type":"Dedicated","server_os":"Linux","password":true,"vac":true,"version":"7708610","steam_id":85568392924469998,"keywords":["cp","nocrits","nodmgspread","uncletopia"],"game_id":440,"stv_port":27026,"stv_name":"Uncletopia | Seattle | 2 | All Maps | STV","players":null},{"server_id":17,"name":"Uncletopia | San Francisco | 1 | All Maps","name_short":"sfo-1","host":"sfo-1.us.uncletopia.com","port":27015,"enabled":true,"region":"us-west","cc":"us","latitude":37.77397,"longitude":-122.4313,"reserved":0,"last_update":"0001-01-01T00:00:00Z","name_a2s":"Uncletopia | San Francisco | 1 | All Maps","protocol":17,"map":"koth_highpass","folder":"tf","game":"Team Fortress","app_id":440,"player_count":0,"max_players":24,"Bots":0,"server_type":"Dedicated","server_os":"Linux","password":true,"vac":true,"version":"7708610","steam_id":85568392924469999,"keywords":["cp","nocrits","nodmgspread","uncletopia"],"game_id":440,"stv_port":27016,"stv_name":"Uncletopia | San Francisco | 1 | All Maps | STV","players":null},{"server_id":18,"name":"Uncletopia | San Francisco | 2 | All Maps","name_short":"sfo-2","host":"sfo-1.us.uncletopia.com","port":27025,"enabled":true,"region":"us-west","cc":"us","latitude":37.77397,"longitude":-122.4313,"reserved":0,"last_update":"0001-01-01T00:00:00Z","name_a2s":"Uncletopia | San Francisco | 2 | All Maps","protocol":17,"map":"koth_cascade","folder":"tf","game":"Team Fortress","app_id":440,"player_count":0,"max_players":24,"Bots":0,"server_type":"Dedicated","server_os":"Linux","password":true,"vac":true,"version":"7708610","steam_id":85568392924470000,"keywords":["cp","nocrits","nodmgspread","uncletopia"],"game_id":440,"stv_port":0,"stv_name":"","players":null},{"server_id":19,"name":"Uncletopia | San Francisco | 3 | No Payload","name_short":"sfo-3","host":"sfo-1.us.uncletopia.com","port":27035,"enabled":true,"region":"us-west","cc":"us","latitude":37.77397,"longitude":-122.4313,"reserved":0,"last_update":"0001-01-01T00:00:00Z","name_a2s":"Uncletopia | San Francisco | 3 | No Payload","protocol":17,"map":"koth_harvest_final","folder":"tf","game":"Team Fortress","app_id":440,"player_count":0,"max_players":24,"Bots":0,"server_type":"Dedicated","server_os":"Linux","password":true,"vac":true,"version":"7708610","steam_id":85568392924742824,"keywords":["cp","nocrits","nodmgspread","uncletopia"],"game_id":440,"stv_port":27036,"stv_name":"Uncletopia | San Francisco | 3 | No Payload | STV","players":null},{"server_id":20,"name":"Uncletopia | San Francisco | 4 | Community","name_short":"sfo-4","host":"sfo-1.us.uncletopia.com","port":27045,"enabled":true,"region":"us-west","cc":"us","latitude":37.77397,"longitude":-122.4313,"reserved":0,"last_update":"0001-01-01T00:00:00Z","name_a2s":"Uncletopia | San Francisco | 4 | Community","protocol":17,"map":"workshop/cp_sulfur_rc2.ugc619869471","folder":"tf","game":"Team Fortress","app_id":440,"player_count":0,"max_players":24,"Bots":0,"server_type":"Dedicated","server_os":"Linux","password":true,"vac":true,"version":"7708610","steam_id":85568392924742826,"keywords":["cp","nocrits","nodmgspread","uncletopia"],"game_id":440,"stv_port":27046,"stv_name":"Uncletopia | San Francisco | 4 | Community | STV","players":null},{"server_id":141,"name":"Uncletopia | Sydney | 1 | All Maps","name_short":"syd-1","host":"syd-1.au.uncletopia.com","port":27015,"enabled":true,"region":"au","cc":"au","latitude":-33.865143,"longitude":151.2099,"reserved":0,"last_update":"0001-01-01T00:00:00Z","name_a2s":"Uncletopia | Sydney | 1 | All Maps","protocol":17,"map":"pl_badwater","folder":"tf","game":"Team Fortress","app_id":440,"player_count":0,"max_players":24,"Bots":0,"server_type":"Dedicated","server_os":"Linux","password":true,"vac":true,"version":"7708610","steam_id":85568392924470001,"keywords":["nocrits","nodmgspread","payload","uncletopia"],"game_id":440,"stv_port":27016,"stv_name":"Uncletopia | Sydney | 1 | All Maps | STV","players":null},{"server_id":123,"name":"Uncletopia | Sydney | 2 | All Maps","name_short":"syd-2","host":"syd-1.au.uncletopia.com","port":27025,"enabled":true,"region":"au","cc":"au","latitude":-33.865143,"longitude":151.2099,"reserved":0,"last_update":"0001-01-01T00:00:00Z","name_a2s":"Uncletopia | Sydney | 2 | All Maps","protocol":17,"map":"cp_process_final","folder":"tf","game":"Team Fortress","app_id":440,"player_count":0,"max_players":24,"Bots":0,"server_type":"Dedicated","server_os":"Linux","password":true,"vac":true,"version":"7708610","steam_id":85568392924470002,"keywords":["cp","nocrits","nodmgspread","uncletopia"],"game_id":440,"stv_port":27026,"stv_name":"Uncletopia | Sydney | 2 | All Maps | STV","players":null},{"server_id":395,"name":"Uncletopia | Sydney | 3 | All Maps","name_short":"syd-3","host":"syd-1.au.uncletopia.com","port":27035,"enabled":true,"region":"au","cc":"au","latitude":-33.865143,"longitude":151.2099,"reserved":0,"last_update":"0001-01-01T00:00:00Z","name_a2s":"Uncletopia | Sydney | 3 | All Maps","protocol":17,"map":"pl_pier","folder":"tf","game":"Team Fortress","app_id":440,"player_count":0,"max_players":24,"Bots":0,"server_type":"Dedicated","server_os":"Linux","password":true,"vac":true,"version":"7708610","steam_id":85568392925194467,"keywords":["nocrits","nodmgspread","payload","uncletopia"],"game_id":440,"stv_port":27036,"stv_name":"Uncletopia | Sydney | 3 | All Maps | STV","players":null},{"server_id":396,"name":"Uncletopia | Sydney | 4 | All Maps","name_short":"syd-4","host":"syd-1.au.uncletopia.com","port":27045,"enabled":true,"region":"au","cc":"au","latitude":-33.865143,"longitude":151.2099,"reserved":0,"last_update":"0001-01-01T00:00:00Z","name_a2s":"Uncletopia | Sydney | 4 | All Maps","protocol":17,"map":"koth_lakeside_final","folder":"tf","game":"Team Fortress","app_id":440,"player_count":0,"max_players":24,"Bots":0,"server_type":"Dedicated","server_os":"Linux","password":true,"vac":true,"version":"7708610","steam_id":85568392925397958,"keywords":["cp","nocrits","nodmgspread","uncletopia"],"game_id":440,"stv_port":0,"stv_name":"","players":null},{"server_id":58,"name":"Uncletopia | Sydney | 5 | No Payload","name_short":"syd-5","host":"syd-1.au.uncletopia.com","port":27055,"enabled":true,"region":"au","cc":"au","latitude":-33.865143,"longitude":151.2099,"reserved":0,"last_update":"0001-01-01T00:00:00Z","name_a2s":"Uncletopia | Sydney | 5 | No Payload","protocol":17,"map":"koth_cascade","folder":"tf","game":"Team Fortress","app_id":440,"player_count":0,"max_players":24,"Bots":0,"server_type":"Dedicated","server_os":"Linux","password":true,"vac":true,"version":"7708610","steam_id":85568392925397959,"keywords":["cp","nocrits","nodmgspread","uncletopia"],"game_id":440,"stv_port":0,"stv_name":"","players":null},{"server_id":59,"name":"Uncletopia | Sydney | 6 | Community","name_short":"syd-6","host":"syd-1.au.uncletopia.com","port":27065,"enabled":true,"region":"au","cc":"au","latitude":-33.865143,"longitude":151.2099,"reserved":0,"last_update":"0001-01-01T00:00:00Z","name_a2s":"Uncletopia | Sydney | 6 | Community","protocol":17,"map":"pl_borneo","folder":"tf","game":"Team Fortress","app_id":440,"player_count":0,"max_players":24,"Bots":0,"server_type":"Dedicated","server_os":"Linux","password":true,"vac":true,"version":"7708610","steam_id":85568392925397960,"keywords":["nocrits","nodmgspread","payload","uncletopia"],"game_id":440,"stv_port":0,"stv_name":"","players":null},{"server_id":49,"name":"Uncletopia | Warsaw | 1 | All Maps","name_short":"waw-1","host":"waw-1.pl.uncletopia.com","port":27015,"enabled":true,"region":"eu","cc":"pl","latitude":52.2297,"longitude":21.017532,"reserved":0,"last_update":"0001-01-01T00:00:00Z","name_a2s":"Uncletopia | Warsaw | 1 | All Maps","protocol":17,"map":"pl_pier","folder":"tf","game":"Team Fortress","app_id":440,"player_count":0,"max_players":24,"Bots":0,"server_type":"Dedicated","server_os":"Linux","password":true,"vac":true,"version":"7708610","steam_id":85568392925397850,"keywords":["nocrits","nodmgspread","payload","uncletopia"],"game_id":440,"stv_port":27016,"stv_name":"Uncletopia | Warsaw | 1 | All Maps | STV","players":null},{"server_id":50,"name":"Uncletopia | Warsaw | 2 | All Maps","name_short":"waw-2","host":"waw-1.pl.uncletopia.com","port":27025,"enabled":true,"region":"eu","cc":"pl","latitude":52.2297,"longitude":21.017532,"reserved":0,"last_update":"0001-01-01T00:00:00Z","name_a2s":"Uncletopia | Warsaw | 2 | All Maps","protocol":17,"map":"cp_mountainlab","folder":"tf","game":"Team Fortress","app_id":440,"player_count":0,"max_players":24,"Bots":0,"server_type":"Dedicated","server_os":"Linux","password":true,"vac":true,"version":"7708610","steam_id":85568392925397851,"keywords":["cp","nocrits","nodmgspread","uncletopia"],"game_id":440,"stv_port":27026,"stv_name":"Uncletopia | Warsaw | 2 | All Maps | STV","players":null},{"server_id":51,"name":"Uncletopia | Warsaw | 3 | All Maps","name_short":"waw-3","host":"waw-1.pl.uncletopia.com","port":27035,"enabled":true,"region":"eu","cc":"pl","latitude":52.2297,"longitude":21.017532,"reserved":0,"last_update":"0001-01-01T00:00:00Z","name_a2s":"Uncletopia | Warsaw | 3 | All Maps","protocol":17,"map":"koth_cascade","folder":"tf","game":"Team Fortress","app_id":440,"player_count":0,"max_players":24,"Bots":0,"server_type":"Dedicated","server_os":"Linux","password":true,"vac":true,"version":"7708610","steam_id":85568392925397852,"keywords":["cp","nocrits","nodmgspread","uncletopia"],"game_id":440,"stv_port":0,"stv_name":"","players":null},{"server_id":52,"name":"Uncletopia | Warsaw | 4 | All Maps","name_short":"waw-4","host":"waw-1.pl.uncletopia.com","port":27045,"enabled":true,"region":"eu","cc":"pl","latitude":52.2297,"longitude":21.017532,"reserved":0,"last_update":"0001-01-01T00:00:00Z","name_a2s":"Uncletopia | Warsaw | 4 | All Maps","protocol":17,"map":"pl_badwater","folder":"tf","game":"Team Fortress","app_id":440,"player_count":0,"max_players":24,"Bots":0,"server_type":"Dedicated","server_os":"Linux","password":true,"vac":true,"version":"7708610","steam_id":85568392925397853,"keywords":["nocrits","nodmgspread","payload","uncletopia"],"game_id":440,"stv_port":27046,"stv_name":"Uncletopia | Warsaw | 4 | All Maps | STV","players":null},{"server_id":53,"name":"Uncletopia | Warsaw | 5 | No Payload","name_short":"waw-5","host":"waw-1.pl.uncletopia.com","port":27055,"enabled":true,"region":"eu","cc":"pl","latitude":52.2297,"longitude":21.017532,"reserved":0,"last_update":"0001-01-01T00:00:00Z","name_a2s":"Uncletopia | Warsaw | 5 | No Payload","protocol":17,"map":"cp_dustbowl","folder":"tf","game":"Team Fortress","app_id":440,"player_count":0,"max_players":24,"Bots":0,"server_type":"Dedicated","server_os":"Linux","password":true,"vac":true,"version":"7708610","steam_id":85568392925397854,"keywords":["cp","nocrits","nodmgspread","uncletopia"],"game_id":440,"stv_port":0,"stv_name":"","players":null},{"server_id":54,"name":"Uncletopia | Warsaw | 6 | Community","name_short":"waw-6","host":"waw-1.pl.uncletopia.com","port":27065,"enabled":true,"region":"eu","cc":"pl","latitude":52.2297,"longitude":21.017532,"reserved":0,"last_update":"0001-01-01T00:00:00Z","name_a2s":"Uncletopia | Warsaw | 6 | Community","protocol":17,"map":"koth_highpass","folder":"tf","game":"Team Fortress","app_id":440,"player_count":0,"max_players":24,"Bots":0,"server_type":"Dedicated","server_os":"Linux","password":true,"vac":true,"version":"7708610","steam_id":85568392925397856,"keywords":["cp","nocrits","nodmgspread","uncletopia"],"game_id":440,"stv_port":0,"stv_name":"","players":null}]}