{"status":true,"message":"","result":[{"server_id":9,"name":"Uncletopia | Atlanta | 1 | All Maps","name_short":"atl-1","host":"atl-1.us.uncletopia.com","port":27015,"enabled":true,"region":"us-east","cc":"us","latitude":33.753746,"longitude":-84.38633,"reserved":0,"last_update":"0001-01-01T00:00:00Z","name_a2s":"Uncletopia | Atlanta | 1 | All Maps","protocol":17,"map":"pl_upward","folder":"tf","game":"Team Fortress","app_id":440,"player_count":24,"max_players":24,"Bots":0,"server_type":"Dedicated","server_os":"Linux","password":true,"vac":true,"version":"7757534","steam_id":85568392924469982,"keywords":["nocrits","nodmgspread","payload","uncletopia"],"game_id":440,"stv_port":27016,"stv_name":"Uncletopia | Atlanta | 1 | All Maps | STV","players":[{"user_id":142,"name":"❤♡･ﾟBubbles･ﾟ♡❤","steam_id":76561198041057042,"connected_time":4387000000000,"state":"active","ping":78},{"user_id":152,"name":"Uncle____Bob","steam_id":76561198246201500,"connected_time":3387000000000,"state":"active","ping":86},{"user_id":148,"name":"powerofsalad","steam_id":76561197998214476,"connected_time":3600000000000,"state":"active","ping":69},{"user_id":181,"name":"cheeks","steam_id":76561197993371179,"connected_time":211000000000,"state":"active","ping":54},{"user_id":145,"name":"RED1 | mayhem","steam_id":76561199246637881,"connected_time":3649000000000,"state":"active","ping":57},{"user_id":103,"name":"schizophrenic with a gun","steam_id":76561198016121536,"connected_time":6591000000000,"state":"active","ping":76},{"user_id":158,"name":"legalizme223","steam_id":76561198051698391,"connected_time":2720000000000,"state":"active","ping":88},{"user_id":144,"name":"RED1 | Mug","steam_id":76561199282207802,"connected_time":4135000000000,"state":"active","ping":75},{"user_id":179,"name":"Rockhead","steam_id":76561197995196535,"connected_time":256000000000,"state":"active","ping":69},{"user_id":175,"name":"Uganda Knuckles lll","steam_id":76561199121276474,"connected_time":742000000000,"state":"active","ping":91},{"user_id":164,"name":"SpaceFox","steam_id":76561198316756477,"connected_time":2055000000000,"state":"active","ping":59},{"user_id":174,"name":"Spy_Is_Pye","steam_id":76561199439622967,"connected_time":1207000000000,"state":"active","ping":73},{"user_id":136,"name":"bash -lc ./asshat.sh","steam_id":76561198004584315,"connected_time":4844000000000,"state":"active","ping":86},{"user_id":183,"name":"SeaBass","steam_id":76561198278914206,"connected_time":185000000000,"state":"active","ping":58},{"user_id":157,"name":"The Undead Knight","steam_id":76561198010654500,"connected_time":2917000000000,"state":"active","ping":76},{"user_id":111,"name":"Adventurematt","steam_id":76561199302420877,"connected_time":5999000000000,"state":"active","ping":93},{"user_id":180,"name":"Spiderfight1","steam_id":76561199189991528,"connected_time":221000000000,"state":"active","ping":76},{"user_id":182,"name":"WalletADHD","steam_id":76561198081067377,"connected_time":206000000000,"state":"active","ping":59},{"user_id":162,"name":"nemo","steam_id":76561198319990195,"connected_time":2181000000000,"state":"active","ping":76},{"user_id":172,"name":"Zenn","steam_id":76561198032618254,"connected_time":1374000000000,"state":"active","ping":112},{"user_id":121,"name":"squaggles!","steam_id":76561197994995011,"connected_time":5324000000000,"state":"active","ping":43},{"user_id":173,"name":"Scab Collector","steam_id":76561198346425545,"connected_time":1363000000000,"state":"active","ping":71},{"user_id":117,"name":"100,000 rabid chihuahuas in Ohi","steam_id":76561198130772096,"connected_time":5811000000000,"state":"active","ping":54},{"user_id":178,"name":"Mage","steam_id":76561198285026879,"connected_time":319000000000,"state":"active","ping":77}]},{"server_id":400,"name":"Uncletopia | Atlanta | 3 | Community","name_short":"atl-3","host":"atl-1.us.uncletopia.com","port":27035,"enabled":true,"region":"us-east","cc":"us","latitude":33.753746,"longitude":-84.38633,"reserved":0,"last_update":"0001-01-01T00:00:00Z","name_a2s":"Uncletopia | Atlanta | 3 | Community","protocol":17,"map":"workshop/koth_trenchfoot_b1a.ugc731436616","folder":"tf","game":"Team Fortress","app_id":440,"player_count":0,"max_players":32,"Bots":0,"server_type":"Dedicated","server_os":"Linux","password":true,"vac":true,"version":"7757534","steam_id":85568392924515187,"keywords":["cp","increased_maxplayers","nocrits","nodmgspread","uncletopia"],"game_id":440,"stv_port":27036,"stv_name":"Uncletopia | Atlanta | 3 | Community | STV","players":null},{"server_id":401,"name":"Uncletopia | Atlanta | 4 | No Payload","name_short":"atl-4","host":"atl-1.us.uncletopia.com","port":27045,"enabled":true,"region":"us-east","cc":"us","latitude":33.753746,"longitude":-84.38633,"reserved":0,"last_update":"0001-01-01T00:00:00Z","name_a2s":"","protocol":0,"map":"","folder":"","game":"","app_id":0,"player_count":0,"max_players":0,"Bots":0,"server_type":"","server_os":"","password":false,"vac":false,"version":"","steam_id":0,"keywords":null,"game_id":0,"stv_port":0,"stv_name":"","players":null},{"server_id":2,"name":"Uncletopia | Chicago | 1 | All Maps","name_short":"chi-1","host":"chi-1.us.uncletopia.com","port":27015,"enabled":true,"region":"us-central","cc":"us","latitude":41.881832,"longitude":-87.62318,"reserved":0,"last_update":"0001-01-01T00:00:00Z","name_a2s":"Uncletopia | Chicago | 1 | All Maps","protocol":17,"map":"pl_barnblitz","folder":"tf","game":"Team Fortress","app_id":440,"player_count":24,"max_players":24,"Bots":0,"server_type":"Dedicated","server_os":"Linux","password":true,"vac":true,"version":"7757534","steam_id":85568392924469984,"keywords":["nocrits","nodmgspread","payload","uncletopia"],"game_id":440,"stv_port":27016,"stv_name":"Uncletopia | Chicago | 1 | All Maps | STV","players":[{"user_id":111,"name":"gaming elliptical","steam_id":76561198013456569,"connected_time":12111000000000,"state":"active","ping":45},{"user_id":204,"name":"Kasey","steam_id":76561198055510230,"connected_time":4767000000000,"state":"active","ping":60},{"user_id":259,"name":"Sheev Palpatine","steam_id":76561198252332430,"connected_time":49000000000,"state":"active","ping":71},{"user_id":221,"name":"peggle fan","steam_id":76561198117181511,"connected_time":3341000000000,"state":"active","ping":45},{"user_id":208,"name":"PKBEAST_7","steam_id":76561198177136537,"connected_time":4630000000000,"state":"active","ping":87},{"user_id":251,"name":"Black Mesa Scientist","steam_id":76561198064466577,"connected_time":1199000000000,"state":"active","ping":76},{"user_id":252,"name":"Gigabars","steam_id":76561198119267479,"connected_time":1103000000000,"state":"active","ping":83},{"user_id":247,"name":"Noelle Deltarune","steam_id":76561199033561817,"connected_time":1596000000000,"state":"active","ping":115},{"user_id":258,"name":"DeadErebus","steam_id":76561198286117045,"connected_time":196000000000,"state":"active","ping":36},{"user_id":211,"name":"Adam (Cursed Confetti Creature)","steam_id":76561198317690197,"connected_time":4022000000000,"state":"active","ping":46},{"user_id":219,"name":"Brass beast heavy","steam_id":76561198274197623,"connected_time":3401000000000,"state":"active","ping":141},{"user_id":201,"name":"Valious","steam_id":76561198119675193,"connected_time":4822000000000,"state":"active","ping":50},{"user_id":257,"name":"Qball","steam_id":76561198179016466,"connected_time":598000000000,"state":"active","ping":58},{"user_id":230,"name":"C4K3","steam_id":76561197996963285,"connected_time":2551000000000,"state":"active","ping":79},{"user_id":255,"name":"Admiral Crumbs","steam_id":76561198108791583,"connected_time":641000000000,"state":"active","ping":63},{"user_id":229,"name":"Anna","steam_id":76561197999657118,"connected_time":2573000000000,"state":"active","ping":82},{"user_id":223,"name":"GREG","steam_id":76561198073021168,"connected_time":3200000000000,"state":"active","ping":67},{"user_id":250,"name":"catrinaisahuman","steam_id":76561198281355729,"connected_time":1319000000000,"state":"active","ping":73},{"user_id":227,"name":"richard clock","steam_id":76561198048455671,"connected_time":2609000000000,"state":"active","ping":59},{"user_id":256,"name":"Toottoot","steam_id":76561197992404836,"connected_time":634000000000,"state":"active","ping":44},{"user_id":253,"name":"Devilkid","steam_id":76561199082474364,"connected_time":1068000000000,"state":"active","ping":105},{"user_id":216,"name":"eyeboogers","steam_id":76561198045499333,"connected_time":3624000000000,"state":"active","ping":67},{"user_id":248,"name":"Gabinator32","steam_id":76561198872467183,"connected_time":1551000000000,"state":"active","ping":43},{"user_id":254,"name":"Grayson","steam_id":76561198072228259,"connected_time":970000000000,"state":"active","ping":89}]},{"server_id":106,"name":"Uncletopia | Chicago | 2 | All Maps","name_short":"chi-2","host":"chi-1.us.uncletopia.com","port":27025,"enabled":true,"region":"us-central","cc":"us","latitude":41.881832,"longitude":-87.62318,"reserved":0,"last_update":"0001-01-01T00:00:00Z","name_a2s":"Uncletopia | Chicago | 2 | All Maps","protocol":17,"map":"pl_upward","folder":"tf","game":"Team Fortress","app_id":440,"player_count":24,"max_players":24,"Bots":0,"server_type":"Dedicated","server_os":"Linux","password":true,"vac":true,"version":"7757534","steam_id":85568392924469985,"keywords":["nocrits","nodmgspread","payload","uncletopia"],"game_id":440,"stv_port":27026,"stv_name":"Uncletopia | Chicago | 2 | All Maps | STV","players":[{"user_id":402,"name":"Lilac","steam_id":76561198977523626,"connected_time":4045000000000,"state":"active","ping":74},{"user_id":430,"name":"SpinetinglingToast","steam_id":76561198099470670,"connected_time":2748000000000,"state":"active","ping":71},{"user_id":451,"name":"Lt. Birb","steam_id":76561199086146261,"connected_time":535000000000,"state":"active","ping":72},{"user_id":413,"name":"Skins McKenzie","steam_id":76561198043160642,"connected_time":3596000000000,"state":"active","ping":57},{"user_id":431,"name":"bladee","steam_id":76561198209795841,"connected_time":2602000000000,"state":"active","ping":71},{"user_id":453,"name":"Glad","steam_id":76561199388372220,"connected_time":238000000000,"state":"active","ping":76},{"user_id":456,"name":"QUANDALEDINGLEGAMING™","steam_id":76561198220744363,"connected_time":145000000000,"state":"active","ping":63},{"user_id":455,"name":"bendera","steam_id":76561197965486503,"connected_time":150000000000,"state":"active","ping":86},{"user_id":461,"name":"looloopaa","steam_id":76561198048179242,"connected_time":66000000000,"state":"active","ping":61},{"user_id":429,"name":"TheGreatDong","steam_id":76561198000634178,"connected_time":2823000000000,"state":"active","ping":107},{"user_id":457,"name":"Lord TriM","steam_id":76561198048332533,"connected_time":137000000000,"state":"active","ping":59},{"user_id":443,"name":"wack","steam_id":76561198095697330,"connected_time":1962000000000,"state":"active","ping":74},{"user_id":454,"name":"AdorableMew","steam_id":76561198186706405,"connected_time":160000000000,"state":"active","ping":74},{"user_id":462,"name":"Moz","steam_id":76561198027171160,"connected_time":57000000000,"state":"active","ping":48},{"user_id":458,"name":"Unwavering Flavor","steam_id":76561198053306065,"connected_time":137000000000,"state":"active","ping":73},{"user_id":419,"name":"Shamaury","steam_id":76561198073773862,"connected_time":3474000000000,"state":"active","ping":65},{"user_id":446,"name":"Jesus Piece","steam_id":76561198047687217,"connected_time":1045000000000,"state":"active","ping":72},{"user_id":459,"name":"Candy Sparkles","steam_id":76561198126871264,"connected_time":132000000000,"state":"active","ping":86},{"user_id":439,"name":"jackhillard83","steam_id":76561199057098390,"connected_time":2203000000000,"state":"active","ping":89},{"user_id":460,"name":"Phillip Jeffries","steam_id":76561198064052174,"connected_time":127000000000,"state":"active","ping":60},{"user_id":448,"name":"Smiles","steam_id":76561198107197973,"connected_time":1032000000000,"state":"active","ping":59},{"user_id":435,"name":"Chimpanzee","steam_id":76561198850387282,"connected_time":2434000000000,"state":"active","ping":82},{"user_id":452,"name":"Free F 2","steam_id":76561198045309016,"connected_time":366000000000,"state":"active","ping":66},{"user_id":437,"name":"conscripted monk","steam_id":76561199029246232,"connected_time":2358000000000,"state":"active","ping":60}]},{"server_id":402,"name":"Uncletopia | Chicago | 3 | All Maps","name_short":"chi-3","host":"chi-1.us.uncletopia.com","port":27035,"enabled":true,"region":"us-central","cc":"us","latitude":41.881832,"longitude":-87.62318,"reserved":0,"last_update":"0001-01-01T00:00:00Z","name_a2s":"Uncletopia | Chicago | 3 | All Maps","protocol":17,"map":"pl_snowycoast","folder":"tf","game":"Team Fortress","app_id":440,"player_count":24,"max_players":24,"Bots":0,"server_type":"Dedicated","server_os":"Linux","password":true,"vac":true,"version":"7757534","steam_id":85568392924515191,"keywords":["nocrits","nodmgspread","payload","uncletopia"],"game_id":440,"stv_port":27036,"stv_name":"Uncletopia | Chicago | 3 | All Maps | STV","players":[{"user_id":146,"name":"Wiener Hole Paper Cut","steam_id":76561198000808203,"connected_time":85000000000,"state":"active","ping":69},{"user_id":145,"name":"rudy","steam_id":76561198088712799,"connected_time":102000000000,"state":"active","ping":70},{"user_id":139,"name":"spederific","steam_id":76561199164869345,"connected_time":469000000000,"state":"active","ping":83},{"user_id":133,"name":"SlitherDoodle","steam_id":76561198000275473,"connected_time":788000000000,"state":"active","ping":67},{"user_id":140,"name":"cokersworld","steam_id":76561198039731344,"connected_time":323000000000,"state":"active","ping":90},{"user_id":147,"name":"Saber king of f2p's","steam_id":76561199146302602,"connected_time":80000000000,"state":"active","ping":71},{"user_id":148,"name":"BurnN8or101","steam_id":76561198132668224,"connected_time":80000000000,"state":"active","ping":73},{"user_id":83,"name":"KevCraft","steam_id":76561199000622939,"connected_time":3633000000000,"state":"active","ping":64},{"user_id":141,"name":"Raysu","steam_id":76561198849298145,"connected_time":155000000000,"state":"active","ping":86},{"user_id":132,"name":"super-oofio64","steam_id":76561198954052123,"connected_time":809000000000,"state":"active","ping":108},{"user_id":121,"name":"the real babytron","steam_id":76561197989627918,"connected_time":2038000000000,"state":"active","ping":85},{"user_id":130,"name":"Killerkarate","steam_id":76561198067533929,"connected_time":822000000000,"state":"active","ping":53},{"user_id":117,"name":"Ender","steam_id":76561198819439451,"connected_time":2078000000000,"state":"active","ping":61},{"user_id":144,"name":"Mellon","steam_id":76561198092509893,"connected_time":121000000000,"state":"active","ping":72},{"user_id":79,"name":"the dishtv1605","steam_id":76561198061284371,"connected_time":3746000000000,"state":"active","ping":39},{"user_id":138,"name":"Poseidon","steam_id":76561198156835929,"connected_time":663000000000,"state":"active","ping":83},{"user_id":122,"name":"FatCuddlyBear","steam_id":76561198133613253,"connected_time":2037000000000,"state":"active","ping":81},{"user_id":149,"name":"Jöhn Smith","steam_id":76561198996230924,"connected_time":33000000000,"state":"active","ping":76},{"user_id":135,"name":"man","steam_id":76561199365643094,"connected_time":722000000000,"state":"active","ping":76},{"user_id":143,"name":"Feared Gamer","steam_id":76561198350127514,"connected_time":135000000000,"state":"active","ping":62},{"user_id":150,"name":"stevemarshall","steam_id":76561198405982285,"connected_time":10000000000,"state":"active","ping":207},{"user_id":136,"name":"Your Local Jester","steam_id":76561199120223717,"connected_time":721000000000,"state":"active","ping":73},{"user_id":137,"name":"Fallbourn","steam_id":76561197994851732,"connected_time":718000000000,"state":"active","ping":64},{"user_id":151,"name":"Barack Obama Gaming","steam_id":76561198129242016,"connected_time":7000000000,"state":"spawning","ping":98}]},{"server_id":403,"name":"Uncletopia | Chicago | 4 | All Maps","name_short":"chi-4","host":"chi-1.us.uncletopia.com","port":27045,"enabled":true,"region":"us-central","cc":"us","latitude":41.881832,"longitude":-87.62318,"reserved":0,"last_update":"0001-01-01T00:00:00Z","name_a2s":"Uncletopia | Chicago | 4 | All Maps","protocol":17,"map":"pl_borneo","folder":"tf","game":"Team Fortress","app_id":440,"player_count":24,"max_players":24,"Bots":0,"server_type":"Dedicated","server_os":"Linux","password":true,"vac":true,"version":"7757534","steam_id":85568392924515193,"keywords":["nocrits","nodmgspread","payload","uncletopia"],"game_id":440,"stv_port":27046,"stv_name":"Uncletopia | Chicago | 4 | All Maps | STV","players":[{"user_id":160,"name":"Huevo Frito","steam_id":76561198896811394,"connected_time":3868000000000,"state":"active","ping":49},{"user_id":178,"name":"Styx","steam_id":76561198104657428,"connected_time":3044000000000,"state":"active","ping":61},{"user_id":208,"name":"relay","steam_id":76561198314662811,"connected_time":687000000000,"state":"active","ping":102},{"user_id":186,"name":"Epicmullen","steam_id":76561198259850795,"connected_time":2622000000000,"state":"active","ping":126},{"user_id":217,"name":"Indigolake","steam_id":76561198202215807,"connected_time":165000000000,"state":"active","ping":87},{"user_id":165,"name":"The World's Softest Sandwich","steam_id":76561198015577707,"connected_time":3379000000000,"state":"active","ping":78},{"user_id":207,"name":"ASadTeddyBear","steam_id":76561198968206673,"connected_time":692000000000,"state":"active","ping":83},{"user_id":205,"name":"Connair","steam_id":76561198157984722,"connected_time":748000000000,"state":"active","ping":111},{"user_id":203,"name":"Rockcrusher","steam_id":76561199012666353,"connected_time":1120000000000,"state":"active","ping":68},{"user_id":202,"name":"cosmik","steam_id":76561198071193180,"connected_time":1207000000000,"state":"active","ping":74},{"user_id":150,"name":"windowsinfinitev2","steam_id":76561199120867639,"connected_time":4612000000000,"state":"active","ping":55},{"user_id":209,"name":"Guts","steam_id":76561198244702428,"connected_time":677000000000,"state":"active","ping":58},{"user_id":204,"name":"radiohead enjoyer","steam_id":76561198397662124,"connected_time":778000000000,"state":"active","ping":91},{"user_id":189,"name":"Scientaku","steam_id":76561198859412543,"connected_time":2582000000000,"state":"active","ping":71},{"user_id":194,"name":"Professional Zoo Tycoon Player","steam_id":76561198013026044,"connected_time":2291000000000,"state":"active","ping":81},{"user_id":196,"name":"PileofPolygons","steam_id":76561199321343460,"connected_time":1943000000000,"state":"active","ping":68},{"user_id":216,"name":"steakfarmasian","steam_id":76561198212754036,"connected_time":189000000000,"state":"active","ping":42},{"user_id":211,"name":"NOM","steam_id":76561199059006203,"connected_time":651000000000,"state":"active","ping":64},{"user_id":212,"name":"Chopped Season 13 Episode 8","steam_id":76561198140933445,"connected_time":650000000000,"state":"active","ping":84},{"user_id":215,"name":"CrankShaft","steam_id":76561197970750813,"connected_time":469000000000,"state":"active","ping":54},{"user_id":213,"name":"Some wet dude","steam_id":76561198143744178,"connected_time":598000000000,"state":"active","ping":61},{"user_id":214,"name":"Pebbled","steam_id":76561199390347605,"connected_time":593000000000,"state":"active","ping":88},{"user_id":168,"name":"The man they call Jayne","steam_id":76561198080585050,"connected_time":3305000000000,"state":"active","ping":98},{"user_id":185,"name":"tree","steam_id":76561198116885731,"connected_time":2632000000000,"state":"active","ping":48}]},{"server_id":36,"name":"Uncletopia | Chicago | 5 | All Maps","name_short":"chi-5","host":"chi-2.us.uncletopia.com","port":27015,"enabled":true,"region":"us-central","cc":"us","latitude":41.881832,"longitude":-87.62318,"reserved":0,"last_update":"0001-01-01T00:00:00Z","name_a2s":"Uncletopia | Chicago | 5 | All Maps","protocol":17,"map":"pl_swiftwater_final1","folder":"tf","game":"Team Fortress","app_id":440,"player_count":0,"max_players":24,"Bots":0,"server_type":"Dedicated","server_os":"Linux","password":true,"vac":true,"version":"7757534","steam_id":85568392924866362,"keywords":["nocrits","nodmgspread","payload","uncletopia"],"game_id":440,"stv_port":27016,"stv_name":"Uncletopia | Chicago | 5 | All Maps | STV","players":null},{"server_id":37,"name":"Uncletopia | Chicago | 6 | All Maps","name_short":"chi-6","host":"chi-2.us.uncletopia.com","port":27025,"enabled":true,"region":"us-central","cc":"us","latitude":41.881832,"longitude":-87.62318,"reserved":0,"last_update":"0001-01-01T00:00:00Z","name_a2s":"Uncletopia | Chicago | 6 | All Maps","protocol":17,"map":"pl_borneo","folder":"tf","game":"Team Fortress","app_id":440,"player_count":0,"max_players":24,"Bots":0,"server_type":"Dedicated","server_os":"Linux","password":true,"vac":true,"version":"7757534","steam_id":85568392924866363,"keywords":["nocrits","nodmgspread","payload","uncletopia"],"game_id":440,"stv_port":27026,"stv_name":"Uncletopia | Chicago | 6 | All Maps | STV","players":null},{"server_id":38,"name":"Uncletopia | Chicago | 7 | Stopwatch Beta","name_short":"chi-7","host":"chi-2.us.uncletopia.com","port":27035,"enabled":true,"region":"us-central","cc":"us","latitude":41.881832,"longitude":-87.62318,"reserved":0,"last_update":"0001-01-01T00:00:00Z","name_a2s":"Uncletopia | Chicago | 7 | Stopwatch Beta","protocol":17,"map":"pl_upward","folder":"tf","game":"Team Fortress","app_id":440,"player_count":0,"max_players":24,"Bots":0,"server_type":"Dedicated","server_os":"Linux","password":true,"vac":true,"version":"7757534","steam_id":85568392924866364,"keywords":["nocrits","nodmgspread","payload","uncletopia"],"game_id":440,"stv_port":27036,"stv_name":"Uncletopia | Chicago | 7 | Stopwatch Beta | STV","players":null},{"server_id":39,"name":"Uncletopia | Chicago | 8 | Community","name_short":"chi-8","host":"chi-2.us.uncletopia.com","port":27045,"enabled":true,"region":"us-central","cc":"us","latitude":41.881832,"longitude":-87.62318,"reserved":0,"last_update":"0001-01-01T00:00:00Z","name_a2s":"Uncletopia | Chicago | 8 | Community","protocol":17,"map":"pl_barnblitz","folder":"tf","game":"Team Fortress","app_id":440,"player_count":0,"max_players":24,"Bots":0,"server_type":"Dedicated","server_os":"Linux","password":true,"vac":true,"version":"7757534","steam_id":85568392924866365,"keywords":["nocrits","nodmgspread","payload","uncletopia"],"game_id":440,"stv_port":27046,"stv_name":"Uncletopia | Chicago | 8 | Community | STV","players":null},{"server_id":8,"name":"Uncletopia | Dallas | 1 | All Maps","name_short":"dal-1","host":"dal-1.us.uncletopia.com","port":27015,"enabled":true,"region":"us-central","cc":"us","latitude":32.779167,"longitude":-96.80889,"reserved":0,"last_update":"0001-01-01T00:00:00Z","name_a2s":"Uncletopia | Dallas | 1 | All Maps","protocol":17,"map":"pl_thundermountain","folder":"tf","game":"Team Fortress","app_id":440,"player_count":24,"max_players":24,"Bots":0,"server_type":"Dedicated","server_os":"Linux","password":true,"vac":true,"version":"7757534","steam_id":85568392924469986,"keywords":["nocrits","nodmgspread","payload","uncletopia"],"game_id":440,"stv_port":27016,"stv_name":"Uncletopia | Dallas | 1 | All Maps | STV","players":[{"user_id":144,"name":"Tostada","steam_id":76561198383206211,"connected_time":2164000000000,"state":"active","ping":118},{"user_id":122,"name":"Young-OG","steam_id":76561198058800479,"connected_time":4390000000000,"state":"active","ping":83},{"user_id":159,"name":"yolginmo","steam_id":76561198157985901,"connected_time":1249000000000,"state":"active","ping":117},{"user_id":140,"name":"IPlayGamez","steam_id":76561198041387508,"connected_time":2337000000000,"state":"active","ping":81},{"user_id":162,"name":"Red","steam_id":76561198031865869,"connected_time":967000000000,"state":"active","ping":68},{"user_id":143,"name":"silly jester","steam_id":76561198079609974,"connected_time":2196000000000,"state":"active","ping":86},{"user_id":160,"name":"Artistic","steam_id":76561198118159566,"connected_time":1228000000000,"state":"active","ping":84},{"user_id":110,"name":"base4","steam_id":76561198042226166,"connected_time":4888000000000,"state":"active","ping":77},{"user_id":167,"name":"Kasimir","steam_id":76561198013840333,"connected_time":268000000000,"state":"active","ping":64},{"user_id":153,"name":"The Meat Show","steam_id":76561198260785238,"connected_time":1518000000000,"state":"active","ping":99},{"user_id":142,"name":"John Dungus (the real one)","steam_id":76561198049191027,"connected_time":2203000000000,"state":"active","ping":48},{"user_id":118,"name":".tv/whowee_","steam_id":76561198269471732,"connected_time":4517000000000,"state":"active","ping":55},{"user_id":131,"name":"KaaK","steam_id":76561198152882096,"connected_time":3377000000000,"state":"active","ping":96},{"user_id":156,"name":"jturner1nm","steam_id":76561198344493652,"connected_time":1365000000000,"state":"active","ping":106},{"user_id":133,"name":"aidenmc3","steam_id":76561198062209166,"connected_time":3103000000000,"state":"active","ping":45},{"user_id":119,"name":"Dietrich","steam_id":76561198028163840,"connected_time":4511000000000,"state":"active","ping":66},{"user_id":147,"name":"Gimrex","steam_id":76561198137232326,"connected_time":1832000000000,"state":"active","ping":82},{"user_id":145,"name":"BigBubble42","steam_id":76561198136286123,"connected_time":2149000000000,"state":"active","ping":31},{"user_id":166,"name":"SLaPPy- oNaSiS","steam_id":76561198009286862,"connected_time":503000000000,"state":"active","ping":95},{"user_id":158,"name":"Moonflower ✦","steam_id":76561198191782483,"connected_time":1304000000000,"state":"active","ping":63},{"user_id":86,"name":"APOTATO","steam_id":76561198118199858,"connected_time":6697000000000,"state":"active","ping":67},{"user_id":152,"name":"fat tits haver","steam_id":76561198081681647,"connected_time":1521000000000,"state":"active","ping":68},{"user_id":165,"name":"almie","steam_id":76561198021951119,"connected_time":630000000000,"state":"active","ping":109},{"user_id":161,"name":"dan","steam_id":76561197984998426,"connected_time":1198000000000,"state":"active","ping":103}]},{"server_id":108,"name":"Uncletopia | Dallas | 2 | All Maps","name_short":"dal-2","host":"dal-1.us.uncletopia.com","port":27025,"enabled":true,"region":"us-central","cc":"us","latitude":32.779167,"longitude":-96.80889,"reserved":0,"last_update":"0001-01-01T00:00:00Z","name_a2s":"Uncletopia | Dallas | 2 | All Maps","protocol":17,"map":"pl_swiftwater_final1","folder":"tf","game":"Team Fortress","app_id":440,"player_count":24,"max_players":24,"Bots":0,"server_type":"Dedicated","server_os":"Linux","password":true,"vac":true,"version":"7757534","steam_id":85568392924469988,"keywords":["nocrits","nodmgspread","payload","uncletopia"],"game_id":440,"stv_port":27026,"stv_name":"Uncletopia | Dallas | 2 | All Maps | STV","players":[{"user_id":275,"name":"Soap","steam_id":76561197994893383,"connected_time":3465000000000,"state":"active","ping":70},{"user_id":318,"name":"ly","steam_id":76561198062922146,"connected_time":410000000000,"state":"active","ping":56},{"user_id":308,"name":"Sone","steam_id":76561198069601032,"connected_time":899000000000,"state":"active","ping":96},{"user_id":294,"name":"God is an awful developer","steam_id":76561198103496593,"connected_time":2061000000000,"state":"active","ping":66},{"user_id":282,"name":"Kubloo","steam_id":76561198067391168,"connected_time":2322000000000,"state":"active","ping":83},{"user_id":273,"name":"Bobby Ray","steam_id":76561198044131188,"connected_time":3673000000000,"state":"active","ping":75},{"user_id":241,"name":"Bullwinkle J. Moose","steam_id":76561198075977196,"connected_time":5630000000000,"state":"active","ping":61},{"user_id":323,"name":"WebChill","steam_id":76561199137238941,"connected_time":385000000000,"state":"active","ping":89},{"user_id":325,"name":"disrupted_thoughts","steam_id":76561198067367009,"connected_time":101000000000,"state":"active","ping":90},{"user_id":301,"name":"Justis","steam_id":76561197963835016,"connected_time":1605000000000,"state":"active","ping":99},{"user_id":280,"name":"Dog","steam_id":76561198450992953,"connected_time":2604000000000,"state":"active","ping":78},{"user_id":309,"name":"teafyo","steam_id":76561198406252824,"connected_time":899000000000,"state":"active","ping":105},{"user_id":319,"name":"Stock Medic","steam_id":76561198065479730,"connected_time":407000000000,"state":"active","ping":61},{"user_id":314,"name":"Ender w","steam_id":76561198160747515,"connected_time":822000000000,"state":"active","ping":189},{"user_id":326,"name":"uzr","steam_id":76561198799343084,"connected_time":61000000000,"state":"active","ping":80},{"user_id":287,"name":"KFC☭","steam_id":76561199206815320,"connected_time":2274000000000,"state":"active","ping":76},{"user_id":324,"name":"Jang","steam_id":76561198075894851,"connected_time":122000000000,"state":"active","ping":68},{"user_id":263,"name":"Florence Jenkins","steam_id":76561198023894049,"connected_time":4207000000000,"state":"active","ping":94},{"user_id":311,"name":"TarSenpai","steam_id":76561199292143353,"connected_time":870000000000,"state":"active","ping":83},{"user_id":300,"name":"Yahtza","steam_id":76561198152171495,"connected_time":1629000000000,"state":"active","ping":70},{"user_id":312,"name":"Dirtbike rider","steam_id":76561198030457066,"connected_time":865000000000,"state":"active","ping":66},{"user_id":321,"name":"Protoshake","steam_id":76561198840276176,"connected_time":403000000000,"state":"active","ping":45},{"user_id":322,"name":"Ghosty","steam_id":76561198985058711,"connected_time":394000000000,"state":"active","ping":78},{"user_id":317,"name":"evan_is_sauce","steam_id":76561199086802383,"connected_time":557000000000,"state":"active","ping":71}]},{"server_id":5,"name":"Uncletopia | Frankfurt | 1 | All Maps","name_short":"frk-1","host":"frk-1.de.uncletopia.com","port":27015,"enabled":true,"region":"eu","cc":"de","latitude":50.110924,"longitude":8.682127,"reserved":0,"last_update":"0001-01-01T00:00:00Z","name_a2s":"Uncletopia | Frankfurt | 1 | All Maps","protocol":17,"map":"pl_hoodoo_final","folder":"tf","game":"Team Fortress","app_id":440,"player_count":24,"max_players":24,"Bots":0,"server_type":"Dedicated","server_os":"Linux","password":true,"vac":true,"version":"7757534","steam_id":85568392924469989,"keywords":["nocrits","nodmgspread","payload","uncletopia"],"game_id":440,"stv_port":27016,"stv_name":"Uncletopia | Frankfurt | 1 | All Maps | STV","players":[{"user_id":584,"name":"Not Friends","steam_id":76561198043775605,"connected_time":2944000000000,"state":"active","ping":87},{"user_id":519,"name":"banyesz","steam_id":76561198152997658,"connected_time":6018000000000,"state":"active","ping":73},{"user_id":626,"name":"NitPig","steam_id":76561198212991935,"connected_time":113000000000,"state":"active","ping":112},{"user_id":583,"name":"v0rt3x","steam_id":76561198034695233,"connected_time":2978000000000,"state":"active","ping":58},{"user_id":585,"name":"Nuuskis","steam_id":76561198084042012,"connected_time":2929000000000,"state":"active","ping":105},{"user_id":624,"name":"¬°Nice","steam_id":76561198387871867,"connected_time":484000000000,"state":"active","ping":75},{"user_id":568,"name":"IceDreamer","steam_id":76561197997569989,"connected_time":3763000000000,"state":"active","ping":68},{"user_id":506,"name":"Marty™","steam_id":76561198060073673,"connected_time":7152000000000,"state":"active","ping":61},{"user_id":609,"name":"Swedish Vegan","steam_id":76561198042775020,"connected_time":887000000000,"state":"active","ping":81},{"user_id":612,"name":"Kizerain","steam_id":76561198058400427,"connected_time":860000000000,"state":"active","ping":58},{"user_id":613,"name":"Piox","steam_id":76561198125689157,"connected_time":848000000000,"state":"active","ping":68},{"user_id":560,"name":"1 zeptosecond no zaza","steam_id":76561198339480413,"connected_time":4131000000000,"state":"active","ping":71},{"user_id":601,"name":"Kevin the Minion","steam_id":76561198052380794,"connected_time":2271000000000,"state":"active","ping":160},{"user_id":559,"name":"4","steam_id":76561197964945192,"connected_time":4145000000000,"state":"active","ping":59},{"user_id":623,"name":"breedable","steam_id":76561198010300032,"connected_time":585000000000,"state":"active","ping":71},{"user_id":604,"name":"the zaza","steam_id":76561198152602785,"connected_time":2018000000000,"state":"active","ping":67},{"user_id":611,"name":"That Phlog mfer","steam_id":76561198050416948,"connected_time":884000000000,"state":"active","ping":59},{"user_id":606,"name":"Prism","steam_id":76561198075538312,"connected_time":1884000000000,"state":"active","ping":42},{"user_id":620,"name":"Patrick Ratrick","steam_id":76561198086190783,"connected_time":653000000000,"state":"active","ping":67},{"user_id":615,"name":"Klumz","steam_id":76561198045750180,"connected_time":804000000000,"state":"active","ping":95},{"user_id":625,"name":"Cosmetic brain","steam_id":76561198055936410,"connected_time":192000000000,"state":"active","ping":89},{"user_id":622,"name":"nibs","steam_id":76561198040099538,"connected_time":601000000000,"state":"active","ping":85},{"user_id":618,"name":"Torttu","steam_id":76561198013980029,"connected_time":761000000000,"state":"active","ping":58},{"user_id":619,"name":"spunkpunk","steam_id":76561198048852186,"connected_time":761000000000,"state":"active","ping":78}]},{"server_id":110,"name":"Uncletopia | Frankfurt | 2 | All Maps","name_short":"frk-2","host":"frk-1.de.uncletopia.com","port":27025,"enabled":true,"region":"eu","cc":"de","latitude":50.110924,"longitude":8.682127,"reserved":0,"last_update":"0001-01-01T00:00:00Z","name_a2s":"Uncletopia | Frankfurt | 2 | All Maps","protocol":17,"map":"pl_snowycoast","folder":"tf","game":"Team Fortress","app_id":440,"player_count":24,"max_players":24,"Bots":0,"server_type":"Dedicated","server_os":"Linux","password":true,"vac":true,"version":"7757534","steam_id":85568392924469990,"keywords":["nocrits","nodmgspread","payload","uncletopia"],"game_id":440,"stv_port":27026,"stv_name":"Uncletopia | Frankfurt | 2 | All Maps | STV","players":[{"user_id":562,"name":"SirNeeco \u003c3","steam_id":76561198103014203,"connected_time":3606000000000,"state":"active","ping":58},{"user_id":619,"name":"FJADL","steam_id":76561198237008214,"connected_time":251000000000,"state":"active","ping":60},{"user_id":609,"name":"Use The Finger","steam_id":76561198050203563,"connected_time":426000000000,"state":"active","ping":69},{"user_id":610,"name":"Pestilence","steam_id":76561198140938904,"connected_time":424000000000,"state":"active","ping":87},{"user_id":611,"name":"komantoN^-","steam_id":76561198017929662,"connected_time":407000000000,"state":"active","ping":62},{"user_id":612,"name":"Ecton","steam_id":76561198025103720,"connected_time":396000000000,"state":"active","ping":61},{"user_id":575,"name":"[BROBOT] Nergal","steam_id":76561198098172161,"connected_time":3005000000000,"state":"active","ping":69},{"user_id":582,"name":"Pastoss","steam_id":76561198379098260,"connected_time":2204000000000,"state":"active","ping":59},{"user_id":515,"name":"EastmoreRandoms.","steam_id":76561198048921203,"connected_time":6368000000000,"state":"active","ping":73},{"user_id":613,"name":"where is my egg?","steam_id":76561198172542535,"connected_time":393000000000,"state":"active","ping":71},{"user_id":580,"name":"tallen","steam_id":76561198061708595,"connected_time":2580000000000,"state":"active","ping":80},{"user_id":618,"name":"AmadStatistician","steam_id":76561198163654770,"connected_time":273000000000,"state":"active","ping":69},{"user_id":615,"name":"Gorlami","steam_id":76561198139623088,"connected_time":380000000000,"state":"active","ping":86},{"user_id":586,"name":"DaSzil","steam_id":76561198275605418,"connected_time":1711000000000,"state":"active","ping":96},{"user_id":616,"name":"lemao","steam_id":76561198058366676,"connected_time":352000000000,"state":"active","ping":90},{"user_id":593,"name":"dddd","steam_id":76561198120894372,"connected_time":1422000000000,"state":"active","ping":103},{"user_id":617,"name":"Boulder man","steam_id":76561199097281403,"connected_time":317000000000,"state":"active","ping":162},{"user_id":524,"name":"HelwiiHill","steam_id":76561198066730552,"connected_time":6114000000000,"state":"active","ping":98},{"user_id":589,"name":"SoberOnion","steam_id":76561198987711995,"connected_time":1563000000000,"state":"active","ping":85},{"user_id":583,"name":"Tasteepizzapie!!!","steam_id":76561198076074855,"connected_time":2000000000000,"state":"active","ping":164},{"user_id":594,"name":"MetalBand_Enjoyer","steam_id":76561199196988042,"connected_time":1408000000000,"state":"active","ping":72},{"user_id":567,"name":"Uriri","steam_id":76561198085588686,"connected_time":3518000000000,"state":"active","ping":77},{"user_id":605,"name":"963 frequency of gods","steam_id":76561199088506542,"connected_time":826000000000,"state":"active","ping":58},{"user_id":608,"name":"Bromoneto","steam_id":76561198876695014,"connected_time":719000000000,"state":"active","ping":72}]},{"server_id":308,"name":"Uncletopia | Frankfurt | 3 | All Maps","name_short":"frk-3","host":"frk-1.de.uncletopia.com","port":27035,"enabled":true,"region":"eu","cc":"de","latitude":50.110924,"longitude":8.682127,"reserved":0,"last_update":"0001-01-01T00:00:00Z","name_a2s":"Uncletopia | Frankfurt | 3 | All Maps","protocol":17,"map":"cp_process_final","folder":"tf","game":"Team Fortress","app_id":440,"player_count":24,"max_players":24,"Bots":0,"server_type":"Dedicated","server_os":"Linux","password":true,"vac":true,"version":"7757534","steam_id":85568392924504274,"keywords":["cp","nocrits","nodmgspread","uncletopia"],"game_id":440,"stv_port":27036,"stv_name":"Uncletopia | Frankfurt | 3 | All Maps | STV","players":[{"user_id":523,"name":"a guy without mustache","steam_id":76561198397105421,"connected_time":671000000000,"state":"active","ping":60},{"user_id":475,"name":"Tre3","steam_id":76561198054795379,"connected_time":2480000000000,"state":"active","ping":59},{"user_id":479,"name":"SIR MEPHEDRONE","steam_id":76561198302623594,"connected_time":2388000000000,"state":"active","ping":92},{"user_id":481,"name":"butt tickling bandit","steam_id":76561198884449271,"connected_time":2261000000000,"state":"active","ping":61},{"user_id":531,"name":"Mi Manchi","steam_id":76561198171573129,"connected_time":452000000000,"state":"active","ping":57},{"user_id":505,"name":"Balls","steam_id":76561198086400484,"connected_time":1605000000000,"state":"active","ping":85},{"user_id":524,"name":"Malok","steam_id":76561198371117880,"connected_time":649000000000,"state":"active","ping":59},{"user_id":532,"name":"foo","steam_id":76561198042000263,"connected_time":447000000000,"state":"active","ping":69},{"user_id":485,"name":"mush","steam_id":76561198310089797,"connected_time":2101000000000,"state":"active","ping":190},{"user_id":535,"name":"giclure :;","steam_id":76561197986362828,"connected_time":166000000000,"state":"active","ping":48},{"user_id":487,"name":"Moobin","steam_id":76561198099999156,"connected_time":2073000000000,"state":"active","ping":71},{"user_id":520,"name":"Preksy","steam_id":76561199179193076,"connected_time":723000000000,"state":"active","ping":75},{"user_id":508,"name":"the sex maker","steam_id":76561198983189584,"connected_time":1495000000000,"state":"active","ping":89},{"user_id":506,"name":"profreshional cactus","steam_id":76561198837919828,"connected_time":1555000000000,"state":"active","ping":102},{"user_id":492,"name":"Filleman","steam_id":76561198159386946,"connected_time":1913000000000,"state":"active","ping":61},{"user_id":526,"name":"Michael","steam_id":76561198003146906,"connected_time":603000000000,"state":"active","ping":69},{"user_id":494,"name":"джегеми хэпкингс","steam_id":76561198131531394,"connected_time":1830000000000,"state":"active","ping":88},{"user_id":518,"name":"Jeeworth","steam_id":76561198797972504,"connected_time":782000000000,"state":"active","ping":79},{"user_id":515,"name":"Pyr0s_Fx","steam_id":76561198057201503,"connected_time":1018000000000,"state":"active","ping":56},{"user_id":527,"name":"VanillaWoof","steam_id":76561198158343951,"connected_time":578000000000,"state":"active","ping":51},{"user_id":458,"name":"bigwish | bmod.tf","steam_id":76561197997859723,"connected_time":3605000000000,"state":"active","ping":80},{"user_id":533,"name":"warewarewa","steam_id":76561197965022076,"connected_time":417000000000,"state":"active","ping":127},{"user_id":529,"name":"sPork","steam_id":76561198056880331,"connected_time":550000000000,"state":"active","ping":75},{"user_id":534,"name":"Carol Olston","steam_id":76561198080257273,"connected_time":347000000000,"state":"active","ping":62}]},{"server_id":309,"name":"Uncletopia | Frankfurt | 4 | All Maps","name_short":"frk-4","host":"frk-1.de.uncletopia.com","port":27045,"enabled":true,"region":"eu","cc":"de","latitude":50.110924,"longitude":8.682127,"reserved":0,"last_update":"0001-01-01T00:00:00Z","name_a2s":"Uncletopia | Frankfurt | 4 | All Maps","protocol":17,"map":"cp_steel","folder":"tf","game":"Team Fortress","app_id":440,"player_count":24,"max_players":24,"Bots":0,"server_type":"Dedicated","server_os":"Linux","password":true,"vac":true,"version":"7757534","steam_id":85568392924504275,"keywords":["cp","nocrits","nodmgspread","uncletopia"],"game_id":440,"stv_port":27046,"stv_name":"Uncletopia | Frankfurt | 4 | All Maps | STV","players":[{"user_id":260,"name":"Plop_","steam_id":76561198112567921,"connected_time":2841000000000,"state":"active","ping":45},{"user_id":279,"name":"DilerVincent","steam_id":76561198417366067,"connected_time":871000000000,"state":"active","ping":60},{"user_id":285,"name":"Misctek","steam_id":76561199037541925,"connected_time":558000000000,"state":"active","ping":70},{"user_id":280,"name":"alshep00","steam_id":76561198079585198,"connected_time":864000000000,"state":"active","ping":75},{"user_id":299,"name":"Fuvuk","steam_id":76561198044458593,"connected_time":176000000000,"state":"active","ping":74},{"user_id":276,"name":"Tuga inglesa","steam_id":76561198442803577,"connected_time":1087000000000,"state":"active","ping":84},{"user_id":281,"name":"Spliffendor","steam_id":76561198144020209,"connected_time":854000000000,"state":"active","ping":63},{"user_id":286,"name":"VZS","steam_id":76561198133050665,"connected_time":558000000000,"state":"active","ping":61},{"user_id":287,"name":"Lukas","steam_id":76561198009118452,"connected_time":535000000000,"state":"active","ping":54},{"user_id":293,"name":"hotline bling","steam_id":76561198984131011,"connected_time":337000000000,"state":"active","ping":149},{"user_id":289,"name":"Qdarks","steam_id":76561198013391340,"connected_time":482000000000,"state":"active","ping":153},{"user_id":301,"name":"Catalyst","steam_id":76561198149783626,"connected_time":147000000000,"state":"active","ping":165},{"user_id":292,"name":"maKU","steam_id":76561198073943958,"connected_time":408000000000,"state":"active","ping":60},{"user_id":224,"name":"Gr8gy","steam_id":76561198801350782,"connected_time":5610000000000,"state":"active","ping":88},{"user_id":267,"name":"σsiris","steam_id":76561198050791602,"connected_time":2170000000000,"state":"active","ping":46},{"user_id":300,"name":"SmallDog","steam_id":76561198141291034,"connected_time":166000000000,"state":"active","ping":141},{"user_id":283,"name":"gabagool","steam_id":76561198307111838,"connected_time":762000000000,"state":"active","ping":65},{"user_id":263,"name":"KillerQueen (he/they/she)","steam_id":76561199019399725,"connected_time":2524000000000,"state":"active","ping":70},{"user_id":295,"name":"Platform666","steam_id":76561198314266851,"connected_time":317000000000,"state":"active","ping":98},{"user_id":291,"name":"Abhorrent","steam_id":76561198056338288,"connected_time":473000000000,"state":"active","ping":65},{"user_id":296,"name":"ᴉoio","steam_id":76561198024952144,"connected_time":311000000000,"state":"active","ping":52},{"user_id":217,"name":"Miloš","steam_id":76561198129684105,"connected_time":6194000000000,"state":"active","ping":66},{"user_id":245,"name":"BlinkedUp","steam_id":76561198249985618,"connected_time":3375000000000,"state":"active","ping":57},{"user_id":258,"name":"sprongo","steam_id":76561198007792525,"connected_time":3187000000000,"state":"active","ping":59}]},{"server_id":310,"name":"Uncletopia | Frankfurt | 5 | All Maps","name_short":"frk-5","host":"frk-1.de.uncletopia.com","port":27055,"enabled":true,"region":"eu","cc":"de","latitude":50.110924,"longitude":8.682127,"reserved":0,"last_update":"0001-01-01T00:00:00Z","name_a2s":"Uncletopia | Frankfurt | 5 | All Maps","protocol":17,"map":"pl_upward","folder":"tf","game":"Team Fortress","app_id":440,"player_count":24,"max_players":24,"Bots":0,"server_type":"Dedicated","server_os":"Linux","password":true,"vac":true,"version":"7757534","steam_id":85568392924504277,"keywords":["nocrits","nodmgspread","payload","uncletopia"],"game_id":440,"stv_port":27056,"stv_name":"Uncletopia | Frankfurt | 5 | All Maps | STV","players":[{"user_id":583,"name":"After8","steam_id":76561198090750865,"connected_time":665000000000,"state":"active","ping":65},{"user_id":585,"name":"zak","steam_id":76561197998895428,"connected_time":582000000000,"state":"active","ping":48},{"user_id":565,"name":"makiverem","steam_id":76561198425866216,"connected_time":1485000000000,"state":"active","ping":89},{"user_id":570,"name":"Vitun Jonne","steam_id":76561198401737380,"connected_time":1134000000000,"state":"active","ping":58},{"user_id":567,"name":"RubyTheUnicorn","steam_id":76561198091772218,"connected_time":1249000000000,"state":"active","ping":60},{"user_id":595,"name":"yurkur","steam_id":76561198407108497,"connected_time":109000000000,"state":"active","ping":56},{"user_id":591,"name":"janvaljen","steam_id":76561198017781450,"connected_time":394000000000,"state":"active","ping":103},{"user_id":589,"name":"I AM DOT","steam_id":76561198354118090,"connected_time":517000000000,"state":"active","ping":90},{"user_id":590,"name":"Repays","steam_id":76561198082993000,"connected_time":466000000000,"state":"active","ping":60},{"user_id":596,"name":"GopniC","steam_id":76561198015529261,"connected_time":30000000000,"state":"active","ping":45},{"user_id":465,"name":"darktheif54","steam_id":76561198043650119,"connected_time":6846000000000,"state":"active","ping":54},{"user_id":520,"name":"Carrot Arc","steam_id":76561198164957006,"connected_time":4236000000000,"state":"active","ping":95},{"user_id":555,"name":"Squishy","steam_id":76561198124618876,"connected_time":1872000000000,"state":"active","ping":123},{"user_id":579,"name":"♫★Xriasp★♫","steam_id":76561198104721321,"connected_time":796000000000,"state":"active","ping":72},{"user_id":572,"name":"Albert Einstein","steam_id":76561198351190006,"connected_time":1077000000000,"state":"active","ping":87},{"user_id":575,"name":"•stepbro•","steam_id":76561198119607160,"connected_time":1029000000000,"state":"active","ping":69},{"user_id":519,"name":"Charles Darwin","steam_id":76561197973496139,"connected_time":4240000000000,"state":"active","ping":61},{"user_id":587,"name":"Lovely dove bombing diarrhea","steam_id":76561198042593027,"connected_time":578000000000,"state":"active","ping":94},{"user_id":588,"name":"stonebum","steam_id":76561198057004606,"connected_time":566000000000,"state":"active","ping":59},{"user_id":581,"name":"khey","steam_id":76561198035380064,"connected_time":694000000000,"state":"active","ping":57},{"user_id":515,"name":"Seb, Comrade","steam_id":76561198040279587,"connected_time":4433000000000,"state":"active","ping":102},{"user_id":558,"name":"Certified Hood pybro (ua)","steam_id":76561198970562699,"connected_time":1803000000000,"state":"active","ping":48},{"user_id":593,"name":"Gabys","steam_id":76561198282892553,"connected_time":330000000000,"state":"active","ping":102},{"user_id":458,"name":"ДОВИТОФФ","steam_id":76561198313372925,"connected_time":7173000000000,"state":"active","ping":70}]},{"server_id":311,"name":"Uncletopia | Frankfurt | 6 | All Maps","name_short":"frk-6","host":"frk-1.de.uncletopia.com","port":27065,"enabled":true,"region":"eu","cc":"de","latitude":50.110924,"longitude":8.682127,"reserved":0,"last_update":"0001-01-01T00:00:00Z","name_a2s":"Uncletopia | Frankfurt | 6 | All Maps","protocol":17,"map":"koth_highpass","folder":"tf","game":"Team Fortress","app_id":440,"player_count":3,"max_players":24,"Bots":0,"server_type":"Dedicated","server_os":"Linux","password":true,"vac":true,"version":"7757534","steam_id":85568392924504278,"keywords":["cp","nocrits","nodmgspread","uncletopia"],"game_id":440,"stv_port":27066,"stv_name":"Uncletopia | Frankfurt | 6 | All Maps | STV","players":[{"user_id":243,"name":"XBOX Sturux","steam_id":76561198277644122,"connected_time":697000000000,"state":"active","ping":61},{"user_id":244,"name":"RedZone","steam_id":76561198272831979,"connected_time":517000000000,"state":"active","ping":64},{"user_id":245,"name":"purpleboi8056","steam_id":76561199386977971,"connected_time":466000000000,"state":"active","ping":222}]},{"server_id":23,"name":"Uncletopia | Frankfurt | 7 | Stopwatch Beta","name_short":"frk-7","host":"frk-1.de.uncletopia.com","port":27075,"enabled":true,"region":"eu","cc":"de","latitude":50.110924,"longitude":8.682127,"reserved":0,"last_update":"0001-01-01T00:00:00Z","name_a2s":"Uncletopia | Frankfurt | 7 | Stopwatch Beta","protocol":17,"map":"pl_frontier_final","folder":"tf","game":"Team Fortress","app_id":440,"player_count":0,"max_players":24,"Bots":0,"server_type":"Dedicated","server_os":"Linux","password":true,"vac":true,"version":"7757534","steam_id":85568392924742827,"keywords":["nocrits","nodmgspread","payload","uncletopia"],"game_id":440,"stv_port":27076,"stv_name":"Uncletopia | Frankfurt | 7 | Stopwatch Beta | STV","players":null},{"server_id":24,"name":"Uncletopia | Frankfurt | 8 | Community","name_short":"frk-8","host":"frk-1.de.uncletopia.com","port":27085,"enabled":true,"region":"eu","cc":"de","latitude":50.110924,"longitude":8.682127,"reserved":0,"last_update":"0001-01-01T00:00:00Z","name_a2s":"Uncletopia | Frankfurt | 8 | Community","protocol":17,"map":"workshop/koth_bagel_rc5.ugc2514036946","folder":"tf","game":"Team Fortress","app_id":440,"player_count":0,"max_players":24,"Bots":0,"server_type":"Dedicated","server_os":"Linux","password":true,"vac":true,"version":"7757534","steam_id":85568392924742828,"keywords":["cp","nocrits","nodmgspread","uncletopia"],"game_id":440,"stv_port":27086,"stv_name":"Uncletopia | Frankfurt | 8 | Community | STV","players":null},{"server_id":202,"name":"Uncletopia | Hong Kong | 1 | All Maps","name_short":"hgk-1","host":"hgk-1.hk.uncletopia.com","port":27015,"enabled":true,"region":"asia","cc":"hk","latitude":22.302711,"longitude":114.177216,"reserved":0,"last_update":"0001-01-01T00:00:00Z","name_a2s":"Uncletopia | Hong Kong | 1 | All Maps","protocol":17,"map":"koth_viaduct","folder":"tf","game":"Team Fortress","app_id":440,"player_count":0,"max_players":24,"Bots":0,"server_type":"Dedicated","server_os":"Linux","password":true,"vac":true,"version":"7757534","steam_id":85568392924494504,"keywords":["cp","nocrits","nodmgspread","uncletopia"],"game_id":440,"stv_port":27016,"stv_name":"Uncletopia | Hong Kong | 1 | All Maps | STV","players":null},{"server_id":1,"name":"Uncletopia | Los Angeles | 1 | All Maps","name_short":"lax-1","host":"lax-1.us.uncletopia.com","port":27015,"enabled":true,"region":"us-west","cc":"us","latitude":33.94279,"longitude":-118.41004,"reserved":0,"last_update":"0001-01-01T00:00:00Z","name_a2s":"Uncletopia | Los Angeles | 1 | All Maps","protocol":17,"map":"koth_viaduct","folder":"tf","game":"Team Fortress","app_id":440,"player_count":0,"max_players":24,"Bots":0,"server_type":"Dedicated","server_os":"Linux","password":true,"vac":true,"version":"7757534","steam_id":85568392924469991,"keywords":["cp","nocrits","nodmgspread","uncletopia"],"game_id":440,"stv_port":27016,"stv_name":"Uncletopia | Los Angeles | 1 | All Maps | STV","players":null},{"server_id":112,"name":"Uncletopia | Los Angeles | 2 | All Maps","name_short":"lax-2","host":"lax-1.us.uncletopia.com","port":27025,"enabled":true,"region":"us-west","cc":"us","latitude":33.94279,"longitude":-118.41004,"reserved":0,"last_update":"0001-01-01T00:00:00Z","name_a2s":"Uncletopia | Los Angeles | 2 | All Maps","protocol":17,"map":"koth_cascade","folder":"tf","game":"Team Fortress","app_id":440,"player_count":0,"max_players":24,"Bots":0,"server_type":"Dedicated","server_os":"Linux","password":true,"vac":true,"version":"7757534","steam_id":85568392924469992,"keywords":["cp","nocrits","nodmgspread","uncletopia"],"game_id":440,"stv_port":27026,"stv_name":"Uncletopia | Los Angeles | 2 | All Maps | STV","players":null},{"server_id":324,"name":"Uncletopia | Los Angeles | 3 | All Maps","name_short":"lax-3","host":"lax-1.us.uncletopia.com","port":27035,"enabled":true,"region":"us-west","cc":"us","latitude":33.94279,"longitude":-118.41004,"reserved":0,"last_update":"0001-01-01T00:00:00Z","name_a2s":"Uncletopia | Los Angeles | 3 | All Maps","protocol":17,"map":"koth_cascade","folder":"tf","game":"Team Fortress","app_id":440,"player_count":0,"max_players":24,"Bots":0,"server_type":"Dedicated","server_os":"Linux","password":true,"vac":true,"version":"7757534","steam_id":85568392924510198,"keywords":["cp","nocrits","nodmgspread","uncletopia"],"game_id":440,"stv_port":27036,"stv_name":"Uncletopia | Los Angeles | 3 | All Maps | STV","players":null},{"server_id":25,"name":"Uncletopia | Los Angeles | 4 | Stopwatch Beta","name_short":"lax-4","host":"lax-1.us.uncletopia.com","port":27045,"enabled":true,"region":"us-west","cc":"us","latitude":33.94279,"longitude":-118.41004,"reserved":0,"last_update":"0001-01-01T00:00:00Z","name_a2s":"Uncletopia | Los Angeles | 4 | Stopwatch Beta","protocol":17,"map":"pl_frontier_final","folder":"tf","game":"Team Fortress","app_id":440,"player_count":0,"max_players":24,"Bots":0,"server_type":"Dedicated","server_os":"Linux","password":true,"vac":true,"version":"7757534","steam_id":85568392924510199,"keywords":["nocrits","nodmgspread","payload","uncletopia"],"game_id":440,"stv_port":27046,"stv_name":"Uncletopia | Los Angeles | 4 | Stopwatch Beta | STV","players":null},{"server_id":11,"name":"Uncletopia | London | 1 | All Maps","name_short":"lon-1","host":"lon-1.uk.uncletopia.com","port":27015,"enabled":true,"region":"eu","cc":"gb","latitude":51.509865,"longitude":-0.118092,"reserved":0,"last_update":"0001-01-01T00:00:00Z","name_a2s":"Uncletopia | London | 1 | All Maps","protocol":17,"map":"pl_frontier_final","folder":"tf","game":"Team Fortress","app_id":440,"player_count":24,"max_players":24,"Bots":0,"server_type":"Dedicated","server_os":"Linux","password":true,"vac":true,"version":"7757534","steam_id":85568392924367362,"keywords":["nocrits","nodmgspread","payload","uncletopia"],"game_id":440,"stv_port":27016,"stv_name":"Uncletopia | London | 1 | All Maps | STV","players":[{"user_id":670,"name":"EdSuedi","steam_id":76561199387956486,"connected_time":644000000000,"state":"active","ping":60},{"user_id":656,"name":"Svilar","steam_id":76561198828348612,"connected_time":986000000000,"state":"active","ping":93},{"user_id":675,"name":"Camo Leaf","steam_id":76561197999456575,"connected_time":135000000000,"state":"active","ping":56},{"user_id":537,"name":"KPhii","steam_id":76561198970587061,"connected_time":8699000000000,"state":"active","ping":68},{"user_id":636,"name":"TheBeardedM1G","steam_id":76561198040208946,"connected_time":2689000000000,"state":"active","ping":46},{"user_id":644,"name":"᠌᠌ ᠌ ᠌ ᠌ ᠌ ᠌᠌","steam_id":76561198139659854,"connected_time":1964000000000,"state":"active","ping":88},{"user_id":638,"name":"new sens.","steam_id":76561199065917088,"connected_time":2475000000000,"state":"active","ping":53},{"user_id":668,"name":"Giovine Killjoy","steam_id":76561198059375315,"connected_time":710000000000,"state":"active","ping":77},{"user_id":661,"name":"DelT","steam_id":76561198204007537,"connected_time":957000000000,"state":"active","ping":60},{"user_id":623,"name":"Utter Shit","steam_id":76561198020254869,"connected_time":3389000000000,"state":"active","ping":46},{"user_id":671,"name":"I.C. Wiener","steam_id":76561197999912254,"connected_time":619000000000,"state":"active","ping":99},{"user_id":660,"name":"nky","steam_id":76561198086229832,"connected_time":969000000000,"state":"active","ping":72},{"user_id":674,"name":"ugly","steam_id":76561199050412617,"connected_time":185000000000,"state":"active","ping":110},{"user_id":673,"name":"XVoqueX","steam_id":76561198092369739,"connected_time":558000000000,"state":"active","ping":83},{"user_id":672,"name":"kreeekz","steam_id":76561198014431602,"connected_time":580000000000,"state":"active","ping":76},{"user_id":606,"name":"The cost of living in the UK","steam_id":76561199000520747,"connected_time":4485000000000,"state":"active","ping":47},{"user_id":663,"name":"Dkz","steam_id":76561197970673402,"connected_time":944000000000,"state":"active","ping":45},{"user_id":676,"name":"Quinton Heckroth","steam_id":76561197979780972,"connected_time":64000000000,"state":"active","ping":32},{"user_id":654,"name":"AWildTamim","steam_id":76561198048060652,"connected_time":1476000000000,"state":"active","ping":43},{"user_id":648,"name":"Aaron","steam_id":76561197990046953,"connected_time":1815000000000,"state":"active","ping":82},{"user_id":658,"name":"Solymr ibn Wali Barad","steam_id":76561198044008976,"connected_time":981000000000,"state":"active","ping":71},{"user_id":600,"name":"Steen","steam_id":76561198122992510,"connected_time":5117000000000,"state":"active","ping":53},{"user_id":669,"name":"Posho","steam_id":76561198062396436,"connected_time":652000000000,"state":"active","ping":46},{"user_id":659,"name":"Kahvi","steam_id":76561198723244199,"connected_time":980000000000,"state":"active","ping":78}]},{"server_id":114,"name":"Uncletopia | London | 2 | All Maps","name_short":"lon-2","host":"lon-1.uk.uncletopia.com","port":27025,"enabled":true,"region":"eu","cc":"gb","latitude":51.509865,"longitude":-0.118092,"reserved":0,"last_update":"0001-01-01T00:00:00Z","name_a2s":"Uncletopia | London | 2 | All Maps","protocol":17,"map":"pl_snowycoast","folder":"tf","game":"Team Fortress","app_id":440,"player_count":24,"max_players":24,"Bots":0,"server_type":"Dedicated","server_os":"Linux","password":true,"vac":true,"version":"7757534","steam_id":85568392924470941,"keywords":["nocrits","nodmgspread","payload","uncletopia"],"game_id":440,"stv_port":27026,"stv_name":"Uncletopia | London | 2 | All Maps | STV","players":[{"user_id":640,"name":"Datenegassie","steam_id":76561198089417032,"connected_time":518000000000,"state":"active","ping":59},{"user_id":650,"name":"Paintbrush","steam_id":76561198119987705,"connected_time":52000000000,"state":"active","ping":60},{"user_id":622,"name":"ricky pee pee","steam_id":76561198152620745,"connected_time":2631000000000,"state":"active","ping":56},{"user_id":643,"name":"Mr Xbow","steam_id":76561198862864460,"connected_time":452000000000,"state":"active","ping":55},{"user_id":644,"name":"Choruptian","steam_id":76561198017686366,"connected_time":434000000000,"state":"active","ping":60},{"user_id":651,"name":"loveless","steam_id":76561198142256651,"connected_time":32000000000,"state":"active","ping":84},{"user_id":634,"name":"Tom","steam_id":76561198008519979,"connected_time":1387000000000,"state":"active","ping":62},{"user_id":630,"name":"andrew fade","steam_id":76561198857396812,"connected_time":1617000000000,"state":"active","ping":57},{"user_id":523,"name":"scantron","steam_id":76561199103959197,"connected_time":8628000000000,"state":"active","ping":101},{"user_id":631,"name":"AstroHusky","steam_id":76561197965970648,"connected_time":1572000000000,"state":"active","ping":61},{"user_id":645,"name":"tamz","steam_id":76561198146873972,"connected_time":429000000000,"state":"active","ping":31},{"user_id":370,"name":"Zerfesh","steam_id":76561198117534358,"connected_time":16780000000000,"state":"active","ping":99},{"user_id":641,"name":"Dezalt","steam_id":76561198154866092,"connected_time":512000000000,"state":"active","ping":85},{"user_id":516,"name":"Spajro","steam_id":76561198257383813,"connected_time":8798000000000,"state":"active","ping":58},{"user_id":510,"name":"Lyra","steam_id":76561198043601838,"connected_time":8977000000000,"state":"active","ping":74},{"user_id":618,"name":"Charon-the-Boatman","steam_id":76561199031392798,"connected_time":2724000000000,"state":"active","ping":72},{"user_id":646,"name":"hud_saytext_time 0","steam_id":76561198010327228,"connected_time":422000000000,"state":"active","ping":81},{"user_id":632,"name":"Unvid","steam_id":76561198031588080,"connected_time":1562000000000,"state":"active","ping":49},{"user_id":633,"name":"etc","steam_id":76561197998394797,"connected_time":1552000000000,"state":"active","ping":59},{"user_id":517,"name":"he's not even good xd","steam_id":76561198148115584,"connected_time":8788000000000,"state":"active","ping":79},{"user_id":647,"name":"pepper","steam_id":76561198059782462,"connected_time":420000000000,"state":"active","ping":61},{"user_id":562,"name":"yyny","steam_id":76561198066287297,"connected_time":7141000000000,"state":"active","ping":45},{"user_id":648,"name":"AxeGeddon","steam_id":76561198145365762,"connected_time":420000000000,"state":"active","ping":75},{"user_id":649,"name":"jkr","steam_id":76561198091135475,"connected_time":419000000000,"state":"active","ping":45}]},{"server_id":320,"name":"Uncletopia | London | 3 | All Maps","name_short":"lon-3","host":"lon-1.uk.uncletopia.com","port":27035,"enabled":true,"region":"eu","cc":"gb","latitude":51.509865,"longitude":-0.118092,"reserved":0,"last_update":"0001-01-01T00:00:00Z","name_a2s":"Uncletopia | London | 3 | All Maps","protocol":17,"map":"koth_lakeside_final","folder":"tf","game":"Team Fortress","app_id":440,"player_count":0,"max_players":24,"Bots":0,"server_type":"Dedicated","server_os":"Linux","password":true,"vac":true,"version":"7757534","steam_id":85568392924510192,"keywords":["cp","nocrits","nodmgspread","uncletopia"],"game_id":440,"stv_port":27036,"stv_name":"Uncletopia | London | 3 | All Maps | STV","players":null},{"server_id":321,"name":"Uncletopia | London | 4 | All Maps","name_short":"lon-4","host":"lon-1.uk.uncletopia.com","port":27045,"enabled":true,"region":"eu","cc":"gb","latitude":51.509865,"longitude":-0.118092,"reserved":0,"last_update":"0001-01-01T00:00:00Z","name_a2s":"Uncletopia | London | 4 | All Maps","protocol":17,"map":"koth_viaduct","folder":"tf","game":"Team Fortress","app_id":440,"player_count":1,"max_players":24,"Bots":0,"server_type":"Dedicated","server_os":"Linux","password":true,"vac":true,"version":"7757534","steam_id":85568392924510193,"keywords":["cp","nocrits","nodmgspread","uncletopia"],"game_id":440,"stv_port":27046,"stv_name":"Uncletopia | London | 4 | All Maps | STV","players":[{"user_id":18,"name":"David Random","steam_id":76561198144497918,"connected_time":325000000000,"state":"active","ping":62}]},{"server_id":21,"name":"Uncletopia | London | 5 | All Maps","name_short":"lon-5","host":"lon-1.uk.uncletopia.com","port":27055,"enabled":true,"region":"eu","cc":"gb","latitude":51.509865,"longitude":-0.118092,"reserved":0,"last_update":"0001-01-01T00:00:00Z","name_a2s":"Uncletopia | London | 5 | All Maps","protocol":17,"map":"pl_barnblitz","folder":"tf","game":"Team Fortress","app_id":440,"player_count":24,"max_players":24,"Bots":0,"server_type":"Dedicated","server_os":"Linux","password":true,"vac":true,"version":"7757534","steam_id":85568392924742829,"keywords":["nocrits","nodmgspread","payload","uncletopia"],"game_id":440,"stv_port":27056,"stv_name":"Uncletopia | London | 5 | All Maps | STV","players":[{"user_id":288,"name":"Sentry","steam_id":76561198275326569,"connected_time":277000000000,"state":"active","ping":74},{"user_id":277,"name":"beurgeur","steam_id":76561198872426314,"connected_time":823000000000,"state":"active","ping":45},{"user_id":282,"name":"PluNgBe","steam_id":76561198131100420,"connected_time":663000000000,"state":"active","ping":56},{"user_id":270,"name":"Marioalexsan","steam_id":76561198125512367,"connected_time":1202000000000,"state":"active","ping":95},{"user_id":281,"name":"Cheddar","steam_id":76561198094192281,"connected_time":684000000000,"state":"active","ping":45},{"user_id":283,"name":"Zippo","steam_id":76561198056773656,"connected_time":659000000000,"state":"active","ping":76},{"user_id":278,"name":"☠Holy(cz)☠","steam_id":76561197985535494,"connected_time":778000000000,"state":"active","ping":86},{"user_id":247,"name":"Dr Sex","steam_id":76561198029044617,"connected_time":2537000000000,"state":"active","ping":43},{"user_id":250,"name":"Zenos [F2P]","steam_id":76561198212366199,"connected_time":2500000000000,"state":"active","ping":56},{"user_id":229,"name":"Speibsackerl","steam_id":76561198058135257,"connected_time":3808000000000,"state":"active","ping":82},{"user_id":271,"name":"Artur ☻","steam_id":76561198264297604,"connected_time":1089000000000,"state":"active","ping":80},{"user_id":131,"name":"neJ","steam_id":76561198003397488,"connected_time":12230000000000,"state":"active","ping":76},{"user_id":258,"name":"fregaropa","steam_id":76561198150806166,"connected_time":1862000000000,"state":"active","ping":90},{"user_id":284,"name":"Adopted?","steam_id":76561198118667043,"connected_time":655000000000,"state":"active","ping":53},{"user_id":244,"name":"hellrunner","steam_id":76561198205309695,"connected_time":3121000000000,"state":"active","ping":101},{"user_id":292,"name":"eddiehobbs","steam_id":76561198384635410,"connected_time":52000000000,"state":"spawning","ping":117},{"user_id":274,"name":"Dr.Novablaster","steam_id":76561198081593945,"connected_time":927000000000,"state":"active","ping":110},{"user_id":291,"name":"Thalgorock","steam_id":76561198195315022,"connected_time":171000000000,"state":"active","ping":72},{"user_id":203,"name":"pineappleguy05","steam_id":76561199144546264,"connected_time":5230000000000,"state":"active","ping":81},{"user_id":279,"name":"Dooble donk man look at me donk","steam_id":76561198225523596,"connected_time":777000000000,"state":"active","ping":63},{"user_id":287,"name":"Doug Dimmadome","steam_id":76561198034958855,"connected_time":634000000000,"state":"active","ping":82},{"user_id":289,"name":"Noob_with_source","steam_id":76561198870362103,"connected_time":273000000000,"state":"active","ping":60},{"user_id":253,"name":"Hÿlkje","steam_id":76561198998581449,"connected_time":2239000000000,"state":"active","ping":77},{"user_id":290,"name":"Kotlin","steam_id":76561198443331716,"connected_time":248000000000,"state":"active","ping":58}]},{"server_id":22,"name":"Uncletopia | London | 6 | All Maps","name_short":"lon-6","host":"lon-1.uk.uncletopia.com","port":27065,"enabled":true,"region":"eu","cc":"gb","latitude":51.509865,"longitude":-0.118092,"reserved":0,"last_update":"0001-01-01T00:00:00Z","name_a2s":"Uncletopia | London | 6 | All Maps","protocol":17,"map":"pl_badwater","folder":"tf","game":"Team Fortress","app_id":440,"player_count":24,"max_players":24,"Bots":0,"server_type":"Dedicated","server_os":"Linux","password":true,"vac":true,"version":"7757534","steam_id":85568392924742830,"keywords":["nocrits","nodmgspread","payload","uncletopia"],"game_id":440,"stv_port":27066,"stv_name":"Uncletopia | London | 6 | All Maps | STV","players":[{"user_id":387,"name":"FoOzTV","steam_id":76561197998636728,"connected_time":1690000000000,"state":"active","ping":74},{"user_id":336,"name":"LOBZIK","steam_id":76561198114830120,"connected_time":4883000000000,"state":"active","ping":76},{"user_id":395,"name":"Derpy Engineer HD","steam_id":76561198103184085,"connected_time":651000000000,"state":"active","ping":75},{"user_id":349,"name":"иван","steam_id":76561198072730591,"connected_time":4400000000000,"state":"active","ping":68},{"user_id":398,"name":"TrueMangoes","steam_id":76561198824872459,"connected_time":296000000000,"state":"active","ping":73},{"user_id":379,"name":"AwterSix","steam_id":76561198042561678,"connected_time":2497000000000,"state":"active","ping":60},{"user_id":263,"name":"Dr. Uberschwein","steam_id":76561198111367431,"connected_time":8778000000000,"state":"active","ping":73},{"user_id":396,"name":"not drunk","steam_id":76561199184873889,"connected_time":496000000000,"state":"active","ping":60},{"user_id":259,"name":"gibb (official)","steam_id":76561198074097655,"connected_time":8945000000000,"state":"active","ping":45},{"user_id":302,"name":"Fran","steam_id":76561199070516960,"connected_time":6441000000000,"state":"active","ping":72},{"user_id":394,"name":"Pabs :D","steam_id":76561198000016962,"connected_time":1395000000000,"state":"active","ping":60},{"user_id":399,"name":"Mermaid","steam_id":76561198086654069,"connected_time":221000000000,"state":"active","ping":75},{"user_id":376,"name":"TylowStar","steam_id":76561198357107806,"connected_time":3016000000000,"state":"active","ping":75},{"user_id":397,"name":"British Disapproval","steam_id":76561198001375260,"connected_time":477000000000,"state":"active","ping":61},{"user_id":340,"name":"just a cat","steam_id":76561198328023740,"connected_time":4846000000000,"state":"active","ping":60},{"user_id":384,"name":"Snortman","steam_id":76561199012566222,"connected_time":1924000000000,"state":"active","ping":68},{"user_id":365,"name":"Something🤙","steam_id":76561198375358222,"connected_time":3372000000000,"state":"active","ping":47},{"user_id":364,"name":"lomse_","steam_id":76561198146939162,"connected_time":3453000000000,"state":"active","ping":53},{"user_id":400,"name":"Setter Ball Gaul","steam_id":76561198130427881,"connected_time":193000000000,"state":"active","ping":163},{"user_id":401,"name":"Derp","steam_id":76561198997908632,"connected_time":189000000000,"state":"active","ping":92},{"user_id":371,"name":"M A D M A X","steam_id":76561198205304508,"connected_time":3296000000000,"state":"active","ping":51},{"user_id":402,"name":"Get.Bopped","steam_id":76561198443000188,"connected_time":187000000000,"state":"active","ping":162},{"user_id":385,"name":"PieTer","steam_id":76561198001999422,"connected_time":1824000000000,"state":"active","ping":69},{"user_id":392,"name":"тукку ирма","steam_id":76561197998715016,"connected_time":1455000000000,"state":"active","ping":68}]},{"server_id":40,"name":"Uncletopia | London | 7 | No Payload","name_short":"lon-7","host":"lon-1.uk.uncletopia.com","port":27075,"enabled":true,"region":"eu","cc":"gb","latitude":51.509865,"longitude":-0.118092,"reserved":0,"last_update":"0001-01-01T00:00:00Z","name_a2s":"Uncletopia | London | 7 | No Payload","protocol":17,"map":"cp_sunshine","folder":"tf","game":"Team Fortress","app_id":440,"player_count":0,"max_players":24,"Bots":0,"server_type":"Dedicated","server_os":"Linux","password":true,"vac":true,"version":"7757534","steam_id":85568392924964314,"keywords":["cp","nocrits","nodmgspread","uncletopia"],"game_id":440,"stv_port":27076,"stv_name":"Uncletopia | London | 7 | No Payload | STV","players":null},{"server_id":41,"name":"Uncletopia | London | 8 | Community","name_short":"lon-8","host":"lon-1.uk.uncletopia.com","port":27085,"enabled":true,"region":"eu","cc":"gb","latitude":51.509865,"longitude":-0.118092,"reserved":0,"last_update":"0001-01-01T00:00:00Z","name_a2s":"Uncletopia | London | 8 | Community","protocol":17,"map":"workshop/pl_highwood_b13.ugc1769496557","folder":"tf","game":"Team Fortress","app_id":440,"player_count":24,"max_players":24,"Bots":0,"server_type":"Dedicated","server_os":"Linux","password":true,"vac":true,"version":"7757534","steam_id":85568392924964315,"keywords":["nocrits","nodmgspread","payload","uncletopia"],"game_id":440,"stv_port":27086,"stv_name":"Uncletopia | London | 8 | Community | STV","players":[{"user_id":142,"name":"Toukkis","steam_id":76561198140232191,"connected_time":3507000000000,"state":"active","ping":100},{"user_id":197,"name":"Scipionemiliano","steam_id":76561198027646559,"connected_time":189000000000,"state":"active","ping":129},{"user_id":194,"name":"lolmurphyy","steam_id":76561198143068715,"connected_time":647000000000,"state":"active","ping":39},{"user_id":176,"name":"Avoonix","steam_id":76561198186954897,"connected_time":1650000000000,"state":"active","ping":66},{"user_id":169,"name":"Festive Erma","steam_id":76561198038718342,"connected_time":1843000000000,"state":"active","ping":66},{"user_id":188,"name":"Swiss_Nostalgia","steam_id":76561199159896259,"connected_time":1084000000000,"state":"active","ping":66},{"user_id":181,"name":"twitch.tv/morvill_","steam_id":76561198809859945,"connected_time":1389000000000,"state":"active","ping":49},{"user_id":168,"name":"Cerabond","steam_id":76561199230915333,"connected_time":1868000000000,"state":"active","ping":135},{"user_id":191,"name":"sssam","steam_id":76561198430078799,"connected_time":699000000000,"state":"active","ping":97},{"user_id":110,"name":"Sgreff","steam_id":76561198036304365,"connected_time":5388000000000,"state":"active","ping":45},{"user_id":182,"name":"Krabs","steam_id":76561198161679477,"connected_time":1370000000000,"state":"active","ping":45},{"user_id":134,"name":"テイルス","steam_id":76561198022403271,"connected_time":3842000000000,"state":"active","ping":50},{"user_id":157,"name":"Negromancer","steam_id":76561198065912877,"connected_time":2216000000000,"state":"active","ping":89},{"user_id":162,"name":"AFerociousTeddyBearSlayer","steam_id":76561198247447256,"connected_time":2127000000000,"state":"active","ping":48},{"user_id":183,"name":"Space","steam_id":76561198021572167,"connected_time":1361000000000,"state":"active","ping":45},{"user_id":151,"name":"Vershal Smershal","steam_id":76561198116223995,"connected_time":2705000000000,"state":"active","ping":59},{"user_id":189,"name":"k a t  /ᐠ.ꞈ.ᐟ\\","steam_id":76561199208236999,"connected_time":805000000000,"state":"active","ping":138},{"user_id":152,"name":"Homicidal Tendencies","steam_id":76561198828681043,"connected_time":2699000000000,"state":"active","ping":41},{"user_id":174,"name":"night.s","steam_id":76561198326287823,"connected_time":1750000000000,"state":"active","ping":77},{"user_id":184,"name":"Birdseye","steam_id":76561198025852216,"connected_time":1342000000000,"state":"active","ping":45},{"user_id":163,"name":"Clitorina","steam_id":76561198077570815,"connected_time":2092000000000,"state":"active","ping":43},{"user_id":141,"name":"Masquerade queen","steam_id":76561198218299273,"connected_time":3515000000000,"state":"active","ping":90},{"user_id":193,"name":"🦐 Tust 🦐","steam_id":76561198045694677,"connected_time":670000000000,"state":"active","ping":49},{"user_id":195,"name":"Daddy Keith","steam_id":76561198836215107,"connected_time":586000000000,"state":"active","ping":89}]},{"server_id":300,"name":"Uncletopia | Montréal | 1 | All Maps","name_short":"mtl-1","host":"mtl-1.ca.uncletopia.com","port":27015,"enabled":true,"region":"us-east","cc":"ca","latitude":45.50889,"longitude":-73.56167,"reserved":0,"last_update":"0001-01-01T00:00:00Z","name_a2s":"Uncletopia | Montréal | 1 | All Maps","protocol":17,"map":"pl_snowycoast","folder":"tf","game":"Team Fortress","app_id":440,"player_count":0,"max_players":24,"Bots":0,"server_type":"Dedicated","server_os":"Linux","password":true,"vac":true,"version":"7757534","steam_id":85568392924500087,"keywords":["nocrits","nodmgspread","payload","uncletopia"],"game_id":440,"stv_port":27016,"stv_name":"Uncletopia | Montréal | 1 | All Maps | STV","players":null},{"server_id":301,"name":"Uncletopia | Montréal | 2 | All Maps","name_short":"mtl-2","host":"mtl-1.ca.uncletopia.com","port":27025,"enabled":true,"region":"us-east","cc":"ca","latitude":45.50889,"longitude":-73.56167,"reserved":0,"last_update":"0001-01-01T00:00:00Z","name_a2s":"Uncletopia | Montréal | 2 | All Maps","protocol":17,"map":"pl_snowycoast","folder":"tf","game":"Team Fortress","app_id":440,"player_count":0,"max_players":24,"Bots":0,"server_type":"Dedicated","server_os":"Linux","password":true,"vac":true,"version":"7757534","steam_id":85568392924500088,"keywords":["nocrits","nodmgspread","payload","uncletopia"],"game_id":440,"stv_port":27026,"stv_name":"Uncletopia | Montréal | 2 | All Maps | STV","players":null},{"server_id":302,"name":"Uncletopia | Montréal | 3 | All Maps","name_short":"mtl-3","host":"mtl-1.ca.uncletopia.com","port":27035,"enabled":true,"region":"us-east","cc":"ca","latitude":45.50889,"longitude":-73.56167,"reserved":0,"last_update":"0001-01-01T00:00:00Z","name_a2s":"Uncletopia | Montréal | 3 | All Maps","protocol":17,"map":"pl_swiftwater_final1","folder":"tf","game":"Team Fortress","app_id":440,"player_count":0,"max_players":24,"Bots":0,"server_type":"Dedicated","server_os":"Linux","password":true,"vac":true,"version":"7757534","steam_id":85568392924500089,"keywords":["nocrits","nodmgspread","payload","uncletopia"],"game_id":440,"stv_port":27036,"stv_name":"Uncletopia | Montréal | 3 | All Maps | STV","players":null},{"server_id":303,"name":"Uncletopia | Montréal | 4 | No Payload","name_short":"mtl-4","host":"mtl-1.ca.uncletopia.com","port":27045,"enabled":true,"region":"us-east","cc":"ca","latitude":45.50889,"longitude":-73.56167,"reserved":0,"last_update":"0001-01-01T00:00:00Z","name_a2s":"Uncletopia | Montréal | 4 | No Payload","protocol":17,"map":"pl_borneo","folder":"tf","game":"Team Fortress","app_id":440,"player_count":0,"max_players":24,"Bots":0,"server_type":"Dedicated","server_os":"Linux","password":true,"vac":true,"version":"7757534","steam_id":85568392924500090,"keywords":["nocrits","nodmgspread","payload","uncletopia"],"game_id":440,"stv_port":27046,"stv_name":"Uncletopia | Montréal | 4 | No Payload | STV","players":null},{"server_id":13,"name":"Uncletopia | New York City | 1 | All Maps","name_short":"nyc-1","host":"nyc-1.us.uncletopia.com","port":27015,"enabled":true,"region":"us-east","cc":"us","latitude":40.73061,"longitude":-73.93524,"reserved":0,"last_update":"0001-01-01T00:00:00Z","name_a2s":"Uncletopia | New York City | 1 | All Maps","protocol":17,"map":"pl_borneo","folder":"tf","game":"Team Fortress","app_id":440,"player_count":24,"max_players":24,"Bots":0,"server_type":"Dedicated","server_os":"Linux","password":true,"vac":true,"version":"7757534","steam_id":85568392924469993,"keywords":["nocrits","nodmgspread","payload","uncletopia"],"game_id":440,"stv_port":27016,"stv_name":"Uncletopia | New York City | 1 | All Maps | STV","players":[{"user_id":124,"name":"Deep Peepus","steam_id":76561198205395757,"connected_time":2521000000000,"state":"active","ping":165},{"user_id":142,"name":"Magical.Puffin","steam_id":76561198129039275,"connected_time":881000000000,"state":"active","ping":127},{"user_id":150,"name":"crush","steam_id":76561198107219183,"connected_time":472000000000,"state":"active","ping":114},{"user_id":17,"name":"Laelaps","steam_id":76561198100061416,"connected_time":9934000000000,"state":"active","ping":45},{"user_id":114,"name":"Myn","steam_id":76561198055438857,"connected_time":3165000000000,"state":"active","ping":71},{"user_id":130,"name":"|WS| Don't_Taze_Me_Bro","steam_id":76561198043289495,"connected_time":1680000000000,"state":"active","ping":73},{"user_id":141,"name":"Comfy!","steam_id":76561198008818346,"connected_time":892000000000,"state":"active","ping":52},{"user_id":92,"name":"moodi catgirl","steam_id":76561198124028045,"connected_time":4326000000000,"state":"active","ping":74},{"user_id":120,"name":"Tapita de Lapicera Inusual","steam_id":76561199292130035,"connected_time":3073000000000,"state":"active","ping":61},{"user_id":98,"name":"antwon from ghetto smosh","steam_id":76561198367019006,"connected_time":3884000000000,"state":"active","ping":56},{"user_id":137,"name":"Dusk","steam_id":76561199093333752,"connected_time":970000000000,"state":"active","ping":76},{"user_id":139,"name":"jibby","steam_id":76561198046872382,"connected_time":955000000000,"state":"active","ping":45},{"user_id":143,"name":"Pendrive","steam_id":76561199427354854,"connected_time":881000000000,"state":"active","ping":148},{"user_id":144,"name":"rat boy mao","steam_id":76561198283687382,"connected_time":866000000000,"state":"active","ping":85},{"user_id":145,"name":"Transbian mommy GF","steam_id":76561198153233822,"connected_time":846000000000,"state":"active","ping":83},{"user_id":131,"name":"Bannana Man","steam_id":76561199345210632,"connected_time":1488000000000,"state":"active","ping":77},{"user_id":151,"name":"Only One Jhakobi","steam_id":76561197993641141,"connected_time":447000000000,"state":"active","ping":75},{"user_id":156,"name":"qjkxkcd","steam_id":76561198035922283,"connected_time":272000000000,"state":"active","ping":55},{"user_id":154,"name":"Scita","steam_id":76561198066861559,"connected_time":416000000000,"state":"active","ping":60},{"user_id":132,"name":"Ulrich Stern","steam_id":76561198101739682,"connected_time":1479000000000,"state":"active","ping":104},{"user_id":126,"name":"papa guacamole","steam_id":76561198167665608,"connected_time":2013000000000,"state":"active","ping":69},{"user_id":147,"name":"O'brien","steam_id":76561198289339403,"connected_time":817000000000,"state":"active","ping":83},{"user_id":148,"name":"red gatorade","steam_id":76561198413125750,"connected_time":791000000000,"state":"active","ping":54},{"user_id":149,"name":"mrsomeoneisreal","steam_id":76561199471566863,"connected_time":786000000000,"state":"active","ping":130}]},{"server_id":14,"name":"Uncletopia | New York City | 2 | All Maps","name_short":"nyc-2","host":"nyc-1.us.uncletopia.com","port":27025,"enabled":true,"region":"us-east","cc":"us","latitude":40.73061,"longitude":-73.93524,"reserved":0,"last_update":"0001-01-01T00:00:00Z","name_a2s":"Uncletopia | New York City | 2 | All Maps","protocol":17,"map":"cp_steel","folder":"tf","game":"Team Fortress","app_id":440,"player_count":21,"max_players":24,"Bots":0,"server_type":"Dedicated","server_os":"Linux","password":true,"vac":true,"version":"7757534","steam_id":85568392924469994,"keywords":["cp","nocrits","nodmgspread","uncletopia"],"game_id":440,"stv_port":27026,"stv_name":"Uncletopia | New York City | 2 | All Maps | STV","players":[{"user_id":335,"name":"Kaluka","steam_id":76561198036861445,"connected_time":1000000000,"state":"spawning","ping":47},{"user_id":292,"name":"DiscoTraveler","steam_id":76561199240168088,"connected_time":3126000000000,"state":"active","ping":49},{"user_id":300,"name":"drizzle","steam_id":76561198099412571,"connected_time":2629000000000,"state":"active","ping":54},{"user_id":334,"name":"Tlaloc","steam_id":76561198375215983,"connected_time":51000000000,"state":"active","ping":114},{"user_id":316,"name":"coolfalcon168","steam_id":76561198948665710,"connected_time":1661000000000,"state":"active","ping":57},{"user_id":323,"name":"'LaxAttack","steam_id":76561198044129346,"connected_time":540000000000,"state":"active","ping":59},{"user_id":326,"name":"jzplr 🎷🐛","steam_id":76561198091901520,"connected_time":454000000000,"state":"active","ping":46},{"user_id":327,"name":"neet","steam_id":76561197968115168,"connected_time":452000000000,"state":"active","ping":46},{"user_id":331,"name":"peniblor","steam_id":76561198307923786,"connected_time":318000000000,"state":"active","ping":122},{"user_id":305,"name":"Charles281.92","steam_id":76561198180951431,"connected_time":2526000000000,"state":"active","ping":47},{"user_id":332,"name":"Lunchboxx","steam_id":76561198079735916,"connected_time":246000000000,"state":"active","ping":71},{"user_id":260,"name":"dodge1214","steam_id":76561198020431237,"connected_time":6500000000000,"state":"active","ping":54},{"user_id":329,"name":"Shmeat","steam_id":76561199057199891,"connected_time":419000000000,"state":"active","ping":66},{"user_id":330,"name":"marcus tillius","steam_id":76561197982832274,"connected_time":412000000000,"state":"active","ping":59},{"user_id":315,"name":"vastrobotmax","steam_id":76561198417110724,"connected_time":1824000000000,"state":"active","ping":70},{"user_id":319,"name":"FREE PROBLEM CHILD","steam_id":76561198140887655,"connected_time":1157000000000,"state":"active","ping":69},{"user_id":333,"name":"ole_diggy","steam_id":76561198970212746,"connected_time":238000000000,"state":"active","ping":85},{"user_id":296,"name":"Sire Salty","steam_id":76561198079639072,"connected_time":2846000000000,"state":"active","ping":46},{"user_id":322,"name":"zed","steam_id":76561198090531755,"connected_time":648000000000,"state":"active","ping":89},{"user_id":312,"name":"ThatGamingKiwi","steam_id":76561199170522237,"connected_time":2071000000000,"state":"active","ping":74},{"user_id":313,"name":"Nim","steam_id":76561198041236943,"connected_time":1963000000000,"state":"active","ping":74}]},{"server_id":15,"name":"Uncletopia | New York City | 3 | Stopwatch Beta","name_short":"nyc-3","host":"nyc-1.us.uncletopia.com","port":27035,"enabled":true,"region":"us-east","cc":"us","latitude":40.73061,"longitude":-73.93524,"reserved":0,"last_update":"0001-01-01T00:00:00Z","name_a2s":"Uncletopia | New York City | 3 | Stopwatch Beta","protocol":17,"map":"koth_highpass","folder":"tf","game":"Team Fortress","app_id":440,"player_count":0,"max_players":24,"Bots":0,"server_type":"Dedicated","server_os":"Linux","password":true,"vac":true,"version":"7757534","steam_id":85568392924742820,"keywords":["cp","nocrits","nodmgspread","uncletopia"],"game_id":440,"stv_port":27036,"stv_name":"Uncletopia | New York City | 3 | Stopwatch Beta | STV","players":null},{"server_id":16,"name":"Uncletopia | New York City | 4 | Community","name_short":"nyc-4","host":"nyc-1.us.uncletopia.com","port":27045,"enabled":true,"region":"us-east","cc":"us","latitude":40.73061,"longitude":-73.93524,"reserved":0,"last_update":"0001-01-01T00:00:00Z","name_a2s":"Uncletopia | New York City | 4 | Community","protocol":17,"map":"workshop/pl_cashworks_final1.ugc2904065412","folder":"tf","game":"Team Fortress","app_id":440,"player_count":24,"max_players":24,"Bots":0,"server_type":"Dedicated","server_os":"Linux","password":true,"vac":true,"version":"7757534","steam_id":85568392924742821,"keywords":["nocrits","nodmgspread","payload","uncletopia"],"game_id":440,"stv_port":27046,"stv_name":"Uncletopia | New York City | 4 | Community | STV","players":[{"user_id":63,"name":"emerge","steam_id":76561198186882891,"connected_time":825000000000,"state":"active","ping":64},{"user_id":46,"name":"tools","steam_id":76561199010542612,"connected_time":1343000000000,"state":"active","ping":62},{"user_id":68,"name":"Astrocircuit","steam_id":76561198014437544,"connected_time":566000000000,"state":"active","ping":50},{"user_id":62,"name":"Dojoloachfr","steam_id":76561198826298849,"connected_time":859000000000,"state":"active","ping":90},{"user_id":72,"name":"☂Bliffenstimmers☂","steam_id":76561198059984896,"connected_time":393000000000,"state":"active","ping":92},{"user_id":64,"name":"ooBah!","steam_id":76561198133684216,"connected_time":756000000000,"state":"active","ping":43},{"user_id":24,"name":"i_boop_ur_nose","steam_id":76561198312459560,"connected_time":2128000000000,"state":"active","ping":99},{"user_id":66,"name":"Trolldier 76","steam_id":76561198036504161,"connected_time":686000000000,"state":"active","ping":139},{"user_id":74,"name":"Lamp","steam_id":76561198369922506,"connected_time":183000000000,"state":"active","ping":50},{"user_id":73,"name":"thundermuffin","steam_id":76561198067770965,"connected_time":341000000000,"state":"active","ping":46},{"user_id":25,"name":"r1n","steam_id":76561198064189643,"connected_time":2127000000000,"state":"active","ping":68},{"user_id":51,"name":"Punkin","steam_id":76561198334301755,"connected_time":1214000000000,"state":"active","ping":59},{"user_id":43,"name":"superwarm07","steam_id":76561199196313157,"connected_time":1626000000000,"state":"active","ping":77},{"user_id":31,"name":"oqapi","steam_id":76561198261726582,"connected_time":1917000000000,"state":"active","ping":69},{"user_id":54,"name":"Adalwolfa","steam_id":76561198194671218,"connected_time":1051000000000,"state":"active","ping":56},{"user_id":33,"name":"Please take me seriously","steam_id":76561198156746320,"connected_time":1848000000000,"state":"active","ping":65},{"user_id":75,"name":"rlty","steam_id":76561198009395055,"connected_time":161000000000,"state":"active","ping":53},{"user_id":67,"name":"Rue","steam_id":76561198013135993,"connected_time":669000000000,"state":"active","ping":60},{"user_id":76,"name":"Ion{M}","steam_id":76561197993457435,"connected_time":89000000000,"state":"active","ping":76},{"user_id":55,"name":"ZenkoZSprite","steam_id":76561198190132250,"connected_time":1039000000000,"state":"active","ping":58},{"user_id":38,"name":"Nevadaflyfisher","steam_id":76561198175548371,"connected_time":1799000000000,"state":"active","ping":177},{"user_id":59,"name":"F R O G","steam_id":76561198166604331,"connected_time":1026000000000,"state":"active","ping":89},{"user_id":77,"name":"Idiot on his Keyboard","steam_id":76561198217662787,"connected_time":35000000000,"state":"active","ping":81},{"user_id":42,"name":"your local forecast","steam_id":76561198042243083,"connected_time":1714000000000,"state":"active","ping":45}]},{"server_id":142,"name":"Uncletopia | São Paulo | 1 | All Maps","name_short":"sao-1","host":"sao-1.br.uncletopia.com","port":27015,"enabled":true,"region":"sa","cc":"br","latitude":-23.533773,"longitude":-46.62529,"reserved":0,"last_update":"0001-01-01T00:00:00Z","name_a2s":"Uncletopia | São Paulo | 1 | All Maps","protocol":17,"map":"pl_swiftwater_final1","folder":"tf","game":"Team Fortress","app_id":440,"player_count":0,"max_players":24,"Bots":0,"server_type":"Dedicated","server_os":"Linux","password":true,"vac":true,"version":"7757534","steam_id":85568392924469996,"keywords":["nocrits","nodmgspread","payload","uncletopia"],"game_id":440,"stv_port":27016,"stv_name":"Uncletopia | São Paulo | 1 | All Maps | STV","players":null},{"server_id":143,"name":"Uncletopia | São Paulo | 2 | All Maps","name_short":"sao-2","host":"sao-2.br.uncletopia.com","port":27015,"enabled":true,"region":"sa","cc":"br","latitude":-23.533773,"longitude":-46.62529,"reserved":0,"last_update":"0001-01-01T00:00:00Z","name_a2s":"Uncletopia | São Paulo | 2 | All Maps","protocol":17,"map":"pl_barnblitz","folder":"tf","game":"Team Fortress","app_id":440,"player_count":0,"max_players":24,"Bots":0,"server_type":"Dedicated","server_os":"Linux","password":true,"vac":true,"version":"7757534","steam_id":85568392924485349,"keywords":["nocrits","nodmgspread","payload","uncletopia"],"game_id":440,"stv_port":27016,"stv_name":"Uncletopia | São Paulo | 2 | All Maps | STV","players":null},{"server_id":7,"name":"Uncletopia | Seattle | 1 | All Maps","name_short":"sea-1","host":"sea-1.us.uncletopia.com","port":27015,"enabled":true,"region":"us-west","cc":"us","latitude":47.608013,"longitude":-122.33517,"reserved":0,"last_update":"0001-01-01T00:00:00Z","name_a2s":"Uncletopia | Seattle | 1 | All Maps","protocol":17,"map":"pl_borneo","folder":"tf","game":"Team Fortress","app_id":440,"player_count":24,"max_players":24,"Bots":0,"server_type":"Dedicated","server_os":"Linux","password":true,"vac":true,"version":"7757534","steam_id":85568392924469997,"keywords":["nocrits","nodmgspread","payload","uncletopia"],"game_id":440,"stv_port":27016,"stv_name":"Uncletopia | Seattle | 1 | All Maps | STV","players":[{"user_id":314,"name":"xerro","steam_id":76561198323340524,"connected_time":585000000000,"state":"active","ping":126},{"user_id":214,"name":"Casual Vore","steam_id":76561197999045683,"connected_time":8602000000000,"state":"active","ping":39},{"user_id":243,"name":"Egg","steam_id":76561199168122742,"connected_time":7388000000000,"state":"active","ping":115},{"user_id":263,"name":"Blank_Sicon","steam_id":76561198887041407,"connected_time":4748000000000,"state":"active","ping":92},{"user_id":301,"name":"Snippy | MnK","steam_id":76561198350825176,"connected_time":1768000000000,"state":"active","ping":99},{"user_id":299,"name":"i have teeth","steam_id":76561198014008520,"connected_time":1843000000000,"state":"active","ping":75},{"user_id":305,"name":"TheFakeApple","steam_id":76561199090113472,"connected_time":1076000000000,"state":"active","ping":52},{"user_id":272,"name":"compulsive","steam_id":76561198212421513,"connected_time":4005000000000,"state":"active","ping":75},{"user_id":277,"name":"Schaephyr","steam_id":76561199153886364,"connected_time":3255000000000,"state":"active","ping":66},{"user_id":280,"name":"non_ai","steam_id":76561198270951938,"connected_time":3184000000000,"state":"active","ping":112},{"user_id":291,"name":"Just a Good Friend","steam_id":76561198140052403,"connected_time":2034000000000,"state":"active","ping":68},{"user_id":297,"name":"u know i keep","steam_id":76561198094615739,"connected_time":1892000000000,"state":"active","ping":89},{"user_id":259,"name":"noraneko","steam_id":76561198025418738,"connected_time":4955000000000,"state":"active","ping":55},{"user_id":257,"name":"oo","steam_id":76561198119626492,"connected_time":5319000000000,"state":"active","ping":61},{"user_id":292,"name":"HaphazardHazel","steam_id":76561198316812693,"connected_time":2033000000000,"state":"active","ping":138},{"user_id":289,"name":"kyso","steam_id":76561199011185438,"connected_time":2382000000000,"state":"active","ping":93},{"user_id":315,"name":"Coolshroomish","steam_id":76561199109440924,"connected_time":452000000000,"state":"active","ping":47},{"user_id":278,"name":"Sol Goodman","steam_id":76561198289164442,"connected_time":3239000000000,"state":"active","ping":97},{"user_id":309,"name":"Turtlin'","steam_id":76561198885096042,"connected_time":945000000000,"state":"active","ping":97},{"user_id":316,"name":"〣dust〣 -she/her-","steam_id":76561198045218909,"connected_time":210000000000,"state":"active","ping":44},{"user_id":294,"name":"Schnitz","steam_id":76561198265484253,"connected_time":2020000000000,"state":"active","ping":86},{"user_id":312,"name":"Arrythmia","steam_id":76561198093748123,"connected_time":725000000000,"state":"active","ping":59},{"user_id":311,"name":"Delicate Steve","steam_id":76561198063582381,"connected_time":793000000000,"state":"active","ping":66},{"user_id":313,"name":"That Sounds Serious","steam_id":76561198247719128,"connected_time":606000000000,"state":"active","ping":57}]},{"server_id":119,"name":"Uncletopia | Seattle | 2 | All Maps","name_short":"sea-2","host":"sea-1.us.uncletopia.com","port":27025,"enabled":true,"region":"us-west","cc":"us","latitude":47.608013,"longitude":-122.33517,"reserved":0,"last_update":"0001-01-01T00:00:00Z","name_a2s":"Uncletopia | Seattle | 2 | All Maps","protocol":17,"map":"pl_upward","folder":"tf","game":"Team Fortress","app_id":440,"player_count":24,"max_players":24,"Bots":0,"server_type":"Dedicated","server_os":"Linux","password":true,"vac":true,"version":"7757534","steam_id":85568392924469998,"keywords":["nocrits","nodmgspread","payload","uncletopia"],"game_id":440,"stv_port":27026,"stv_name":"Uncletopia | Seattle | 2 | All Maps | STV","players":[{"user_id":240,"name":"Frostyfaucet","steam_id":76561198060524722,"connected_time":7287000000000,"state":"active","ping":42},{"user_id":131,"name":"THE NUT","steam_id":76561198067813626,"connected_time":14926000000000,"state":"active","ping":50},{"user_id":334,"name":"Green_GarBear","steam_id":76561199468912415,"connected_time":400000000000,"state":"active","ping":69},{"user_id":311,"name":"DoctorHa","steam_id":76561198044026008,"connected_time":2232000000000,"state":"active","ping":97},{"user_id":302,"name":"Lazy","steam_id":76561198802747832,"connected_time":3327000000000,"state":"active","ping":50},{"user_id":331,"name":"blamo","steam_id":76561198044769147,"connected_time":868000000000,"state":"active","ping":60},{"user_id":335,"name":"suck my cock ernie keebler","steam_id":76561198067994868,"connected_time":339000000000,"state":"active","ping":109},{"user_id":332,"name":"Eris","steam_id":76561199471434875,"connected_time":698000000000,"state":"active","ping":38},{"user_id":326,"name":"Squid121","steam_id":76561198038832034,"connected_time":1299000000000,"state":"active","ping":54},{"user_id":307,"name":"Master Of Whales","steam_id":76561198349104889,"connected_time":3121000000000,"state":"active","ping":86},{"user_id":289,"name":"m1","steam_id":76561198004133638,"connected_time":4274000000000,"state":"active","ping":90},{"user_id":323,"name":"I am the spy","steam_id":76561199201589336,"connected_time":1538000000000,"state":"active","ping":73},{"user_id":298,"name":"Ronald \"Trickle Down\" Reagan","steam_id":76561197979471874,"connected_time":3980000000000,"state":"active","ping":56},{"user_id":325,"name":"Wizard22","steam_id":76561198151045624,"connected_time":1417000000000,"state":"active","ping":127},{"user_id":292,"name":"TheCowledWiz","steam_id":76561198016735868,"connected_time":4157000000000,"state":"active","ping":50},{"user_id":319,"name":"Ash!❤","steam_id":76561198070398840,"connected_time":1616000000000,"state":"active","ping":76},{"user_id":303,"name":"Dr. Hashbrown","steam_id":76561198410780370,"connected_time":3317000000000,"state":"active","ping":69},{"user_id":330,"name":"\u003c3Elise\u003c3","steam_id":76561198146435005,"connected_time":925000000000,"state":"active","ping":68},{"user_id":271,"name":"Tibetan Pop Star","steam_id":76561198844903984,"connected_time":5658000000000,"state":"active","ping":90},{"user_id":281,"name":"judesro","steam_id":76561198352244888,"connected_time":5092000000000,"state":"active","ping":117},{"user_id":327,"name":"PopcornNinja101","steam_id":76561198330680181,"connected_time":1015000000000,"state":"active","ping":47},{"user_id":324,"name":"Lawnmower","steam_id":76561198186680197,"connected_time":1496000000000,"state":"active","ping":59},{"user_id":282,"name":"DrD","steam_id":76561198067266383,"connected_time":4932000000000,"state":"active","ping":39},{"user_id":320,"name":"Maid 'n' China","steam_id":76561198423392976,"connected_time":1611000000000,"state":"active","ping":68}]},{"server_id":406,"name":"Uncletopia | Seattle | 3 | Stopwatch Beta","name_short":"sea-3","host":"sea-1.us.uncletopia.com","port":27035,"enabled":true,"region":"us-west","cc":"us","latitude":47.608013,"longitude":-122.33517,"reserved":0,"last_update":"0001-01-01T00:00:00Z","name_a2s":"Uncletopia | Seattle | 3 | Stopwatch Beta","protocol":17,"map":"pl_barnblitz","folder":"tf","game":"Team Fortress","app_id":440,"player_count":0,"max_players":24,"Bots":0,"server_type":"Dedicated","server_os":"Linux","password":true,"vac":true,"version":"7757534","steam_id":85568392924515217,"keywords":["nocrits","nodmgspread","payload","uncletopia"],"game_id":440,"stv_port":27036,"stv_name":"Uncletopia | Seattle | 3 | Stopwatch Beta | STV","players":null},{"server_id":17,"name":"Uncletopia | San Francisco | 1 | All Maps","name_short":"sfo-1","host":"sfo-1.us.uncletopia.com","port":27015,"enabled":true,"region":"us-west","cc":"us","latitude":37.77397,"longitude":-122.4313,"reserved":0,"last_update":"0001-01-01T00:00:00Z","name_a2s":"Uncletopia | San Francisco | 1 | All Maps","protocol":17,"map":"cp_snakewater_final1","folder":"tf","game":"Team Fortress","app_id":440,"player_count":0,"max_players":24,"Bots":0,"server_type":"Dedicated","server_os":"Linux","password":true,"vac":true,"version":"7757534","steam_id":85568392924469999,"keywords":["cp","nocrits","nodmgspread","uncletopia"],"game_id":440,"stv_port":27016,"stv_name":"Uncletopia | San Francisco | 1 | All Maps | STV","players":null},{"server_id":18,"name":"Uncletopia | San Francisco | 2 | All Maps","name_short":"sfo-2","host":"sfo-1.us.uncletopia.com","port":27025,"enabled":true,"region":"us-west","cc":"us","latitude":37.77397,"longitude":-122.4313,"reserved":0,"last_update":"0001-01-01T00:00:00Z","name_a2s":"Uncletopia | San Francisco | 2 | All Maps","protocol":17,"map":"koth_cascade","folder":"tf","game":"Team Fortress","app_id":440,"player_count":0,"max_players":24,"Bots":0,"server_type":"Dedicated","server_os":"Linux","password":true,"vac":true,"version":"7757534","steam_id":85568392924470000,"keywords":["cp","nocrits","nodmgspread","uncletopia"],"game_id":440,"stv_port":27026,"stv_name":"Uncletopia | San Francisco | 2 | All Maps | STV","players":null},{"server_id":19,"name":"Uncletopia | San Francisco | 3 | Stopwatch Beta","name_short":"sfo-3","host":"sfo-1.us.uncletopia.com","port":27035,"enabled":true,"region":"us-west","cc":"us","latitude":37.77397,"longitude":-122.4313,"reserved":0,"last_update":"0001-01-01T00:00:00Z","name_a2s":"Uncletopia | San Francisco | 3 | Stopwatch Beta","protocol":17,"map":"pl_borneo","folder":"tf","game":"Team Fortress","app_id":440,"player_count":0,"max_players":24,"Bots":0,"server_type":"Dedicated","server_os":"Linux","password":true,"vac":true,"version":"7757534","steam_id":85568392924742824,"keywords":["nocrits","nodmgspread","payload","uncletopia"],"game_id":440,"stv_port":27036,"stv_name":"Uncletopia | San Francisco | 3 | Stopwatch Beta | STV","players":null},{"server_id":20,"name":"Uncletopia | San Francisco | 4 | Community","name_short":"sfo-4","host":"sfo-1.us.uncletopia.com","port":27045,"enabled":true,"region":"us-west","cc":"us","latitude":37.77397,"longitude":-122.4313,"reserved":0,"last_update":"0001-01-01T00:00:00Z","name_a2s":"Uncletopia | San Francisco | 4 | Community","protocol":17,"map":"koth_highpass","folder":"tf","game":"Team Fortress","app_id":440,"player_count":0,"max_players":24,"Bots":0,"server_type":"Dedicated","server_os":"Linux","password":true,"vac":true,"version":"7757534","steam_id":85568392924742826,"keywords":["cp","nocrits","nodmgspread","uncletopia"],"game_id":440,"stv_port":27046,"stv_name":"Uncletopia | San Francisco | 4 | Community | STV","players":null},{"server_id":141,"name":"Uncletopia | Sydney | 1 | All Maps","name_short":"syd-1","host":"syd-1.au.uncletopia.com","port":27015,"enabled":true,"region":"au","cc":"au","latitude":-33.865143,"longitude":151.2099,"reserved":0,"last_update":"0001-01-01T00:00:00Z","name_a2s":"Uncletopia | Sydney | 1 | All Maps","protocol":17,"map":"pl_upward","folder":"tf","game":"Team Fortress","app_id":440,"player_count":0,"max_players":24,"Bots":0,"server_type":"Dedicated","server_os":"Linux","password":true,"vac":true,"version":"7757534","steam_id":85568392924470001,"keywords":["nocrits","nodmgspread","payload","uncletopia"],"game_id":440,"stv_port":27016,"stv_name":"Uncletopia | Sydney | 1 | All Maps | STV","players":null},{"server_id":123,"name":"Uncletopia | Sydney | 2 | All Maps","name_short":"syd-2","host":"syd-1.au.uncletopia.com","port":27025,"enabled":true,"region":"au","cc":"au","latitude":-33.865143,"longitude":151.2099,"reserved":0,"last_update":"0001-01-01T00:00:00Z","name_a2s":"Uncletopia | Sydney | 2 | All Maps","protocol":17,"map":"koth_viaduct","folder":"tf","game":"Team Fortress","app_id":440,"player_count":0,"max_players":24,"Bots":0,"server_type":"Dedicated","server_os":"Linux","password":true,"vac":true,"version":"7757534","steam_id":85568392924470002,"keywords":["cp","nocrits","nodmgspread","uncletopia"],"game_id":440,"stv_port":27026,"stv_name":"Uncletopia | Sydney | 2 | All Maps | STV","players":null},{"server_id":395,"name":"Uncletopia | Sydney | 3 | All Maps","name_short":"syd-3","host":"syd-1.au.uncletopia.com","port":27035,"enabled":true,"region":"au","cc":"au","latitude":-33.865143,"longitude":151.2099,"reserved":0,"last_update":"0001-01-01T00:00:00Z","name_a2s":"Uncletopia | Sydney | 3 | All Maps","protocol":17,"map":"pl_upward","folder":"tf","game":"Team Fortress","app_id":440,"player_count":1,"max_players":24,"Bots":0,"server_type":"Dedicated","server_os":"Linux","password":true,"vac":true,"version":"7757534","steam_id":85568392925194467,"keywords":["nocrits","nodmgspread","payload","uncletopia"],"game_id":440,"stv_port":27036,"stv_name":"Uncletopia | Sydney | 3 | All Maps | STV","players":[{"user_id":3,"name":"Underhill4002","steam_id":76561199069832174,"connected_time":135000000000,"state":"active","ping":325}]},{"server_id":396,"name":"Uncletopia | Sydney | 4 | All Maps","name_short":"syd-4","host":"syd-1.au.uncletopia.com","port":27045,"enabled":true,"region":"au","cc":"au","latitude":-33.865143,"longitude":151.2099,"reserved":0,"last_update":"0001-01-01T00:00:00Z","name_a2s":"Uncletopia | Sydney | 4 | All Maps","protocol":17,"map":"koth_lakeside_final","folder":"tf","game":"Team Fortress","app_id":440,"player_count":0,"max_players":24,"Bots":0,"server_type":"Dedicated","server_os":"Linux","password":true,"vac":true,"version":"7757534","steam_id":85568392925397958,"keywords":["cp","nocrits","nodmgspread","uncletopia"],"game_id":440,"stv_port":27046,"stv_name":"Uncletopia | Sydney | 4 | All Maps | STV","players":null},{"server_id":58,"name":"Uncletopia | Sydney | 5 | Stopwatch Beta","name_short":"syd-5","host":"syd-1.au.uncletopia.com","port":27055,"enabled":true,"region":"au","cc":"au","latitude":-33.865143,"longitude":151.2099,"reserved":0,"last_update":"0001-01-01T00:00:00Z","name_a2s":"Uncletopia | Sydney | 5 | Stopwatch Beta","protocol":17,"map":"koth_highpass","folder":"tf","game":"Team Fortress","app_id":440,"player_count":0,"max_players":24,"Bots":0,"server_type":"Dedicated","server_os":"Linux","password":true,"vac":true,"version":"7757534","steam_id":85568392925397959,"keywords":["cp","nocrits","nodmgspread","uncletopia"],"game_id":440,"stv_port":27056,"stv_name":"Uncletopia | Sydney | 5 | Stopwatch Beta | STV","players":null},{"server_id":59,"name":"Uncletopia | Sydney | 6 | Community","name_short":"syd-6","host":"syd-1.au.uncletopia.com","port":27065,"enabled":true,"region":"au","cc":"au","latitude":-33.865143,"longitude":151.2099,"reserved":0,"last_update":"0001-01-01T00:00:00Z","name_a2s":"Uncletopia | Sydney | 6 | Community","protocol":17,"map":"cp_sunshine","folder":"tf","game":"Team Fortress","app_id":440,"player_count":0,"max_players":24,"Bots":0,"server_type":"Dedicated","server_os":"Linux","password":true,"vac":true,"version":"7757534","steam_id":85568392925397960,"keywords":["cp","nocrits","nodmgspread","uncletopia"],"game_id":440,"stv_port":27066,"stv_name":"Uncletopia | Sydney | 6 | Community | STV","players":null},{"server_id":49,"name":"Uncletopia | Warsaw | 1 | All Maps","name_short":"waw-1","host":"waw-1.pl.uncletopia.com","port":27015,"enabled":true,"region":"eu","cc":"pl","latitude":52.2297,"longitude":21.017532,"reserved":0,"last_update":"0001-01-01T00:00:00Z","name_a2s":"","protocol":0,"map":"","folder":"","game":"","app_id":0,"player_count":0,"max_players":0,"Bots":0,"server_type":"","server_os":"","password":false,"vac":false,"version":"","steam_id":0,"keywords":null,"game_id":0,"stv_port":0,"stv_name":"","players":null},{"server_id":50,"name":"Uncletopia | Warsaw | 2 | All Maps","name_short":"waw-2","host":"waw-1.pl.uncletopia.com","port":27025,"enabled":true,"region":"eu","cc":"pl","latitude":52.2297,"longitude":21.017532,"reserved":0,"last_update":"0001-01-01T00:00:00Z","name_a2s":"Uncletopia | Warsaw | 2 | All Maps","protocol":17,"map":"koth_viaduct","folder":"tf","game":"Team Fortress","app_id":440,"player_count":0,"max_players":24,"Bots":0,"server_type":"Dedicated","server_os":"Linux","password":true,"vac":true,"version":"7757534","steam_id":85568392925397851,"keywords":["cp","nocrits","nodmgspread","uncletopia"],"game_id":440,"stv_port":27026,"stv_name":"Uncletopia | Warsaw | 2 | All Maps | STV","players":null},{"server_id":51,"name":"Uncletopia | Warsaw | 3 | All Maps","name_short":"waw-3","host":"waw-1.pl.uncletopia.com","port":27035,"enabled":true,"region":"eu","cc":"pl","latitude":52.2297,"longitude":21.017532,"reserved":0,"last_update":"0001-01-01T00:00:00Z","name_a2s":"Uncletopia | Warsaw | 3 | All Maps","protocol":17,"map":"koth_cascade","folder":"tf","game":"Team Fortress","app_id":440,"player_count":0,"max_players":24,"Bots":0,"server_type":"Dedicated","server_os":"Linux","password":true,"vac":true,"version":"7757534","steam_id":85568392925397852,"keywords":["cp","nocrits","nodmgspread","uncletopia"],"game_id":440,"stv_port":27036,"stv_name":"Uncletopia | Warsaw | 3 | All Maps | STV","players":null},{"server_id":52,"name":"Uncletopia | Warsaw | 4 | All Maps","name_short":"waw-4","host":"waw-1.pl.uncletopia.com","port":27045,"enabled":true,"region":"eu","cc":"pl","latitude":52.2297,"longitude":21.017532,"reserved":0,"last_update":"0001-01-01T00:00:00Z","name_a2s":"Uncletopia | Warsaw | 4 | All Maps","protocol":17,"map":"koth_king","folder":"tf","game":"Team Fortress","app_id":440,"player_count":15,"max_players":24,"Bots":0,"server_type":"Dedicated","server_os":"Linux","password":true,"vac":true,"version":"7757534","steam_id":85568392925397853,"keywords":["cp","nocrits","nodmgspread","uncletopia"],"game_id":440,"stv_port":27046,"stv_name":"Uncletopia | Warsaw | 4 | All Maps | STV","players":[{"user_id":59,"name":"pizza is into ire-ire","steam_id":76561198097507847,"connected_time":1988000000000,"state":"active","ping":91},{"user_id":74,"name":"alan","steam_id":76561198306947435,"connected_time":399000000000,"state":"active","ping":92},{"user_id":78,"name":"MagalaxShiro","steam_id":76561198079071492,"connected_time":13000000000,"state":"active","ping":60},{"user_id":67,"name":"Deva Path","steam_id":76561198085763542,"connected_time":1263000000000,"state":"active","ping":86},{"user_id":57,"name":"Ches is into Cro-Cro","steam_id":76561198067204908,"connected_time":2042000000000,"state":"active","ping":78},{"user_id":58,"name":"Bio is into Ger-Ger","steam_id":76561198170609049,"connected_time":2014000000000,"state":"active","ping":77},{"user_id":77,"name":"Ozen","steam_id":76561198041038642,"connected_time":98000000000,"state":"active","ping":75},{"user_id":60,"name":"yard man","steam_id":76561198019477093,"connected_time":1978000000000,"state":"active","ping":99},{"user_id":61,"name":"Bitter Bizmarck","steam_id":76561198041173206,"connected_time":1969000000000,"state":"active","ping":83},{"user_id":69,"name":"Blastrock64","steam_id":76561199008932704,"connected_time":1211000000000,"state":"active","ping":79},{"user_id":44,"name":"yup it's gamer time","steam_id":76561198064463244,"connected_time":2445000000000,"state":"active","ping":168},{"user_id":70,"name":"BΣNZOIC","steam_id":76561198875665995,"connected_time":1162000000000,"state":"active","ping":90},{"user_id":47,"name":"Spotify Premium","steam_id":76561198358029722,"connected_time":2371000000000,"state":"active","ping":96},{"user_id":72,"name":"firetwomp69","steam_id":76561199136321623,"connected_time":1081000000000,"state":"active","ping":206},{"user_id":63,"name":"GootGoot","steam_id":76561198028375301,"connected_time":1914000000000,"state":"active","ping":108}]},{"server_id":53,"name":"Uncletopia | Warsaw | 5 | Stopwatch Beta","name_short":"waw-5","host":"waw-1.pl.uncletopia.com","port":27055,"enabled":true,"region":"eu","cc":"pl","latitude":52.2297,"longitude":21.017532,"reserved":0,"last_update":"0001-01-01T00:00:00Z","name_a2s":"Uncletopia | Warsaw | 5 | Stopwatch Beta","protocol":17,"map":"pl_barnblitz","folder":"tf","game":"Team Fortress","app_id":440,"player_count":0,"max_players":24,"Bots":0,"server_type":"Dedicated","server_os":"Linux","password":true,"vac":true,"version":"7757534","steam_id":85568392925397854,"keywords":["nocrits","nodmgspread","payload","uncletopia"],"game_id":440,"stv_port":27056,"stv_name":"Uncletopia | Warsaw | 5 | Stopwatch Beta | STV","players":null},{"server_id":54,"name":"Uncletopia | Warsaw | 6 | Community","name_short":"waw-6","host":"waw-1.pl.uncletopia.com","port":27065,"enabled":true,"region":"eu","cc":"pl","latitude":52.2297,"longitude":21.017532,"reserved":0,"last_update":"0001-01-01T00:00:00Z","name_a2s":"Uncletopia | Warsaw | 6 | Community","protocol":17,"map":"workshop/koth_bagel_rc5.ugc2514036946","folder":"tf","game":"Team Fortress","app_id":440,"player_count":0,"max_players":24,"Bots":0,"server_type":"Dedicated","server_os":"Linux","password":true,"vac":true,"version":"7757534","steam_id":85568392925397856,"keywords":["cp","nocrits","nodmgspread","uncletopia"],"game_id":440,"stv_port":27066,"stv_name":"Uncletopia | Warsaw | 6 | Community | STV","players":null}]}