{"status":true,"message":"","result":[{"server_id":9,"name":"Uncletopia | Atlanta | 1 | All Maps","name_short":"atl-1","host":"atl-1.us.uncletopia.com","port":27015,"enabled":true,"region":"us-east","cc":"us","latitude":33.753746,"longitude":-84.38633,"reserved":0,"last_update":"0001-01-01T00:00:00Z","name_a2s":"Uncletopia | Atlanta | 1 | All Maps","protocol":17,"map":"pl_rumford_event","folder":"tf","game":"Team Fortress","app_id":440,"player_count":24,"max_players":24,"Bots":0,"server_type":"Dedicated","server_os":"Linux","password":true,"vac":true,"version":"7742253","steam_id":85568392924469982,"keywords":["nocrits","nodmgspread","payload","uncletopia"],"game_id":440,"stv_port":27016,"stv_name":"Uncletopia | Atlanta | 1 | All Maps | STV","players":[{"user_id":220,"name":"ATL1 | Krissy","steam_id":76561197960848174,"connected_time":184000000000,"state":"active","ping":75},{"user_id":209,"name":"rateat","steam_id":76561198435890911,"connected_time":957000000000,"state":"active","ping":83},{"user_id":210,"name":"Onyx","steam_id":76561198275349640,"connected_time":949000000000,"state":"active","ping":72},{"user_id":179,"name":"ATL1 | Lancer Fan Club","steam_id":76561198355495948,"connected_time":2709000000000,"state":"active","ping":80},{"user_id":212,"name":"BrainlezBrainiac","steam_id":76561199193942805,"connected_time":876000000000,"state":"active","ping":92},{"user_id":208,"name":"who ate the cheese","steam_id":76561198275408467,"connected_time":989000000000,"state":"active","ping":48},{"user_id":186,"name":"rose","steam_id":76561198048882285,"connected_time":2250000000000,"state":"active","ping":60},{"user_id":181,"name":"p4ka","steam_id":76561198315291317,"connected_time":2265000000000,"state":"active","ping":73},{"user_id":205,"name":"fig","steam_id":76561198337045136,"connected_time":1143000000000,"state":"active","ping":72},{"user_id":201,"name":"LEÓN","steam_id":76561198257559257,"connected_time":1492000000000,"state":"active","ping":103},{"user_id":211,"name":"Warlock","steam_id":76561198801747883,"connected_time":931000000000,"state":"active","ping":93},{"user_id":177,"name":"bloafyt","steam_id":76561199160422863,"connected_time":3753000000000,"state":"active","ping":103},{"user_id":216,"name":"InATuxy!","steam_id":76561198111720682,"connected_time":478000000000,"state":"active","ping":54},{"user_id":157,"name":"ATL1 | J O V A","steam_id":76561198090333536,"connected_time":4775000000000,"state":"active","ping":63},{"user_id":214,"name":"Giddy","steam_id":76561198103183739,"connected_time":578000000000,"state":"active","ping":75},{"user_id":161,"name":"Zeora","steam_id":76561198799145251,"connected_time":4722000000000,"state":"active","ping":48},{"user_id":80,"name":"Ashes!","steam_id":76561197998475441,"connected_time":9521000000000,"state":"active","ping":87},{"user_id":191,"name":"DFR Le4n!!!","steam_id":76561198045522596,"connected_time":2133000000000,"state":"active","ping":65},{"user_id":162,"name":"woman ⁧⁧ gaming","steam_id":76561198169010634,"connected_time":4720000000000,"state":"active","ping":72},{"user_id":204,"name":"ATL1 | ma0re","steam_id":76561199231971506,"connected_time":1260000000000,"state":"active","ping":69},{"user_id":185,"name":"fortnite.jimmy.2014","steam_id":76561199177672325,"connected_time":2251000000000,"state":"active","ping":42},{"user_id":218,"name":"Mage","steam_id":76561198285026879,"connected_time":301000000000,"state":"active","ping":78},{"user_id":180,"name":"knotsofunny","steam_id":76561198071336304,"connected_time":2405000000000,"state":"active","ping":69},{"user_id":198,"name":"Mason","steam_id":76561199057309626,"connected_time":1851000000000,"state":"active","ping":82}]},{"server_id":400,"name":"Uncletopia | Atlanta | 3 | Stopwatch Beta","name_short":"atl-3","host":"atl-1.us.uncletopia.com","port":27035,"enabled":true,"region":"us-east","cc":"us","latitude":33.753746,"longitude":-84.38633,"reserved":0,"last_update":"0001-01-01T00:00:00Z","name_a2s":"Uncletopia | Atlanta | 3 | Stopwatch Beta","protocol":17,"map":"pl_pier","folder":"tf","game":"Team Fortress","app_id":440,"player_count":0,"max_players":24,"Bots":0,"server_type":"Dedicated","server_os":"Linux","password":true,"vac":true,"version":"7742253","steam_id":85568392924515187,"keywords":["nocrits","nodmgspread","payload","uncletopia"],"game_id":440,"stv_port":27036,"stv_name":"Uncletopia | Atlanta | 3 | Stopwatch Beta | STV","players":null},{"server_id":401,"name":"Uncletopia | Atlanta | 4 | No Payload","name_short":"atl-4","host":"atl-1.us.uncletopia.com","port":27045,"enabled":true,"region":"us-east","cc":"us","latitude":33.753746,"longitude":-84.38633,"reserved":0,"last_update":"0001-01-01T00:00:00Z","name_a2s":"Uncletopia | Atlanta | 4 | No Payload","protocol":17,"map":"pl_pier","folder":"tf","game":"Team Fortress","app_id":440,"player_count":0,"max_players":24,"Bots":0,"server_type":"Dedicated","server_os":"Linux","password":true,"vac":true,"version":"7723704","steam_id":85568392924515188,"keywords":["nocrits","nodmgspread","payload","uncletopia"],"game_id":440,"stv_port":27046,"stv_name":"Uncletopia | Atlanta | 4 | No Payload | STV","players":null},{"server_id":2,"name":"Uncletopia | Chicago | 1 | All Maps","name_short":"chi-1","host":"chi-1.us.uncletopia.com","port":27015,"enabled":true,"region":"us-central","cc":"us","latitude":41.881832,"longitude":-87.62318,"reserved":0,"last_update":"0001-01-01T00:00:00Z","name_a2s":"Uncletopia | Chicago | 1 | All Maps","protocol":17,"map":"pl_badwater","folder":"tf","game":"Team Fortress","app_id":440,"player_count":24,"max_players":24,"Bots":0,"server_type":"Dedicated","server_os":"Linux","password":true,"vac":true,"version":"7742253","steam_id":85568392924469984,"keywords":["nocrits","nodmgspread","payload","uncletopia"],"game_id":440,"stv_port":27016,"stv_name":"Uncletopia | Chicago | 1 | All Maps | STV","players":[{"user_id":13,"name":"Claidhim","steam_id":76561198078139596,"connected_time":2176000000000,"state":"active","ping":64},{"user_id":14,"name":"Artemis","steam_id":76561198079751655,"connected_time":2156000000000,"state":"active","ping":60},{"user_id":15,"name":"MoneyMiker1","steam_id":76561198088096962,"connected_time":2150000000000,"state":"active","ping":71},{"user_id":59,"name":"LunarrD","steam_id":76561198811220107,"connected_time":101000000000,"state":"active","ping":76},{"user_id":56,"name":"skroobaba","steam_id":76561198102241545,"connected_time":275000000000,"state":"active","ping":72},{"user_id":55,"name":"Terium","steam_id":76561198331234327,"connected_time":455000000000,"state":"active","ping":53},{"user_id":19,"name":"Brookteni","steam_id":76561198069121151,"connected_time":1760000000000,"state":"active","ping":153},{"user_id":60,"name":"Yukon Cornelius","steam_id":76561198261512781,"connected_time":58000000000,"state":"active","ping":80},{"user_id":48,"name":"ultra instinct cringe micheal","steam_id":76561198275625984,"connected_time":833000000000,"state":"active","ping":69},{"user_id":52,"name":"eve","steam_id":76561198209455624,"connected_time":564000000000,"state":"active","ping":71},{"user_id":33,"name":"Elsirk","steam_id":76561198055665464,"connected_time":1288000000000,"state":"active","ping":66},{"user_id":24,"name":"skatsplat","steam_id":76561198328575582,"connected_time":1548000000000,"state":"active","ping":193},{"user_id":49,"name":"Cymric","steam_id":76561198186240906,"connected_time":757000000000,"state":"active","ping":93},{"user_id":53,"name":"spencil","steam_id":76561198053727976,"connected_time":520000000000,"state":"active","ping":63},{"user_id":28,"name":"eggo-on-a-stick","steam_id":76561198799357966,"connected_time":1401000000000,"state":"active","ping":90},{"user_id":29,"name":"Tired","steam_id":76561198072620682,"connected_time":1350000000000,"state":"active","ping":86},{"user_id":58,"name":"Owen","steam_id":76561198025446908,"connected_time":138000000000,"state":"active","ping":63},{"user_id":46,"name":"SlimGrady","steam_id":76561198451231329,"connected_time":890000000000,"state":"active","ping":60},{"user_id":50,"name":"nisshin maru","steam_id":76561198047557031,"connected_time":735000000000,"state":"active","ping":54},{"user_id":45,"name":"Cdesmondd","steam_id":76561198072774462,"connected_time":980000000000,"state":"active","ping":163},{"user_id":37,"name":"Bman","steam_id":76561199056871297,"connected_time":1211000000000,"state":"active","ping":58},{"user_id":41,"name":"iagimru","steam_id":76561198110145844,"connected_time":1072000000000,"state":"active","ping":96},{"user_id":42,"name":"DualiTea","steam_id":76561198081733870,"connected_time":1065000000000,"state":"active","ping":47},{"user_id":54,"name":"Thatguy_1029","steam_id":76561199232419803,"connected_time":520000000000,"state":"active","ping":82}]},{"server_id":106,"name":"Uncletopia | Chicago | 2 | All Maps","name_short":"chi-2","host":"chi-1.us.uncletopia.com","port":27025,"enabled":true,"region":"us-central","cc":"us","latitude":41.881832,"longitude":-87.62318,"reserved":0,"last_update":"0001-01-01T00:00:00Z","name_a2s":"Uncletopia | Chicago | 2 | All Maps","protocol":17,"map":"cp_altitude","folder":"tf","game":"Team Fortress","app_id":440,"player_count":24,"max_players":24,"Bots":0,"server_type":"Dedicated","server_os":"Linux","password":true,"vac":true,"version":"7742253","steam_id":85568392924469985,"keywords":["cp","nocrits","nodmgspread","uncletopia"],"game_id":440,"stv_port":27026,"stv_name":"Uncletopia | Chicago | 2 | All Maps | STV","players":[{"user_id":266,"name":"A Kawaii Dog Named Kenny","steam_id":76561198093246817,"connected_time":512000000000,"state":"active","ping":47},{"user_id":273,"name":"Goon Event #3349 (5hrs 22mins)","steam_id":76561198062410522,"connected_time":42000000000,"state":"active","ping":57},{"user_id":106,"name":"dtnk","steam_id":76561199007189876,"connected_time":13264000000000,"state":"active","ping":44},{"user_id":126,"name":"GREG","steam_id":76561198073021168,"connected_time":12249000000000,"state":"active","ping":76},{"user_id":259,"name":"bad demoknight","steam_id":76561199195784827,"connected_time":1105000000000,"state":"active","ping":87},{"user_id":270,"name":"MrPunda59","steam_id":76561199178520181,"connected_time":224000000000,"state":"active","ping":68},{"user_id":271,"name":"Xen0id","steam_id":76561197982988532,"connected_time":159000000000,"state":"active","ping":89},{"user_id":262,"name":"frid","steam_id":76561198005806915,"connected_time":1034000000000,"state":"active","ping":58},{"user_id":208,"name":"Inevitable","steam_id":76561198210050169,"connected_time":3172000000000,"state":"active","ping":62},{"user_id":165,"name":"[slug]","steam_id":76561197989592178,"connected_time":8506000000000,"state":"active","ping":61},{"user_id":232,"name":"Aster","steam_id":76561198037920420,"connected_time":1778000000000,"state":"active","ping":106},{"user_id":192,"name":"Charlemagnne","steam_id":76561197970300552,"connected_time":4409000000000,"state":"active","ping":88},{"user_id":240,"name":"Kestrel","steam_id":76561198093706171,"connected_time":1641000000000,"state":"active","ping":55},{"user_id":239,"name":"Phat_nibba29","steam_id":76561198165661855,"connected_time":1651000000000,"state":"active","ping":84},{"user_id":269,"name":"ash","steam_id":76561198127890645,"connected_time":265000000000,"state":"active","ping":83},{"user_id":204,"name":"GiraffeMan","steam_id":76561198042104084,"connected_time":3251000000000,"state":"active","ping":72},{"user_id":233,"name":"Gibus Frog","steam_id":76561198824290429,"connected_time":1762000000000,"state":"active","ping":55},{"user_id":215,"name":"srv","steam_id":76561198026589960,"connected_time":2771000000000,"state":"active","ping":53},{"user_id":169,"name":"SexySpectacles","steam_id":76561198211449103,"connected_time":7497000000000,"state":"active","ping":80},{"user_id":224,"name":"joe nuts","steam_id":76561198087925642,"connected_time":2010000000000,"state":"active","ping":93},{"user_id":267,"name":"BuhBuh","steam_id":76561198872613199,"connected_time":506000000000,"state":"active","ping":67},{"user_id":263,"name":"boofgall319","steam_id":76561199122095813,"connected_time":1024000000000,"state":"active","ping":68},{"user_id":227,"name":"vinta","steam_id":76561198078562885,"connected_time":1955000000000,"state":"active","ping":93},{"user_id":231,"name":"bloon.popper.2009","steam_id":76561198839205387,"connected_time":1807000000000,"state":"active","ping":66}]},{"server_id":402,"name":"Uncletopia | Chicago | 3 | All Maps","name_short":"chi-3","host":"chi-1.us.uncletopia.com","port":27035,"enabled":true,"region":"us-central","cc":"us","latitude":41.881832,"longitude":-87.62318,"reserved":0,"last_update":"0001-01-01T00:00:00Z","name_a2s":"Uncletopia | Chicago | 3 | All Maps","protocol":17,"map":"pl_badwater","folder":"tf","game":"Team Fortress","app_id":440,"player_count":22,"max_players":24,"Bots":0,"server_type":"Dedicated","server_os":"Linux","password":true,"vac":true,"version":"7742253","steam_id":85568392924515191,"keywords":["nocrits","nodmgspread","payload","uncletopia"],"game_id":440,"stv_port":27036,"stv_name":"Uncletopia | Chicago | 3 | All Maps | STV","players":[{"user_id":131,"name":"Satellizer El Bridget","steam_id":76561198102925226,"connected_time":3023000000000,"state":"active","ping":69},{"user_id":111,"name":"Quansen","steam_id":76561198151594550,"connected_time":4571000000000,"state":"active","ping":58},{"user_id":150,"name":"motorized bar of soap","steam_id":76561198882404753,"connected_time":1891000000000,"state":"active","ping":73},{"user_id":169,"name":"america","steam_id":76561199212197300,"connected_time":174000000000,"state":"active","ping":150},{"user_id":155,"name":"i should go","steam_id":76561198194614289,"connected_time":1855000000000,"state":"active","ping":70},{"user_id":151,"name":"Lemonty","steam_id":76561198163812778,"connected_time":1888000000000,"state":"active","ping":69},{"user_id":160,"name":"no","steam_id":76561198248853140,"connected_time":805000000000,"state":"active","ping":48},{"user_id":163,"name":"acxeu","steam_id":76561198394435000,"connected_time":438000000000,"state":"active","ping":62},{"user_id":99,"name":"Theory-ZaZa","steam_id":76561198116419931,"connected_time":5615000000000,"state":"active","ping":108},{"user_id":166,"name":"Smig","steam_id":76561198408846602,"connected_time":386000000000,"state":"active","ping":68},{"user_id":158,"name":"Florist","steam_id":76561198009121060,"connected_time":874000000000,"state":"active","ping":92},{"user_id":122,"name":"medic 2","steam_id":76561199006391618,"connected_time":3869000000000,"state":"active","ping":155},{"user_id":146,"name":"GuyGoom","steam_id":76561198254522178,"connected_time":1976000000000,"state":"active","ping":59},{"user_id":168,"name":"Mateo :-)","steam_id":76561199084303314,"connected_time":190000000000,"state":"active","ping":75},{"user_id":110,"name":"Rornir","steam_id":76561198081829615,"connected_time":4909000000000,"state":"active","ping":41},{"user_id":167,"name":"king of bogers","steam_id":76561198045731295,"connected_time":345000000000,"state":"active","ping":67},{"user_id":128,"name":"Japanese Rabbit Enthusiast","steam_id":76561199134895220,"connected_time":3182000000000,"state":"active","ping":69},{"user_id":172,"name":"PactsGornax","steam_id":76561198066256419,"connected_time":157000000000,"state":"active","ping":75},{"user_id":123,"name":"Plasic74x","steam_id":76561199058981206,"connected_time":3713000000000,"state":"active","ping":75},{"user_id":161,"name":"Password is Taco","steam_id":76561198026092945,"connected_time":769000000000,"state":"active","ping":84},{"user_id":171,"name":"Heartgold","steam_id":76561199062592062,"connected_time":162000000000,"state":"active","ping":93},{"user_id":164,"name":"SuperJagops","steam_id":76561198034689716,"connected_time":438000000000,"state":"active","ping":63}]},{"server_id":403,"name":"Uncletopia | Chicago | 4 | All Maps","name_short":"chi-4","host":"chi-1.us.uncletopia.com","port":27045,"enabled":true,"region":"us-central","cc":"us","latitude":41.881832,"longitude":-87.62318,"reserved":0,"last_update":"0001-01-01T00:00:00Z","name_a2s":"Uncletopia | Chicago | 4 | All Maps","protocol":17,"map":"koth_lakeside_final","folder":"tf","game":"Team Fortress","app_id":440,"player_count":0,"max_players":24,"Bots":0,"server_type":"Dedicated","server_os":"Linux","password":true,"vac":true,"version":"7742253","steam_id":85568392924515193,"keywords":["cp","nocrits","nodmgspread","uncletopia"],"game_id":440,"stv_port":27046,"stv_name":"Uncletopia | Chicago | 4 | All Maps | STV","players":null},{"server_id":36,"name":"Uncletopia | Chicago | 5 | All Maps","name_short":"chi-5","host":"chi-2.us.uncletopia.com","port":27015,"enabled":true,"region":"us-central","cc":"us","latitude":41.881832,"longitude":-87.62318,"reserved":0,"last_update":"0001-01-01T00:00:00Z","name_a2s":"Uncletopia | Chicago | 5 | All Maps","protocol":17,"map":"cp_mountainlab","folder":"tf","game":"Team Fortress","app_id":440,"player_count":5,"max_players":24,"Bots":0,"server_type":"Dedicated","server_os":"Linux","password":true,"vac":true,"version":"7742253","steam_id":85568392924866362,"keywords":["cp","nocrits","nodmgspread","uncletopia"],"game_id":440,"stv_port":27016,"stv_name":"Uncletopia | Chicago | 5 | All Maps | STV","players":[{"user_id":14,"name":"mintongryphon","steam_id":76561199427146067,"connected_time":1540000000000,"state":"active","ping":63},{"user_id":15,"name":"yalecrane","steam_id":76561198136298714,"connected_time":640000000000,"state":"active","ping":60},{"user_id":18,"name":"im fukin hihg","steam_id":76561198178321638,"connected_time":118000000000,"state":"active","ping":77},{"user_id":17,"name":"KaizerCalamaki","steam_id":76561198028206911,"connected_time":199000000000,"state":"active","ping":50},{"user_id":19,"name":"creeeeeee","steam_id":76561198392539722,"connected_time":7000000000,"state":"spawning","ping":85}]},{"server_id":37,"name":"Uncletopia | Chicago | 6 | All Maps","name_short":"chi-6","host":"chi-2.us.uncletopia.com","port":27025,"enabled":true,"region":"us-central","cc":"us","latitude":41.881832,"longitude":-87.62318,"reserved":0,"last_update":"0001-01-01T00:00:00Z","name_a2s":"Uncletopia | Chicago | 6 | All Maps","protocol":17,"map":"pl_badwater","folder":"tf","game":"Team Fortress","app_id":440,"player_count":24,"max_players":24,"Bots":0,"server_type":"Dedicated","server_os":"Linux","password":true,"vac":true,"version":"7742253","steam_id":85568392924866363,"keywords":["nocrits","nodmgspread","payload","uncletopia"],"game_id":440,"stv_port":27026,"stv_name":"Uncletopia | Chicago | 6 | All Maps | STV","players":[{"user_id":289,"name":"Female Gamer","steam_id":76561199366482682,"connected_time":1377000000000,"state":"active","ping":95},{"user_id":294,"name":"SKIN IS WHERE THE FLAVOR IS","steam_id":76561198115842661,"connected_time":944000000000,"state":"active","ping":66},{"user_id":291,"name":"Riku","steam_id":76561198047287940,"connected_time":1254000000000,"state":"active","ping":79},{"user_id":295,"name":"Zigadox","steam_id":76561198079813479,"connected_time":938000000000,"state":"active","ping":77},{"user_id":299,"name":"Lp1dude","steam_id":76561198384927471,"connected_time":736000000000,"state":"active","ping":59},{"user_id":272,"name":"Frongus","steam_id":76561197979056451,"connected_time":2687000000000,"state":"active","ping":91},{"user_id":305,"name":"toffeecoffee","steam_id":76561198248625526,"connected_time":426000000000,"state":"active","ping":102},{"user_id":300,"name":"DJFunnyBone","steam_id":76561198892528359,"connected_time":728000000000,"state":"active","ping":34},{"user_id":277,"name":"Zoéyyy❤","steam_id":76561198368944263,"connected_time":2037000000000,"state":"active","ping":102},{"user_id":301,"name":"Saul Goodman","steam_id":76561199014764373,"connected_time":652000000000,"state":"active","ping":50},{"user_id":251,"name":"finkle","steam_id":76561198388089772,"connected_time":4618000000000,"state":"active","ping":90},{"user_id":302,"name":"ORANGE","steam_id":76561198000401769,"connected_time":630000000000,"state":"active","ping":90},{"user_id":220,"name":"YungKeet","steam_id":76561198293854963,"connected_time":6209000000000,"state":"active","ping":78},{"user_id":296,"name":"wezeer","steam_id":76561198407577922,"connected_time":917000000000,"state":"active","ping":61},{"user_id":304,"name":"lazylama","steam_id":76561199243481732,"connected_time":566000000000,"state":"active","ping":77},{"user_id":280,"name":"vinny6","steam_id":76561198386735728,"connected_time":1992000000000,"state":"active","ping":61},{"user_id":293,"name":"Dallas","steam_id":76561198066542919,"connected_time":1119000000000,"state":"active","ping":94},{"user_id":281,"name":"Blue Collar","steam_id":76561198354781722,"connected_time":1978000000000,"state":"active","ping":85},{"user_id":264,"name":"dr peppah chug!","steam_id":76561198068835693,"connected_time":3491000000000,"state":"active","ping":88},{"user_id":271,"name":"tasty","steam_id":76561198083839061,"connected_time":2692000000000,"state":"active","ping":59},{"user_id":287,"name":"TH-1","steam_id":76561197993467034,"connected_time":1396000000000,"state":"active","ping":59},{"user_id":274,"name":"Riboflavin","steam_id":76561198077328593,"connected_time":2575000000000,"state":"active","ping":92},{"user_id":290,"name":"Toasty Gyro","steam_id":76561198001026643,"connected_time":1369000000000,"state":"active","ping":46},{"user_id":231,"name":"captainspatklz","steam_id":76561198432167270,"connected_time":5893000000000,"state":"active","ping":69}]},{"server_id":38,"name":"Uncletopia | Chicago | 7 | Stopwatch Beta","name_short":"chi-7","host":"chi-2.us.uncletopia.com","port":27035,"enabled":true,"region":"us-central","cc":"us","latitude":41.881832,"longitude":-87.62318,"reserved":0,"last_update":"0001-01-01T00:00:00Z","name_a2s":"Uncletopia | Chicago | 7 | Stopwatch Beta","protocol":17,"map":"koth_lakeside_final","folder":"tf","game":"Team Fortress","app_id":440,"player_count":0,"max_players":24,"Bots":0,"server_type":"Dedicated","server_os":"Linux","password":true,"vac":true,"version":"7742253","steam_id":85568392924866364,"keywords":["cp","nocrits","nodmgspread","uncletopia"],"game_id":440,"stv_port":27036,"stv_name":"Uncletopia | Chicago | 7 | Stopwatch Beta | STV","players":null},{"server_id":39,"name":"Uncletopia | Chicago | 8 | Community","name_short":"chi-8","host":"chi-2.us.uncletopia.com","port":27045,"enabled":true,"region":"us-central","cc":"us","latitude":41.881832,"longitude":-87.62318,"reserved":0,"last_update":"0001-01-01T00:00:00Z","name_a2s":"Uncletopia | Chicago | 8 | Community","protocol":17,"map":"koth_lakeside_final","folder":"tf","game":"Team Fortress","app_id":440,"player_count":0,"max_players":24,"Bots":0,"server_type":"Dedicated","server_os":"Linux","password":true,"vac":true,"version":"7742253","steam_id":85568392924866365,"keywords":["cp","nocrits","nodmgspread","uncletopia"],"game_id":440,"stv_port":27046,"stv_name":"Uncletopia | Chicago | 8 | Community | STV","players":null},{"server_id":8,"name":"Uncletopia | Dallas | 1 | All Maps","name_short":"dal-1","host":"dal-1.us.uncletopia.com","port":27015,"enabled":true,"region":"us-central","cc":"us","latitude":32.779167,"longitude":-96.80889,"reserved":0,"last_update":"0001-01-01T00:00:00Z","name_a2s":"Uncletopia | Dallas | 1 | All Maps","protocol":17,"map":"pl_borneo","folder":"tf","game":"Team Fortress","app_id":440,"player_count":24,"max_players":24,"Bots":0,"server_type":"Dedicated","server_os":"Linux","password":true,"vac":true,"version":"7742253","steam_id":85568392924469986,"keywords":["nocrits","nodmgspread","payload","uncletopia"],"game_id":440,"stv_port":27016,"stv_name":"Uncletopia | Dallas | 1 | All Maps | STV","players":[{"user_id":86,"name":"Rin \"Hindwing\" Redtail","steam_id":76561199074865638,"connected_time":2221000000000,"state":"active","ping":52},{"user_id":107,"name":"Woodz","steam_id":76561198055708252,"connected_time":733000000000,"state":"active","ping":73},{"user_id":101,"name":"Zicky Nee","steam_id":76561198042601111,"connected_time":1093000000000,"state":"active","ping":87},{"user_id":105,"name":"LiquidDip","steam_id":76561198090529456,"connected_time":841000000000,"state":"active","ping":66},{"user_id":97,"name":"Trans Bumblebee","steam_id":76561198119393205,"connected_time":1199000000000,"state":"active","ping":43},{"user_id":98,"name":"goofy goober","steam_id":76561198870747314,"connected_time":1166000000000,"state":"active","ping":93},{"user_id":99,"name":"76561198212421513","steam_id":76561198212421513,"connected_time":1152000000000,"state":"active","ping":74},{"user_id":91,"name":"riri ᗜᴗᗜ","steam_id":76561198055462404,"connected_time":1731000000000,"state":"active","ping":74},{"user_id":71,"name":"sebjzy","steam_id":76561198009959034,"connected_time":3349000000000,"state":"active","ping":51},{"user_id":108,"name":"no vc no c","steam_id":76561197989503095,"connected_time":174000000000,"state":"active","ping":177},{"user_id":84,"name":"TransWomanGaming","steam_id":76561198809645656,"connected_time":2274000000000,"state":"active","ping":71},{"user_id":43,"name":"Motorolª","steam_id":76561198358119669,"connected_time":5183000000000,"state":"active","ping":121},{"user_id":109,"name":"toilet snake","steam_id":76561198064422625,"connected_time":30000000000,"state":"active","ping":48},{"user_id":59,"name":"Lolxdloldx","steam_id":76561198136887125,"connected_time":4221000000000,"state":"active","ping":74},{"user_id":87,"name":"Rat Smacker","steam_id":76561199090197628,"connected_time":2164000000000,"state":"active","ping":68},{"user_id":83,"name":"the smiling zombie","steam_id":76561199246231090,"connected_time":2320000000000,"state":"active","ping":78},{"user_id":72,"name":"Hattara","steam_id":76561198268710858,"connected_time":3231000000000,"state":"active","ping":53},{"user_id":106,"name":"PanCAKEEE","steam_id":76561198237489544,"connected_time":803000000000,"state":"active","ping":99},{"user_id":93,"name":"!MONSTR_GRRL!","steam_id":76561198265633146,"connected_time":1575000000000,"state":"active","ping":77},{"user_id":82,"name":"Cat_Soldier","steam_id":76561198799974610,"connected_time":2447000000000,"state":"active","ping":74},{"user_id":103,"name":"Dough Boy","steam_id":76561198360231698,"connected_time":898000000000,"state":"active","ping":70},{"user_id":70,"name":"Sexyrevolver","steam_id":76561199058132505,"connected_time":3457000000000,"state":"active","ping":78},{"user_id":90,"name":"Zetta","steam_id":76561198045710113,"connected_time":1792000000000,"state":"active","ping":80},{"user_id":104,"name":"Sparky-a-nature","steam_id":76561198090982334,"connected_time":886000000000,"state":"active","ping":83}]},{"server_id":108,"name":"Uncletopia | Dallas | 2 | All Maps","name_short":"dal-2","host":"dal-1.us.uncletopia.com","port":27025,"enabled":true,"region":"us-central","cc":"us","latitude":32.779167,"longitude":-96.80889,"reserved":0,"last_update":"0001-01-01T00:00:00Z","name_a2s":"Uncletopia | Dallas | 2 | All Maps","protocol":17,"map":"koth_highpass","folder":"tf","game":"Team Fortress","app_id":440,"player_count":0,"max_players":24,"Bots":0,"server_type":"Dedicated","server_os":"Linux","password":true,"vac":true,"version":"7742253","steam_id":85568392924469988,"keywords":["cp","nocrits","nodmgspread","uncletopia"],"game_id":440,"stv_port":27026,"stv_name":"Uncletopia | Dallas | 2 | All Maps | STV","players":null},{"server_id":5,"name":"Uncletopia | Frankfurt | 1 | All Maps","name_short":"frk-1","host":"frk-1.de.uncletopia.com","port":27015,"enabled":true,"region":"eu","cc":"de","latitude":50.110924,"longitude":8.682127,"reserved":0,"last_update":"0001-01-01T00:00:00Z","name_a2s":"Uncletopia | Frankfurt | 1 | All Maps","protocol":17,"map":"pl_borneo","folder":"tf","game":"Team Fortress","app_id":440,"player_count":24,"max_players":24,"Bots":0,"server_type":"Dedicated","server_os":"Linux","password":true,"vac":true,"version":"7742253","steam_id":85568392924469989,"keywords":["nocrits","nodmgspread","payload","uncletopia"],"game_id":440,"stv_port":27016,"stv_name":"Uncletopia | Frankfurt | 1 | All Maps | STV","players":[{"user_id":553,"name":"Monke","steam_id":76561198066994468,"connected_time":1074000000000,"state":"active","ping":69},{"user_id":561,"name":"jabar7","steam_id":76561198055137986,"connected_time":854000000000,"state":"active","ping":60},{"user_id":376,"name":"Bundle of Sticks","steam_id":76561198133782205,"connected_time":12575000000000,"state":"active","ping":123},{"user_id":555,"name":"Iva","steam_id":76561198254963150,"connected_time":1041000000000,"state":"active","ping":49},{"user_id":461,"name":"d00bie","steam_id":76561198025295218,"connected_time":5825000000000,"state":"active","ping":61},{"user_id":563,"name":"ムGeRmAn |×UA×ム","steam_id":76561199044754898,"connected_time":703000000000,"state":"active","ping":60},{"user_id":567,"name":"ok","steam_id":76561198044451693,"connected_time":69000000000,"state":"active","ping":98},{"user_id":545,"name":"TheKingFromClashRoyale (real)","steam_id":76561198962400711,"connected_time":1915000000000,"state":"active","ping":95},{"user_id":480,"name":"juicymangoes","steam_id":76561198131670413,"connected_time":5054000000000,"state":"active","ping":61},{"user_id":481,"name":"SODA!!!!!!!","steam_id":76561198107362485,"connected_time":5043000000000,"state":"active","ping":63},{"user_id":546,"name":"Mik","steam_id":76561198109726884,"connected_time":1914000000000,"state":"active","ping":65},{"user_id":565,"name":"Laki","steam_id":76561198126078953,"connected_time":376000000000,"state":"active","ping":126},{"user_id":537,"name":"The Trolldier Grind","steam_id":76561199083882039,"connected_time":2400000000000,"state":"active","ping":58},{"user_id":564,"name":"Gramma!","steam_id":76561198340989175,"connected_time":688000000000,"state":"active","ping":160},{"user_id":566,"name":"Cash MoneyBlue","steam_id":76561198934825927,"connected_time":96000000000,"state":"active","ping":173},{"user_id":547,"name":"AngTed Biocarde","steam_id":76561198142261669,"connected_time":1906000000000,"state":"active","ping":53},{"user_id":562,"name":"galad.game","steam_id":76561198336324159,"connected_time":827000000000,"state":"active","ping":61},{"user_id":548,"name":"Rask","steam_id":76561198052934944,"connected_time":1869000000000,"state":"active","ping":87},{"user_id":549,"name":"tictak211","steam_id":76561198128091924,"connected_time":1868000000000,"state":"active","ping":69},{"user_id":550,"name":"frying pan (real)","steam_id":76561198875409640,"connected_time":1846000000000,"state":"active","ping":68},{"user_id":558,"name":"gary","steam_id":76561198051623751,"connected_time":969000000000,"state":"active","ping":76},{"user_id":557,"name":"Gravity™","steam_id":76561197992193212,"connected_time":1018000000000,"state":"active","ping":56},{"user_id":551,"name":"Rambi","steam_id":76561199058078505,"connected_time":1834000000000,"state":"active","ping":152},{"user_id":569,"name":"Mr. Pickles #SaveTF2","steam_id":76561199210183560,"connected_time":25000000000,"state":"active","ping":128}]},{"server_id":110,"name":"Uncletopia | Frankfurt | 2 | All Maps","name_short":"frk-2","host":"frk-1.de.uncletopia.com","port":27025,"enabled":true,"region":"eu","cc":"de","latitude":50.110924,"longitude":8.682127,"reserved":0,"last_update":"0001-01-01T00:00:00Z","name_a2s":"Uncletopia | Frankfurt | 2 | All Maps","protocol":17,"map":"pl_upward","folder":"tf","game":"Team Fortress","app_id":440,"player_count":23,"max_players":24,"Bots":0,"server_type":"Dedicated","server_os":"Linux","password":true,"vac":true,"version":"7742253","steam_id":85568392924469990,"keywords":["nocrits","nodmgspread","payload","uncletopia"],"game_id":440,"stv_port":27026,"stv_name":"Uncletopia | Frankfurt | 2 | All Maps | STV","players":[{"user_id":327,"name":"Alin","steam_id":76561198059679991,"connected_time":4553000000000,"state":"active","ping":88},{"user_id":306,"name":"scantron","steam_id":76561199103959197,"connected_time":6520000000000,"state":"active","ping":105},{"user_id":404,"name":"malebranch","steam_id":76561198171177823,"connected_time":27000000000,"state":"active","ping":77},{"user_id":400,"name":"yuh","steam_id":76561199005555839,"connected_time":286000000000,"state":"active","ping":77},{"user_id":383,"name":"Remyie","steam_id":76561198131031404,"connected_time":937000000000,"state":"active","ping":105},{"user_id":288,"name":"dn4k","steam_id":76561199221755690,"connected_time":7821000000000,"state":"active","ping":82},{"user_id":372,"name":"Phil3k.","steam_id":76561198283072297,"connected_time":1332000000000,"state":"active","ping":61},{"user_id":345,"name":"tekszi","steam_id":76561198107220903,"connected_time":3261000000000,"state":"active","ping":46},{"user_id":405,"name":"MooK","steam_id":76561198361784169,"connected_time":22000000000,"state":"spawning","ping":89},{"user_id":385,"name":"monyall","steam_id":76561198452226488,"connected_time":843000000000,"state":"active","ping":95},{"user_id":377,"name":"Use The Finger","steam_id":76561198050203563,"connected_time":1235000000000,"state":"active","ping":62},{"user_id":380,"name":"lizzer","steam_id":76561198043367791,"connected_time":1109000000000,"state":"active","ping":66},{"user_id":382,"name":"Tort","steam_id":76561198329646769,"connected_time":1071000000000,"state":"active","ping":62},{"user_id":318,"name":"ivanmixo","steam_id":76561198160213989,"connected_time":5220000000000,"state":"active","ping":63},{"user_id":355,"name":"lai lai boy","steam_id":76561198256529098,"connected_time":2225000000000,"state":"active","ping":60},{"user_id":269,"name":"Mr.Fosty","steam_id":76561198045212783,"connected_time":9136000000000,"state":"active","ping":84},{"user_id":388,"name":"Frank Drebin","steam_id":76561197982891118,"connected_time":781000000000,"state":"active","ping":45},{"user_id":357,"name":"MidnightMoth","steam_id":76561198842238362,"connected_time":2195000000000,"state":"active","ping":79},{"user_id":406,"name":"Eleren","steam_id":76561198123361225,"connected_time":16000000000,"state":"spawning","ping":136},{"user_id":390,"name":"fénix","steam_id":76561198083199151,"connected_time":776000000000,"state":"active","ping":63},{"user_id":403,"name":"Cthulhu","steam_id":76561198958707001,"connected_time":134000000000,"state":"active","ping":69},{"user_id":374,"name":"ARYZON","steam_id":76561198070705087,"connected_time":1309000000000,"state":"active","ping":45},{"user_id":376,"name":"Doriian","steam_id":76561198071438810,"connected_time":1258000000000,"state":"active","ping":77}]},{"server_id":308,"name":"Uncletopia | Frankfurt | 3 | All Maps","name_short":"frk-3","host":"frk-1.de.uncletopia.com","port":27035,"enabled":true,"region":"eu","cc":"de","latitude":50.110924,"longitude":8.682127,"reserved":0,"last_update":"0001-01-01T00:00:00Z","name_a2s":"Uncletopia | Frankfurt | 3 | All Maps","protocol":17,"map":"pl_badwater","folder":"tf","game":"Team Fortress","app_id":440,"player_count":24,"max_players":24,"Bots":0,"server_type":"Dedicated","server_os":"Linux","password":true,"vac":true,"version":"7742253","steam_id":85568392924504274,"keywords":["nocrits","nodmgspread","payload","uncletopia"],"game_id":440,"stv_port":27036,"stv_name":"Uncletopia | Frankfurt | 3 | All Maps | STV","players":[{"user_id":337,"name":"remove cars","steam_id":76561199433578516,"connected_time":885000000000,"state":"active","ping":78},{"user_id":349,"name":"Saint","steam_id":76561198303326214,"connected_time":268000000000,"state":"active","ping":71},{"user_id":319,"name":"SIGMA BALLS","steam_id":76561198302623594,"connected_time":1388000000000,"state":"active","ping":94},{"user_id":322,"name":"Apox","steam_id":76561198008005377,"connected_time":1117000000000,"state":"active","ping":59},{"user_id":347,"name":"simon.saperest","steam_id":76561199013526134,"connected_time":585000000000,"state":"active","ping":44},{"user_id":326,"name":"Wardruna96","steam_id":76561199057083828,"connected_time":1099000000000,"state":"active","ping":73},{"user_id":324,"name":"DrExplosive","steam_id":76561198063678579,"connected_time":1110000000000,"state":"active","ping":51},{"user_id":330,"name":"KillerQueen (he/they/she)","steam_id":76561199019399725,"connected_time":1029000000000,"state":"active","ping":61},{"user_id":350,"name":"jorogumo","steam_id":76561198838277022,"connected_time":262000000000,"state":"active","ping":65},{"user_id":329,"name":"fikoby0","steam_id":76561198240871940,"connected_time":1071000000000,"state":"active","ping":73},{"user_id":331,"name":"IceFlower","steam_id":76561198207832149,"connected_time":1015000000000,"state":"active","ping":68},{"user_id":351,"name":"System","steam_id":76561199442503973,"connected_time":250000000000,"state":"active","ping":46},{"user_id":292,"name":"skille","steam_id":76561198005794325,"connected_time":2732000000000,"state":"active","ping":62},{"user_id":294,"name":"arisu","steam_id":76561199010825303,"connected_time":2627000000000,"state":"active","ping":70},{"user_id":295,"name":"rosepinkyfuzz","steam_id":76561198018546334,"connected_time":2623000000000,"state":"active","ping":74},{"user_id":303,"name":"Powa","steam_id":76561198069424168,"connected_time":2387000000000,"state":"active","ping":59},{"user_id":348,"name":"Lakal's mercy","steam_id":76561199111908573,"connected_time":419000000000,"state":"active","ping":87},{"user_id":333,"name":"Missing_data","steam_id":76561199199194882,"connected_time":1007000000000,"state":"active","ping":153},{"user_id":335,"name":"Enigmus","steam_id":76561197994063627,"connected_time":979000000000,"state":"active","ping":90},{"user_id":346,"name":"XelenHost","steam_id":76561198019712304,"connected_time":686000000000,"state":"active","ping":84},{"user_id":339,"name":"mark","steam_id":76561198309246388,"connected_time":857000000000,"state":"active","ping":50},{"user_id":340,"name":"my mom","steam_id":76561199225201569,"connected_time":834000000000,"state":"active","ping":144},{"user_id":344,"name":"ACG_Dubsy","steam_id":76561198797308565,"connected_time":763000000000,"state":"active","ping":67},{"user_id":254,"name":"Polaris","steam_id":76561198007076931,"connected_time":5092000000000,"state":"active","ping":67}]},{"server_id":309,"name":"Uncletopia | Frankfurt | 4 | All Maps","name_short":"frk-4","host":"frk-1.de.uncletopia.com","port":27045,"enabled":true,"region":"eu","cc":"de","latitude":50.110924,"longitude":8.682127,"reserved":0,"last_update":"0001-01-01T00:00:00Z","name_a2s":"Uncletopia | Frankfurt | 4 | All Maps","protocol":17,"map":"pl_borneo","folder":"tf","game":"Team Fortress","app_id":440,"player_count":24,"max_players":24,"Bots":0,"server_type":"Dedicated","server_os":"Linux","password":true,"vac":true,"version":"7742253","steam_id":85568392924504275,"keywords":["nocrits","nodmgspread","payload","uncletopia"],"game_id":440,"stv_port":27046,"stv_name":"Uncletopia | Frankfurt | 4 | All Maps | STV","players":[{"user_id":312,"name":"русорез","steam_id":76561198113126186,"connected_time":2322000000000,"state":"active","ping":87},{"user_id":308,"name":"Fall from Grace!!","steam_id":76561198124695376,"connected_time":2661000000000,"state":"active","ping":165},{"user_id":340,"name":"the arizona ranger","steam_id":76561198074459678,"connected_time":333000000000,"state":"active","ping":158},{"user_id":310,"name":"Miton","steam_id":76561197970323209,"connected_time":2469000000000,"state":"active","ping":81},{"user_id":307,"name":"Ҥuweifs","steam_id":76561198013857569,"connected_time":3013000000000,"state":"active","ping":103},{"user_id":339,"name":"bob","steam_id":76561198309295580,"connected_time":366000000000,"state":"active","ping":51},{"user_id":331,"name":"Caisse d'allocations familiales","steam_id":76561198044390842,"connected_time":990000000000,"state":"active","ping":54},{"user_id":335,"name":"homeinvasion$","steam_id":76561199111905021,"connected_time":852000000000,"state":"active","ping":103},{"user_id":330,"name":"A fish and sea","steam_id":76561198194745827,"connected_time":996000000000,"state":"active","ping":50},{"user_id":332,"name":"mango","steam_id":76561199142721155,"connected_time":986000000000,"state":"active","ping":72},{"user_id":341,"name":"cop killer","steam_id":76561198039966198,"connected_time":283000000000,"state":"active","ping":65},{"user_id":257,"name":"AleXandriX","steam_id":76561198035203950,"connected_time":6828000000000,"state":"active","ping":52},{"user_id":253,"name":"Pain in a Box","steam_id":76561197990777173,"connected_time":7048000000000,"state":"active","ping":70},{"user_id":323,"name":"alexcuscianna","steam_id":76561198020448407,"connected_time":1860000000000,"state":"active","ping":66},{"user_id":319,"name":"Duck_gaming","steam_id":76561198841587079,"connected_time":2105000000000,"state":"active","ping":58},{"user_id":260,"name":"j100j","steam_id":76561198338726444,"connected_time":6743000000000,"state":"active","ping":100},{"user_id":333,"name":"WHUSSKEY","steam_id":76561198137827441,"connected_time":984000000000,"state":"active","ping":61},{"user_id":338,"name":"r/sonofelicenellafece","steam_id":76561198262231733,"connected_time":419000000000,"state":"active","ping":74},{"user_id":337,"name":"ErJu","steam_id":76561198106273165,"connected_time":526000000000,"state":"active","ping":66},{"user_id":303,"name":"Michał","steam_id":76561198320346362,"connected_time":3160000000000,"state":"active","ping":58},{"user_id":336,"name":"Jazz Apples","steam_id":76561198058259690,"connected_time":824000000000,"state":"active","ping":62},{"user_id":325,"name":"GalacticFantasy","steam_id":76561198072077658,"connected_time":1508000000000,"state":"active","ping":84},{"user_id":305,"name":"Juanvi","steam_id":76561198027676994,"connected_time":3137000000000,"state":"active","ping":77},{"user_id":264,"name":"German Prick","steam_id":76561198181410637,"connected_time":6544000000000,"state":"active","ping":48}]},{"server_id":310,"name":"Uncletopia | Frankfurt | 5 | All Maps","name_short":"frk-5","host":"frk-1.de.uncletopia.com","port":27055,"enabled":true,"region":"eu","cc":"de","latitude":50.110924,"longitude":8.682127,"reserved":0,"last_update":"0001-01-01T00:00:00Z","name_a2s":"Uncletopia | Frankfurt | 5 | All Maps","protocol":17,"map":"pl_upward","folder":"tf","game":"Team Fortress","app_id":440,"player_count":23,"max_players":24,"Bots":0,"server_type":"Dedicated","server_os":"Linux","password":true,"vac":true,"version":"7742253","steam_id":85568392924504277,"keywords":["nocrits","nodmgspread","payload","uncletopia"],"game_id":440,"stv_port":27056,"stv_name":"Uncletopia | Frankfurt | 5 | All Maps | STV","players":[{"user_id":428,"name":"Silent Person","steam_id":76561198107763537,"connected_time":485000000000,"state":"active","ping":63},{"user_id":403,"name":"KGiorgios_Bully","steam_id":76561198825392728,"connected_time":1592000000000,"state":"active","ping":122},{"user_id":420,"name":"hipster_doofus","steam_id":76561197970902697,"connected_time":754000000000,"state":"active","ping":64},{"user_id":429,"name":"Jerahan","steam_id":76561198123890086,"connected_time":396000000000,"state":"active","ping":49},{"user_id":329,"name":"Nameless_Mann","steam_id":76561198015543601,"connected_time":6676000000000,"state":"active","ping":69},{"user_id":406,"name":"snoowbrigade","steam_id":76561197989507394,"connected_time":1254000000000,"state":"active","ping":72},{"user_id":435,"name":"G4mbl3_M4m1de","steam_id":76561198093196257,"connected_time":161000000000,"state":"active","ping":63},{"user_id":431,"name":"Tomfool","steam_id":76561197993256481,"connected_time":354000000000,"state":"active","ping":72},{"user_id":404,"name":"M4SK3D2","steam_id":76561198331246525,"connected_time":1560000000000,"state":"active","ping":71},{"user_id":423,"name":"プンプン.62","steam_id":76561199285679674,"connected_time":641000000000,"state":"active","ping":60},{"user_id":426,"name":"HwK!","steam_id":76561198287835588,"connected_time":585000000000,"state":"active","ping":76},{"user_id":417,"name":"s a i","steam_id":76561197970379754,"connected_time":914000000000,"state":"active","ping":56},{"user_id":378,"name":"[HOL] Solringen","steam_id":76561198003584681,"connected_time":3693000000000,"state":"active","ping":69},{"user_id":411,"name":"BartixTheMfWhoTeleportsBread","steam_id":76561199150958836,"connected_time":1133000000000,"state":"active","ping":54},{"user_id":436,"name":"Robo-Tavish","steam_id":76561198073284118,"connected_time":56000000000,"state":"active","ping":59},{"user_id":401,"name":"ZyZ 2.0","steam_id":76561199178204775,"connected_time":1889000000000,"state":"active","ping":112},{"user_id":422,"name":"Daan77","steam_id":76561198129940468,"connected_time":685000000000,"state":"active","ping":73},{"user_id":434,"name":"pinsamt, eller hur?","steam_id":76561198275969899,"connected_time":204000000000,"state":"active","ping":89},{"user_id":394,"name":"KFC Enjoyer","steam_id":76561198840259819,"connected_time":2493000000000,"state":"active","ping":53},{"user_id":413,"name":"Sch","steam_id":76561198071341689,"connected_time":1037000000000,"state":"active","ping":56},{"user_id":433,"name":"Mao Zedong","steam_id":76561198347020945,"connected_time":279000000000,"state":"active","ping":109},{"user_id":427,"name":"TonTon","steam_id":76561198145468895,"connected_time":532000000000,"state":"active","ping":54}]},{"server_id":311,"name":"Uncletopia | Frankfurt | 6 | All Maps","name_short":"frk-6","host":"frk-1.de.uncletopia.com","port":27065,"enabled":true,"region":"eu","cc":"de","latitude":50.110924,"longitude":8.682127,"reserved":0,"last_update":"0001-01-01T00:00:00Z","name_a2s":"Uncletopia | Frankfurt | 6 | All Maps","protocol":17,"map":"cp_sunshine","folder":"tf","game":"Team Fortress","app_id":440,"player_count":21,"max_players":24,"Bots":0,"server_type":"Dedicated","server_os":"Linux","password":true,"vac":true,"version":"7742253","steam_id":85568392924504278,"keywords":["cp","nocrits","nodmgspread","uncletopia"],"game_id":440,"stv_port":27066,"stv_name":"Uncletopia | Frankfurt | 6 | All Maps | STV","players":[{"user_id":167,"name":"mördermelade","steam_id":76561198031286581,"connected_time":1048000000000,"state":"active","ping":46},{"user_id":186,"name":"Apollo","steam_id":76561198073839911,"connected_time":18000000000,"state":"active","ping":97},{"user_id":161,"name":"Mika","steam_id":76561199183780280,"connected_time":1896000000000,"state":"active","ping":67},{"user_id":156,"name":"JC","steam_id":76561198029213352,"connected_time":2812000000000,"state":"active","ping":47},{"user_id":164,"name":"Человек яйца","steam_id":76561198277599844,"connected_time":1700000000000,"state":"active","ping":92},{"user_id":150,"name":"Razvan_Romanul","steam_id":76561199137773085,"connected_time":2953000000000,"state":"active","ping":70},{"user_id":123,"name":"Light601","steam_id":76561198134998492,"connected_time":3942000000000,"state":"active","ping":86},{"user_id":177,"name":"Jaww Grimm","steam_id":76561198021319348,"connected_time":211000000000,"state":"active","ping":60},{"user_id":157,"name":"KLAMA  ❤","steam_id":76561198351549661,"connected_time":2744000000000,"state":"active","ping":62},{"user_id":126,"name":"Typho","steam_id":76561198031332899,"connected_time":3889000000000,"state":"active","ping":74},{"user_id":127,"name":"Greflog","steam_id":76561198075728653,"connected_time":3880000000000,"state":"active","ping":92},{"user_id":178,"name":"etc","steam_id":76561197998394797,"connected_time":208000000000,"state":"active","ping":56},{"user_id":169,"name":"Ivan","steam_id":76561198874503008,"connected_time":1029000000000,"state":"active","ping":77},{"user_id":181,"name":"ඞbominasus 2137  #SaveTF2","steam_id":76561198030062981,"connected_time":164000000000,"state":"active","ping":64},{"user_id":170,"name":"quaddmg","steam_id":76561198119449463,"connected_time":1015000000000,"state":"active","ping":72},{"user_id":184,"name":"G6 sherlock","steam_id":76561198802967796,"connected_time":99000000000,"state":"active","ping":120},{"user_id":172,"name":"strangely","steam_id":76561198030697131,"connected_time":905000000000,"state":"active","ping":53},{"user_id":173,"name":"RomaNTyk","steam_id":76561198197933881,"connected_time":704000000000,"state":"active","ping":64},{"user_id":163,"name":"Noodle","steam_id":76561197997208006,"connected_time":1793000000000,"state":"active","ping":55},{"user_id":174,"name":"Dondonz","steam_id":76561198111407893,"connected_time":565000000000,"state":"active","ping":57},{"user_id":142,"name":"Mistress of the universe","steam_id":76561198115988477,"connected_time":3728000000000,"state":"active","ping":62}]},{"server_id":23,"name":"Uncletopia | Frankfurt | 7 | Stopwatch Beta","name_short":"frk-7","host":"frk-1.de.uncletopia.com","port":27075,"enabled":true,"region":"eu","cc":"de","latitude":50.110924,"longitude":8.682127,"reserved":0,"last_update":"0001-01-01T00:00:00Z","name_a2s":"Uncletopia | Frankfurt | 7 | Stopwatch Beta","protocol":17,"map":"cp_metalworks","folder":"tf","game":"Team Fortress","app_id":440,"player_count":24,"max_players":24,"Bots":0,"server_type":"Dedicated","server_os":"Linux","password":true,"vac":true,"version":"7742253","steam_id":85568392924742827,"keywords":["cp","nocrits","nodmgspread","uncletopia"],"game_id":440,"stv_port":27076,"stv_name":"Uncletopia | Frankfurt | 7 | Stopwatch Beta | STV","players":[{"user_id":228,"name":"РСЗО \"Град\"","steam_id":76561198925647075,"connected_time":449000000000,"state":"active","ping":171},{"user_id":219,"name":"The CEO of LGBTQIA+","steam_id":76561199083743586,"connected_time":1037000000000,"state":"active","ping":93},{"user_id":225,"name":"Kuna ☩","steam_id":76561199012155377,"connected_time":821000000000,"state":"active","ping":45},{"user_id":226,"name":"Sparky","steam_id":76561198036754195,"connected_time":752000000000,"state":"active","ping":42},{"user_id":201,"name":"Manekrit","steam_id":76561198269497846,"connected_time":1626000000000,"state":"active","ping":64},{"user_id":229,"name":"Waste Of Oxygen","steam_id":76561198042269998,"connected_time":345000000000,"state":"active","ping":61},{"user_id":136,"name":"ganz_lustiger_name","steam_id":76561199240340943,"connected_time":5859000000000,"state":"active","ping":65},{"user_id":214,"name":"Man I Love Fentanyl","steam_id":76561199466772097,"connected_time":1168000000000,"state":"active","ping":64},{"user_id":230,"name":"IJN Amagi","steam_id":76561198090874324,"connected_time":265000000000,"state":"active","ping":97},{"user_id":234,"name":"Snapp","steam_id":76561199059006203,"connected_time":118000000000,"state":"active","ping":168},{"user_id":236,"name":"Cillian","steam_id":76561199046965320,"connected_time":11000000000,"state":"active","ping":77},{"user_id":205,"name":"Grønkjær","steam_id":76561198041075280,"connected_time":1416000000000,"state":"active","ping":89},{"user_id":223,"name":"Sub","steam_id":76561197987018903,"connected_time":874000000000,"state":"active","ping":61},{"user_id":233,"name":"Snoopy Dilipak","steam_id":76561198358743344,"connected_time":151000000000,"state":"active","ping":152},{"user_id":227,"name":"テイルス","steam_id":76561198022403271,"connected_time":672000000000,"state":"active","ping":48},{"user_id":221,"name":"Kid Named UNO","steam_id":76561198846784757,"connected_time":982000000000,"state":"active","ping":69},{"user_id":213,"name":"✯NE0N✯","steam_id":76561198084916656,"connected_time":1177000000000,"state":"active","ping":58},{"user_id":194,"name":"Spootnak","steam_id":76561198049052518,"connected_time":2102000000000,"state":"active","ping":71},{"user_id":215,"name":"stinkyeseses","steam_id":76561198402218127,"connected_time":1167000000000,"state":"active","ping":90},{"user_id":216,"name":"Yessirskiii","steam_id":76561198179324075,"connected_time":1160000000000,"state":"active","ping":74},{"user_id":235,"name":"Nitrogliceryna","steam_id":76561199105104134,"connected_time":113000000000,"state":"active","ping":61},{"user_id":207,"name":"QUASO","steam_id":76561198295305088,"connected_time":1365000000000,"state":"active","ping":57},{"user_id":188,"name":"LasagnaLarry22","steam_id":76561198089478290,"connected_time":2845000000000,"state":"active","ping":49},{"user_id":182,"name":"Microwave","steam_id":76561198149765329,"connected_time":3093000000000,"state":"active","ping":62}]},{"server_id":24,"name":"Uncletopia | Frankfurt | 8 | Community","name_short":"frk-8","host":"frk-1.de.uncletopia.com","port":27085,"enabled":true,"region":"eu","cc":"de","latitude":50.110924,"longitude":8.682127,"reserved":0,"last_update":"0001-01-01T00:00:00Z","name_a2s":"Uncletopia | Frankfurt | 8 | Community","protocol":17,"map":"workshop/cp_logjam_rc12.ugc454812035","folder":"tf","game":"Team Fortress","app_id":440,"player_count":0,"max_players":24,"Bots":0,"server_type":"Dedicated","server_os":"Linux","password":true,"vac":true,"version":"7742253","steam_id":85568392924742828,"keywords":["cp","nocrits","nodmgspread","uncletopia"],"game_id":440,"stv_port":27086,"stv_name":"Uncletopia | Frankfurt | 8 | Community | STV","players":null},{"server_id":202,"name":"Uncletopia | Hong Kong | 1 | All Maps","name_short":"hgk-1","host":"hgk-1.hk.uncletopia.com","port":27015,"enabled":true,"region":"asia","cc":"hk","latitude":22.302711,"longitude":114.177216,"reserved":0,"last_update":"0001-01-01T00:00:00Z","name_a2s":"Uncletopia | Hong Kong | 1 | All Maps","protocol":17,"map":"cp_process_final","folder":"tf","game":"Team Fortress","app_id":440,"player_count":1,"max_players":24,"Bots":0,"server_type":"Dedicated","server_os":"Linux","password":true,"vac":true,"version":"7742253","steam_id":85568392924494504,"keywords":["cp","nocrits","nodmgspread","uncletopia"],"game_id":440,"stv_port":27016,"stv_name":"Uncletopia | Hong Kong | 1 | All Maps | STV","players":[{"user_id":1150,"name":"Bendy_Tank","steam_id":76561199438911774,"connected_time":156000000000,"state":"active","ping":279}]},{"server_id":1,"name":"Uncletopia | Los Angeles | 1 | All Maps","name_short":"lax-1","host":"lax-1.us.uncletopia.com","port":27015,"enabled":true,"region":"us-west","cc":"us","latitude":33.94279,"longitude":-118.41004,"reserved":0,"last_update":"0001-01-01T00:00:00Z","name_a2s":"Uncletopia | Los Angeles | 1 | All Maps","protocol":17,"map":"pl_snowycoast","folder":"tf","game":"Team Fortress","app_id":440,"player_count":0,"max_players":24,"Bots":0,"server_type":"Dedicated","server_os":"Linux","password":true,"vac":true,"version":"7742253","steam_id":85568392924469991,"keywords":["nocrits","nodmgspread","payload","uncletopia"],"game_id":440,"stv_port":27016,"stv_name":"Uncletopia | Los Angeles | 1 | All Maps | STV","players":null},{"server_id":112,"name":"Uncletopia | Los Angeles | 2 | All Maps","name_short":"lax-2","host":"lax-1.us.uncletopia.com","port":27025,"enabled":true,"region":"us-west","cc":"us","latitude":33.94279,"longitude":-118.41004,"reserved":0,"last_update":"0001-01-01T00:00:00Z","name_a2s":"Uncletopia | Los Angeles | 2 | All Maps","protocol":17,"map":"pl_frontier_final","folder":"tf","game":"Team Fortress","app_id":440,"player_count":0,"max_players":24,"Bots":0,"server_type":"Dedicated","server_os":"Linux","password":true,"vac":true,"version":"7742253","steam_id":85568392924469992,"keywords":["nocrits","nodmgspread","payload","uncletopia"],"game_id":440,"stv_port":27026,"stv_name":"Uncletopia | Los Angeles | 2 | All Maps | STV","players":null},{"server_id":324,"name":"Uncletopia | Los Angeles | 3 | All Maps","name_short":"lax-3","host":"lax-1.us.uncletopia.com","port":27035,"enabled":true,"region":"us-west","cc":"us","latitude":33.94279,"longitude":-118.41004,"reserved":0,"last_update":"0001-01-01T00:00:00Z","name_a2s":"Uncletopia | Los Angeles | 3 | All Maps","protocol":17,"map":"cp_sunshine","folder":"tf","game":"Team Fortress","app_id":440,"player_count":0,"max_players":24,"Bots":0,"server_type":"Dedicated","server_os":"Linux","password":true,"vac":true,"version":"7742253","steam_id":85568392924510198,"keywords":["cp","nocrits","nodmgspread","uncletopia"],"game_id":440,"stv_port":27036,"stv_name":"Uncletopia | Los Angeles | 3 | All Maps | STV","players":null},{"server_id":25,"name":"Uncletopia | Los Angeles | 4 | Stopwatch Beta","name_short":"lax-4","host":"lax-1.us.uncletopia.com","port":27045,"enabled":true,"region":"us-west","cc":"us","latitude":33.94279,"longitude":-118.41004,"reserved":0,"last_update":"0001-01-01T00:00:00Z","name_a2s":"Uncletopia | Los Angeles | 4 | Stopwatch Beta","protocol":17,"map":"pl_borneo","folder":"tf","game":"Team Fortress","app_id":440,"player_count":0,"max_players":24,"Bots":0,"server_type":"Dedicated","server_os":"Linux","password":true,"vac":true,"version":"7742253","steam_id":85568392924510199,"keywords":["nocrits","nodmgspread","payload","uncletopia"],"game_id":440,"stv_port":27046,"stv_name":"Uncletopia | Los Angeles | 4 | Stopwatch Beta | STV","players":null},{"server_id":11,"name":"Uncletopia | London | 1 | All Maps","name_short":"lon-1","host":"lon-1.uk.uncletopia.com","port":27015,"enabled":true,"region":"eu","cc":"gb","latitude":51.509865,"longitude":-0.118092,"reserved":0,"last_update":"0001-01-01T00:00:00Z","name_a2s":"Uncletopia | London | 1 | All Maps","protocol":17,"map":"koth_lakeside_final","folder":"tf","game":"Team Fortress","app_id":440,"player_count":24,"max_players":24,"Bots":0,"server_type":"Dedicated","server_os":"Linux","password":true,"vac":true,"version":"7742253","steam_id":85568392924367362,"keywords":["cp","nocrits","nodmgspread","uncletopia"],"game_id":440,"stv_port":27016,"stv_name":"Uncletopia | London | 1 | All Maps | STV","players":[{"user_id":342,"name":"punchmypotatoes","steam_id":76561198091255731,"connected_time":4743000000000,"state":"active","ping":55},{"user_id":370,"name":"Yatsuzume","steam_id":76561198059762108,"connected_time":2732000000000,"state":"active","ping":74},{"user_id":390,"name":"Stargazer","steam_id":76561199050069286,"connected_time":958000000000,"state":"active","ping":81},{"user_id":391,"name":"Fran","steam_id":76561199070516960,"connected_time":943000000000,"state":"active","ping":75},{"user_id":395,"name":"Alexandre","steam_id":76561198121784446,"connected_time":863000000000,"state":"active","ping":40},{"user_id":405,"name":"xulera","steam_id":76561198080736030,"connected_time":36000000000,"state":"active","ping":60},{"user_id":383,"name":"sigma female","steam_id":76561198298576765,"connected_time":1711000000000,"state":"active","ping":63},{"user_id":397,"name":"Are Ya Winning Son?","steam_id":76561197989308272,"connected_time":775000000000,"state":"active","ping":58},{"user_id":381,"name":"「◆Raku• 」","steam_id":76561198059283183,"connected_time":1898000000000,"state":"active","ping":87},{"user_id":362,"name":"barni","steam_id":76561198170420173,"connected_time":3467000000000,"state":"active","ping":76},{"user_id":371,"name":"Joseph Stalin LFT","steam_id":76561198033199746,"connected_time":2721000000000,"state":"active","ping":49},{"user_id":373,"name":"invis","steam_id":76561198120668070,"connected_time":2516000000000,"state":"active","ping":73},{"user_id":392,"name":"MeloMamas","steam_id":76561199203778915,"connected_time":930000000000,"state":"active","ping":65},{"user_id":404,"name":"Hydro","steam_id":76561199081791855,"connected_time":249000000000,"state":"active","ping":56},{"user_id":387,"name":"Son Goku","steam_id":76561199383437138,"connected_time":1067000000000,"state":"active","ping":123},{"user_id":401,"name":"Silverowl","steam_id":76561198045773877,"connected_time":526000000000,"state":"active","ping":59},{"user_id":399,"name":"Mannequin","steam_id":76561198128833974,"connected_time":726000000000,"state":"active","ping":59},{"user_id":402,"name":"Umpazzo","steam_id":76561198105718152,"connected_time":524000000000,"state":"active","ping":66},{"user_id":389,"name":"Dominus.","steam_id":76561199065917088,"connected_time":991000000000,"state":"active","ping":64},{"user_id":369,"name":"Kahvi","steam_id":76561198723244199,"connected_time":2845000000000,"state":"active","ping":77},{"user_id":398,"name":"wheelie bin","steam_id":76561198040040328,"connected_time":768000000000,"state":"active","ping":55},{"user_id":400,"name":"markus #Hindiboys","steam_id":76561198186791643,"connected_time":699000000000,"state":"active","ping":85},{"user_id":330,"name":"Kosher Twink","steam_id":76561198397024973,"connected_time":5611000000000,"state":"active","ping":44},{"user_id":406,"name":"DeadlyPinkSheep","steam_id":76561198271773858,"connected_time":5000000000,"state":"spawning","ping":181}]},{"server_id":114,"name":"Uncletopia | London | 2 | All Maps","name_short":"lon-2","host":"lon-1.uk.uncletopia.com","port":27025,"enabled":true,"region":"eu","cc":"gb","latitude":51.509865,"longitude":-0.118092,"reserved":0,"last_update":"0001-01-01T00:00:00Z","name_a2s":"Uncletopia | London | 2 | All Maps","protocol":17,"map":"koth_highpass","folder":"tf","game":"Team Fortress","app_id":440,"player_count":24,"max_players":24,"Bots":0,"server_type":"Dedicated","server_os":"Linux","password":true,"vac":true,"version":"7742253","steam_id":85568392924470941,"keywords":["cp","nocrits","nodmgspread","uncletopia"],"game_id":440,"stv_port":27026,"stv_name":"Uncletopia | London | 2 | All Maps | STV","players":[{"user_id":220,"name":"deri100","steam_id":76561198397588574,"connected_time":158000000000,"state":"active","ping":70},{"user_id":198,"name":"winnyace","steam_id":76561198287308768,"connected_time":1065000000000,"state":"active","ping":62},{"user_id":208,"name":"TrIcKiNgX3","steam_id":76561198243231748,"connected_time":589000000000,"state":"active","ping":157},{"user_id":216,"name":"SirKaelan","steam_id":76561198123193384,"connected_time":335000000000,"state":"active","ping":78},{"user_id":182,"name":"Coldary","steam_id":76561198158968852,"connected_time":1943000000000,"state":"active","ping":71},{"user_id":183,"name":"ddanis","steam_id":76561199059064358,"connected_time":1909000000000,"state":"active","ping":73},{"user_id":215,"name":"im sorry for rock and stoning","steam_id":76561197981149859,"connected_time":388000000000,"state":"active","ping":96},{"user_id":207,"name":"cherry","steam_id":76561199006915718,"connected_time":665000000000,"state":"active","ping":60},{"user_id":200,"name":"LadleJockey","steam_id":76561198008796174,"connected_time":992000000000,"state":"active","ping":42},{"user_id":210,"name":"rednight on the pc","steam_id":76561199043940899,"connected_time":546000000000,"state":"active","ping":53},{"user_id":157,"name":"non_ai","steam_id":76561198270951938,"connected_time":3906000000000,"state":"active","ping":111},{"user_id":196,"name":"Cazulas","steam_id":76561198027460283,"connected_time":1163000000000,"state":"active","ping":86},{"user_id":194,"name":"heatburn","steam_id":76561198019001992,"connected_time":1296000000000,"state":"active","ping":54},{"user_id":206,"name":"Deva Path","steam_id":76561198085763542,"connected_time":790000000000,"state":"active","ping":82},{"user_id":221,"name":"1 Rogue World","steam_id":76561199014793570,"connected_time":120000000000,"state":"active","ping":53},{"user_id":184,"name":"dairy","steam_id":76561198117033273,"connected_time":1899000000000,"state":"active","ping":59},{"user_id":214,"name":"still alive","steam_id":76561199223797891,"connected_time":404000000000,"state":"active","ping":124},{"user_id":217,"name":"FreshBB","steam_id":76561198070000830,"connected_time":326000000000,"state":"active","ping":87},{"user_id":195,"name":"Stille Willem","steam_id":76561198093579428,"connected_time":1242000000000,"state":"active","ping":56},{"user_id":202,"name":"ddchdrn","steam_id":76561198024358566,"connected_time":939000000000,"state":"active","ping":61},{"user_id":204,"name":"Eliminaattori","steam_id":76561197996681411,"connected_time":832000000000,"state":"active","ping":70},{"user_id":219,"name":"Axord","steam_id":76561199289652176,"connected_time":224000000000,"state":"active","ping":51},{"user_id":222,"name":"badass mafia toolbars","steam_id":76561198259668029,"connected_time":115000000000,"state":"active","ping":45},{"user_id":213,"name":"JoJo","steam_id":76561198296920548,"connected_time":513000000000,"state":"active","ping":99}]},{"server_id":320,"name":"Uncletopia | London | 3 | All Maps","name_short":"lon-3","host":"lon-1.uk.uncletopia.com","port":27035,"enabled":true,"region":"eu","cc":"gb","latitude":51.509865,"longitude":-0.118092,"reserved":0,"last_update":"0001-01-01T00:00:00Z","name_a2s":"Uncletopia | London | 3 | All Maps","protocol":17,"map":"pl_borneo","folder":"tf","game":"Team Fortress","app_id":440,"player_count":24,"max_players":24,"Bots":0,"server_type":"Dedicated","server_os":"Linux","password":true,"vac":true,"version":"7742253","steam_id":85568392924510192,"keywords":["nocrits","nodmgspread","payload","uncletopia"],"game_id":440,"stv_port":27036,"stv_name":"Uncletopia | London | 3 | All Maps | STV","players":[{"user_id":603,"name":"🧱Big Mursten🧱","steam_id":76561199073257952,"connected_time":1410000000000,"state":"active","ping":89},{"user_id":604,"name":"confused","steam_id":76561198216200092,"connected_time":1388000000000,"state":"active","ping":51},{"user_id":566,"name":"Penis Contortionist","steam_id":76561198073663784,"connected_time":4226000000000,"state":"active","ping":34},{"user_id":605,"name":"who asked","steam_id":76561198834897089,"connected_time":1383000000000,"state":"active","ping":68},{"user_id":620,"name":"ALPHA","steam_id":76561198798803845,"connected_time":283000000000,"state":"active","ping":43},{"user_id":567,"name":"Sam","steam_id":76561198027419547,"connected_time":4226000000000,"state":"active","ping":51},{"user_id":613,"name":"Chad IV","steam_id":76561198107767058,"connected_time":1153000000000,"state":"active","ping":75},{"user_id":576,"name":"Accident","steam_id":76561198115160396,"connected_time":3570000000000,"state":"active","ping":78},{"user_id":561,"name":"Dextro","steam_id":76561198349648942,"connected_time":4324000000000,"state":"active","ping":89},{"user_id":619,"name":"Joy","steam_id":76561198155314925,"connected_time":304000000000,"state":"active","ping":54},{"user_id":503,"name":"peacekeeper","steam_id":76561199260462952,"connected_time":8717000000000,"state":"active","ping":102},{"user_id":570,"name":"TheSaltyFool","steam_id":76561199223139797,"connected_time":4105000000000,"state":"active","ping":62},{"user_id":600,"name":"JimTheMagicJumper","steam_id":76561197996773886,"connected_time":1839000000000,"state":"active","ping":39},{"user_id":618,"name":"HudRud","steam_id":76561198048378956,"connected_time":395000000000,"state":"active","ping":88},{"user_id":621,"name":"a Cat that cry","steam_id":76561198134378108,"connected_time":269000000000,"state":"active","ping":86},{"user_id":608,"name":"Knot me like your shoelaces","steam_id":76561198197606282,"connected_time":1343000000000,"state":"active","ping":38},{"user_id":564,"name":"Autonomous movement","steam_id":76561198087800030,"connected_time":4288000000000,"state":"active","ping":88},{"user_id":595,"name":"HeresyMan","steam_id":76561198169154183,"connected_time":2515000000000,"state":"active","ping":74},{"user_id":612,"name":"heheheha","steam_id":76561198307037169,"connected_time":1165000000000,"state":"active","ping":51},{"user_id":609,"name":"engri\u003e:[","steam_id":76561198202059054,"connected_time":1341000000000,"state":"active","ping":73},{"user_id":538,"name":"Sipsu","steam_id":76561198059424107,"connected_time":6099000000000,"state":"active","ping":88},{"user_id":610,"name":"Célério","steam_id":76561198088253576,"connected_time":1331000000000,"state":"active","ping":45},{"user_id":615,"name":"Dark ^^","steam_id":76561198036241064,"connected_time":576000000000,"state":"active","ping":71},{"user_id":573,"name":"sylas is broken","steam_id":76561198965913840,"connected_time":3789000000000,"state":"active","ping":45}]},{"server_id":321,"name":"Uncletopia | London | 4 | All Maps","name_short":"lon-4","host":"lon-1.uk.uncletopia.com","port":27045,"enabled":true,"region":"eu","cc":"gb","latitude":51.509865,"longitude":-0.118092,"reserved":0,"last_update":"0001-01-01T00:00:00Z","name_a2s":"Uncletopia | London | 4 | All Maps","protocol":17,"map":"cp_gorge","folder":"tf","game":"Team Fortress","app_id":440,"player_count":24,"max_players":24,"Bots":0,"server_type":"Dedicated","server_os":"Linux","password":true,"vac":true,"version":"7742253","steam_id":85568392924510193,"keywords":["cp","nocrits","nodmgspread","uncletopia"],"game_id":440,"stv_port":27046,"stv_name":"Uncletopia | London | 4 | All Maps | STV","players":[{"user_id":164,"name":"CarBombEnthusiast","steam_id":76561199448185434,"connected_time":1460000000000,"state":"active","ping":61},{"user_id":148,"name":"LemonLeCitron","steam_id":76561198215545267,"connected_time":3038000000000,"state":"active","ping":59},{"user_id":196,"name":"Haggabah,WhoPliesTheUmbralPath","steam_id":76561198846984399,"connected_time":145000000000,"state":"active","ping":82},{"user_id":193,"name":"Bones","steam_id":76561198065081225,"connected_time":179000000000,"state":"active","ping":41},{"user_id":182,"name":"Waffles","steam_id":76561199086942763,"connected_time":1026000000000,"state":"active","ping":90},{"user_id":163,"name":"Soerlssoelssöen","steam_id":76561197993060585,"connected_time":1545000000000,"state":"active","ping":77},{"user_id":194,"name":"LarsInABox","steam_id":76561198028329262,"connected_time":169000000000,"state":"active","ping":67},{"user_id":185,"name":"frutta","steam_id":76561198131786352,"connected_time":777000000000,"state":"active","ping":84},{"user_id":202,"name":"Are you kidding me","steam_id":76561198276309506,"connected_time":35000000000,"state":"active","ping":217},{"user_id":197,"name":"Traxar","steam_id":76561198060469945,"connected_time":110000000000,"state":"active","ping":77},{"user_id":198,"name":"SukiSushi","steam_id":76561198301481739,"connected_time":108000000000,"state":"active","ping":54},{"user_id":146,"name":"donal rump","steam_id":76561198136239861,"connected_time":3584000000000,"state":"active","ping":37},{"user_id":199,"name":"Billy Öhman","steam_id":76561198892922993,"connected_time":107000000000,"state":"active","ping":86},{"user_id":158,"name":"Nikola","steam_id":76561197993300020,"connected_time":2069000000000,"state":"active","ping":74},{"user_id":59,"name":"Femboy Gaming","steam_id":76561198174108515,"connected_time":9403000000000,"state":"active","ping":59},{"user_id":200,"name":"Purplish","steam_id":76561198006393993,"connected_time":99000000000,"state":"active","ping":42},{"user_id":190,"name":"A Succulent Chinese Meal","steam_id":76561198069472440,"connected_time":252000000000,"state":"active","ping":85},{"user_id":183,"name":"Buff Anteater","steam_id":76561198040182692,"connected_time":1016000000000,"state":"active","ping":35},{"user_id":175,"name":"Wlkr","steam_id":76561197990117572,"connected_time":1244000000000,"state":"active","ping":46},{"user_id":201,"name":"3igen3ggy","steam_id":76561197989548015,"connected_time":98000000000,"state":"active","ping":72},{"user_id":176,"name":"ＴrendyＬemon","steam_id":76561198158957324,"connected_time":1238000000000,"state":"active","ping":55},{"user_id":187,"name":"Bilbo Ballbaggins","steam_id":76561198070593514,"connected_time":506000000000,"state":"active","ping":59},{"user_id":178,"name":"Memnyatta","steam_id":76561198805980996,"connected_time":1210000000000,"state":"active","ping":119},{"user_id":191,"name":"CrazicalCX","steam_id":76561199184138900,"connected_time":236000000000,"state":"active","ping":45}]},{"server_id":21,"name":"Uncletopia | London | 5 | All Maps","name_short":"lon-5","host":"lon-1.uk.uncletopia.com","port":27055,"enabled":true,"region":"eu","cc":"gb","latitude":51.509865,"longitude":-0.118092,"reserved":0,"last_update":"0001-01-01T00:00:00Z","name_a2s":"Uncletopia | London | 5 | All Maps","protocol":17,"map":"pl_badwater","folder":"tf","game":"Team Fortress","app_id":440,"player_count":23,"max_players":24,"Bots":0,"server_type":"Dedicated","server_os":"Linux","password":true,"vac":true,"version":"7742253","steam_id":85568392924742829,"keywords":["nocrits","nodmgspread","payload","uncletopia"],"game_id":440,"stv_port":27056,"stv_name":"Uncletopia | London | 5 | All Maps | STV","players":[{"user_id":531,"name":"тукку ирма","steam_id":76561197998715016,"connected_time":549000000000,"state":"active","ping":62},{"user_id":507,"name":"Dummy","steam_id":76561198349741126,"connected_time":2350000000000,"state":"active","ping":55},{"user_id":508,"name":"Insomnael","steam_id":76561198010791637,"connected_time":2297000000000,"state":"active","ping":60},{"user_id":489,"name":"JustACoomer","steam_id":76561198151433181,"connected_time":3975000000000,"state":"active","ping":53},{"user_id":499,"name":"SynthBox3","steam_id":76561199094075745,"connected_time":2706000000000,"state":"active","ping":99},{"user_id":518,"name":"adolf rizzler","steam_id":76561198015876799,"connected_time":1841000000000,"state":"active","ping":73},{"user_id":498,"name":"vanderflight","steam_id":76561198236326550,"connected_time":2746000000000,"state":"active","ping":52},{"user_id":514,"name":"Spyoru","steam_id":76561199422949621,"connected_time":2038000000000,"state":"active","ping":73},{"user_id":534,"name":"Pabs :D","steam_id":76561198000016962,"connected_time":437000000000,"state":"active","ping":60},{"user_id":502,"name":"murderwow","steam_id":76561198024566944,"connected_time":2585000000000,"state":"active","ping":104},{"user_id":539,"name":"frosty","steam_id":76561198094560834,"connected_time":93000000000,"state":"connecting","ping":59},{"user_id":492,"name":"kid named finger","steam_id":76561198364466446,"connected_time":3557000000000,"state":"active","ping":74},{"user_id":540,"name":"666sammy","steam_id":76561198016607625,"connected_time":93000000000,"state":"active","ping":81},{"user_id":417,"name":"0xDEADBEEF","steam_id":76561199075416111,"connected_time":8030000000000,"state":"active","ping":75},{"user_id":418,"name":":)","steam_id":76561198039964082,"connected_time":8003000000000,"state":"active","ping":67},{"user_id":541,"name":"kenzen","steam_id":76561198188380263,"connected_time":65000000000,"state":"active","ping":147},{"user_id":503,"name":"Degrootgroot","steam_id":76561198838985476,"connected_time":2580000000000,"state":"active","ping":59},{"user_id":542,"name":"Barry","steam_id":76561198351154533,"connected_time":63000000000,"state":"active","ping":53},{"user_id":543,"name":"Weeb exterminator","steam_id":76561198078964973,"connected_time":43000000000,"state":"active","ping":70},{"user_id":523,"name":"rulla runt","steam_id":76561198010662796,"connected_time":1672000000000,"state":"active","ping":44},{"user_id":490,"name":"♣Бредовый Месяц","steam_id":76561198796404149,"connected_time":3786000000000,"state":"active","ping":108},{"user_id":525,"name":"Gin-Gi","steam_id":76561198108332859,"connected_time":1308000000000,"state":"active","ping":55},{"user_id":511,"name":"Guy","steam_id":76561199032279809,"connected_time":2163000000000,"state":"active","ping":91}]},{"server_id":22,"name":"Uncletopia | London | 6 | All Maps","name_short":"lon-6","host":"lon-1.uk.uncletopia.com","port":27065,"enabled":true,"region":"eu","cc":"gb","latitude":51.509865,"longitude":-0.118092,"reserved":0,"last_update":"0001-01-01T00:00:00Z","name_a2s":"Uncletopia | London | 6 | All Maps","protocol":17,"map":"koth_cascade","folder":"tf","game":"Team Fortress","app_id":440,"player_count":3,"max_players":24,"Bots":0,"server_type":"Dedicated","server_os":"Linux","password":true,"vac":true,"version":"7742253","steam_id":85568392924742830,"keywords":["cp","nocrits","nodmgspread","uncletopia"],"game_id":440,"stv_port":27066,"stv_name":"Uncletopia | London | 6 | All Maps | STV","players":[{"user_id":154,"name":"Jack.Orlando","steam_id":76561198802400236,"connected_time":3574000000000,"state":"active","ping":66},{"user_id":147,"name":"Mandele","steam_id":76561199183213205,"connected_time":4565000000000,"state":"active","ping":65},{"user_id":164,"name":"The Mind Goblin But Festive","steam_id":76561199258468520,"connected_time":1064000000000,"state":"active","ping":58}]},{"server_id":40,"name":"Uncletopia | London | 7 | No Payload","name_short":"lon-7","host":"lon-1.uk.uncletopia.com","port":27075,"enabled":true,"region":"eu","cc":"gb","latitude":51.509865,"longitude":-0.118092,"reserved":0,"last_update":"0001-01-01T00:00:00Z","name_a2s":"Uncletopia | London | 7 | No Payload","protocol":17,"map":"cp_coldfront","folder":"tf","game":"Team Fortress","app_id":440,"player_count":24,"max_players":24,"Bots":0,"server_type":"Dedicated","server_os":"Linux","password":true,"vac":true,"version":"7742253","steam_id":85568392924964314,"keywords":["cp","nocrits","nodmgspread","uncletopia"],"game_id":440,"stv_port":27076,"stv_name":"Uncletopia | London | 7 | No Payload | STV","players":[{"user_id":201,"name":"EZPK","steam_id":76561197987474355,"connected_time":1579000000000,"state":"active","ping":63},{"user_id":197,"name":"puddy","steam_id":76561198042047036,"connected_time":1683000000000,"state":"active","ping":61},{"user_id":189,"name":"Utilizator","steam_id":76561198039071599,"connected_time":2145000000000,"state":"active","ping":102},{"user_id":174,"name":"Jeans Plus","steam_id":76561198052125103,"connected_time":2747000000000,"state":"active","ping":56},{"user_id":219,"name":"P-47 Thunderbolt","steam_id":76561198153197815,"connected_time":286000000000,"state":"active","ping":56},{"user_id":220,"name":"Neeᵛʳ","steam_id":76561198053824250,"connected_time":182000000000,"state":"active","ping":77},{"user_id":206,"name":"M@T!X マティ","steam_id":76561198273121669,"connected_time":1318000000000,"state":"active","ping":90},{"user_id":177,"name":"Average_Reddit_User #SaveTF2","steam_id":76561199081401924,"connected_time":2567000000000,"state":"active","ping":110},{"user_id":200,"name":"\u003c#C093FF\u003e ☆lunaraxolotl☆","steam_id":76561199117064329,"connected_time":1618000000000,"state":"active","ping":57},{"user_id":175,"name":"lisivi","steam_id":76561198365503306,"connected_time":2702000000000,"state":"active","ping":58},{"user_id":221,"name":"THEwolfiex","steam_id":76561199045247965,"connected_time":158000000000,"state":"active","ping":93},{"user_id":222,"name":"mesoni","steam_id":76561199141290973,"connected_time":124000000000,"state":"active","ping":86},{"user_id":214,"name":"Luka","steam_id":76561198092521203,"connected_time":698000000000,"state":"active","ping":59},{"user_id":208,"name":"GHO5T","steam_id":76561198930223980,"connected_time":1158000000000,"state":"active","ping":66},{"user_id":142,"name":"stud muffin","steam_id":76561198100415364,"connected_time":5144000000000,"state":"active","ping":63},{"user_id":213,"name":"snurm","steam_id":76561198095014762,"connected_time":729000000000,"state":"active","ping":55},{"user_id":216,"name":"Long Live King Chuck III","steam_id":76561198067092963,"connected_time":609000000000,"state":"active","ping":63},{"user_id":193,"name":"average f2p","steam_id":76561199136308055,"connected_time":1797000000000,"state":"active","ping":48},{"user_id":151,"name":"Lintch","steam_id":76561198075974871,"connected_time":4234000000000,"state":"active","ping":86},{"user_id":194,"name":"splarvis","steam_id":76561198007792525,"connected_time":1764000000000,"state":"active","ping":41},{"user_id":224,"name":"Romultra","steam_id":76561198354105082,"connected_time":40000000000,"state":"active","ping":50},{"user_id":225,"name":"guiguicopters","steam_id":76561199033875117,"connected_time":30000000000,"state":"active","ping":53},{"user_id":205,"name":"Jimortal","steam_id":76561198342426856,"connected_time":1469000000000,"state":"active","ping":54},{"user_id":196,"name":"Sowi","steam_id":76561198075983618,"connected_time":1720000000000,"state":"active","ping":60}]},{"server_id":41,"name":"Uncletopia | London | 8 | Community","name_short":"lon-8","host":"lon-1.uk.uncletopia.com","port":27085,"enabled":true,"region":"eu","cc":"gb","latitude":51.509865,"longitude":-0.118092,"reserved":0,"last_update":"0001-01-01T00:00:00Z","name_a2s":"Uncletopia | London | 8 | Community","protocol":17,"map":"workshop/koth_ramjam_rc1.ugc459778887","folder":"tf","game":"Team Fortress","app_id":440,"player_count":0,"max_players":24,"Bots":0,"server_type":"Dedicated","server_os":"Linux","password":true,"vac":true,"version":"7742253","steam_id":85568392924964315,"keywords":["cp","nocrits","nodmgspread","uncletopia"],"game_id":440,"stv_port":27086,"stv_name":"Uncletopia | London | 8 | Community | STV","players":null},{"server_id":300,"name":"Uncletopia | Montréal | 1 | All Maps","name_short":"mtl-1","host":"mtl-1.ca.uncletopia.com","port":27015,"enabled":true,"region":"us-east","cc":"ca","latitude":45.50889,"longitude":-73.56167,"reserved":0,"last_update":"0001-01-01T00:00:00Z","name_a2s":"Uncletopia | Montréal | 1 | All Maps","protocol":17,"map":"pl_frontier_final","folder":"tf","game":"Team Fortress","app_id":440,"player_count":0,"max_players":24,"Bots":0,"server_type":"Dedicated","server_os":"Linux","password":true,"vac":true,"version":"7742253","steam_id":85568392924500087,"keywords":["nocrits","nodmgspread","payload","uncletopia"],"game_id":440,"stv_port":27016,"stv_name":"Uncletopia | Montréal | 1 | All Maps | STV","players":null},{"server_id":301,"name":"Uncletopia | Montréal | 2 | All Maps","name_short":"mtl-2","host":"mtl-1.ca.uncletopia.com","port":27025,"enabled":true,"region":"us-east","cc":"ca","latitude":45.50889,"longitude":-73.56167,"reserved":0,"last_update":"0001-01-01T00:00:00Z","name_a2s":"Uncletopia | Montréal | 2 | All Maps","protocol":17,"map":"koth_highpass","folder":"tf","game":"Team Fortress","app_id":440,"player_count":0,"max_players":24,"Bots":0,"server_type":"Dedicated","server_os":"Linux","password":true,"vac":true,"version":"7742253","steam_id":85568392924500088,"keywords":["cp","nocrits","nodmgspread","uncletopia"],"game_id":440,"stv_port":27026,"stv_name":"Uncletopia | Montréal | 2 | All Maps | STV","players":null},{"server_id":302,"name":"Uncletopia | Montréal | 3 | All Maps","name_short":"mtl-3","host":"mtl-1.ca.uncletopia.com","port":27035,"enabled":true,"region":"us-east","cc":"ca","latitude":45.50889,"longitude":-73.56167,"reserved":0,"last_update":"0001-01-01T00:00:00Z","name_a2s":"Uncletopia | Montréal | 3 | All Maps","protocol":17,"map":"koth_viaduct","folder":"tf","game":"Team Fortress","app_id":440,"player_count":0,"max_players":24,"Bots":0,"server_type":"Dedicated","server_os":"Linux","password":true,"vac":true,"version":"7742253","steam_id":85568392924500089,"keywords":["cp","nocrits","nodmgspread","uncletopia"],"game_id":440,"stv_port":27036,"stv_name":"Uncletopia | Montréal | 3 | All Maps | STV","players":null},{"server_id":303,"name":"Uncletopia | Montréal | 4 | No Payload","name_short":"mtl-4","host":"mtl-1.ca.uncletopia.com","port":27045,"enabled":true,"region":"us-east","cc":"ca","latitude":45.50889,"longitude":-73.56167,"reserved":0,"last_update":"0001-01-01T00:00:00Z","name_a2s":"Uncletopia | Montréal | 4 | No Payload","protocol":17,"map":"plr_pipeline","folder":"tf","game":"Team Fortress","app_id":440,"player_count":0,"max_players":24,"Bots":0,"server_type":"Dedicated","server_os":"Linux","password":true,"vac":true,"version":"7742253","steam_id":85568392924500090,"keywords":["nocrits","nodmgspread","payload","uncletopia"],"game_id":440,"stv_port":27046,"stv_name":"Uncletopia | Montréal | 4 | No Payload | STV","players":null},{"server_id":13,"name":"Uncletopia | New York City | 1 | All Maps","name_short":"nyc-1","host":"nyc-1.us.uncletopia.com","port":27015,"enabled":true,"region":"us-east","cc":"us","latitude":40.73061,"longitude":-73.93524,"reserved":0,"last_update":"0001-01-01T00:00:00Z","name_a2s":"Uncletopia | New York City | 1 | All Maps","protocol":17,"map":"pl_goldrush","folder":"tf","game":"Team Fortress","app_id":440,"player_count":24,"max_players":24,"Bots":0,"server_type":"Dedicated","server_os":"Linux","password":true,"vac":true,"version":"7742253","steam_id":85568392924469993,"keywords":["nocrits","nodmgspread","payload","uncletopia"],"game_id":440,"stv_port":27016,"stv_name":"Uncletopia | New York City | 1 | All Maps | STV","players":[{"user_id":76,"name":"Gaming123","steam_id":76561198801780168,"connected_time":1012000000000,"state":"active","ping":47},{"user_id":59,"name":"Sieglinde","steam_id":76561199195104977,"connected_time":1482000000000,"state":"active","ping":62},{"user_id":88,"name":"I hate the irish","steam_id":76561199363710239,"connected_time":66000000000,"state":"active","ping":76},{"user_id":61,"name":"Lemon Luke","steam_id":76561199141696546,"connected_time":1438000000000,"state":"active","ping":161},{"user_id":19,"name":"Guacodile","steam_id":76561198153626419,"connected_time":3309000000000,"state":"active","ping":70},{"user_id":53,"name":"gritty_2024","steam_id":76561198165567310,"connected_time":2133000000000,"state":"active","ping":51},{"user_id":90,"name":"EJAY FRESCO‼ [XJAY]","steam_id":76561198283669604,"connected_time":15000000000,"state":"spawning","ping":60},{"user_id":91,"name":"zid427","steam_id":76561198010004771,"connected_time":6000000000,"state":"spawning","ping":54},{"user_id":55,"name":"WellThatCase","steam_id":76561198930966223,"connected_time":1615000000000,"state":"active","ping":86},{"user_id":26,"name":"MaxTheRetroGuy","steam_id":76561198845344731,"connected_time":3200000000000,"state":"active","ping":56},{"user_id":67,"name":"catrinaisahuman","steam_id":76561198281355729,"connected_time":1362000000000,"state":"active","ping":81},{"user_id":40,"name":"beanslinger","steam_id":76561198204218023,"connected_time":2756000000000,"state":"active","ping":65},{"user_id":30,"name":"Gaminator","steam_id":76561198358775376,"connected_time":3082000000000,"state":"active","ping":66},{"user_id":63,"name":"Cerebral Malfunction","steam_id":76561198885651598,"connected_time":1426000000000,"state":"active","ping":69},{"user_id":60,"name":"Dr. Shrimp Puerto Rico","steam_id":76561198840246279,"connected_time":1481000000000,"state":"active","ping":62},{"user_id":73,"name":"KaiaDoggy","steam_id":76561197997096301,"connected_time":1119000000000,"state":"active","ping":86},{"user_id":89,"name":"schizophrenic doctor","steam_id":76561198041348890,"connected_time":33000000000,"state":"active","ping":67},{"user_id":64,"name":"Honeybunch","steam_id":76561198014850580,"connected_time":1416000000000,"state":"active","ping":100},{"user_id":92,"name":"StonedGiant","steam_id":76561197984386932,"connected_time":5000000000,"state":"spawning","ping":95},{"user_id":87,"name":"Snake Handler","steam_id":76561198027198306,"connected_time":241000000000,"state":"active","ping":73},{"user_id":78,"name":"Ninja_Raiden","steam_id":76561198071851680,"connected_time":961000000000,"state":"active","ping":57},{"user_id":70,"name":"mvmnooob","steam_id":76561198041880486,"connected_time":1288000000000,"state":"active","ping":63},{"user_id":80,"name":"KORF","steam_id":76561197981904410,"connected_time":769000000000,"state":"active","ping":81},{"user_id":83,"name":"kylestyle13","steam_id":76561198979490241,"connected_time":500000000000,"state":"active","ping":48}]},{"server_id":14,"name":"Uncletopia | New York City | 2 | All Maps","name_short":"nyc-2","host":"nyc-1.us.uncletopia.com","port":27025,"enabled":true,"region":"us-east","cc":"us","latitude":40.73061,"longitude":-73.93524,"reserved":0,"last_update":"0001-01-01T00:00:00Z","name_a2s":"Uncletopia | New York City | 2 | All Maps","protocol":17,"map":"koth_lakeside_final","folder":"tf","game":"Team Fortress","app_id":440,"player_count":22,"max_players":24,"Bots":0,"server_type":"Dedicated","server_os":"Linux","password":true,"vac":true,"version":"7742253","steam_id":85568392924469994,"keywords":["cp","nocrits","nodmgspread","uncletopia"],"game_id":440,"stv_port":27026,"stv_name":"Uncletopia | New York City | 2 | All Maps | STV","players":[{"user_id":191,"name":"Amogus The Sussy Baka ඞ","steam_id":76561198008577961,"connected_time":4290000000000,"state":"active","ping":60},{"user_id":260,"name":"Matt","steam_id":76561198008108521,"connected_time":319000000000,"state":"active","ping":70},{"user_id":255,"name":"-W3E- grim10465","steam_id":76561198045698581,"connected_time":390000000000,"state":"active","ping":30},{"user_id":273,"name":"Reniculous","steam_id":76561199214769940,"connected_time":9000000000,"state":"spawning","ping":59},{"user_id":205,"name":"vyx","steam_id":76561198037205391,"connected_time":3235000000000,"state":"active","ping":69},{"user_id":274,"name":"bashingbeans","steam_id":76561198296107421,"connected_time":7000000000,"state":"spawning","ping":157},{"user_id":261,"name":"Zek","steam_id":76561198014574925,"connected_time":314000000000,"state":"active","ping":60},{"user_id":270,"name":"5-speed manual transition","steam_id":76561198420079002,"connected_time":95000000000,"state":"active","ping":78},{"user_id":235,"name":"Dick Peniston","steam_id":76561199006864414,"connected_time":1261000000000,"state":"active","ping":51},{"user_id":254,"name":"siv","steam_id":76561198322898267,"connected_time":405000000000,"state":"active","ping":74},{"user_id":200,"name":"chiarraz","steam_id":76561198277439571,"connected_time":3630000000000,"state":"active","ping":72},{"user_id":271,"name":"get me out of detroit","steam_id":76561198961456618,"connected_time":90000000000,"state":"active","ping":47},{"user_id":248,"name":"tranquil","steam_id":76561198319990195,"connected_time":515000000000,"state":"active","ping":75},{"user_id":249,"name":"static","steam_id":76561199093261935,"connected_time":469000000000,"state":"active","ping":57},{"user_id":250,"name":"azzy","steam_id":76561198825918211,"connected_time":465000000000,"state":"active","ping":161},{"user_id":246,"name":"poto","steam_id":76561199122061900,"connected_time":654000000000,"state":"active","ping":64},{"user_id":241,"name":"Like, a million ants","steam_id":76561198189500017,"connected_time":1146000000000,"state":"active","ping":53},{"user_id":170,"name":"Elias","steam_id":76561198106431732,"connected_time":6077000000000,"state":"active","ping":72},{"user_id":269,"name":"we gotta find kony","steam_id":76561198044034546,"connected_time":134000000000,"state":"active","ping":48},{"user_id":245,"name":"Johnny Rabbit","steam_id":76561198038742215,"connected_time":731000000000,"state":"active","ping":171},{"user_id":209,"name":"Little Leo","steam_id":76561198018280180,"connected_time":2624000000000,"state":"active","ping":64},{"user_id":272,"name":"Mike Ehrmantraut","steam_id":76561198082446459,"connected_time":89000000000,"state":"active","ping":56}]},{"server_id":15,"name":"Uncletopia | New York City | 3 | Stopwatch Beta","name_short":"nyc-3","host":"nyc-1.us.uncletopia.com","port":27035,"enabled":true,"region":"us-east","cc":"us","latitude":40.73061,"longitude":-73.93524,"reserved":0,"last_update":"0001-01-01T00:00:00Z","name_a2s":"Uncletopia | New York City | 3 | Stopwatch Beta","protocol":17,"map":"koth_lakeside_final","folder":"tf","game":"Team Fortress","app_id":440,"player_count":0,"max_players":24,"Bots":0,"server_type":"Dedicated","server_os":"Linux","password":true,"vac":true,"version":"7742253","steam_id":85568392924742820,"keywords":["cp","nocrits","nodmgspread","uncletopia"],"game_id":440,"stv_port":27036,"stv_name":"Uncletopia | New York City | 3 | Stopwatch Beta | STV","players":null},{"server_id":16,"name":"Uncletopia | New York City | 4 | Community","name_short":"nyc-4","host":"nyc-1.us.uncletopia.com","port":27045,"enabled":true,"region":"us-east","cc":"us","latitude":40.73061,"longitude":-73.93524,"reserved":0,"last_update":"0001-01-01T00:00:00Z","name_a2s":"Uncletopia | New York City | 4 | Community","protocol":17,"map":"workshop/koth_slaughter_rc1.ugc1712845210","folder":"tf","game":"Team Fortress","app_id":440,"player_count":0,"max_players":24,"Bots":0,"server_type":"Dedicated","server_os":"Linux","password":true,"vac":true,"version":"7742253","steam_id":85568392924742821,"keywords":["cp","nocrits","nodmgspread","uncletopia"],"game_id":440,"stv_port":27046,"stv_name":"Uncletopia | New York City | 4 | Community | STV","players":null},{"server_id":142,"name":"Uncletopia | São Paulo | 1 | All Maps","name_short":"sao-1","host":"sao-1.br.uncletopia.com","port":27015,"enabled":true,"region":"sa","cc":"br","latitude":-23.533773,"longitude":-46.62529,"reserved":0,"last_update":"0001-01-01T00:00:00Z","name_a2s":"Uncletopia | São Paulo | 1 | All Maps","protocol":17,"map":"koth_viaduct","folder":"tf","game":"Team Fortress","app_id":440,"player_count":0,"max_players":24,"Bots":0,"server_type":"Dedicated","server_os":"Linux","password":true,"vac":true,"version":"7742253","steam_id":85568392924469996,"keywords":["cp","nocrits","nodmgspread","uncletopia"],"game_id":440,"stv_port":27016,"stv_name":"Uncletopia | São Paulo | 1 | All Maps | STV","players":null},{"server_id":143,"name":"Uncletopia | São Paulo | 2 | All Maps","name_short":"sao-2","host":"sao-2.br.uncletopia.com","port":27015,"enabled":true,"region":"sa","cc":"br","latitude":-23.533773,"longitude":-46.62529,"reserved":0,"last_update":"0001-01-01T00:00:00Z","name_a2s":"Uncletopia | São Paulo | 2 | All Maps","protocol":17,"map":"koth_viaduct","folder":"tf","game":"Team Fortress","app_id":440,"player_count":0,"max_players":24,"Bots":0,"server_type":"Dedicated","server_os":"Linux","password":true,"vac":true,"version":"7742253","steam_id":85568392924485349,"keywords":["cp","nocrits","nodmgspread","uncletopia"],"game_id":440,"stv_port":27016,"stv_name":"Uncletopia | São Paulo | 2 | All Maps | STV","players":null},{"server_id":7,"name":"Uncletopia | Seattle | 1 | All Maps","name_short":"sea-1","host":"sea-1.us.uncletopia.com","port":27015,"enabled":true,"region":"us-west","cc":"us","latitude":47.608013,"longitude":-122.33517,"reserved":0,"last_update":"0001-01-01T00:00:00Z","name_a2s":"Uncletopia | Seattle | 1 | All Maps","protocol":17,"map":"pl_upward","folder":"tf","game":"Team Fortress","app_id":440,"player_count":8,"max_players":24,"Bots":0,"server_type":"Dedicated","server_os":"Linux","password":true,"vac":true,"version":"7742253","steam_id":85568392924469997,"keywords":["nocrits","nodmgspread","payload","uncletopia"],"game_id":440,"stv_port":27016,"stv_name":"Uncletopia | Seattle | 1 | All Maps | STV","players":[{"user_id":10,"name":"alice's adventures in pyroland","steam_id":76561198325306660,"connected_time":614000000000,"state":"active","ping":52},{"user_id":11,"name":"Coffeemelon","steam_id":76561198285891257,"connected_time":543000000000,"state":"active","ping":75},{"user_id":12,"name":"Zenire","steam_id":76561199087298510,"connected_time":530000000000,"state":"active","ping":52},{"user_id":13,"name":"Liquid Gold","steam_id":76561198347510093,"connected_time":524000000000,"state":"active","ping":48},{"user_id":14,"name":"Kzjytsugn","steam_id":76561198130241974,"connected_time":410000000000,"state":"active","ping":38},{"user_id":15,"name":"joe","steam_id":76561198882758067,"connected_time":370000000000,"state":"active","ping":106},{"user_id":20,"name":"keffers","steam_id":76561198202338796,"connected_time":55000000000,"state":"active","ping":97},{"user_id":17,"name":"hoboholden","steam_id":76561198799370303,"connected_time":275000000000,"state":"active","ping":78}]},{"server_id":119,"name":"Uncletopia | Seattle | 2 | All Maps","name_short":"sea-2","host":"sea-1.us.uncletopia.com","port":27025,"enabled":true,"region":"us-west","cc":"us","latitude":47.608013,"longitude":-122.33517,"reserved":0,"last_update":"0001-01-01T00:00:00Z","name_a2s":"Uncletopia | Seattle | 2 | All Maps","protocol":17,"map":"pl_snowycoast","folder":"tf","game":"Team Fortress","app_id":440,"player_count":0,"max_players":24,"Bots":0,"server_type":"Dedicated","server_os":"Linux","password":true,"vac":true,"version":"7742253","steam_id":85568392924469998,"keywords":["nocrits","nodmgspread","payload","uncletopia"],"game_id":440,"stv_port":27026,"stv_name":"Uncletopia | Seattle | 2 | All Maps | STV","players":null},{"server_id":406,"name":"Uncletopia | Seattle | 3 | Stopwatch Beta","name_short":"sea-3","host":"sea-1.us.uncletopia.com","port":27035,"enabled":true,"region":"us-west","cc":"us","latitude":47.608013,"longitude":-122.33517,"reserved":0,"last_update":"0001-01-01T00:00:00Z","name_a2s":"Uncletopia | Seattle | 3 | Stopwatch Beta","protocol":17,"map":"cp_altitude","folder":"tf","game":"Team Fortress","app_id":440,"player_count":0,"max_players":24,"Bots":0,"server_type":"Dedicated","server_os":"Linux","password":true,"vac":true,"version":"7742253","steam_id":85568392924515217,"keywords":["cp","nocrits","nodmgspread","uncletopia"],"game_id":440,"stv_port":27036,"stv_name":"Uncletopia | Seattle | 3 | Stopwatch Beta | STV","players":null},{"server_id":17,"name":"Uncletopia | San Francisco | 1 | All Maps","name_short":"sfo-1","host":"sfo-1.us.uncletopia.com","port":27015,"enabled":true,"region":"us-west","cc":"us","latitude":37.77397,"longitude":-122.4313,"reserved":0,"last_update":"0001-01-01T00:00:00Z","name_a2s":"Uncletopia | San Francisco | 1 | All Maps","protocol":17,"map":"pl_snowycoast","folder":"tf","game":"Team Fortress","app_id":440,"player_count":0,"max_players":24,"Bots":0,"server_type":"Dedicated","server_os":"Linux","password":true,"vac":true,"version":"7742253","steam_id":85568392924469999,"keywords":["nocrits","nodmgspread","payload","uncletopia"],"game_id":440,"stv_port":27016,"stv_name":"Uncletopia | San Francisco | 1 | All Maps | STV","players":null},{"server_id":18,"name":"Uncletopia | San Francisco | 2 | All Maps","name_short":"sfo-2","host":"sfo-1.us.uncletopia.com","port":27025,"enabled":true,"region":"us-west","cc":"us","latitude":37.77397,"longitude":-122.4313,"reserved":0,"last_update":"0001-01-01T00:00:00Z","name_a2s":"Uncletopia | San Francisco | 2 | All Maps","protocol":17,"map":"cp_altitude","folder":"tf","game":"Team Fortress","app_id":440,"player_count":0,"max_players":24,"Bots":0,"server_type":"Dedicated","server_os":"Linux","password":true,"vac":true,"version":"7742253","steam_id":85568392924470000,"keywords":["cp","nocrits","nodmgspread","uncletopia"],"game_id":440,"stv_port":27026,"stv_name":"Uncletopia | San Francisco | 2 | All Maps | STV","players":null},{"server_id":19,"name":"Uncletopia | San Francisco | 3 | Stopwatch Beta","name_short":"sfo-3","host":"sfo-1.us.uncletopia.com","port":27035,"enabled":true,"region":"us-west","cc":"us","latitude":37.77397,"longitude":-122.4313,"reserved":0,"last_update":"0001-01-01T00:00:00Z","name_a2s":"Uncletopia | San Francisco | 3 | Stopwatch Beta","protocol":17,"map":"pl_swiftwater_final1","folder":"tf","game":"Team Fortress","app_id":440,"player_count":0,"max_players":24,"Bots":0,"server_type":"Dedicated","server_os":"Linux","password":true,"vac":true,"version":"7742253","steam_id":85568392924742824,"keywords":["nocrits","nodmgspread","payload","uncletopia"],"game_id":440,"stv_port":27036,"stv_name":"Uncletopia | San Francisco | 3 | Stopwatch Beta | STV","players":null},{"server_id":20,"name":"Uncletopia | San Francisco | 4 | Community","name_short":"sfo-4","host":"sfo-1.us.uncletopia.com","port":27045,"enabled":true,"region":"us-west","cc":"us","latitude":37.77397,"longitude":-122.4313,"reserved":0,"last_update":"0001-01-01T00:00:00Z","name_a2s":"Uncletopia | San Francisco | 4 | Community","protocol":17,"map":"workshop/pl_fifthcurve_rc1.ugc648227046","folder":"tf","game":"Team Fortress","app_id":440,"player_count":0,"max_players":24,"Bots":0,"server_type":"Dedicated","server_os":"Linux","password":true,"vac":true,"version":"7742253","steam_id":85568392924742826,"keywords":["nocrits","nodmgspread","payload","uncletopia"],"game_id":440,"stv_port":27046,"stv_name":"Uncletopia | San Francisco | 4 | Community | STV","players":null},{"server_id":141,"name":"Uncletopia | Sydney | 1 | All Maps","name_short":"syd-1","host":"syd-1.au.uncletopia.com","port":27015,"enabled":true,"region":"au","cc":"au","latitude":-33.865143,"longitude":151.2099,"reserved":0,"last_update":"0001-01-01T00:00:00Z","name_a2s":"Uncletopia | Sydney | 1 | All Maps","protocol":17,"map":"pl_barnblitz","folder":"tf","game":"Team Fortress","app_id":440,"player_count":0,"max_players":24,"Bots":0,"server_type":"Dedicated","server_os":"Linux","password":true,"vac":true,"version":"7742253","steam_id":85568392924470001,"keywords":["nocrits","nodmgspread","payload","uncletopia"],"game_id":440,"stv_port":27016,"stv_name":"Uncletopia | Sydney | 1 | All Maps | STV","players":null},{"server_id":123,"name":"Uncletopia | Sydney | 2 | All Maps","name_short":"syd-2","host":"syd-1.au.uncletopia.com","port":27025,"enabled":true,"region":"au","cc":"au","latitude":-33.865143,"longitude":151.2099,"reserved":0,"last_update":"0001-01-01T00:00:00Z","name_a2s":"Uncletopia | Sydney | 2 | All Maps","protocol":17,"map":"koth_viaduct","folder":"tf","game":"Team Fortress","app_id":440,"player_count":0,"max_players":24,"Bots":0,"server_type":"Dedicated","server_os":"Linux","password":true,"vac":true,"version":"7742253","steam_id":85568392924470002,"keywords":["cp","nocrits","nodmgspread","uncletopia"],"game_id":440,"stv_port":27026,"stv_name":"Uncletopia | Sydney | 2 | All Maps | STV","players":null},{"server_id":395,"name":"Uncletopia | Sydney | 3 | All Maps","name_short":"syd-3","host":"syd-1.au.uncletopia.com","port":27035,"enabled":true,"region":"au","cc":"au","latitude":-33.865143,"longitude":151.2099,"reserved":0,"last_update":"0001-01-01T00:00:00Z","name_a2s":"Uncletopia | Sydney | 3 | All Maps","protocol":17,"map":"pl_badwater","folder":"tf","game":"Team Fortress","app_id":440,"player_count":0,"max_players":24,"Bots":0,"server_type":"Dedicated","server_os":"Linux","password":true,"vac":true,"version":"7742253","steam_id":85568392925194467,"keywords":["nocrits","nodmgspread","payload","uncletopia"],"game_id":440,"stv_port":27036,"stv_name":"Uncletopia | Sydney | 3 | All Maps | STV","players":null},{"server_id":396,"name":"Uncletopia | Sydney | 4 | All Maps","name_short":"syd-4","host":"syd-1.au.uncletopia.com","port":27045,"enabled":true,"region":"au","cc":"au","latitude":-33.865143,"longitude":151.2099,"reserved":0,"last_update":"0001-01-01T00:00:00Z","name_a2s":"Uncletopia | Sydney | 4 | All Maps","protocol":17,"map":"koth_lakeside_final","folder":"tf","game":"Team Fortress","app_id":440,"player_count":0,"max_players":24,"Bots":0,"server_type":"Dedicated","server_os":"Linux","password":true,"vac":true,"version":"7742253","steam_id":85568392925397958,"keywords":["cp","nocrits","nodmgspread","uncletopia"],"game_id":440,"stv_port":27046,"stv_name":"Uncletopia | Sydney | 4 | All Maps | STV","players":null},{"server_id":58,"name":"Uncletopia | Sydney | 5 | Stopwatch Beta","name_short":"syd-5","host":"syd-1.au.uncletopia.com","port":27055,"enabled":true,"region":"au","cc":"au","latitude":-33.865143,"longitude":151.2099,"reserved":0,"last_update":"0001-01-01T00:00:00Z","name_a2s":"Uncletopia | Sydney | 5 | Stopwatch Beta","protocol":17,"map":"koth_highpass","folder":"tf","game":"Team Fortress","app_id":440,"player_count":0,"max_players":24,"Bots":0,"server_type":"Dedicated","server_os":"Linux","password":true,"vac":true,"version":"7742253","steam_id":85568392925397959,"keywords":["cp","nocrits","nodmgspread","uncletopia"],"game_id":440,"stv_port":27056,"stv_name":"Uncletopia | Sydney | 5 | Stopwatch Beta | STV","players":null},{"server_id":59,"name":"Uncletopia | Sydney | 6 | Community","name_short":"syd-6","host":"syd-1.au.uncletopia.com","port":27065,"enabled":true,"region":"au","cc":"au","latitude":-33.865143,"longitude":151.2099,"reserved":0,"last_update":"0001-01-01T00:00:00Z","name_a2s":"Uncletopia | Sydney | 6 | Community","protocol":17,"map":"workshop/koth_ramjam_rc1.ugc459778887","folder":"tf","game":"Team Fortress","app_id":440,"player_count":0,"max_players":24,"Bots":0,"server_type":"Dedicated","server_os":"Linux","password":true,"vac":true,"version":"7742253","steam_id":85568392925397960,"keywords":["cp","nocrits","nodmgspread","uncletopia"],"game_id":440,"stv_port":27066,"stv_name":"Uncletopia | Sydney | 6 | Community | STV","players":null},{"server_id":49,"name":"Uncletopia | Warsaw | 1 | All Maps","name_short":"waw-1","host":"waw-1.pl.uncletopia.com","port":27015,"enabled":true,"region":"eu","cc":"pl","latitude":52.2297,"longitude":21.017532,"reserved":0,"last_update":"0001-01-01T00:00:00Z","name_a2s":"","protocol":0,"map":"","folder":"","game":"","app_id":0,"player_count":0,"max_players":0,"Bots":0,"server_type":"","server_os":"","password":false,"vac":false,"version":"","steam_id":0,"keywords":null,"game_id":0,"stv_port":0,"stv_name":"","players":null},{"server_id":50,"name":"Uncletopia | Warsaw | 2 | All Maps","name_short":"waw-2","host":"waw-1.pl.uncletopia.com","port":27025,"enabled":true,"region":"eu","cc":"pl","latitude":52.2297,"longitude":21.017532,"reserved":0,"last_update":"0001-01-01T00:00:00Z","name_a2s":"Uncletopia | Warsaw | 2 | All Maps","protocol":17,"map":"pl_badwater","folder":"tf","game":"Team Fortress","app_id":440,"player_count":23,"max_players":24,"Bots":0,"server_type":"Dedicated","server_os":"Linux","password":true,"vac":true,"version":"7742253","steam_id":85568392925397851,"keywords":["nocrits","nodmgspread","payload","uncletopia"],"game_id":440,"stv_port":27026,"stv_name":"Uncletopia | Warsaw | 2 | All Maps | STV","players":[{"user_id":65,"name":"Candy Mann From Brooklyn","steam_id":76561198251655918,"connected_time":180000000000,"state":"active","ping":150},{"user_id":66,"name":"Beb","steam_id":76561198106119248,"connected_time":171000000000,"state":"active","ping":76},{"user_id":67,"name":"Sachi","steam_id":76561198165977063,"connected_time":132000000000,"state":"active","ping":85},{"user_id":52,"name":"reetveter","steam_id":76561197978875275,"connected_time":1146000000000,"state":"active","ping":64},{"user_id":51,"name":"CraftyCole","steam_id":76561198338552013,"connected_time":1295000000000,"state":"active","ping":110},{"user_id":54,"name":"Osmo","steam_id":76561199286764992,"connected_time":576000000000,"state":"active","ping":66},{"user_id":45,"name":"Rodia","steam_id":76561197968293161,"connected_time":1688000000000,"state":"active","ping":44},{"user_id":46,"name":"IN OCH VEVA","steam_id":76561197995091849,"connected_time":1600000000000,"state":"active","ping":72},{"user_id":68,"name":"KaasKrans","steam_id":76561198240451972,"connected_time":116000000000,"state":"active","ping":58},{"user_id":69,"name":"Jamjambanana","steam_id":76561198208333039,"connected_time":102000000000,"state":"active","ping":60},{"user_id":56,"name":"Lukero","steam_id":76561198301594341,"connected_time":516000000000,"state":"active","ping":75},{"user_id":57,"name":"theGENBI","steam_id":76561198363949067,"connected_time":432000000000,"state":"active","ping":109},{"user_id":70,"name":"zek","steam_id":76561198862763731,"connected_time":100000000000,"state":"active","ping":79},{"user_id":49,"name":"Klooskie","steam_id":76561198057011629,"connected_time":1505000000000,"state":"active","ping":39},{"user_id":50,"name":"penburger","steam_id":76561198081058994,"connected_time":1336000000000,"state":"active","ping":101},{"user_id":58,"name":"Bloqqer","steam_id":76561197991820454,"connected_time":410000000000,"state":"active","ping":69},{"user_id":71,"name":"civil","steam_id":76561198255672038,"connected_time":89000000000,"state":"active","ping":100},{"user_id":60,"name":"Daikon","steam_id":76561198044017083,"connected_time":309000000000,"state":"active","ping":79},{"user_id":61,"name":"kyuru","steam_id":76561198833374972,"connected_time":307000000000,"state":"active","ping":63},{"user_id":62,"name":"Jane","steam_id":76561198904910888,"connected_time":288000000000,"state":"active","ping":113},{"user_id":63,"name":"GentleBot","steam_id":76561198310527981,"connected_time":278000000000,"state":"active","ping":117},{"user_id":73,"name":"Zone","steam_id":76561198000244829,"connected_time":51000000000,"state":"spawning","ping":63},{"user_id":74,"name":"Exe_Red","steam_id":76561198154952759,"connected_time":44000000000,"state":"active","ping":85}]},{"server_id":51,"name":"Uncletopia | Warsaw | 3 | All Maps","name_short":"waw-3","host":"waw-1.pl.uncletopia.com","port":27035,"enabled":true,"region":"eu","cc":"pl","latitude":52.2297,"longitude":21.017532,"reserved":0,"last_update":"0001-01-01T00:00:00Z","name_a2s":"Uncletopia | Warsaw | 3 | All Maps","protocol":17,"map":"pl_pier","folder":"tf","game":"Team Fortress","app_id":440,"player_count":0,"max_players":24,"Bots":0,"server_type":"Dedicated","server_os":"Linux","password":true,"vac":true,"version":"7742253","steam_id":85568392925397852,"keywords":["nocrits","nodmgspread","payload","uncletopia"],"game_id":440,"stv_port":27036,"stv_name":"Uncletopia | Warsaw | 3 | All Maps | STV","players":null},{"server_id":52,"name":"Uncletopia | Warsaw | 4 | All Maps","name_short":"waw-4","host":"waw-1.pl.uncletopia.com","port":27045,"enabled":true,"region":"eu","cc":"pl","latitude":52.2297,"longitude":21.017532,"reserved":0,"last_update":"0001-01-01T00:00:00Z","name_a2s":"Uncletopia | Warsaw | 4 | All Maps","protocol":17,"map":"koth_highpass","folder":"tf","game":"Team Fortress","app_id":440,"player_count":0,"max_players":24,"Bots":0,"server_type":"Dedicated","server_os":"Linux","password":true,"vac":true,"version":"7742253","steam_id":85568392925397853,"keywords":["cp","nocrits","nodmgspread","uncletopia"],"game_id":440,"stv_port":27046,"stv_name":"Uncletopia | Warsaw | 4 | All Maps | STV","players":null},{"server_id":53,"name":"Uncletopia | Warsaw | 5 | Stopwatch Beta","name_short":"waw-5","host":"waw-1.pl.uncletopia.com","port":27055,"enabled":true,"region":"eu","cc":"pl","latitude":52.2297,"longitude":21.017532,"reserved":0,"last_update":"0001-01-01T00:00:00Z","name_a2s":"Uncletopia | Warsaw | 5 | Stopwatch Beta","protocol":17,"map":"koth_lakeside_final","folder":"tf","game":"Team Fortress","app_id":440,"player_count":0,"max_players":24,"Bots":0,"server_type":"Dedicated","server_os":"Linux","password":true,"vac":true,"version":"7742253","steam_id":85568392925397854,"keywords":["cp","nocrits","nodmgspread","uncletopia"],"game_id":440,"stv_port":27056,"stv_name":"Uncletopia | Warsaw | 5 | Stopwatch Beta | STV","players":null},{"server_id":54,"name":"Uncletopia | Warsaw | 6 | Community","name_short":"waw-6","host":"waw-1.pl.uncletopia.com","port":27065,"enabled":true,"region":"eu","cc":"pl","latitude":52.2297,"longitude":21.017532,"reserved":0,"last_update":"0001-01-01T00:00:00Z","name_a2s":"Uncletopia | Warsaw | 6 | Community","protocol":17,"map":"workshop/koth_synthetic_rc6a.ugc1549817316","folder":"tf","game":"Team Fortress","app_id":440,"player_count":0,"max_players":24,"Bots":0,"server_type":"Dedicated","server_os":"Linux","password":true,"vac":true,"version":"7742253","steam_id":85568392925397856,"keywords":["cp","nocrits","nodmgspread","uncletopia"],"game_id":440,"stv_port":27066,"stv_name":"Uncletopia | Warsaw | 6 | Community | STV","players":null}]}