{"status":true,"message":"","result":[{"server_id":9,"name":"Uncletopia | Atlanta | 1 | All Maps","name_short":"atl-1","host":"atl-1.us.uncletopia.com","port":27015,"enabled":true,"region":"us-east","cc":"us","latitude":33.753746,"longitude":-84.38633,"reserved":0,"last_update":"0001-01-01T00:00:00Z","name_a2s":"Uncletopia | Atlanta | 1 | All Maps","protocol":17,"map":"pl_pier","folder":"tf","game":"Team Fortress","app_id":440,"player_count":24,"max_players":24,"Bots":0,"server_type":"Dedicated","server_os":"Linux","password":true,"vac":true,"version":"7961495","steam_id":85568392924469982,"keywords":["nocrits","nodmgspread","payload","uncletopia"],"game_id":440,"stv_port":27016,"stv_name":"Uncletopia | Atlanta | 1 | All Maps | STV","players":null},{"server_id":104,"name":"Uncletopia | Atlanta | 2 | All Maps","name_short":"atl-2","host":"atl-1.us.uncletopia.com","port":27025,"enabled":true,"region":"us-east","cc":"us","latitude":33.753746,"longitude":-84.38633,"reserved":0,"last_update":"0001-01-01T00:00:00Z","name_a2s":"Uncletopia | Atlanta | 2 | All Maps","protocol":17,"map":"pl_borneo","folder":"tf","game":"Team Fortress","app_id":440,"player_count":24,"max_players":24,"Bots":0,"server_type":"Dedicated","server_os":"Linux","password":true,"vac":true,"version":"7961495","steam_id":85568392924469983,"keywords":["nocrits","nodmgspread","payload","uncletopia"],"game_id":440,"stv_port":27026,"stv_name":"Uncletopia | Atlanta | 2 | All Maps | STV","players":null},{"server_id":400,"name":"Uncletopia | Atlanta | 3 | Stopwatch","name_short":"atl-3","host":"atl-1.us.uncletopia.com","port":27035,"enabled":true,"region":"us-east","cc":"us","latitude":33.753746,"longitude":-84.38633,"reserved":0,"last_update":"0001-01-01T00:00:00Z","name_a2s":"Uncletopia | Atlanta | 3 | Stopwatch","protocol":17,"map":"pl_barnblitz_pro7","folder":"tf","game":"Team Fortress","app_id":440,"player_count":24,"max_players":24,"Bots":0,"server_type":"Dedicated","server_os":"Linux","password":true,"vac":true,"version":"7961495","steam_id":85568392924515187,"keywords":["nocrits","nodmgspread","payload","uncletopia"],"game_id":440,"stv_port":27036,"stv_name":"Uncletopia | Atlanta | 3 | Stopwatch | STV","players":null},{"server_id":401,"name":"Uncletopia | Atlanta | 4 | Community","name_short":"atl-4","host":"atl-1.us.uncletopia.com","port":27045,"enabled":true,"region":"us-east","cc":"us","latitude":33.753746,"longitude":-84.38633,"reserved":0,"last_update":"0001-01-01T00:00:00Z","name_a2s":"Uncletopia | Atlanta | 4 | Community","protocol":17,"map":"koth_bagel_rc6","folder":"tf","game":"Team Fortress","app_id":440,"player_count":0,"max_players":24,"Bots":0,"server_type":"Dedicated","server_os":"Linux","password":true,"vac":true,"version":"7961495","steam_id":85568392924515188,"keywords":["cp","nocrits","nodmgspread","uncletopia"],"game_id":440,"stv_port":27046,"stv_name":"Uncletopia | Atlanta | 4 | Community | STV","players":null},{"server_id":2,"name":"Uncletopia | Chicago | 1 | All Maps","name_short":"chi-1","host":"chi-1.us.uncletopia.com","port":27015,"enabled":true,"region":"us-central","cc":"us","latitude":41.881832,"longitude":-87.62318,"reserved":0,"last_update":"0001-01-01T00:00:00Z","name_a2s":"Uncletopia | Chicago | 1 | All Maps","protocol":17,"map":"pl_borneo","folder":"tf","game":"Team Fortress","app_id":440,"player_count":24,"max_players":24,"Bots":0,"server_type":"Dedicated","server_os":"Linux","password":true,"vac":true,"version":"7961495","steam_id":85568392924469984,"keywords":["nocrits","nodmgspread","payload","uncletopia"],"game_id":440,"stv_port":27016,"stv_name":"Uncletopia | Chicago | 1 | All Maps | STV","players":[{"user_id":520,"name":"the last Rhode Islander","steam_id":76561198330205913,"connected_time":803000000000,"state":"active","ping":83},{"user_id":524,"name":"leonardo doujinshi","steam_id":76561198025810326,"connected_time":714000000000,"state":"active","ping":77},{"user_id":512,"name":"Bluedime","steam_id":76561198123181025,"connected_time":985000000000,"state":"active","ping":59},{"user_id":509,"name":"Billy Mays","steam_id":76561197998876324,"connected_time":1139000000000,"state":"active","ping":65},{"user_id":497,"name":"Gamba","steam_id":76561198069264650,"connected_time":1612000000000,"state":"active","ping":59},{"user_id":531,"name":"YourFriendJessie","steam_id":76561198176883097,"connected_time":136000000000,"state":"active","ping":60},{"user_id":507,"name":"Sorry","steam_id":76561198040722720,"connected_time":1215000000000,"state":"active","ping":84},{"user_id":439,"name":"fried rice","steam_id":76561198928939100,"connected_time":5688000000000,"state":"active","ping":80},{"user_id":525,"name":"FunnyUsernameWow","steam_id":76561198324177635,"connected_time":682000000000,"state":"active","ping":66},{"user_id":530,"name":"GOLDAPPLES","steam_id":76561199154478125,"connected_time":157000000000,"state":"active","ping":105},{"user_id":515,"name":"Jray","steam_id":76561198831619367,"connected_time":962000000000,"state":"active","ping":73},{"user_id":499,"name":"Mr_Frosty","steam_id":76561199380389079,"connected_time":1573000000000,"state":"active","ping":96},{"user_id":511,"name":"vriska serket","steam_id":76561199345823430,"connected_time":995000000000,"state":"active","ping":64},{"user_id":500,"name":"CoralDawn","steam_id":76561198292292930,"connected_time":1570000000000,"state":"active","ping":66},{"user_id":518,"name":"wahooka","steam_id":76561197981211922,"connected_time":918000000000,"state":"active","ping":74},{"user_id":516,"name":"Milkmur","steam_id":76561198210043821,"connected_time":960000000000,"state":"active","ping":64},{"user_id":505,"name":"Minus 8","steam_id":76561198812090491,"connected_time":1266000000000,"state":"active","ping":121},{"user_id":495,"name":"angrybirds521","steam_id":76561198361326855,"connected_time":1627000000000,"state":"active","ping":60},{"user_id":459,"name":"Quandale Dingle","steam_id":76561198894408534,"connected_time":4256000000000,"state":"active","ping":91},{"user_id":501,"name":"Dr. House","steam_id":76561198052910702,"connected_time":1567000000000,"state":"active","ping":45},{"user_id":513,"name":"Psychobells","steam_id":76561197995620232,"connected_time":979000000000,"state":"active","ping":60},{"user_id":488,"name":"AL???","steam_id":76561198381136912,"connected_time":1855000000000,"state":"active","ping":67},{"user_id":482,"name":"♥Bunny♥Slut♥","steam_id":76561198206376851,"connected_time":2535000000000,"state":"active","ping":107},{"user_id":522,"name":"realhedgehog2082","steam_id":76561198168931330,"connected_time":776000000000,"state":"active","ping":78}]},{"server_id":106,"name":"Uncletopia | Chicago | 2 | All Maps","name_short":"chi-2","host":"chi-1.us.uncletopia.com","port":27025,"enabled":true,"region":"us-central","cc":"us","latitude":41.881832,"longitude":-87.62318,"reserved":0,"last_update":"0001-01-01T00:00:00Z","name_a2s":"Uncletopia | Chicago | 2 | All Maps","protocol":17,"map":"pl_borneo","folder":"tf","game":"Team Fortress","app_id":440,"player_count":24,"max_players":24,"Bots":0,"server_type":"Dedicated","server_os":"Linux","password":true,"vac":true,"version":"7961495","steam_id":85568392924469985,"keywords":["nocrits","nodmgspread","payload","uncletopia"],"game_id":440,"stv_port":27026,"stv_name":"Uncletopia | Chicago | 2 | All Maps | STV","players":[{"user_id":200,"name":"son","steam_id":76561198442138731,"connected_time":897000000000,"state":"active","ping":69},{"user_id":213,"name":"Liebesträume","steam_id":76561198038862034,"connected_time":126000000000,"state":"active","ping":90},{"user_id":204,"name":"Ganondorf","steam_id":76561198010421059,"connected_time":802000000000,"state":"active","ping":65},{"user_id":210,"name":"MibWib","steam_id":76561199149786430,"connected_time":473000000000,"state":"active","ping":70},{"user_id":142,"name":"Plasmie{ylo}","steam_id":76561198083513154,"connected_time":4509000000000,"state":"active","ping":73},{"user_id":181,"name":"Funke Monke","steam_id":76561198079440976,"connected_time":1767000000000,"state":"active","ping":62},{"user_id":207,"name":"NaselPopcorn","steam_id":76561199454333176,"connected_time":495000000000,"state":"active","ping":86},{"user_id":184,"name":"garbadge_person","steam_id":76561199454113593,"connected_time":1506000000000,"state":"active","ping":96},{"user_id":212,"name":"Spaghetti from an Olive Garden","steam_id":76561198991944876,"connected_time":457000000000,"state":"active","ping":85},{"user_id":189,"name":"ElephantHydrogen4277882","steam_id":76561198175741741,"connected_time":1424000000000,"state":"active","ping":72},{"user_id":195,"name":"vv","steam_id":76561198134813102,"connected_time":1140000000000,"state":"active","ping":65},{"user_id":197,"name":"a stupid thing","steam_id":76561199197497757,"connected_time":1020000000000,"state":"active","ping":57},{"user_id":172,"name":"pump","steam_id":76561198071705442,"connected_time":2492000000000,"state":"active","ping":76},{"user_id":177,"name":"Average Demo Main","steam_id":76561197971948876,"connected_time":2299000000000,"state":"active","ping":72},{"user_id":188,"name":"songcreator","steam_id":76561198076822464,"connected_time":1450000000000,"state":"active","ping":50},{"user_id":208,"name":":()","steam_id":76561198071991975,"connected_time":495000000000,"state":"active","ping":74},{"user_id":166,"name":"Neformdot","steam_id":76561198065384925,"connected_time":2888000000000,"state":"active","ping":63},{"user_id":203,"name":"pregnant cartoon funny","steam_id":76561198083175190,"connected_time":828000000000,"state":"active","ping":70},{"user_id":170,"name":"cart","steam_id":76561198253731826,"connected_time":2790000000000,"state":"active","ping":61},{"user_id":199,"name":"Doctor Glocktorpus [NGC]","steam_id":76561198049194645,"connected_time":966000000000,"state":"active","ping":79},{"user_id":214,"name":"Lightish Red","steam_id":76561198060879701,"connected_time":59000000000,"state":"active","ping":46},{"user_id":191,"name":"Joculatrix","steam_id":76561198012795457,"connected_time":1384000000000,"state":"active","ping":77},{"user_id":194,"name":"xdab","steam_id":76561198086904171,"connected_time":1208000000000,"state":"active","ping":62},{"user_id":160,"name":"Moss","steam_id":76561199122200727,"connected_time":3126000000000,"state":"active","ping":61}]},{"server_id":402,"name":"Uncletopia | Chicago | 3 | All Maps","name_short":"chi-3","host":"chi-1.us.uncletopia.com","port":27035,"enabled":true,"region":"us-central","cc":"us","latitude":41.881832,"longitude":-87.62318,"reserved":0,"last_update":"0001-01-01T00:00:00Z","name_a2s":"Uncletopia | Chicago | 3 | All Maps","protocol":17,"map":"pl_borneo","folder":"tf","game":"Team Fortress","app_id":440,"player_count":24,"max_players":24,"Bots":0,"server_type":"Dedicated","server_os":"Linux","password":true,"vac":true,"version":"7961495","steam_id":85568392924515191,"keywords":["nocrits","nodmgspread","payload","uncletopia"],"game_id":440,"stv_port":27036,"stv_name":"Uncletopia | Chicago | 3 | All Maps | STV","players":[{"user_id":387,"name":"Nobody","steam_id":76561198286486517,"connected_time":1305000000000,"state":"active","ping":58},{"user_id":393,"name":"Saggy Haggis Balls","steam_id":76561198047845399,"connected_time":813000000000,"state":"active","ping":79},{"user_id":385,"name":"Dareu","steam_id":76561198081781710,"connected_time":1818000000000,"state":"active","ping":70},{"user_id":353,"name":"hyazZaza","steam_id":76561199100342013,"connected_time":3558000000000,"state":"active","ping":92},{"user_id":396,"name":"Cat in Your Backyard","steam_id":76561197979078330,"connected_time":299000000000,"state":"active","ping":60},{"user_id":394,"name":"onion","steam_id":76561198242311084,"connected_time":428000000000,"state":"active","ping":60},{"user_id":397,"name":"lwyr","steam_id":76561198007982579,"connected_time":291000000000,"state":"active","ping":61},{"user_id":392,"name":"Xrath","steam_id":76561198220741860,"connected_time":966000000000,"state":"active","ping":67},{"user_id":398,"name":"beta central","steam_id":76561198301876831,"connected_time":283000000000,"state":"active","ping":62},{"user_id":367,"name":"corned beef","steam_id":76561199366782761,"connected_time":2455000000000,"state":"active","ping":143},{"user_id":399,"name":"gaming time","steam_id":76561198960683356,"connected_time":279000000000,"state":"active","ping":73},{"user_id":395,"name":"Atomic","steam_id":76561198414234955,"connected_time":334000000000,"state":"active","ping":99},{"user_id":346,"name":"Zen Obron","steam_id":76561198130167754,"connected_time":3629000000000,"state":"active","ping":60},{"user_id":388,"name":"Jatt","steam_id":76561198822011219,"connected_time":1273000000000,"state":"active","ping":73},{"user_id":373,"name":"The new day","steam_id":76561198855144603,"connected_time":2087000000000,"state":"active","ping":59},{"user_id":378,"name":"Gaming123","steam_id":76561198801780168,"connected_time":2048000000000,"state":"active","ping":72},{"user_id":382,"name":"ZofoJackson","steam_id":76561197998366861,"connected_time":1965000000000,"state":"active","ping":60},{"user_id":401,"name":"Avg. Santa Believer (Nice list)","steam_id":76561198040444697,"connected_time":247000000000,"state":"active","ping":71},{"user_id":337,"name":"bAlls","steam_id":76561198976282224,"connected_time":4808000000000,"state":"active","ping":73},{"user_id":363,"name":"sentry food","steam_id":76561198042926224,"connected_time":3033000000000,"state":"active","ping":109},{"user_id":391,"name":"Classic 7","steam_id":76561199006503777,"connected_time":1059000000000,"state":"active","ping":59},{"user_id":390,"name":"PocketTieAMPLFY","steam_id":76561199080485881,"connected_time":1254000000000,"state":"active","ping":114},{"user_id":347,"name":"skoops","steam_id":76561198083276946,"connected_time":3628000000000,"state":"active","ping":70},{"user_id":400,"name":"boxtosser33","steam_id":76561198089076514,"connected_time":279000000000,"state":"active","ping":77}]},{"server_id":403,"name":"Uncletopia | Chicago | 4 | All Maps","name_short":"chi-4","host":"chi-1.us.uncletopia.com","port":27045,"enabled":true,"region":"us-central","cc":"us","latitude":41.881832,"longitude":-87.62318,"reserved":0,"last_update":"0001-01-01T00:00:00Z","name_a2s":"Uncletopia | Chicago | 4 | All Maps","protocol":17,"map":"pl_upward","folder":"tf","game":"Team Fortress","app_id":440,"player_count":24,"max_players":24,"Bots":0,"server_type":"Dedicated","server_os":"Linux","password":true,"vac":true,"version":"7961495","steam_id":85568392924515193,"keywords":["nocrits","nodmgspread","payload","uncletopia"],"game_id":440,"stv_port":27046,"stv_name":"Uncletopia | Chicago | 4 | All Maps | STV","players":[{"user_id":633,"name":"Slob and Sup","steam_id":76561198123441203,"connected_time":337000000000,"state":"active","ping":63},{"user_id":603,"name":"n00dle","steam_id":76561198120798040,"connected_time":3030000000000,"state":"active","ping":44},{"user_id":615,"name":"Mortal Flame","steam_id":76561198130698418,"connected_time":2457000000000,"state":"active","ping":83},{"user_id":593,"name":"Pablo","steam_id":76561199036648192,"connected_time":3705000000000,"state":"active","ping":105},{"user_id":635,"name":"Valenhart","steam_id":76561198354036240,"connected_time":6000000000,"state":"spawning","ping":62},{"user_id":627,"name":"Fancyassasin","steam_id":76561198331864258,"connected_time":1004000000000,"state":"active","ping":38},{"user_id":624,"name":"rum","steam_id":76561198465334150,"connected_time":1607000000000,"state":"active","ping":84},{"user_id":625,"name":"[NAME-REDACTED]","steam_id":76561198035682975,"connected_time":1599000000000,"state":"active","ping":72},{"user_id":631,"name":"Scut","steam_id":76561198973734291,"connected_time":565000000000,"state":"active","ping":93},{"user_id":604,"name":"eat Pant","steam_id":76561197974965536,"connected_time":3017000000000,"state":"active","ping":63},{"user_id":620,"name":"Artyom","steam_id":76561198132986712,"connected_time":1921000000000,"state":"active","ping":97},{"user_id":572,"name":"[MRY] Sk-iLite","steam_id":76561198041797350,"connected_time":5414000000000,"state":"active","ping":77},{"user_id":629,"name":"hobojoemama","steam_id":76561198108345568,"connected_time":778000000000,"state":"active","ping":84},{"user_id":588,"name":"phantom","steam_id":76561197963860777,"connected_time":3896000000000,"state":"active","ping":53},{"user_id":612,"name":"ADRIEN BRODY","steam_id":76561198009299473,"connected_time":2889000000000,"state":"active","ping":68},{"user_id":634,"name":"Adam (Cursed Confetti Creature)","steam_id":76561198317690197,"connected_time":321000000000,"state":"active","ping":46},{"user_id":623,"name":"Demon_Slayer290","steam_id":76561198000782062,"connected_time":1740000000000,"state":"active","ping":85},{"user_id":587,"name":"1337Potato","steam_id":76561198134436480,"connected_time":3917000000000,"state":"active","ping":162},{"user_id":617,"name":"7thelden","steam_id":76561198297428761,"connected_time":2203000000000,"state":"active","ping":63},{"user_id":632,"name":"Rodgedan","steam_id":76561198226236524,"connected_time":510000000000,"state":"active","ping":84},{"user_id":628,"name":"Chad Thundercock","steam_id":76561198338224564,"connected_time":987000000000,"state":"active","ping":86},{"user_id":610,"name":"Horrific Necktie","steam_id":76561197999439391,"connected_time":2948000000000,"state":"active","ping":80},{"user_id":573,"name":"You're The One That I Want","steam_id":76561198256886614,"connected_time":5412000000000,"state":"active","ping":111},{"user_id":619,"name":"MinusSoup918","steam_id":76561198060902773,"connected_time":2108000000000,"state":"active","ping":126}]},{"server_id":36,"name":"Uncletopia | Chicago | 5 | All Maps","name_short":"chi-5","host":"chi-2.us.uncletopia.com","port":27015,"enabled":true,"region":"us-central","cc":"us","latitude":41.881832,"longitude":-87.62318,"reserved":0,"last_update":"0001-01-01T00:00:00Z","name_a2s":"Uncletopia | Chicago | 5 | All Maps","protocol":17,"map":"cp_snakewater_final1","folder":"tf","game":"Team Fortress","app_id":440,"player_count":2,"max_players":24,"Bots":0,"server_type":"Dedicated","server_os":"Linux","password":true,"vac":true,"version":"7961495","steam_id":85568392924866362,"keywords":["cp","nocrits","nodmgspread","uncletopia"],"game_id":440,"stv_port":27016,"stv_name":"Uncletopia | Chicago | 5 | All Maps | STV","players":[{"user_id":33,"name":"Pyronicorn","steam_id":76561198271642376,"connected_time":41000000000,"state":"active","ping":42},{"user_id":31,"name":"BeakerofSalt","steam_id":76561198986000125,"connected_time":501000000000,"state":"active","ping":48}]},{"server_id":37,"name":"Uncletopia | Chicago | 6 | All Maps","name_short":"chi-6","host":"chi-2.us.uncletopia.com","port":27025,"enabled":true,"region":"us-central","cc":"us","latitude":41.881832,"longitude":-87.62318,"reserved":0,"last_update":"0001-01-01T00:00:00Z","name_a2s":"Uncletopia | Chicago | 6 | All Maps","protocol":17,"map":"cp_process_final","folder":"tf","game":"Team Fortress","app_id":440,"player_count":3,"max_players":24,"Bots":0,"server_type":"Dedicated","server_os":"Linux","password":true,"vac":true,"version":"7961495","steam_id":85568392924866363,"keywords":["cp","nocrits","nodmgspread","uncletopia"],"game_id":440,"stv_port":27026,"stv_name":"Uncletopia | Chicago | 6 | All Maps | STV","players":[{"user_id":14,"name":"Promethe_S","steam_id":76561198389635948,"connected_time":1369000000000,"state":"active","ping":86},{"user_id":15,"name":"MARKED","steam_id":76561199086346913,"connected_time":1242000000000,"state":"active","ping":57},{"user_id":21,"name":"Reisen Udongein Inaba","steam_id":76561198051082314,"connected_time":4000000000,"state":"spawning","ping":113}]},{"server_id":38,"name":"Uncletopia | Chicago | 7 | Stopwatch","name_short":"chi-7","host":"chi-2.us.uncletopia.com","port":27035,"enabled":true,"region":"us-central","cc":"us","latitude":41.881832,"longitude":-87.62318,"reserved":0,"last_update":"0001-01-01T00:00:00Z","name_a2s":"Uncletopia | Chicago | 7 | Stopwatch","protocol":17,"map":"pl_badwater","folder":"tf","game":"Team Fortress","app_id":440,"player_count":0,"max_players":24,"Bots":0,"server_type":"Dedicated","server_os":"Linux","password":true,"vac":true,"version":"7961495","steam_id":85568392924866364,"keywords":["nocrits","nodmgspread","payload","uncletopia"],"game_id":440,"stv_port":27036,"stv_name":"Uncletopia | Chicago | 7 | Stopwatch | STV","players":null},{"server_id":39,"name":"Uncletopia | Chicago | 8 | Community","name_short":"chi-8","host":"chi-2.us.uncletopia.com","port":27045,"enabled":true,"region":"us-central","cc":"us","latitude":41.881832,"longitude":-87.62318,"reserved":0,"last_update":"0001-01-01T00:00:00Z","name_a2s":"Uncletopia | Chicago | 8 | Community","protocol":17,"map":"workshop/pl_highwood_b13.ugc1769496557","folder":"tf","game":"Team Fortress","app_id":440,"player_count":0,"max_players":24,"Bots":0,"server_type":"Dedicated","server_os":"Linux","password":true,"vac":true,"version":"7961495","steam_id":85568392924866365,"keywords":["nocrits","nodmgspread","payload","uncletopia"],"game_id":440,"stv_port":27046,"stv_name":"Uncletopia | Chicago | 8 | Community | STV","players":null},{"server_id":8,"name":"Uncletopia | Dallas | 1 | All Maps","name_short":"dal-1","host":"dal-1.us.uncletopia.com","port":27015,"enabled":true,"region":"us-central","cc":"us","latitude":32.779167,"longitude":-96.80889,"reserved":0,"last_update":"0001-01-01T00:00:00Z","name_a2s":"Uncletopia | Dallas | 1 | All Maps","protocol":17,"map":"pl_pier","folder":"tf","game":"Team Fortress","app_id":440,"player_count":20,"max_players":24,"Bots":0,"server_type":"Dedicated","server_os":"Linux","password":true,"vac":true,"version":"7961495","steam_id":85568392924469986,"keywords":["nocrits","nodmgspread","payload","uncletopia"],"game_id":440,"stv_port":27016,"stv_name":"Uncletopia | Dallas | 1 | All Maps | STV","players":[{"user_id":362,"name":"Greg Boberton 2012","steam_id":76561198983566026,"connected_time":5392000000000,"state":"active","ping":78},{"user_id":432,"name":"CherryPieRed2023","steam_id":76561198998007496,"connected_time":950000000000,"state":"active","ping":90},{"user_id":424,"name":"carrion goat","steam_id":76561198262064871,"connected_time":1365000000000,"state":"active","ping":73},{"user_id":422,"name":"OddSlaush","steam_id":76561198043898488,"connected_time":1420000000000,"state":"active","ping":87},{"user_id":276,"name":"TheDapperTaco","steam_id":76561199103076602,"connected_time":10915000000000,"state":"active","ping":116},{"user_id":390,"name":"FanaticSalt","steam_id":76561199380123059,"connected_time":3905000000000,"state":"active","ping":34},{"user_id":436,"name":"penguinever0","steam_id":76561198882179246,"connected_time":846000000000,"state":"active","ping":55},{"user_id":360,"name":"flippercurve","steam_id":76561199238295034,"connected_time":5516000000000,"state":"active","ping":69},{"user_id":439,"name":"GuyInTheAlley","steam_id":76561199093870253,"connected_time":24000000000,"state":"active","ping":34},{"user_id":379,"name":"TheGFG","steam_id":76561198166150556,"connected_time":4662000000000,"state":"active","ping":70},{"user_id":426,"name":"Rex","steam_id":76561198138365053,"connected_time":1356000000000,"state":"active","ping":120},{"user_id":411,"name":"Ojen","steam_id":76561197998414482,"connected_time":2570000000000,"state":"active","ping":80},{"user_id":437,"name":"Hamburgerfan123","steam_id":76561199160718388,"connected_time":757000000000,"state":"active","ping":46},{"user_id":431,"name":"Mint Jelly","steam_id":76561197991286751,"connected_time":1017000000000,"state":"active","ping":52},{"user_id":413,"name":"hammy","steam_id":76561198035751911,"connected_time":2525000000000,"state":"active","ping":86},{"user_id":319,"name":"qt pa 2t","steam_id":76561198066867150,"connected_time":8885000000000,"state":"active","ping":77},{"user_id":414,"name":"Jolyne","steam_id":76561198169960915,"connected_time":2426000000000,"state":"active","ping":54},{"user_id":421,"name":"SamFire7645","steam_id":76561198171924179,"connected_time":1438000000000,"state":"active","ping":99},{"user_id":324,"name":"Moonflower ✦","steam_id":76561198191782483,"connected_time":8488000000000,"state":"active","ping":94},{"user_id":398,"name":"i need u","steam_id":76561198030625151,"connected_time":3737000000000,"state":"active","ping":80}]},{"server_id":108,"name":"Uncletopia | Dallas | 2 | All Maps","name_short":"dal-2","host":"dal-1.us.uncletopia.com","port":27025,"enabled":true,"region":"us-central","cc":"us","latitude":32.779167,"longitude":-96.80889,"reserved":0,"last_update":"0001-01-01T00:00:00Z","name_a2s":"Uncletopia | Dallas | 2 | All Maps","protocol":17,"map":"pl_pier","folder":"tf","game":"Team Fortress","app_id":440,"player_count":24,"max_players":24,"Bots":0,"server_type":"Dedicated","server_os":"Linux","password":true,"vac":true,"version":"7961495","steam_id":85568392924469988,"keywords":["nocrits","nodmgspread","payload","uncletopia"],"game_id":440,"stv_port":27026,"stv_name":"Uncletopia | Dallas | 2 | All Maps | STV","players":[{"user_id":444,"name":"Manic","steam_id":76561198128149670,"connected_time":458000000000,"state":"active","ping":46},{"user_id":395,"name":"artichoke","steam_id":76561198980994364,"connected_time":3687000000000,"state":"active","ping":118},{"user_id":413,"name":"SharpStabbyThing","steam_id":76561199059465912,"connected_time":2989000000000,"state":"active","ping":96},{"user_id":453,"name":"r0ck","steam_id":76561198395892272,"connected_time":318000000000,"state":"active","ping":128},{"user_id":445,"name":"Scroobles","steam_id":76561199197646696,"connected_time":447000000000,"state":"active","ping":51},{"user_id":440,"name":"Apex","steam_id":76561198039981618,"connected_time":551000000000,"state":"active","ping":139},{"user_id":441,"name":"Wife Enjoyer","steam_id":76561198044109761,"connected_time":548000000000,"state":"active","ping":45},{"user_id":447,"name":"Silly Shark","steam_id":76561198130714378,"connected_time":434000000000,"state":"active","ping":114},{"user_id":407,"name":"EIMB KILLER","steam_id":76561198046870291,"connected_time":3278000000000,"state":"active","ping":45},{"user_id":446,"name":"zeak hellier zafang","steam_id":76561198391104535,"connected_time":440000000000,"state":"active","ping":97},{"user_id":433,"name":"Who","steam_id":76561198013049671,"connected_time":1301000000000,"state":"active","ping":97},{"user_id":436,"name":"xLeoparrd","steam_id":76561198940657194,"connected_time":972000000000,"state":"active","ping":54},{"user_id":449,"name":"skittle ducks jr.","steam_id":76561198309823950,"connected_time":424000000000,"state":"active","ping":101},{"user_id":443,"name":"OtterBoy","steam_id":76561199004227923,"connected_time":474000000000,"state":"active","ping":88},{"user_id":450,"name":"alset333","steam_id":76561198405345260,"connected_time":423000000000,"state":"active","ping":85},{"user_id":402,"name":"Yohnny wit da Fade","steam_id":76561198048696348,"connected_time":3620000000000,"state":"active","ping":77},{"user_id":442,"name":"leumas","steam_id":76561198240408540,"connected_time":495000000000,"state":"active","ping":73},{"user_id":424,"name":"Calryan","steam_id":76561198060080966,"connected_time":1454000000000,"state":"active","ping":87},{"user_id":419,"name":"Moth Beam","steam_id":76561198005069202,"connected_time":2623000000000,"state":"active","ping":52},{"user_id":431,"name":"Cosmic sR","steam_id":76561198081738675,"connected_time":1375000000000,"state":"active","ping":84},{"user_id":406,"name":"here2he1p","steam_id":76561199216977630,"connected_time":3308000000000,"state":"active","ping":112},{"user_id":432,"name":"Reague","steam_id":76561199092175631,"connected_time":1363000000000,"state":"active","ping":78},{"user_id":416,"name":"Chub","steam_id":76561198380637611,"connected_time":2894000000000,"state":"active","ping":99},{"user_id":454,"name":"chaffy","steam_id":76561198021754567,"connected_time":284000000000,"state":"active","ping":64}]},{"server_id":404,"name":"Uncletopia | Dallas | 3 | All Maps","name_short":"dal-3","host":"dal-1.us.uncletopia.com","port":27035,"enabled":true,"region":"us-central","cc":"us","latitude":32.779167,"longitude":-96.80889,"reserved":0,"last_update":"0001-01-01T00:00:00Z","name_a2s":"Uncletopia | Dallas | 3 | All Maps","protocol":17,"map":"cp_gorge","folder":"tf","game":"Team Fortress","app_id":440,"player_count":24,"max_players":24,"Bots":0,"server_type":"Dedicated","server_os":"Linux","password":true,"vac":true,"version":"7961495","steam_id":85568392924515219,"keywords":["cp","nocrits","nodmgspread","uncletopia"],"game_id":440,"stv_port":27036,"stv_name":"Uncletopia | Dallas | 3 | All Maps | STV","players":[{"user_id":179,"name":"richcheetah","steam_id":76561198446474123,"connected_time":242000000000,"state":"active","ping":88},{"user_id":180,"name":"Harrow41","steam_id":76561198085748198,"connected_time":62000000000,"state":"active","ping":58},{"user_id":172,"name":"Proto","steam_id":76561197984119828,"connected_time":456000000000,"state":"active","ping":102},{"user_id":117,"name":"The Greendale Human Beings","steam_id":76561198055433422,"connected_time":4469000000000,"state":"active","ping":103},{"user_id":173,"name":"Galexian","steam_id":76561198030700733,"connected_time":452000000000,"state":"active","ping":91},{"user_id":72,"name":"Kumatora","steam_id":76561198137748378,"connected_time":6573000000000,"state":"active","ping":77},{"user_id":167,"name":"Koi","steam_id":76561198064411172,"connected_time":746000000000,"state":"active","ping":75},{"user_id":174,"name":"YunKoツ","steam_id":76561199107366261,"connected_time":446000000000,"state":"active","ping":110},{"user_id":151,"name":"bleach65","steam_id":76561198115270571,"connected_time":1986000000000,"state":"active","ping":86},{"user_id":181,"name":"himbomccree","steam_id":76561198373330850,"connected_time":48000000000,"state":"active","ping":127},{"user_id":110,"name":"Ice cream sandwich","steam_id":76561198172748357,"connected_time":5215000000000,"state":"active","ping":86},{"user_id":146,"name":"the keebler","steam_id":76561199486326945,"connected_time":2067000000000,"state":"active","ping":83},{"user_id":176,"name":"LandoDaMando","steam_id":76561198377863683,"connected_time":432000000000,"state":"active","ping":84},{"user_id":165,"name":"Diable Blanc","steam_id":76561198090102186,"connected_time":999000000000,"state":"active","ping":75},{"user_id":142,"name":"DrCoeloCephalo","steam_id":76561198102666293,"connected_time":2437000000000,"state":"active","ping":51},{"user_id":164,"name":"Outis","steam_id":76561198408747483,"connected_time":1229000000000,"state":"active","ping":46},{"user_id":115,"name":"allahsdroptop","steam_id":76561198133195238,"connected_time":4720000000000,"state":"active","ping":99},{"user_id":177,"name":"Captain Salt","steam_id":76561198175457609,"connected_time":414000000000,"state":"active","ping":135},{"user_id":162,"name":"The Incredible Fem Boy","steam_id":76561198355754259,"connected_time":1324000000000,"state":"active","ping":94},{"user_id":141,"name":"Jade Jetts [She/They]","steam_id":76561198206130076,"connected_time":2557000000000,"state":"active","ping":88},{"user_id":155,"name":"Just Luck","steam_id":76561198294350105,"connected_time":1947000000000,"state":"active","ping":72},{"user_id":178,"name":"Mr.Cool","steam_id":76561198132105194,"connected_time":413000000000,"state":"active","ping":94},{"user_id":169,"name":"MancalaMadMan","steam_id":76561198347324053,"connected_time":701000000000,"state":"active","ping":102},{"user_id":158,"name":"Extome","steam_id":76561198097801342,"connected_time":1914000000000,"state":"active","ping":81}]},{"server_id":405,"name":"Uncletopia | Dallas | 4 | Community","name_short":"dal-4","host":"dal-1.us.uncletopia.com","port":27045,"enabled":true,"region":"us-central","cc":"us","latitude":32.779167,"longitude":-96.80889,"reserved":0,"last_update":"0001-01-01T00:00:00Z","name_a2s":"Uncletopia | Dallas | 4 | Community","protocol":17,"map":"workshop/cp_mannbase_rc2a.ugc1900737467","folder":"tf","game":"Team Fortress","app_id":440,"player_count":0,"max_players":24,"Bots":0,"server_type":"Dedicated","server_os":"Linux","password":true,"vac":true,"version":"7961495","steam_id":85568392924515220,"keywords":["cp","nocrits","nodmgspread","uncletopia"],"game_id":440,"stv_port":27046,"stv_name":"Uncletopia | Dallas | 4 | Community | STV","players":null},{"server_id":5,"name":"Uncletopia | Frankfurt | 1 | All Maps","name_short":"frk-1","host":"frk-1.de.uncletopia.com","port":27015,"enabled":true,"region":"eu","cc":"de","latitude":50.110924,"longitude":8.682127,"reserved":0,"last_update":"0001-01-01T00:00:00Z","name_a2s":"Uncletopia | Frankfurt | 1 | All Maps","protocol":17,"map":"koth_viaduct","folder":"tf","game":"Team Fortress","app_id":440,"player_count":11,"max_players":24,"Bots":0,"server_type":"Dedicated","server_os":"Linux","password":true,"vac":true,"version":"7961495","steam_id":85568392924469989,"keywords":["cp","nocrits","nodmgspread","uncletopia"],"game_id":440,"stv_port":27016,"stv_name":"Uncletopia | Frankfurt | 1 | All Maps | STV","players":[{"user_id":907,"name":"Dr.Disrespect","steam_id":76561198043820228,"connected_time":21000000000,"state":"active","ping":35},{"user_id":908,"name":"Dudepile","steam_id":76561198005831909,"connected_time":14000000000,"state":"active","ping":76},{"user_id":884,"name":"Varsity Athlete","steam_id":76561198012296395,"connected_time":1412000000000,"state":"active","ping":60},{"user_id":846,"name":"King Goomba","steam_id":76561198146467813,"connected_time":3924000000000,"state":"active","ping":79},{"user_id":891,"name":"a","steam_id":76561198159073505,"connected_time":1001000000000,"state":"active","ping":80},{"user_id":865,"name":"Ziemniaczki","steam_id":76561198061866742,"connected_time":2760000000000,"state":"active","ping":61},{"user_id":880,"name":"Ptahotep","steam_id":76561198008708645,"connected_time":1641000000000,"state":"active","ping":46},{"user_id":889,"name":"Buamadoir","steam_id":76561198229417388,"connected_time":1222000000000,"state":"active","ping":88},{"user_id":848,"name":"IcOn","steam_id":76561198101340725,"connected_time":3896000000000,"state":"active","ping":84},{"user_id":892,"name":"ethan","steam_id":76561198119495513,"connected_time":990000000000,"state":"active","ping":52},{"user_id":894,"name":"MarJar","steam_id":76561198177339194,"connected_time":870000000000,"state":"active","ping":37}]},{"server_id":110,"name":"Uncletopia | Frankfurt | 2 | All Maps","name_short":"frk-2","host":"frk-1.de.uncletopia.com","port":27025,"enabled":true,"region":"eu","cc":"de","latitude":50.110924,"longitude":8.682127,"reserved":0,"last_update":"0001-01-01T00:00:00Z","name_a2s":"Uncletopia | Frankfurt | 2 | All Maps","protocol":17,"map":"cp_process_final","folder":"tf","game":"Team Fortress","app_id":440,"player_count":0,"max_players":24,"Bots":0,"server_type":"Dedicated","server_os":"Linux","password":true,"vac":true,"version":"7961495","steam_id":85568392924469990,"keywords":["cp","nocrits","nodmgspread","uncletopia"],"game_id":440,"stv_port":27026,"stv_name":"Uncletopia | Frankfurt | 2 | All Maps | STV","players":null},{"server_id":308,"name":"Uncletopia | Frankfurt | 3 | All Maps","name_short":"frk-3","host":"frk-1.de.uncletopia.com","port":27035,"enabled":true,"region":"eu","cc":"de","latitude":50.110924,"longitude":8.682127,"reserved":0,"last_update":"0001-01-01T00:00:00Z","name_a2s":"Uncletopia | Frankfurt | 3 | All Maps","protocol":17,"map":"pl_badwater","folder":"tf","game":"Team Fortress","app_id":440,"player_count":24,"max_players":24,"Bots":0,"server_type":"Dedicated","server_os":"Linux","password":true,"vac":true,"version":"7961495","steam_id":85568392924504274,"keywords":["nocrits","nodmgspread","payload","uncletopia"],"game_id":440,"stv_port":27036,"stv_name":"Uncletopia | Frankfurt | 3 | All Maps | STV","players":[{"user_id":371,"name":"pardner","steam_id":76561198451471161,"connected_time":2860000000000,"state":"active","ping":63},{"user_id":350,"name":"nesag","steam_id":76561198041483314,"connected_time":3901000000000,"state":"active","ping":60},{"user_id":392,"name":"The King","steam_id":76561198117344758,"connected_time":1745000000000,"state":"active","ping":168},{"user_id":410,"name":"Carol Olston","steam_id":76561198080257273,"connected_time":427000000000,"state":"active","ping":47},{"user_id":320,"name":"Cataleptic","steam_id":76561197997966949,"connected_time":5015000000000,"state":"active","ping":71},{"user_id":344,"name":"Zero Sleep Gaming","steam_id":76561198982674420,"connected_time":4265000000000,"state":"active","ping":54},{"user_id":407,"name":"Refurbished Boy","steam_id":76561197995834697,"connected_time":846000000000,"state":"active","ping":97},{"user_id":405,"name":"Endi","steam_id":76561198914938199,"connected_time":960000000000,"state":"active","ping":89},{"user_id":396,"name":"Gioni","steam_id":76561198395912581,"connected_time":1606000000000,"state":"active","ping":105},{"user_id":391,"name":"Seb, Comrade","steam_id":76561198040279587,"connected_time":1766000000000,"state":"active","ping":93},{"user_id":412,"name":"Qdarks","steam_id":76561198013391340,"connected_time":109000000000,"state":"active","ping":145},{"user_id":377,"name":"EtoGeek","steam_id":76561198020304242,"connected_time":2652000000000,"state":"active","ping":67},{"user_id":397,"name":"Salih","steam_id":76561198287934839,"connected_time":1588000000000,"state":"active","ping":55},{"user_id":387,"name":"thorn","steam_id":76561198089287999,"connected_time":2183000000000,"state":"active","ping":54},{"user_id":408,"name":"Borat","steam_id":76561198122226417,"connected_time":481000000000,"state":"active","ping":52},{"user_id":355,"name":"Çodar","steam_id":76561198235518444,"connected_time":3833000000000,"state":"active","ping":51},{"user_id":390,"name":"Lev","steam_id":76561197998916292,"connected_time":1778000000000,"state":"active","ping":62},{"user_id":399,"name":"Sabour","steam_id":76561197963965445,"connected_time":1483000000000,"state":"active","ping":59},{"user_id":380,"name":"Labracababrador","steam_id":76561198255280285,"connected_time":2578000000000,"state":"active","ping":81},{"user_id":383,"name":"I'm high on crack","steam_id":76561198364191258,"connected_time":2507000000000,"state":"active","ping":45},{"user_id":406,"name":"pinger80","steam_id":76561198116455839,"connected_time":951000000000,"state":"active","ping":67},{"user_id":411,"name":"flr","steam_id":76561198249327786,"connected_time":158000000000,"state":"active","ping":75},{"user_id":395,"name":"angler","steam_id":76561198160202087,"connected_time":1708000000000,"state":"active","ping":56},{"user_id":362,"name":"PORNO WARRIOR","steam_id":76561198113863344,"connected_time":3665000000000,"state":"active","ping":90}]},{"server_id":309,"name":"Uncletopia | Frankfurt | 4 | All Maps","name_short":"frk-4","host":"frk-1.de.uncletopia.com","port":27045,"enabled":true,"region":"eu","cc":"de","latitude":50.110924,"longitude":8.682127,"reserved":0,"last_update":"0001-01-01T00:00:00Z","name_a2s":"Uncletopia | Frankfurt | 4 | All Maps","protocol":17,"map":"koth_highpass","folder":"tf","game":"Team Fortress","app_id":440,"player_count":0,"max_players":24,"Bots":0,"server_type":"Dedicated","server_os":"Linux","password":true,"vac":true,"version":"7961495","steam_id":85568392924504275,"keywords":["cp","nocrits","nodmgspread","uncletopia"],"game_id":440,"stv_port":27046,"stv_name":"Uncletopia | Frankfurt | 4 | All Maps | STV","players":null},{"server_id":310,"name":"Uncletopia | Frankfurt | 5 | All Maps","name_short":"frk-5","host":"frk-1.de.uncletopia.com","port":27055,"enabled":true,"region":"eu","cc":"de","latitude":50.110924,"longitude":8.682127,"reserved":0,"last_update":"0001-01-01T00:00:00Z","name_a2s":"Uncletopia | Frankfurt | 5 | All Maps","protocol":17,"map":"pl_upward","folder":"tf","game":"Team Fortress","app_id":440,"player_count":0,"max_players":24,"Bots":0,"server_type":"Dedicated","server_os":"Linux","password":true,"vac":true,"version":"7961495","steam_id":85568392924504277,"keywords":["nocrits","nodmgspread","payload","uncletopia"],"game_id":440,"stv_port":27056,"stv_name":"Uncletopia | Frankfurt | 5 | All Maps | STV","players":null},{"server_id":311,"name":"Uncletopia | Frankfurt | 6 | All Maps","name_short":"frk-6","host":"frk-1.de.uncletopia.com","port":27065,"enabled":true,"region":"eu","cc":"de","latitude":50.110924,"longitude":8.682127,"reserved":0,"last_update":"0001-01-01T00:00:00Z","name_a2s":"Uncletopia | Frankfurt | 6 | All Maps","protocol":17,"map":"pl_pier","folder":"tf","game":"Team Fortress","app_id":440,"player_count":0,"max_players":24,"Bots":0,"server_type":"Dedicated","server_os":"Linux","password":true,"vac":true,"version":"7961495","steam_id":85568392924504278,"keywords":["nocrits","nodmgspread","payload","uncletopia"],"game_id":440,"stv_port":27066,"stv_name":"Uncletopia | Frankfurt | 6 | All Maps | STV","players":null},{"server_id":23,"name":"Uncletopia | Frankfurt | 7 | Stopwatch","name_short":"frk-7","host":"frk-1.de.uncletopia.com","port":27075,"enabled":true,"region":"eu","cc":"de","latitude":50.110924,"longitude":8.682127,"reserved":0,"last_update":"0001-01-01T00:00:00Z","name_a2s":"Uncletopia | Frankfurt | 7 | Stopwatch","protocol":17,"map":"pl_borneo","folder":"tf","game":"Team Fortress","app_id":440,"player_count":0,"max_players":24,"Bots":0,"server_type":"Dedicated","server_os":"Linux","password":true,"vac":true,"version":"7961495","steam_id":85568392924742827,"keywords":["nocrits","nodmgspread","payload","uncletopia"],"game_id":440,"stv_port":27076,"stv_name":"Uncletopia | Frankfurt | 7 | Stopwatch | STV","players":null},{"server_id":24,"name":"Uncletopia | Frankfurt | 8 | Community","name_short":"frk-8","host":"frk-1.de.uncletopia.com","port":27085,"enabled":true,"region":"eu","cc":"de","latitude":50.110924,"longitude":8.682127,"reserved":0,"last_update":"0001-01-01T00:00:00Z","name_a2s":"Uncletopia | Frankfurt | 8 | Community","protocol":17,"map":"workshop/pl_badwater_pro_v12.ugc2142942074","folder":"tf","game":"Team Fortress","app_id":440,"player_count":0,"max_players":24,"Bots":0,"server_type":"Dedicated","server_os":"Linux","password":true,"vac":true,"version":"7961495","steam_id":85568392924742828,"keywords":["nocrits","nodmgspread","payload","uncletopia"],"game_id":440,"stv_port":27086,"stv_name":"Uncletopia | Frankfurt | 8 | Community | STV","players":null},{"server_id":202,"name":"Uncletopia | Hong Kong | 1 | All Maps","name_short":"hgk-1","host":"hgk-1.hk.uncletopia.com","port":27015,"enabled":true,"region":"asia","cc":"hk","latitude":22.302711,"longitude":114.177216,"reserved":0,"last_update":"0001-01-01T00:00:00Z","name_a2s":"Uncletopia | Hong Kong | 1 | All Maps","protocol":17,"map":"pl_frontier_final","folder":"tf","game":"Team Fortress","app_id":440,"player_count":0,"max_players":24,"Bots":0,"server_type":"Dedicated","server_os":"Linux","password":true,"vac":true,"version":"7961495","steam_id":85568392924494504,"keywords":["nocrits","nodmgspread","payload","uncletopia"],"game_id":440,"stv_port":27016,"stv_name":"Uncletopia | Hong Kong | 1 | All Maps | STV","players":null},{"server_id":1,"name":"Uncletopia | Los Angeles | 1 | All Maps","name_short":"lax-1","host":"lax-1.us.uncletopia.com","port":27015,"enabled":true,"region":"us-west","cc":"us","latitude":33.94279,"longitude":-118.41004,"reserved":0,"last_update":"0001-01-01T00:00:00Z","name_a2s":"Uncletopia | Los Angeles | 1 | All Maps","protocol":17,"map":"cp_mountainlab","folder":"tf","game":"Team Fortress","app_id":440,"player_count":0,"max_players":24,"Bots":0,"server_type":"Dedicated","server_os":"Linux","password":true,"vac":true,"version":"7961495","steam_id":85568392924469991,"keywords":["cp","nocrits","nodmgspread","uncletopia"],"game_id":440,"stv_port":27016,"stv_name":"Uncletopia | Los Angeles | 1 | All Maps | STV","players":null},{"server_id":112,"name":"Uncletopia | Los Angeles | 2 | All Maps","name_short":"lax-2","host":"lax-1.us.uncletopia.com","port":27025,"enabled":true,"region":"us-west","cc":"us","latitude":33.94279,"longitude":-118.41004,"reserved":0,"last_update":"0001-01-01T00:00:00Z","name_a2s":"Uncletopia | Los Angeles | 2 | All Maps","protocol":17,"map":"koth_lakeside_final","folder":"tf","game":"Team Fortress","app_id":440,"player_count":0,"max_players":24,"Bots":0,"server_type":"Dedicated","server_os":"Linux","password":true,"vac":true,"version":"7961495","steam_id":85568392924469992,"keywords":["cp","nocrits","nodmgspread","uncletopia"],"game_id":440,"stv_port":27026,"stv_name":"Uncletopia | Los Angeles | 2 | All Maps | STV","players":null},{"server_id":324,"name":"Uncletopia | Los Angeles | 3 | All Maps","name_short":"lax-3","host":"lax-1.us.uncletopia.com","port":27035,"enabled":true,"region":"us-west","cc":"us","latitude":33.94279,"longitude":-118.41004,"reserved":0,"last_update":"0001-01-01T00:00:00Z","name_a2s":"Uncletopia | Los Angeles | 3 | All Maps","protocol":17,"map":"pl_barnblitz","folder":"tf","game":"Team Fortress","app_id":440,"player_count":24,"max_players":24,"Bots":0,"server_type":"Dedicated","server_os":"Linux","password":true,"vac":true,"version":"7961495","steam_id":85568392924510198,"keywords":["nocrits","nodmgspread","payload","uncletopia"],"game_id":440,"stv_port":27036,"stv_name":"Uncletopia | Los Angeles | 3 | All Maps | STV","players":[{"user_id":147,"name":"krootonitron","steam_id":76561198114113037,"connected_time":1897000000000,"state":"active","ping":56},{"user_id":143,"name":"Magik","steam_id":76561198099726660,"connected_time":2079000000000,"state":"active","ping":49},{"user_id":95,"name":"MakerRov","steam_id":76561198914108894,"connected_time":5013000000000,"state":"active","ping":60},{"user_id":123,"name":"Joh Bags","steam_id":76561198097004438,"connected_time":3438000000000,"state":"active","ping":70},{"user_id":156,"name":"welder mask","steam_id":76561198207881077,"connected_time":694000000000,"state":"active","ping":89},{"user_id":152,"name":"Whisper!","steam_id":76561198119609795,"connected_time":1154000000000,"state":"active","ping":51},{"user_id":157,"name":"frustration is getting bigger","steam_id":76561198318126190,"connected_time":286000000000,"state":"active","ping":157},{"user_id":153,"name":"the man","steam_id":76561199103120314,"connected_time":1127000000000,"state":"active","ping":54},{"user_id":158,"name":"Green Mario","steam_id":76561198094325997,"connected_time":247000000000,"state":"active","ping":79},{"user_id":115,"name":"ĐïɐȐɹɦɆa","steam_id":76561198981411945,"connected_time":3915000000000,"state":"active","ping":48},{"user_id":159,"name":"wafflegun","steam_id":76561199201494068,"connected_time":176000000000,"state":"active","ping":157},{"user_id":47,"name":"riSygneD","steam_id":76561198331618687,"connected_time":7873000000000,"state":"active","ping":33},{"user_id":160,"name":"flop","steam_id":76561199230528008,"connected_time":154000000000,"state":"active","ping":68},{"user_id":161,"name":"Portal2Player","steam_id":76561198062870114,"connected_time":119000000000,"state":"active","ping":126},{"user_id":136,"name":"thai","steam_id":76561198052462287,"connected_time":2720000000000,"state":"active","ping":72},{"user_id":162,"name":"Ashified21","steam_id":76561199357672686,"connected_time":90000000000,"state":"active","ping":73},{"user_id":151,"name":"DaBubbleGuppies","steam_id":76561198253177879,"connected_time":1166000000000,"state":"active","ping":99},{"user_id":122,"name":"mn","steam_id":76561198042357436,"connected_time":3469000000000,"state":"active","ping":69},{"user_id":163,"name":"shakoiwa","steam_id":76561199059441773,"connected_time":55000000000,"state":"active","ping":53},{"user_id":164,"name":"I Punch Babies","steam_id":76561198097463407,"connected_time":53000000000,"state":"active","ping":75},{"user_id":165,"name":"Swag6","steam_id":76561198064110837,"connected_time":42000000000,"state":"spawning","ping":61},{"user_id":137,"name":"Shalom","steam_id":76561198410005222,"connected_time":2719000000000,"state":"active","ping":76},{"user_id":138,"name":"Viennetta","steam_id":76561198044088335,"connected_time":2711000000000,"state":"active","ping":118},{"user_id":166,"name":"McDonald","steam_id":76561199028533497,"connected_time":33000000000,"state":"spawning","ping":43}]},{"server_id":25,"name":"Uncletopia | Los Angeles | 4 | Stopwatch","name_short":"lax-4","host":"lax-1.us.uncletopia.com","port":27045,"enabled":true,"region":"us-west","cc":"us","latitude":33.94279,"longitude":-118.41004,"reserved":0,"last_update":"0001-01-01T00:00:00Z","name_a2s":"Uncletopia | Los Angeles | 4 | Stopwatch","protocol":17,"map":"pl_barnblitz","folder":"tf","game":"Team Fortress","app_id":440,"player_count":0,"max_players":24,"Bots":0,"server_type":"Dedicated","server_os":"Linux","password":true,"vac":true,"version":"7961495","steam_id":85568392924510199,"keywords":["nocrits","nodmgspread","payload","uncletopia"],"game_id":440,"stv_port":27046,"stv_name":"Uncletopia | Los Angeles | 4 | Stopwatch | STV","players":null},{"server_id":11,"name":"Uncletopia | London | 1 | All Maps","name_short":"lon-1","host":"lon-1.uk.uncletopia.com","port":27015,"enabled":true,"region":"eu","cc":"gb","latitude":51.509865,"longitude":-0.118092,"reserved":0,"last_update":"0001-01-01T00:00:00Z","name_a2s":"Uncletopia | London | 1 | All Maps","protocol":17,"map":"pl_rumford_event","folder":"tf","game":"Team Fortress","app_id":440,"player_count":24,"max_players":24,"Bots":0,"server_type":"Dedicated","server_os":"Linux","password":true,"vac":true,"version":"7961495","steam_id":85568392924367362,"keywords":["nocrits","nodmgspread","payload","uncletopia"],"game_id":440,"stv_port":27016,"stv_name":"Uncletopia | London | 1 | All Maps | STV","players":[{"user_id":620,"name":"sora","steam_id":76561198096547662,"connected_time":7758000000000,"state":"active","ping":53},{"user_id":682,"name":"Pantroglodytestherapy","steam_id":76561198236015392,"connected_time":2529000000000,"state":"active","ping":119},{"user_id":729,"name":"lark","steam_id":76561198091724522,"connected_time":656000000000,"state":"active","ping":58},{"user_id":725,"name":"Dr Smeggman","steam_id":76561197966614845,"connected_time":1166000000000,"state":"active","ping":42},{"user_id":730,"name":"Spy from Fortnite","steam_id":76561199266626437,"connected_time":643000000000,"state":"active","ping":68},{"user_id":736,"name":"cropping","steam_id":76561198026586456,"connected_time":333000000000,"state":"active","ping":60},{"user_id":726,"name":"monsieur sex","steam_id":76561198057215355,"connected_time":1138000000000,"state":"active","ping":55},{"user_id":611,"name":"Slifer the Thwomp","steam_id":76561198062255803,"connected_time":9337000000000,"state":"active","ping":73},{"user_id":686,"name":"eMcP!","steam_id":76561198382509396,"connected_time":2390000000000,"state":"active","ping":56},{"user_id":660,"name":"bird ideas","steam_id":76561199480942903,"connected_time":4564000000000,"state":"active","ping":70},{"user_id":737,"name":"khan","steam_id":76561198099245500,"connected_time":333000000000,"state":"active","ping":59},{"user_id":733,"name":"Saken","steam_id":76561198049075295,"connected_time":429000000000,"state":"active","ping":60},{"user_id":735,"name":"ack","steam_id":76561198139796077,"connected_time":402000000000,"state":"active","ping":52},{"user_id":740,"name":"AxeWorld","steam_id":76561198048940625,"connected_time":156000000000,"state":"active","ping":64},{"user_id":722,"name":"19raic","steam_id":76561199093514786,"connected_time":1414000000000,"state":"active","ping":71},{"user_id":602,"name":"Minimi","steam_id":76561198873850443,"connected_time":11250000000000,"state":"active","ping":45},{"user_id":746,"name":"pro enginear","steam_id":76561199094931197,"connected_time":1000000000,"state":"spawning","ping":36},{"user_id":739,"name":"Redmailbox","steam_id":76561198042930322,"connected_time":260000000000,"state":"active","ping":66},{"user_id":704,"name":"heuji","steam_id":76561197971067828,"connected_time":2089000000000,"state":"active","ping":52},{"user_id":738,"name":"Ziy???","steam_id":76561197995765491,"connected_time":327000000000,"state":"active","ping":59},{"user_id":705,"name":"Hildreth","steam_id":76561197995254867,"connected_time":2069000000000,"state":"active","ping":45},{"user_id":646,"name":"Son Goku","steam_id":76561199383437138,"connected_time":6022000000000,"state":"active","ping":131},{"user_id":727,"name":"Risinger","steam_id":76561198079789688,"connected_time":1078000000000,"state":"active","ping":67},{"user_id":742,"name":"Jeffacakes","steam_id":76561198280101970,"connected_time":121000000000,"state":"active","ping":66}]},{"server_id":114,"name":"Uncletopia | London | 2 | All Maps","name_short":"lon-2","host":"lon-1.uk.uncletopia.com","port":27025,"enabled":true,"region":"eu","cc":"gb","latitude":51.509865,"longitude":-0.118092,"reserved":0,"last_update":"0001-01-01T00:00:00Z","name_a2s":"Uncletopia | London | 2 | All Maps","protocol":17,"map":"cp_dustbowl","folder":"tf","game":"Team Fortress","app_id":440,"player_count":1,"max_players":24,"Bots":0,"server_type":"Dedicated","server_os":"Linux","password":true,"vac":true,"version":"7961495","steam_id":85568392924470941,"keywords":["cp","nocrits","nodmgspread","uncletopia"],"game_id":440,"stv_port":27026,"stv_name":"Uncletopia | London | 2 | All Maps | STV","players":[{"user_id":639,"name":"Naomi","steam_id":76561198060307235,"connected_time":19000000000,"state":"active","ping":56}]},{"server_id":320,"name":"Uncletopia | London | 3 | All Maps","name_short":"lon-3","host":"lon-1.uk.uncletopia.com","port":27035,"enabled":true,"region":"eu","cc":"gb","latitude":51.509865,"longitude":-0.118092,"reserved":0,"last_update":"0001-01-01T00:00:00Z","name_a2s":"Uncletopia | London | 3 | All Maps","protocol":17,"map":"koth_cascade","folder":"tf","game":"Team Fortress","app_id":440,"player_count":0,"max_players":24,"Bots":0,"server_type":"Dedicated","server_os":"Linux","password":true,"vac":true,"version":"7961495","steam_id":85568392924510192,"keywords":["cp","nocrits","nodmgspread","uncletopia"],"game_id":440,"stv_port":27036,"stv_name":"Uncletopia | London | 3 | All Maps | STV","players":null},{"server_id":321,"name":"Uncletopia | London | 4 | All Maps","name_short":"lon-4","host":"lon-1.uk.uncletopia.com","port":27045,"enabled":true,"region":"eu","cc":"gb","latitude":51.509865,"longitude":-0.118092,"reserved":0,"last_update":"0001-01-01T00:00:00Z","name_a2s":"Uncletopia | London | 4 | All Maps","protocol":17,"map":"koth_cascade","folder":"tf","game":"Team Fortress","app_id":440,"player_count":3,"max_players":24,"Bots":0,"server_type":"Dedicated","server_os":"Linux","password":true,"vac":true,"version":"7961495","steam_id":85568392924510193,"keywords":["cp","nocrits","nodmgspread","uncletopia"],"game_id":440,"stv_port":27046,"stv_name":"Uncletopia | London | 4 | All Maps | STV","players":[{"user_id":778,"name":"89384HDHSJDHU\u0026/","steam_id":76561198057833760,"connected_time":797000000000,"state":"active","ping":66},{"user_id":777,"name":"Wafflehead","steam_id":76561198053539741,"connected_time":941000000000,"state":"active","ping":128},{"user_id":783,"name":"jù xiē","steam_id":76561198096189399,"connected_time":507000000000,"state":"active","ping":76}]},{"server_id":21,"name":"Uncletopia | London | 5 | All Maps","name_short":"lon-5","host":"lon-1.uk.uncletopia.com","port":27055,"enabled":true,"region":"eu","cc":"gb","latitude":51.509865,"longitude":-0.118092,"reserved":0,"last_update":"0001-01-01T00:00:00Z","name_a2s":"Uncletopia | London | 5 | All Maps","protocol":17,"map":"pl_swiftwater_final1","folder":"tf","game":"Team Fortress","app_id":440,"player_count":0,"max_players":24,"Bots":0,"server_type":"Dedicated","server_os":"Linux","password":true,"vac":true,"version":"7961495","steam_id":85568392924742829,"keywords":["nocrits","nodmgspread","payload","uncletopia"],"game_id":440,"stv_port":27056,"stv_name":"Uncletopia | London | 5 | All Maps | STV","players":null},{"server_id":22,"name":"Uncletopia | London | 6 | All Maps","name_short":"lon-6","host":"lon-1.uk.uncletopia.com","port":27065,"enabled":true,"region":"eu","cc":"gb","latitude":51.509865,"longitude":-0.118092,"reserved":0,"last_update":"0001-01-01T00:00:00Z","name_a2s":"Uncletopia | London | 6 | All Maps","protocol":17,"map":"pl_upward","folder":"tf","game":"Team Fortress","app_id":440,"player_count":0,"max_players":24,"Bots":0,"server_type":"Dedicated","server_os":"Linux","password":true,"vac":true,"version":"7961495","steam_id":85568392924742830,"keywords":["nocrits","nodmgspread","payload","uncletopia"],"game_id":440,"stv_port":27066,"stv_name":"Uncletopia | London | 6 | All Maps | STV","players":null},{"server_id":40,"name":"Uncletopia | London | 7 | Stopwatch","name_short":"lon-7","host":"lon-1.uk.uncletopia.com","port":27075,"enabled":true,"region":"eu","cc":"gb","latitude":51.509865,"longitude":-0.118092,"reserved":0,"last_update":"0001-01-01T00:00:00Z","name_a2s":"Uncletopia | London | 7 | Stopwatch","protocol":17,"map":"workshop/koth_bagel_rc6.ugc2514036946","folder":"tf","game":"Team Fortress","app_id":440,"player_count":0,"max_players":24,"Bots":0,"server_type":"Dedicated","server_os":"Linux","password":true,"vac":true,"version":"7961495","steam_id":85568392924964314,"keywords":["cp","nocrits","nodmgspread","uncletopia"],"game_id":440,"stv_port":27076,"stv_name":"Uncletopia | London | 7 | Stopwatch | STV","players":null},{"server_id":41,"name":"Uncletopia | London | 8 | Community","name_short":"lon-8","host":"lon-1.uk.uncletopia.com","port":27085,"enabled":true,"region":"eu","cc":"gb","latitude":51.509865,"longitude":-0.118092,"reserved":0,"last_update":"0001-01-01T00:00:00Z","name_a2s":"Uncletopia | London | 8 | Community","protocol":17,"map":"workshop/cp_alloy_rc3.ugc592805587","folder":"tf","game":"Team Fortress","app_id":440,"player_count":0,"max_players":24,"Bots":0,"server_type":"Dedicated","server_os":"Linux","password":true,"vac":true,"version":"7961495","steam_id":85568392924964315,"keywords":["cp","nocrits","nodmgspread","uncletopia"],"game_id":440,"stv_port":27086,"stv_name":"Uncletopia | London | 8 | Community | STV","players":null},{"server_id":300,"name":"Uncletopia | Montréal | 1 | All Maps","name_short":"mtl-1","host":"mtl-1.ca.uncletopia.com","port":27015,"enabled":true,"region":"us-east","cc":"ca","latitude":45.50889,"longitude":-73.56167,"reserved":0,"last_update":"0001-01-01T00:00:00Z","name_a2s":"","protocol":0,"map":"","folder":"","game":"","app_id":0,"player_count":0,"max_players":0,"Bots":0,"server_type":"","server_os":"","password":false,"vac":false,"version":"","steam_id":0,"keywords":null,"game_id":0,"stv_port":0,"stv_name":"","players":null},{"server_id":301,"name":"Uncletopia | Montréal | 2 | All Maps","name_short":"mtl-2","host":"mtl-1.ca.uncletopia.com","port":27025,"enabled":true,"region":"us-east","cc":"ca","latitude":45.50889,"longitude":-73.56167,"reserved":0,"last_update":"0001-01-01T00:00:00Z","name_a2s":"","protocol":0,"map":"","folder":"","game":"","app_id":0,"player_count":0,"max_players":0,"Bots":0,"server_type":"","server_os":"","password":false,"vac":false,"version":"","steam_id":0,"keywords":null,"game_id":0,"stv_port":0,"stv_name":"","players":null},{"server_id":302,"name":"Uncletopia | Montréal | 3 | All Maps","name_short":"mtl-3","host":"mtl-1.ca.uncletopia.com","port":27035,"enabled":true,"region":"us-east","cc":"ca","latitude":45.50889,"longitude":-73.56167,"reserved":0,"last_update":"0001-01-01T00:00:00Z","name_a2s":"","protocol":0,"map":"","folder":"","game":"","app_id":0,"player_count":0,"max_players":0,"Bots":0,"server_type":"","server_os":"","password":false,"vac":false,"version":"","steam_id":0,"keywords":null,"game_id":0,"stv_port":0,"stv_name":"","players":null},{"server_id":303,"name":"Uncletopia | Montréal | 4 | No Payload","name_short":"mtl-4","host":"mtl-1.ca.uncletopia.com","port":27045,"enabled":true,"region":"us-east","cc":"ca","latitude":45.50889,"longitude":-73.56167,"reserved":0,"last_update":"0001-01-01T00:00:00Z","name_a2s":"","protocol":0,"map":"","folder":"","game":"","app_id":0,"player_count":0,"max_players":0,"Bots":0,"server_type":"","server_os":"","password":false,"vac":false,"version":"","steam_id":0,"keywords":null,"game_id":0,"stv_port":0,"stv_name":"","players":null},{"server_id":13,"name":"Uncletopia | New York City | 1 | All Maps","name_short":"nyc-1","host":"nyc-1.us.uncletopia.com","port":27015,"enabled":true,"region":"us-east","cc":"us","latitude":40.73061,"longitude":-73.93524,"reserved":0,"last_update":"0001-01-01T00:00:00Z","name_a2s":"Uncletopia | New York City | 1 | All Maps","protocol":17,"map":"koth_suijin","folder":"tf","game":"Team Fortress","app_id":440,"player_count":24,"max_players":24,"Bots":0,"server_type":"Dedicated","server_os":"Linux","password":true,"vac":true,"version":"7961495","steam_id":85568392924469993,"keywords":["cp","nocrits","nodmgspread","uncletopia"],"game_id":440,"stv_port":27016,"stv_name":"Uncletopia | New York City | 1 | All Maps | STV","players":[{"user_id":199,"name":"Bother","steam_id":76561198336750909,"connected_time":3285000000000,"state":"active","ping":38},{"user_id":230,"name":"Stonks","steam_id":76561199490085068,"connected_time":725000000000,"state":"active","ping":64},{"user_id":221,"name":"haraldＨＡＲＡＬＤ","steam_id":76561198116998970,"connected_time":1606000000000,"state":"active","ping":155},{"user_id":200,"name":"big ol' buford","steam_id":76561198290675957,"connected_time":3247000000000,"state":"active","ping":73},{"user_id":134,"name":"Domswish","steam_id":76561198331444240,"connected_time":8838000000000,"state":"active","ping":60},{"user_id":226,"name":"Chris P. Bacon","steam_id":76561198000851038,"connected_time":903000000000,"state":"active","ping":57},{"user_id":217,"name":"Myn","steam_id":76561198055438857,"connected_time":1716000000000,"state":"active","ping":62},{"user_id":202,"name":"retinz","steam_id":76561198135563495,"connected_time":2882000000000,"state":"active","ping":56},{"user_id":236,"name":"squeeze","steam_id":76561198295174934,"connected_time":514000000000,"state":"active","ping":38},{"user_id":239,"name":"ndvr","steam_id":76561199379200102,"connected_time":127000000000,"state":"active","ping":55},{"user_id":231,"name":"breathingtrees","steam_id":76561198118931690,"connected_time":724000000000,"state":"active","ping":54},{"user_id":220,"name":"Windup Monkey in a Human Suit","steam_id":76561198119501444,"connected_time":1689000000000,"state":"active","ping":86},{"user_id":227,"name":"Goomby","steam_id":76561198079416561,"connected_time":775000000000,"state":"active","ping":77},{"user_id":238,"name":"QWERTY","steam_id":76561198211430420,"connected_time":265000000000,"state":"active","ping":86},{"user_id":131,"name":"Big Time Bobby","steam_id":76561198935266162,"connected_time":9106000000000,"state":"active","ping":79},{"user_id":237,"name":"Orange Triangle","steam_id":76561198320498182,"connected_time":506000000000,"state":"active","ping":74},{"user_id":168,"name":"Joy","steam_id":76561198073690173,"connected_time":6293000000000,"state":"active","ping":55},{"user_id":207,"name":"Crab Rangoon","steam_id":76561198059310510,"connected_time":2259000000000,"state":"active","ping":45},{"user_id":233,"name":"apple","steam_id":76561198359596382,"connected_time":697000000000,"state":"active","ping":54},{"user_id":122,"name":"Bottom feeder","steam_id":76561198181298169,"connected_time":9880000000000,"state":"active","ping":73},{"user_id":215,"name":"aquafinity","steam_id":76561198294191158,"connected_time":1727000000000,"state":"active","ping":74},{"user_id":197,"name":"guh","steam_id":76561197972342286,"connected_time":3903000000000,"state":"active","ping":58},{"user_id":224,"name":"Fat Kid In a Dragonball T-Shirt","steam_id":76561198182589975,"connected_time":1175000000000,"state":"active","ping":66},{"user_id":203,"name":"Broadway Rose","steam_id":76561198046083342,"connected_time":2881000000000,"state":"active","ping":44}]},{"server_id":14,"name":"Uncletopia | New York City | 2 | All Maps","name_short":"nyc-2","host":"nyc-1.us.uncletopia.com","port":27025,"enabled":true,"region":"us-east","cc":"us","latitude":40.73061,"longitude":-73.93524,"reserved":0,"last_update":"0001-01-01T00:00:00Z","name_a2s":"Uncletopia | New York City | 2 | All Maps","protocol":17,"map":"pl_upward","folder":"tf","game":"Team Fortress","app_id":440,"player_count":25,"max_players":24,"Bots":0,"server_type":"Dedicated","server_os":"Linux","password":true,"vac":true,"version":"7961495","steam_id":85568392924469994,"keywords":["nocrits","nodmgspread","payload","uncletopia"],"game_id":440,"stv_port":27026,"stv_name":"Uncletopia | New York City | 2 | All Maps | STV","players":[{"user_id":98,"name":"InchMan","steam_id":76561198272658825,"connected_time":111000000000,"state":"connecting","ping":0},{"user_id":84,"name":"remanedur","steam_id":76561198059459507,"connected_time":1406000000000,"state":"active","ping":66},{"user_id":82,"name":"Okpar","steam_id":76561199221067945,"connected_time":2109000000000,"state":"active","ping":87},{"user_id":100,"name":"mountain goat","steam_id":76561198326628884,"connected_time":78000000000,"state":"active","ping":56},{"user_id":97,"name":"Olifont","steam_id":76561198141162919,"connected_time":113000000000,"state":"active","ping":62},{"user_id":77,"name":"Espresso Enjoyer","steam_id":76561198254238409,"connected_time":2598000000000,"state":"active","ping":89},{"user_id":96,"name":"Cousin Balki","steam_id":76561198070496395,"connected_time":211000000000,"state":"active","ping":75},{"user_id":32,"name":"ÇAFFIEND","steam_id":76561198062993241,"connected_time":4253000000000,"state":"active","ping":91},{"user_id":88,"name":"Fray","steam_id":76561198030141282,"connected_time":993000000000,"state":"active","ping":91},{"user_id":70,"name":"Preacher","steam_id":76561198022215764,"connected_time":2852000000000,"state":"active","ping":55},{"user_id":71,"name":"simplyhere141","steam_id":76561199204117948,"connected_time":2808000000000,"state":"active","ping":60},{"user_id":99,"name":"Jaydyn","steam_id":76561198140326797,"connected_time":104000000000,"state":"active","ping":66},{"user_id":66,"name":"PageBoiSkull","steam_id":76561198237353578,"connected_time":3066000000000,"state":"active","ping":126},{"user_id":39,"name":"Mediocre Gaming","steam_id":76561199230467980,"connected_time":4129000000000,"state":"active","ping":75},{"user_id":92,"name":"TheBoxWizard","steam_id":76561198447992832,"connected_time":712000000000,"state":"active","ping":41},{"user_id":85,"name":"Pattar","steam_id":76561198146276146,"connected_time":1391000000000,"state":"active","ping":76},{"user_id":79,"name":"M249 | Spectre","steam_id":76561198118334485,"connected_time":2574000000000,"state":"active","ping":69},{"user_id":89,"name":"Howell at the Moon","steam_id":76561198060827426,"connected_time":993000000000,"state":"active","ping":82},{"user_id":101,"name":"brenden","steam_id":76561198120346280,"connected_time":67000000000,"state":"active","ping":62},{"user_id":103,"name":"Your cousin Throckmorton","steam_id":76561198055430804,"connected_time":50000000000,"state":"active","ping":74},{"user_id":94,"name":"Loser420","steam_id":76561199049823558,"connected_time":349000000000,"state":"active","ping":74},{"user_id":102,"name":"Huntpk","steam_id":76561198340591674,"connected_time":66000000000,"state":"active","ping":66},{"user_id":54,"name":"nhbiker","steam_id":76561198081277675,"connected_time":3772000000000,"state":"active","ping":59},{"user_id":76,"name":"Jill the Owl","steam_id":76561197999210583,"connected_time":2661000000000,"state":"active","ping":55},{"user_id":91,"name":"guppy","steam_id":76561198041380190,"connected_time":835000000000,"state":"active","ping":72}]},{"server_id":15,"name":"Uncletopia | New York City | 3 | Stopwatch","name_short":"nyc-3","host":"nyc-1.us.uncletopia.com","port":27035,"enabled":true,"region":"us-east","cc":"us","latitude":40.73061,"longitude":-73.93524,"reserved":0,"last_update":"0001-01-01T00:00:00Z","name_a2s":"Uncletopia | New York City | 3 | Stopwatch","protocol":17,"map":"pl_snowycoast","folder":"tf","game":"Team Fortress","app_id":440,"player_count":0,"max_players":24,"Bots":0,"server_type":"Dedicated","server_os":"Linux","password":true,"vac":true,"version":"7961495","steam_id":85568392924742820,"keywords":["nocrits","nodmgspread","payload","uncletopia"],"game_id":440,"stv_port":27036,"stv_name":"Uncletopia | New York City | 3 | Stopwatch | STV","players":null},{"server_id":16,"name":"Uncletopia | New York City | 4 | Community","name_short":"nyc-4","host":"nyc-1.us.uncletopia.com","port":27045,"enabled":true,"region":"us-east","cc":"us","latitude":40.73061,"longitude":-73.93524,"reserved":0,"last_update":"0001-01-01T00:00:00Z","name_a2s":"Uncletopia | New York City | 4 | Community","protocol":17,"map":"workshop/cp_croissant_final.ugc458840209","folder":"tf","game":"Team Fortress","app_id":440,"player_count":0,"max_players":24,"Bots":0,"server_type":"Dedicated","server_os":"Linux","password":true,"vac":true,"version":"7961495","steam_id":85568392924742821,"keywords":["cp","nocrits","nodmgspread","uncletopia"],"game_id":440,"stv_port":27046,"stv_name":"Uncletopia | New York City | 4 | Community | STV","players":null},{"server_id":142,"name":"Uncletopia | São Paulo | 1 | All Maps","name_short":"sao-1","host":"sao-1.br.uncletopia.com","port":27015,"enabled":true,"region":"sa","cc":"br","latitude":-23.533773,"longitude":-46.62529,"reserved":0,"last_update":"0001-01-01T00:00:00Z","name_a2s":"Uncletopia | São Paulo | 1 | All Maps","protocol":17,"map":"koth_viaduct","folder":"tf","game":"Team Fortress","app_id":440,"player_count":0,"max_players":24,"Bots":0,"server_type":"Dedicated","server_os":"Linux","password":true,"vac":true,"version":"7961495","steam_id":85568392924469996,"keywords":["cp","nocrits","nodmgspread","uncletopia"],"game_id":440,"stv_port":27016,"stv_name":"Uncletopia | São Paulo | 1 | All Maps | STV","players":null},{"server_id":143,"name":"Uncletopia | São Paulo | 2 | Community","name_short":"sao-2","host":"sao-2.br.uncletopia.com","port":27015,"enabled":true,"region":"sa","cc":"br","latitude":-23.533773,"longitude":-46.62529,"reserved":0,"last_update":"0001-01-01T00:00:00Z","name_a2s":"Uncletopia | São Paulo | 2 | Community","protocol":17,"map":"workshop/cp_reckoner_rc6.ugc674719999","folder":"tf","game":"Team Fortress","app_id":440,"player_count":0,"max_players":24,"Bots":0,"server_type":"Dedicated","server_os":"Linux","password":true,"vac":true,"version":"7961495","steam_id":85568392924485349,"keywords":["cp","nocrits","nodmgspread","uncletopia"],"game_id":440,"stv_port":27016,"stv_name":"Uncletopia | São Paulo | 2 | Community | STV","players":null},{"server_id":7,"name":"Uncletopia | Seattle | 1 | All Maps","name_short":"sea-1","host":"sea-1.us.uncletopia.com","port":27015,"enabled":true,"region":"us-west","cc":"us","latitude":47.608013,"longitude":-122.33517,"reserved":0,"last_update":"0001-01-01T00:00:00Z","name_a2s":"Uncletopia | Seattle | 1 | All Maps","protocol":17,"map":"pl_pier","folder":"tf","game":"Team Fortress","app_id":440,"player_count":24,"max_players":24,"Bots":0,"server_type":"Dedicated","server_os":"Linux","password":true,"vac":true,"version":"7961495","steam_id":85568392924469997,"keywords":["nocrits","nodmgspread","payload","uncletopia"],"game_id":440,"stv_port":27016,"stv_name":"Uncletopia | Seattle | 1 | All Maps | STV","players":[{"user_id":297,"name":"Your Local Queer Librarian","steam_id":76561198013077080,"connected_time":254000000000,"state":"active","ping":105},{"user_id":237,"name":"Lili W.","steam_id":76561199391478575,"connected_time":4518000000000,"state":"active","ping":56},{"user_id":299,"name":"{FITH}™ SmittyWun {FM}","steam_id":76561198079531938,"connected_time":184000000000,"state":"active","ping":120},{"user_id":279,"name":"Keamy","steam_id":76561199471434875,"connected_time":1657000000000,"state":"active","ping":34},{"user_id":272,"name":"ORANGE","steam_id":76561198000401769,"connected_time":1954000000000,"state":"active","ping":50},{"user_id":300,"name":"Otis the Winter Dog","steam_id":76561198023301866,"connected_time":137000000000,"state":"active","ping":83},{"user_id":273,"name":"vevetables","steam_id":76561198404178400,"connected_time":1901000000000,"state":"active","ping":93},{"user_id":285,"name":"Encore","steam_id":76561198029433812,"connected_time":859000000000,"state":"active","ping":63},{"user_id":293,"name":"Phos","steam_id":76561198122339506,"connected_time":563000000000,"state":"active","ping":81},{"user_id":251,"name":"Dov-Ah-Bob","steam_id":76561198147798338,"connected_time":3231000000000,"state":"active","ping":75},{"user_id":281,"name":"Ben Larson","steam_id":76561198870649125,"connected_time":1291000000000,"state":"active","ping":87},{"user_id":271,"name":"Grimace D. Drippings","steam_id":76561198050849790,"connected_time":2194000000000,"state":"active","ping":83},{"user_id":283,"name":"pabbott123110","steam_id":76561199231739796,"connected_time":994000000000,"state":"active","ping":140},{"user_id":294,"name":"fwoov","steam_id":76561198129166260,"connected_time":374000000000,"state":"active","ping":75},{"user_id":235,"name":"peachy","steam_id":76561198028721790,"connected_time":4765000000000,"state":"active","ping":66},{"user_id":282,"name":"pl_dustbowl","steam_id":76561198857237473,"connected_time":1231000000000,"state":"active","ping":52},{"user_id":301,"name":"Y2K ^_^","steam_id":76561199191855486,"connected_time":129000000000,"state":"active","ping":45},{"user_id":302,"name":"O","steam_id":76561198450073779,"connected_time":127000000000,"state":"active","ping":45},{"user_id":287,"name":"louise sneeze","steam_id":76561198062451648,"connected_time":826000000000,"state":"active","ping":91},{"user_id":298,"name":"[chef] iron","steam_id":76561197970888616,"connected_time":242000000000,"state":"active","ping":75},{"user_id":288,"name":"GaySkitarii","steam_id":76561198403829714,"connected_time":776000000000,"state":"active","ping":46},{"user_id":262,"name":"K2f","steam_id":76561198049600563,"connected_time":2678000000000,"state":"active","ping":65},{"user_id":295,"name":"Bocchi The Rock Johnson","steam_id":76561198216017952,"connected_time":332000000000,"state":"active","ping":89},{"user_id":303,"name":"Alteraxia","steam_id":76561198213333961,"connected_time":120000000000,"state":"active","ping":135}]},{"server_id":119,"name":"Uncletopia | Seattle | 2 | All Maps","name_short":"sea-2","host":"sea-1.us.uncletopia.com","port":27025,"enabled":true,"region":"us-west","cc":"us","latitude":47.608013,"longitude":-122.33517,"reserved":0,"last_update":"0001-01-01T00:00:00Z","name_a2s":"Uncletopia | Seattle | 2 | All Maps","protocol":17,"map":"cp_dustbowl","folder":"tf","game":"Team Fortress","app_id":440,"player_count":24,"max_players":24,"Bots":0,"server_type":"Dedicated","server_os":"Linux","password":true,"vac":true,"version":"7961495","steam_id":85568392924469998,"keywords":["cp","nocrits","nodmgspread","uncletopia"],"game_id":440,"stv_port":27026,"stv_name":"Uncletopia | Seattle | 2 | All Maps | STV","players":[{"user_id":374,"name":"Wulf","steam_id":76561198006072568,"connected_time":861000000000,"state":"active","ping":55},{"user_id":317,"name":"Jackrifleman","steam_id":76561198067764004,"connected_time":4882000000000,"state":"active","ping":59},{"user_id":331,"name":"dab","steam_id":76561197997990613,"connected_time":4190000000000,"state":"active","ping":74},{"user_id":362,"name":"Rude Dog","steam_id":76561197980385816,"connected_time":1290000000000,"state":"active","ping":54},{"user_id":368,"name":"R5-D4","steam_id":76561198025196439,"connected_time":1064000000000,"state":"active","ping":55},{"user_id":363,"name":"Rhutebeer","steam_id":76561198018302761,"connected_time":1249000000000,"state":"active","ping":145},{"user_id":269,"name":"Anon","steam_id":76561198109740776,"connected_time":7708000000000,"state":"active","ping":85},{"user_id":367,"name":"Rango","steam_id":76561198104086771,"connected_time":1126000000000,"state":"active","ping":73},{"user_id":359,"name":"Kiradias777","steam_id":76561198067176309,"connected_time":1314000000000,"state":"active","ping":117},{"user_id":364,"name":"ChebJeb","steam_id":76561198981377081,"connected_time":1234000000000,"state":"active","ping":131},{"user_id":378,"name":"iggybones (girl with balls)","steam_id":76561198101610291,"connected_time":715000000000,"state":"active","ping":82},{"user_id":356,"name":"lnhinson1","steam_id":76561198877983630,"connected_time":2563000000000,"state":"active","ping":116},{"user_id":366,"name":"Randall","steam_id":76561198026953943,"connected_time":1173000000000,"state":"active","ping":114},{"user_id":384,"name":"Thequirka","steam_id":76561198968058652,"connected_time":318000000000,"state":"active","ping":48},{"user_id":352,"name":"[TTV]slendermansmoom","steam_id":76561199053946374,"connected_time":2889000000000,"state":"active","ping":69},{"user_id":372,"name":"LILGI4THAW","steam_id":76561198403803842,"connected_time":923000000000,"state":"active","ping":66},{"user_id":376,"name":"God's Girliest Boy","steam_id":76561199200969139,"connected_time":806000000000,"state":"active","ping":224},{"user_id":377,"name":"greens beans","steam_id":76561198153611491,"connected_time":758000000000,"state":"active","ping":49},{"user_id":345,"name":"marty","steam_id":76561198032782746,"connected_time":3434000000000,"state":"active","ping":43},{"user_id":381,"name":"2Fort Defense Comittee Officer","steam_id":76561199045199653,"connected_time":656000000000,"state":"active","ping":135},{"user_id":382,"name":"MrMacMundy","steam_id":76561198835230572,"connected_time":651000000000,"state":"active","ping":104},{"user_id":282,"name":"Mr. DeLarge","steam_id":76561198336820066,"connected_time":7145000000000,"state":"active","ping":60},{"user_id":360,"name":"M4 Sherman","steam_id":76561198126990820,"connected_time":1306000000000,"state":"active","ping":101},{"user_id":383,"name":"spurious george","steam_id":76561198043558709,"connected_time":644000000000,"state":"active","ping":45}]},{"server_id":406,"name":"Uncletopia | Seattle | 3 | Stopwatch","name_short":"sea-3","host":"sea-1.us.uncletopia.com","port":27035,"enabled":true,"region":"us-west","cc":"us","latitude":47.608013,"longitude":-122.33517,"reserved":0,"last_update":"0001-01-01T00:00:00Z","name_a2s":"Uncletopia | Seattle | 3 | Stopwatch","protocol":17,"map":"koth_highpass","folder":"tf","game":"Team Fortress","app_id":440,"player_count":0,"max_players":24,"Bots":0,"server_type":"Dedicated","server_os":"Linux","password":true,"vac":true,"version":"7961495","steam_id":85568392924515217,"keywords":["cp","nocrits","nodmgspread","uncletopia"],"game_id":440,"stv_port":27036,"stv_name":"Uncletopia | Seattle | 3 | Stopwatch | STV","players":null},{"server_id":17,"name":"Uncletopia | San Francisco | 1 | All Maps","name_short":"sfo-1","host":"sfo-1.us.uncletopia.com","port":27015,"enabled":true,"region":"us-west","cc":"us","latitude":37.77397,"longitude":-122.4313,"reserved":0,"last_update":"0001-01-01T00:00:00Z","name_a2s":"Uncletopia | San Francisco | 1 | All Maps","protocol":17,"map":"koth_cascade","folder":"tf","game":"Team Fortress","app_id":440,"player_count":1,"max_players":24,"Bots":0,"server_type":"Dedicated","server_os":"Linux","password":true,"vac":true,"version":"7961495","steam_id":85568392924469999,"keywords":["cp","nocrits","nodmgspread","uncletopia"],"game_id":440,"stv_port":27016,"stv_name":"Uncletopia | San Francisco | 1 | All Maps | STV","players":[{"user_id":4,"name":"crowe","steam_id":76561198142185527,"connected_time":1307000000000,"state":"active","ping":43}]},{"server_id":18,"name":"Uncletopia | San Francisco | 2 | All Maps","name_short":"sfo-2","host":"sfo-1.us.uncletopia.com","port":27025,"enabled":true,"region":"us-west","cc":"us","latitude":37.77397,"longitude":-122.4313,"reserved":0,"last_update":"0001-01-01T00:00:00Z","name_a2s":"Uncletopia | San Francisco | 2 | All Maps","protocol":17,"map":"pl_borneo","folder":"tf","game":"Team Fortress","app_id":440,"player_count":24,"max_players":24,"Bots":0,"server_type":"Dedicated","server_os":"Linux","password":true,"vac":true,"version":"7961495","steam_id":85568392924470000,"keywords":["nocrits","nodmgspread","payload","uncletopia"],"game_id":440,"stv_port":27026,"stv_name":"Uncletopia | San Francisco | 2 | All Maps | STV","players":[{"user_id":11,"name":"Borgor Boi","steam_id":76561199061388107,"connected_time":5236000000000,"state":"active","ping":60},{"user_id":80,"name":"EAT SPIT!","steam_id":76561198096836451,"connected_time":226000000000,"state":"active","ping":45},{"user_id":55,"name":"Shagbark","steam_id":76561198173447342,"connected_time":1391000000000,"state":"active","ping":124},{"user_id":54,"name":"Nova Academy of Salmon Action","steam_id":76561198021842526,"connected_time":1560000000000,"state":"active","ping":55},{"user_id":75,"name":"DerpMan","steam_id":76561198341191324,"connected_time":578000000000,"state":"active","ping":69},{"user_id":56,"name":"Noodlesmasher2","steam_id":76561199084186813,"connected_time":1376000000000,"state":"active","ping":52},{"user_id":57,"name":"Rovsson","steam_id":76561198274949596,"connected_time":1307000000000,"state":"active","ping":115},{"user_id":73,"name":"Snate","steam_id":76561198450717578,"connected_time":743000000000,"state":"active","ping":60},{"user_id":47,"name":"Fish","steam_id":76561199016308078,"connected_time":1705000000000,"state":"active","ping":52},{"user_id":58,"name":"Pukei-Pukei","steam_id":76561197992722546,"connected_time":1250000000000,"state":"active","ping":71},{"user_id":29,"name":"VixianUwU","steam_id":76561198948815060,"connected_time":2157000000000,"state":"active","ping":80},{"user_id":69,"name":"brainbreaks","steam_id":76561199083119402,"connected_time":917000000000,"state":"active","ping":132},{"user_id":74,"name":"Oh No! It's Twister!","steam_id":76561198016791916,"connected_time":736000000000,"state":"active","ping":117},{"user_id":53,"name":"małię","steam_id":76561198337705174,"connected_time":1587000000000,"state":"active","ping":75},{"user_id":34,"name":"Abram the 1st","steam_id":76561198210964703,"connected_time":2048000000000,"state":"active","ping":54},{"user_id":62,"name":"GIGAHAXX","steam_id":76561197993714726,"connected_time":1206000000000,"state":"active","ping":60},{"user_id":63,"name":"sagekiss","steam_id":76561198038831240,"connected_time":1168000000000,"state":"active","ping":82},{"user_id":78,"name":"garam","steam_id":76561198142231236,"connected_time":305000000000,"state":"active","ping":71},{"user_id":40,"name":"DesertFroggo","steam_id":76561198015607829,"connected_time":1815000000000,"state":"active","ping":106},{"user_id":76,"name":"Caspian","steam_id":76561199041466962,"connected_time":531000000000,"state":"active","ping":65},{"user_id":64,"name":"Big Yoshi","steam_id":76561198975207722,"connected_time":1141000000000,"state":"active","ping":89},{"user_id":65,"name":"rice white","steam_id":76561198320732910,"connected_time":1106000000000,"state":"active","ping":120},{"user_id":72,"name":"Alchemist","steam_id":76561198094238189,"connected_time":793000000000,"state":"active","ping":66},{"user_id":79,"name":"Firedust19","steam_id":76561198153238631,"connected_time":296000000000,"state":"active","ping":77}]},{"server_id":19,"name":"Uncletopia | San Francisco | 3 | Stopwatch","name_short":"sfo-3","host":"sfo-1.us.uncletopia.com","port":27035,"enabled":true,"region":"us-west","cc":"us","latitude":37.77397,"longitude":-122.4313,"reserved":0,"last_update":"0001-01-01T00:00:00Z","name_a2s":"Uncletopia | San Francisco | 3 | Stopwatch","protocol":17,"map":"pl_pier","folder":"tf","game":"Team Fortress","app_id":440,"player_count":0,"max_players":24,"Bots":0,"server_type":"Dedicated","server_os":"Linux","password":true,"vac":true,"version":"7961495","steam_id":85568392924742824,"keywords":["nocrits","nodmgspread","payload","uncletopia"],"game_id":440,"stv_port":27036,"stv_name":"Uncletopia | San Francisco | 3 | Stopwatch | STV","players":null},{"server_id":20,"name":"Uncletopia | San Francisco | 4 | Community","name_short":"sfo-4","host":"sfo-1.us.uncletopia.com","port":27045,"enabled":true,"region":"us-west","cc":"us","latitude":37.77397,"longitude":-122.4313,"reserved":0,"last_update":"0001-01-01T00:00:00Z","name_a2s":"Uncletopia | San Francisco | 4 | Community","protocol":17,"map":"workshop/rd_asteroid_redux_b1.ugc2154902912","folder":"tf","game":"Team Fortress","app_id":440,"player_count":2,"max_players":24,"Bots":0,"server_type":"Dedicated","server_os":"Linux","password":true,"vac":true,"version":"7961495","steam_id":85568392924742826,"keywords":["beta","nocrits","nodmgspread","rd","uncletopia"],"game_id":440,"stv_port":27046,"stv_name":"Uncletopia | San Francisco | 4 | Community | STV","players":[{"user_id":10,"name":"w4rd","steam_id":76561198134667434,"connected_time":81000000000,"state":"active","ping":93},{"user_id":11,"name":"JoJoJo","steam_id":76561198067153390,"connected_time":60000000000,"state":"spawning","ping":442}]},{"server_id":141,"name":"Uncletopia | Sydney | 1 | All Maps","name_short":"syd-1","host":"syd-1.au.uncletopia.com","port":27015,"enabled":true,"region":"au","cc":"au","latitude":-33.865143,"longitude":151.2099,"reserved":0,"last_update":"0001-01-01T00:00:00Z","name_a2s":"Uncletopia | Sydney | 1 | All Maps","protocol":17,"map":"koth_viaduct","folder":"tf","game":"Team Fortress","app_id":440,"player_count":3,"max_players":24,"Bots":0,"server_type":"Dedicated","server_os":"Linux","password":true,"vac":true,"version":"7961495","steam_id":85568392924470001,"keywords":["cp","nocrits","nodmgspread","uncletopia"],"game_id":440,"stv_port":27016,"stv_name":"Uncletopia | Sydney | 1 | All Maps | STV","players":[{"user_id":5,"name":"timtam","steam_id":76561199367793551,"connected_time":647000000000,"state":"active","ping":117},{"user_id":6,"name":"CardboardQueen (no mic)","steam_id":76561199099769110,"connected_time":399000000000,"state":"active","ping":55},{"user_id":7,"name":"numi","steam_id":76561198241303512,"connected_time":333000000000,"state":"active","ping":55}]},{"server_id":123,"name":"Uncletopia | Sydney | 2 | All Maps","name_short":"syd-2","host":"syd-1.au.uncletopia.com","port":27025,"enabled":true,"region":"au","cc":"au","latitude":-33.865143,"longitude":151.2099,"reserved":0,"last_update":"0001-01-01T00:00:00Z","name_a2s":"Uncletopia | Sydney | 2 | All Maps","protocol":17,"map":"koth_lakeside_final","folder":"tf","game":"Team Fortress","app_id":440,"player_count":1,"max_players":24,"Bots":0,"server_type":"Dedicated","server_os":"Linux","password":true,"vac":true,"version":"7961495","steam_id":85568392924470002,"keywords":["cp","nocrits","nodmgspread","uncletopia"],"game_id":440,"stv_port":27026,"stv_name":"Uncletopia | Sydney | 2 | All Maps | STV","players":[{"user_id":4,"name":"Detona","steam_id":76561199256351639,"connected_time":133000000000,"state":"active","ping":88}]},{"server_id":395,"name":"Uncletopia | Sydney | 3 | All Maps","name_short":"syd-3","host":"syd-1.au.uncletopia.com","port":27035,"enabled":true,"region":"au","cc":"au","latitude":-33.865143,"longitude":151.2099,"reserved":0,"last_update":"0001-01-01T00:00:00Z","name_a2s":"Uncletopia | Sydney | 3 | All Maps","protocol":17,"map":"pl_barnblitz","folder":"tf","game":"Team Fortress","app_id":440,"player_count":0,"max_players":24,"Bots":0,"server_type":"Dedicated","server_os":"Linux","password":true,"vac":true,"version":"7961495","steam_id":85568392925194467,"keywords":["nocrits","nodmgspread","payload","uncletopia"],"game_id":440,"stv_port":27036,"stv_name":"Uncletopia | Sydney | 3 | All Maps | STV","players":null},{"server_id":396,"name":"Uncletopia | Sydney | 4 | All Maps","name_short":"syd-4","host":"syd-1.au.uncletopia.com","port":27045,"enabled":true,"region":"au","cc":"au","latitude":-33.865143,"longitude":151.2099,"reserved":0,"last_update":"0001-01-01T00:00:00Z","name_a2s":"Uncletopia | Sydney | 4 | All Maps","protocol":17,"map":"cp_process_final","folder":"tf","game":"Team Fortress","app_id":440,"player_count":0,"max_players":24,"Bots":0,"server_type":"Dedicated","server_os":"Linux","password":true,"vac":true,"version":"7961495","steam_id":85568392925397958,"keywords":["cp","nocrits","nodmgspread","uncletopia"],"game_id":440,"stv_port":27046,"stv_name":"Uncletopia | Sydney | 4 | All Maps | STV","players":null},{"server_id":58,"name":"Uncletopia | Sydney | 5 | Stopwatch","name_short":"syd-5","host":"syd-1.au.uncletopia.com","port":27055,"enabled":true,"region":"au","cc":"au","latitude":-33.865143,"longitude":151.2099,"reserved":0,"last_update":"0001-01-01T00:00:00Z","name_a2s":"Uncletopia | Sydney | 5 | Stopwatch","protocol":17,"map":"workshop/koth_clearcut_b15.ugc2107050255","folder":"tf","game":"Team Fortress","app_id":440,"player_count":0,"max_players":24,"Bots":0,"server_type":"Dedicated","server_os":"Linux","password":true,"vac":true,"version":"7961495","steam_id":85568392925397959,"keywords":["cp","nocrits","nodmgspread","uncletopia"],"game_id":440,"stv_port":27056,"stv_name":"Uncletopia | Sydney | 5 | Stopwatch | STV","players":null},{"server_id":59,"name":"Uncletopia | Sydney | 6 | Community","name_short":"syd-6","host":"syd-1.au.uncletopia.com","port":27065,"enabled":true,"region":"au","cc":"au","latitude":-33.865143,"longitude":151.2099,"reserved":0,"last_update":"0001-01-01T00:00:00Z","name_a2s":"Uncletopia | Sydney | 6 | Community","protocol":17,"map":"cp_sunshine","folder":"tf","game":"Team Fortress","app_id":440,"player_count":0,"max_players":24,"Bots":0,"server_type":"Dedicated","server_os":"Linux","password":true,"vac":true,"version":"7961495","steam_id":85568392925397960,"keywords":["cp","nocrits","nodmgspread","uncletopia"],"game_id":440,"stv_port":27066,"stv_name":"Uncletopia | Sydney | 6 | Community | STV","players":null},{"server_id":49,"name":"Uncletopia | Warsaw | 1 | All Maps","name_short":"waw-1","host":"waw-1.pl.uncletopia.com","port":27015,"enabled":true,"region":"eu","cc":"pl","latitude":52.2297,"longitude":21.017532,"reserved":0,"last_update":"0001-01-01T00:00:00Z","name_a2s":"Uncletopia | Warsaw | 1 | All Maps","protocol":17,"map":"pl_badwater","folder":"tf","game":"Team Fortress","app_id":440,"player_count":0,"max_players":24,"Bots":0,"server_type":"Dedicated","server_os":"Linux","password":true,"vac":true,"version":"7961495","steam_id":85568392925397850,"keywords":["nocrits","nodmgspread","payload","uncletopia"],"game_id":440,"stv_port":27016,"stv_name":"Uncletopia | Warsaw | 1 | All Maps | STV","players":null},{"server_id":50,"name":"Uncletopia | Warsaw | 2 | All Maps","name_short":"waw-2","host":"waw-1.pl.uncletopia.com","port":27025,"enabled":true,"region":"eu","cc":"pl","latitude":52.2297,"longitude":21.017532,"reserved":0,"last_update":"0001-01-01T00:00:00Z","name_a2s":"Uncletopia | Warsaw | 2 | All Maps","protocol":17,"map":"cp_process_final","folder":"tf","game":"Team Fortress","app_id":440,"player_count":0,"max_players":24,"Bots":0,"server_type":"Dedicated","server_os":"Linux","password":true,"vac":true,"version":"7961495","steam_id":85568392925397851,"keywords":["cp","nocrits","nodmgspread","uncletopia"],"game_id":440,"stv_port":27026,"stv_name":"Uncletopia | Warsaw | 2 | All Maps | STV","players":null},{"server_id":51,"name":"Uncletopia | Warsaw | 3 | All Maps","name_short":"waw-3","host":"waw-1.pl.uncletopia.com","port":27035,"enabled":true,"region":"eu","cc":"pl","latitude":52.2297,"longitude":21.017532,"reserved":0,"last_update":"0001-01-01T00:00:00Z","name_a2s":"Uncletopia | Warsaw | 3 | All Maps","protocol":17,"map":"koth_cascade","folder":"tf","game":"Team Fortress","app_id":440,"player_count":0,"max_players":24,"Bots":0,"server_type":"Dedicated","server_os":"Linux","password":true,"vac":true,"version":"7961495","steam_id":85568392925397852,"keywords":["cp","nocrits","nodmgspread","uncletopia"],"game_id":440,"stv_port":27036,"stv_name":"Uncletopia | Warsaw | 3 | All Maps | STV","players":null},{"server_id":52,"name":"Uncletopia | Warsaw | 4 | All Maps","name_short":"waw-4","host":"waw-1.pl.uncletopia.com","port":27045,"enabled":true,"region":"eu","cc":"pl","latitude":52.2297,"longitude":21.017532,"reserved":0,"last_update":"0001-01-01T00:00:00Z","name_a2s":"Uncletopia | Warsaw | 4 | All Maps","protocol":17,"map":"cp_altitude","folder":"tf","game":"Team Fortress","app_id":440,"player_count":0,"max_players":24,"Bots":0,"server_type":"Dedicated","server_os":"Linux","password":true,"vac":true,"version":"7961495","steam_id":85568392925397853,"keywords":["cp","nocrits","nodmgspread","uncletopia"],"game_id":440,"stv_port":27046,"stv_name":"Uncletopia | Warsaw | 4 | All Maps | STV","players":null},{"server_id":53,"name":"Uncletopia | Warsaw | 5 | Stopwatch","name_short":"waw-5","host":"waw-1.pl.uncletopia.com","port":27055,"enabled":true,"region":"eu","cc":"pl","latitude":52.2297,"longitude":21.017532,"reserved":0,"last_update":"0001-01-01T00:00:00Z","name_a2s":"Uncletopia | Warsaw | 5 | Stopwatch","protocol":17,"map":"pl_barnblitz","folder":"tf","game":"Team Fortress","app_id":440,"player_count":0,"max_players":24,"Bots":0,"server_type":"Dedicated","server_os":"Linux","password":true,"vac":true,"version":"7961495","steam_id":85568392925397854,"keywords":["nocrits","nodmgspread","payload","uncletopia"],"game_id":440,"stv_port":27056,"stv_name":"Uncletopia | Warsaw | 5 | Stopwatch | STV","players":null},{"server_id":54,"name":"Uncletopia | Warsaw | 6 | Community","name_short":"waw-6","host":"waw-1.pl.uncletopia.com","port":27065,"enabled":true,"region":"eu","cc":"pl","latitude":52.2297,"longitude":21.017532,"reserved":0,"last_update":"0001-01-01T00:00:00Z","name_a2s":"Uncletopia | Warsaw | 6 | Community","protocol":17,"map":"workshop/pl_badwater_pro_v12.ugc2142942074","folder":"tf","game":"Team Fortress","app_id":440,"player_count":0,"max_players":24,"Bots":0,"server_type":"Dedicated","server_os":"Linux","password":true,"vac":true,"version":"7961495","steam_id":85568392925397856,"keywords":["nocrits","nodmgspread","payload","uncletopia"],"game_id":440,"stv_port":27066,"stv_name":"Uncletopia | Warsaw | 6 | Community | STV","players":null}]}