{"status":true,"message":"","result":[{"server_id":9,"name":"Uncletopia | Atlanta | 1 | All Maps","name_short":"atl-1","host":"atl-1.us.uncletopia.com","port":27015,"enabled":true,"region":"us-east","cc":"us","latitude":33.753746,"longitude":-84.38633,"reserved":0,"last_update":"0001-01-01T00:00:00Z","name_a2s":"Uncletopia | Atlanta | 1 | All Maps","protocol":17,"map":"pl_wutville_event","folder":"tf","game":"Team Fortress","app_id":440,"player_count":15,"max_players":24,"Bots":0,"server_type":"Dedicated","server_os":"Linux","password":true,"vac":true,"version":"7708610","steam_id":85568392924469982,"keywords":["nocrits","nodmgspread","payload","uncletopia"],"game_id":440,"stv_port":27016,"stv_name":"Uncletopia | Atlanta | 1 | All Maps | STV","players":[{"user_id":666,"name":"Johnny Esports","steam_id":76561198115812405,"connected_time":445000000000,"state":"active","ping":94},{"user_id":664,"name":"Oober Jackalope","steam_id":76561198285747760,"connected_time":613000000000,"state":"active","ping":135},{"user_id":668,"name":"pinion","steam_id":76561197960553065,"connected_time":230000000000,"state":"active","ping":133},{"user_id":639,"name":"RelativeToZero","steam_id":76561198175875733,"connected_time":2754000000000,"state":"active","ping":103},{"user_id":665,"name":"sjc","steam_id":76561198057938962,"connected_time":596000000000,"state":"active","ping":89},{"user_id":646,"name":"Arcain0","steam_id":76561198115613483,"connected_time":1951000000000,"state":"active","ping":56},{"user_id":669,"name":"NutInsideYourMotherNowWeBrother","steam_id":76561198066812433,"connected_time":133000000000,"state":"active","ping":30},{"user_id":644,"name":"Swiss","steam_id":76561198268985531,"connected_time":2302000000000,"state":"active","ping":113},{"user_id":656,"name":"GabetIV femboy","steam_id":76561198145700338,"connected_time":1100000000000,"state":"active","ping":71},{"user_id":642,"name":"Teejayy","steam_id":76561198053235884,"connected_time":2490000000000,"state":"active","ping":88},{"user_id":658,"name":"psy","steam_id":76561198013195018,"connected_time":1051000000000,"state":"active","ping":91},{"user_id":663,"name":"♥Ranman♥Femboy♥","steam_id":76561198042144492,"connected_time":727000000000,"state":"active","ping":52},{"user_id":632,"name":"FemboyNate","steam_id":76561198146636410,"connected_time":3255000000000,"state":"active","ping":50},{"user_id":661,"name":"monkeygirl215","steam_id":76561199135825621,"connected_time":967000000000,"state":"active","ping":85},{"user_id":616,"name":"beats_femboy","steam_id":76561199245717718,"connected_time":5234000000000,"state":"active","ping":69}]},{"server_id":400,"name":"Uncletopia | Atlanta | 3 | All Maps","name_short":"atl-3","host":"atl-1.us.uncletopia.com","port":27035,"enabled":true,"region":"us-east","cc":"us","latitude":33.753746,"longitude":-84.38633,"reserved":0,"last_update":"0001-01-01T00:00:00Z","name_a2s":"Uncletopia | Atlanta | 3 | All Maps","protocol":17,"map":"pl_frontier_final","folder":"tf","game":"Team Fortress","app_id":440,"player_count":24,"max_players":24,"Bots":0,"server_type":"Dedicated","server_os":"Linux","password":true,"vac":true,"version":"7708610","steam_id":85568392924515187,"keywords":["nocrits","nodmgspread","payload","uncletopia"],"game_id":440,"stv_port":27036,"stv_name":"Uncletopia | Atlanta | 3 | All Maps | STV","players":[{"user_id":609,"name":"A Puppy","steam_id":76561198828184456,"connected_time":44000000000,"state":"active","ping":53},{"user_id":598,"name":"Neato","steam_id":76561198138219428,"connected_time":1754000000000,"state":"active","ping":153},{"user_id":606,"name":"trans they gender she/her/they/","steam_id":76561198212470305,"connected_time":83000000000,"state":"active","ping":63},{"user_id":587,"name":"NoShen","steam_id":76561198147434663,"connected_time":2995000000000,"state":"active","ping":54},{"user_id":602,"name":"YASAI JUICE","steam_id":76561198131971992,"connected_time":998000000000,"state":"active","ping":49},{"user_id":549,"name":"Errodingus","steam_id":76561198870104062,"connected_time":4989000000000,"state":"active","ping":79},{"user_id":590,"name":"Fantastic","steam_id":76561198079088978,"connected_time":2666000000000,"state":"active","ping":59},{"user_id":603,"name":"Miramar","steam_id":76561198022057653,"connected_time":953000000000,"state":"active","ping":75},{"user_id":554,"name":"Mister","steam_id":76561198097164652,"connected_time":4768000000000,"state":"active","ping":61},{"user_id":579,"name":"i love nature","steam_id":76561198248636560,"connected_time":3510000000000,"state":"active","ping":64},{"user_id":542,"name":"ɘƚɒ⅃ɘƚɒ⅃ /./ =)(= \\.\\","steam_id":76561198053339372,"connected_time":5545000000000,"state":"active","ping":159},{"user_id":568,"name":"Fausto Murillo","steam_id":76561198936120487,"connected_time":4157000000000,"state":"active","ping":121},{"user_id":604,"name":"prdxninja","steam_id":76561198170081774,"connected_time":940000000000,"state":"active","ping":47},{"user_id":600,"name":"Bob the Minion","steam_id":76561197972389354,"connected_time":1354000000000,"state":"active","ping":114},{"user_id":601,"name":"$$$","steam_id":76561198218897541,"connected_time":1352000000000,"state":"active","ping":69},{"user_id":573,"name":"Azrazel","steam_id":76561198821691005,"connected_time":3697000000000,"state":"active","ping":80},{"user_id":580,"name":"chexo4","steam_id":76561198150532531,"connected_time":3489000000000,"state":"active","ping":66},{"user_id":591,"name":"Yeshie the Dragon Layer","steam_id":76561198080214214,"connected_time":2660000000000,"state":"active","ping":61},{"user_id":582,"name":"terrible ancient weasel","steam_id":76561198067487745,"connected_time":3413000000000,"state":"active","ping":37},{"user_id":610,"name":"Yukon Cornelius","steam_id":76561198261512781,"connected_time":23000000000,"state":"spawning","ping":46},{"user_id":607,"name":"Vulpes","steam_id":76561198038929334,"connected_time":63000000000,"state":"active","ping":48},{"user_id":583,"name":"Drakkona","steam_id":76561198095449994,"connected_time":3384000000000,"state":"active","ping":64},{"user_id":605,"name":"crankshaft","steam_id":76561197992798282,"connected_time":924000000000,"state":"active","ping":105},{"user_id":566,"name":"KittenLover10","steam_id":76561198807193796,"connected_time":4262000000000,"state":"active","ping":59}]},{"server_id":401,"name":"Uncletopia | Atlanta | 4 | No Payload","name_short":"atl-4","host":"atl-1.us.uncletopia.com","port":27045,"enabled":true,"region":"us-east","cc":"us","latitude":33.753746,"longitude":-84.38633,"reserved":0,"last_update":"0001-01-01T00:00:00Z","name_a2s":"Uncletopia | Atlanta | 4 | No Payload","protocol":17,"map":"plr_bananabay","folder":"tf","game":"Team Fortress","app_id":440,"player_count":0,"max_players":24,"Bots":0,"server_type":"Dedicated","server_os":"Linux","password":true,"vac":true,"version":"7708610","steam_id":85568392924515188,"keywords":["nocrits","nodmgspread","payload","uncletopia"],"game_id":440,"stv_port":27046,"stv_name":"Uncletopia | Atlanta | 4 | No Payload | STV","players":null},{"server_id":2,"name":"Uncletopia | Chicago | 1 | All Maps","name_short":"chi-1","host":"chi-1.us.uncletopia.com","port":27015,"enabled":true,"region":"us-central","cc":"us","latitude":41.881832,"longitude":-87.62318,"reserved":0,"last_update":"0001-01-01T00:00:00Z","name_a2s":"Uncletopia | Chicago | 1 | All Maps","protocol":17,"map":"pl_pier","folder":"tf","game":"Team Fortress","app_id":440,"player_count":24,"max_players":24,"Bots":0,"server_type":"Dedicated","server_os":"Linux","password":true,"vac":true,"version":"7708610","steam_id":85568392924469984,"keywords":["nocrits","nodmgspread","payload","uncletopia"],"game_id":440,"stv_port":27016,"stv_name":"Uncletopia | Chicago | 1 | All Maps | STV","players":[{"user_id":783,"name":"ÒwÓ","steam_id":76561197997304387,"connected_time":1471000000000,"state":"active","ping":55},{"user_id":782,"name":"Boggeroni","steam_id":76561198111417325,"connected_time":2257000000000,"state":"active","ping":59},{"user_id":793,"name":"CheeseCake488","steam_id":76561199407617942,"connected_time":548000000000,"state":"active","ping":134},{"user_id":792,"name":"bryan","steam_id":76561197995189979,"connected_time":568000000000,"state":"active","ping":61},{"user_id":794,"name":"Delta","steam_id":76561199059668195,"connected_time":541000000000,"state":"active","ping":89},{"user_id":753,"name":"Mikeyyy","steam_id":76561198132865260,"connected_time":3761000000000,"state":"active","ping":49},{"user_id":754,"name":"Daft Bonk","steam_id":76561198072862763,"connected_time":3726000000000,"state":"active","ping":65},{"user_id":755,"name":"Moxie","steam_id":76561198092222757,"connected_time":3714000000000,"state":"active","ping":44},{"user_id":791,"name":"-|Kappin'|- Kilbo Fraggins™","steam_id":76561197994725498,"connected_time":1201000000000,"state":"active","ping":76},{"user_id":797,"name":"Toest","steam_id":76561198076061844,"connected_time":233000000000,"state":"active","ping":50},{"user_id":798,"name":"squid game","steam_id":76561199248960166,"connected_time":185000000000,"state":"active","ping":97},{"user_id":799,"name":"Amauri","steam_id":76561198130809137,"connected_time":176000000000,"state":"active","ping":68},{"user_id":800,"name":"FallHole","steam_id":76561198402856408,"connected_time":171000000000,"state":"active","ping":71},{"user_id":801,"name":"Relax","steam_id":76561198155754968,"connected_time":166000000000,"state":"active","ping":55},{"user_id":763,"name":"Pika","steam_id":76561198068063436,"connected_time":3301000000000,"state":"active","ping":52},{"user_id":786,"name":"Why Kappa","steam_id":76561198374425955,"connected_time":1383000000000,"state":"active","ping":66},{"user_id":796,"name":"lag","steam_id":76561198117898839,"connected_time":511000000000,"state":"active","ping":113},{"user_id":788,"name":"Joker Joestar","steam_id":76561198115696839,"connected_time":1350000000000,"state":"active","ping":54},{"user_id":802,"name":"konkon","steam_id":76561198166827208,"connected_time":157000000000,"state":"active","ping":104},{"user_id":804,"name":"20zc Brown Zilly","steam_id":76561198053621664,"connected_time":99000000000,"state":"active","ping":46},{"user_id":771,"name":"Harold Chaplin","steam_id":76561198036730227,"connected_time":3121000000000,"state":"active","ping":73},{"user_id":795,"name":"Wug","steam_id":76561198084112264,"connected_time":531000000000,"state":"active","ping":83},{"user_id":790,"name":"The_Pacific_gamer","steam_id":76561198089491446,"connected_time":1259000000000,"state":"active","ping":99},{"user_id":780,"name":"Pep Seeman","steam_id":76561198038393007,"connected_time":2651000000000,"state":"active","ping":121}]},{"server_id":106,"name":"Uncletopia | Chicago | 2 | All Maps","name_short":"chi-2","host":"chi-1.us.uncletopia.com","port":27025,"enabled":true,"region":"us-central","cc":"us","latitude":41.881832,"longitude":-87.62318,"reserved":0,"last_update":"0001-01-01T00:00:00Z","name_a2s":"Uncletopia | Chicago | 2 | All Maps","protocol":17,"map":"koth_lakeside_final","folder":"tf","game":"Team Fortress","app_id":440,"player_count":1,"max_players":24,"Bots":0,"server_type":"Dedicated","server_os":"Linux","password":true,"vac":true,"version":"7708610","steam_id":85568392924469985,"keywords":["cp","nocrits","nodmgspread","uncletopia"],"game_id":440,"stv_port":27026,"stv_name":"Uncletopia | Chicago | 2 | All Maps | STV","players":[{"user_id":571,"name":"radproturtle","steam_id":76561199227373885,"connected_time":95000000000,"state":"active","ping":45}]},{"server_id":402,"name":"Uncletopia | Chicago | 3 | All Maps","name_short":"chi-3","host":"chi-1.us.uncletopia.com","port":27035,"enabled":true,"region":"us-central","cc":"us","latitude":41.881832,"longitude":-87.62318,"reserved":0,"last_update":"0001-01-01T00:00:00Z","name_a2s":"Uncletopia | Chicago | 3 | All Maps","protocol":17,"map":"koth_cascade","folder":"tf","game":"Team Fortress","app_id":440,"player_count":0,"max_players":24,"Bots":0,"server_type":"Dedicated","server_os":"Linux","password":true,"vac":true,"version":"7708610","steam_id":85568392924515191,"keywords":["cp","nocrits","nodmgspread","uncletopia"],"game_id":440,"stv_port":27036,"stv_name":"Uncletopia | Chicago | 3 | All Maps | STV","players":null},{"server_id":403,"name":"Uncletopia | Chicago | 4 | All Maps","name_short":"chi-4","host":"chi-1.us.uncletopia.com","port":27045,"enabled":true,"region":"us-central","cc":"us","latitude":41.881832,"longitude":-87.62318,"reserved":0,"last_update":"0001-01-01T00:00:00Z","name_a2s":"Uncletopia | Chicago | 4 | All Maps","protocol":17,"map":"pl_borneo","folder":"tf","game":"Team Fortress","app_id":440,"player_count":23,"max_players":24,"Bots":0,"server_type":"Dedicated","server_os":"Linux","password":true,"vac":true,"version":"7708610","steam_id":85568392924515193,"keywords":["nocrits","nodmgspread","payload","uncletopia"],"game_id":440,"stv_port":27046,"stv_name":"Uncletopia | Chicago | 4 | All Maps | STV","players":[{"user_id":281,"name":"keffers | Chrimbus Time","steam_id":76561198202338796,"connected_time":3413000000000,"state":"active","ping":62},{"user_id":310,"name":"BuddyMocha","steam_id":76561198054654515,"connected_time":1172000000000,"state":"active","ping":57},{"user_id":322,"name":"drezz","steam_id":76561198028444359,"connected_time":66000000000,"state":"active","ping":158},{"user_id":315,"name":"backwards shitter sitter","steam_id":76561198021308963,"connected_time":821000000000,"state":"active","ping":74},{"user_id":321,"name":"Chick Hicks","steam_id":76561198040554976,"connected_time":281000000000,"state":"active","ping":96},{"user_id":295,"name":"Muffin","steam_id":76561198050715053,"connected_time":2215000000000,"state":"active","ping":74},{"user_id":302,"name":"GiraffeMan","steam_id":76561198042104084,"connected_time":2024000000000,"state":"active","ping":63},{"user_id":277,"name":"Bag o' Cheese","steam_id":76561199207081299,"connected_time":3559000000000,"state":"active","ping":111},{"user_id":306,"name":"StupidWizardYT","steam_id":76561198285264050,"connected_time":1272000000000,"state":"active","ping":58},{"user_id":314,"name":"Brocklee","steam_id":76561198189330642,"connected_time":830000000000,"state":"active","ping":93},{"user_id":301,"name":"6t26j","steam_id":76561198278282836,"connected_time":2060000000000,"state":"active","ping":57},{"user_id":237,"name":"totally not a pile of beans","steam_id":76561198119851931,"connected_time":6766000000000,"state":"active","ping":70},{"user_id":316,"name":"JellyParrot","steam_id":76561199190990163,"connected_time":771000000000,"state":"active","ping":62},{"user_id":276,"name":"Xbmann | Resurfed","steam_id":76561198041017977,"connected_time":3596000000000,"state":"active","ping":64},{"user_id":309,"name":"Nassu","steam_id":76561198147367577,"connected_time":1205000000000,"state":"active","ping":68},{"user_id":323,"name":"idiot","steam_id":76561198270926835,"connected_time":54000000000,"state":"active","ping":96},{"user_id":289,"name":"Kristoff","steam_id":76561198039598874,"connected_time":2621000000000,"state":"active","ping":68},{"user_id":317,"name":"AstroClam","steam_id":76561198074845107,"connected_time":681000000000,"state":"active","ping":96},{"user_id":318,"name":"GHØST","steam_id":76561198044271610,"connected_time":664000000000,"state":"active","ping":59},{"user_id":268,"name":"Smiling","steam_id":76561198293407075,"connected_time":4247000000000,"state":"active","ping":77},{"user_id":319,"name":"hashmap","steam_id":76561198043794014,"connected_time":652000000000,"state":"active","ping":51},{"user_id":304,"name":"Moshi Man","steam_id":76561198038249762,"connected_time":1875000000000,"state":"active","ping":35},{"user_id":223,"name":"PintoVero","steam_id":76561198088369252,"connected_time":8097000000000,"state":"active","ping":54}]},{"server_id":36,"name":"Uncletopia | Chicago | 5 | All Maps","name_short":"chi-5","host":"chi-2.us.uncletopia.com","port":27015,"enabled":true,"region":"us-central","cc":"us","latitude":41.881832,"longitude":-87.62318,"reserved":0,"last_update":"0001-01-01T00:00:00Z","name_a2s":"Uncletopia | Chicago | 5 | All Maps","protocol":17,"map":"koth_lakeside_final","folder":"tf","game":"Team Fortress","app_id":440,"player_count":0,"max_players":24,"Bots":0,"server_type":"Dedicated","server_os":"Linux","password":true,"vac":true,"version":"7708610","steam_id":85568392924866362,"keywords":["cp","nocrits","nodmgspread","uncletopia"],"game_id":440,"stv_port":27016,"stv_name":"Uncletopia | Chicago | 5 | All Maps | STV","players":null},{"server_id":37,"name":"Uncletopia | Chicago | 6 | All Maps","name_short":"chi-6","host":"chi-2.us.uncletopia.com","port":27025,"enabled":true,"region":"us-central","cc":"us","latitude":41.881832,"longitude":-87.62318,"reserved":0,"last_update":"0001-01-01T00:00:00Z","name_a2s":"Uncletopia | Chicago | 6 | All Maps","protocol":17,"map":"pl_swiftwater_final1","folder":"tf","game":"Team Fortress","app_id":440,"player_count":0,"max_players":24,"Bots":0,"server_type":"Dedicated","server_os":"Linux","password":true,"vac":true,"version":"7708610","steam_id":85568392924866363,"keywords":["nocrits","nodmgspread","payload","uncletopia"],"game_id":440,"stv_port":27026,"stv_name":"Uncletopia | Chicago | 6 | All Maps | STV","players":null},{"server_id":38,"name":"Uncletopia | Chicago | 7 | No Payload","name_short":"chi-7","host":"chi-2.us.uncletopia.com","port":27035,"enabled":true,"region":"us-central","cc":"us","latitude":41.881832,"longitude":-87.62318,"reserved":0,"last_update":"0001-01-01T00:00:00Z","name_a2s":"Uncletopia | Chicago | 7 | No Payload","protocol":17,"map":"koth_viaduct","folder":"tf","game":"Team Fortress","app_id":440,"player_count":0,"max_players":24,"Bots":0,"server_type":"Dedicated","server_os":"Linux","password":true,"vac":true,"version":"7708610","steam_id":85568392924866364,"keywords":["cp","nocrits","nodmgspread","uncletopia"],"game_id":440,"stv_port":0,"stv_name":"","players":null},{"server_id":39,"name":"Uncletopia | Chicago | 8 | Community","name_short":"chi-8","host":"chi-2.us.uncletopia.com","port":27045,"enabled":true,"region":"us-central","cc":"us","latitude":41.881832,"longitude":-87.62318,"reserved":0,"last_update":"0001-01-01T00:00:00Z","name_a2s":"Uncletopia | Chicago | 8 | Community","protocol":17,"map":"workshop/koth_slaughter_rc1.ugc1712845210","folder":"tf","game":"Team Fortress","app_id":440,"player_count":0,"max_players":24,"Bots":0,"server_type":"Dedicated","server_os":"Linux","password":true,"vac":true,"version":"7708610","steam_id":85568392924866365,"keywords":["cp","nocrits","nodmgspread","uncletopia"],"game_id":440,"stv_port":27046,"stv_name":"Uncletopia | Chicago | 8 | Community | STV","players":null},{"server_id":8,"name":"Uncletopia | Dallas | 1 | All Maps","name_short":"dal-1","host":"dal-1.us.uncletopia.com","port":27015,"enabled":true,"region":"us-central","cc":"us","latitude":32.779167,"longitude":-96.80889,"reserved":0,"last_update":"0001-01-01T00:00:00Z","name_a2s":"Uncletopia | Dallas | 1 | All Maps","protocol":17,"map":"cp_process_final","folder":"tf","game":"Team Fortress","app_id":440,"player_count":15,"max_players":24,"Bots":0,"server_type":"Dedicated","server_os":"Linux","password":true,"vac":true,"version":"7708610","steam_id":85568392924469986,"keywords":["cp","nocrits","nodmgspread","uncletopia"],"game_id":440,"stv_port":27016,"stv_name":"Uncletopia | Dallas | 1 | All Maps | STV","players":[{"user_id":402,"name":"Moroes","steam_id":76561198085494609,"connected_time":2751000000000,"state":"active","ping":48},{"user_id":420,"name":"Venmona","steam_id":76561198095288469,"connected_time":392000000000,"state":"active","ping":77},{"user_id":424,"name":"PirateJet","steam_id":76561198050858744,"connected_time":218000000000,"state":"active","ping":74},{"user_id":367,"name":"Vivillabean","steam_id":76561198887137293,"connected_time":4388000000000,"state":"active","ping":86},{"user_id":397,"name":"L. Ron Thuggard","steam_id":76561198048992536,"connected_time":2956000000000,"state":"active","ping":48},{"user_id":426,"name":"Hernandez$","steam_id":76561198019324588,"connected_time":63000000000,"state":"active","ping":62},{"user_id":425,"name":"Bucket Hat Trick","steam_id":76561198381785132,"connected_time":212000000000,"state":"active","ping":55},{"user_id":428,"name":"stuporvillian","steam_id":76561198083796225,"connected_time":54000000000,"state":"active","ping":87},{"user_id":419,"name":"hemispherectomy","steam_id":76561198119178364,"connected_time":414000000000,"state":"active","ping":76},{"user_id":423,"name":"QuarterAnnualLiposuction #SvTF2","steam_id":76561198119886429,"connected_time":268000000000,"state":"active","ping":79},{"user_id":408,"name":"bo scrungulus","steam_id":76561198038036122,"connected_time":2051000000000,"state":"active","ping":69},{"user_id":405,"name":"skyttle","steam_id":76561198069153352,"connected_time":2693000000000,"state":"active","ping":91},{"user_id":411,"name":"thank god for mental illness","steam_id":76561198025368981,"connected_time":1495000000000,"state":"active","ping":75},{"user_id":351,"name":"John F. Kennedy","steam_id":76561198068825962,"connected_time":5971000000000,"state":"active","ping":77},{"user_id":416,"name":"Built Different","steam_id":76561199263959515,"connected_time":586000000000,"state":"active","ping":76}]},{"server_id":108,"name":"Uncletopia | Dallas | 2 | All Maps","name_short":"dal-2","host":"dal-1.us.uncletopia.com","port":27025,"enabled":true,"region":"us-central","cc":"us","latitude":32.779167,"longitude":-96.80889,"reserved":0,"last_update":"0001-01-01T00:00:00Z","name_a2s":"Uncletopia | Dallas | 2 | All Maps","protocol":17,"map":"cp_mossrock","folder":"tf","game":"Team Fortress","app_id":440,"player_count":24,"max_players":24,"Bots":0,"server_type":"Dedicated","server_os":"Linux","password":true,"vac":true,"version":"7708610","steam_id":85568392924469988,"keywords":["cp","nocrits","nodmgspread","uncletopia"],"game_id":440,"stv_port":27026,"stv_name":"Uncletopia | Dallas | 2 | All Maps | STV","players":[{"user_id":424,"name":"CSharp","steam_id":76561199185191710,"connected_time":975000000000,"state":"active","ping":127},{"user_id":356,"name":"DrDuneStadler","steam_id":76561198348208007,"connected_time":5757000000000,"state":"active","ping":110},{"user_id":425,"name":"Cheese","steam_id":76561199435683727,"connected_time":943000000000,"state":"active","ping":135},{"user_id":388,"name":"Krow","steam_id":76561198010392099,"connected_time":4128000000000,"state":"active","ping":58},{"user_id":418,"name":"Surly Joe","steam_id":76561199150833796,"connected_time":1814000000000,"state":"active","ping":87},{"user_id":365,"name":"Phil Collins","steam_id":76561198068868644,"connected_time":4926000000000,"state":"active","ping":75},{"user_id":426,"name":"The Engie","steam_id":76561198049418537,"connected_time":833000000000,"state":"active","ping":57},{"user_id":427,"name":"The_Tax_Man","steam_id":76561198205246144,"connected_time":674000000000,"state":"active","ping":78},{"user_id":392,"name":"BabyBleacher","steam_id":76561199219024730,"connected_time":4036000000000,"state":"active","ping":58},{"user_id":428,"name":"deathgaming69","steam_id":76561198452547649,"connected_time":577000000000,"state":"active","ping":53},{"user_id":429,"name":"VHSTAPE","steam_id":76561198036560740,"connected_time":485000000000,"state":"active","ping":80},{"user_id":430,"name":"MFB","steam_id":76561198170923095,"connected_time":464000000000,"state":"active","ping":89},{"user_id":346,"name":"Satori Komeiji","steam_id":76561198158211423,"connected_time":6377000000000,"state":"active","ping":61},{"user_id":431,"name":"0xFUL","steam_id":76561198081684676,"connected_time":462000000000,"state":"active","ping":121},{"user_id":355,"name":"LogicalFurret","steam_id":76561198350604657,"connected_time":5793000000000,"state":"active","ping":76},{"user_id":432,"name":"O(n)","steam_id":76561198104675984,"connected_time":449000000000,"state":"active","ping":100},{"user_id":397,"name":"Spirit of Smissmass' Past","steam_id":76561198096306325,"connected_time":3617000000000,"state":"active","ping":81},{"user_id":398,"name":"arlo","steam_id":76561198168978384,"connected_time":3605000000000,"state":"active","ping":84},{"user_id":417,"name":"Greg","steam_id":76561198299543780,"connected_time":1991000000000,"state":"active","ping":125},{"user_id":412,"name":"mike oxlong","steam_id":76561198153178081,"connected_time":2756000000000,"state":"active","ping":70},{"user_id":433,"name":"the italian concrete mafia","steam_id":76561198042678503,"connected_time":412000000000,"state":"active","ping":90},{"user_id":434,"name":"schmopp","steam_id":76561198076490954,"connected_time":386000000000,"state":"active","ping":62},{"user_id":378,"name":"Moonflower ✦","steam_id":76561198191782483,"connected_time":4425000000000,"state":"active","ping":64},{"user_id":436,"name":"wooper watch","steam_id":76561197993919776,"connected_time":270000000000,"state":"active","ping":100}]},{"server_id":5,"name":"Uncletopia | Frankfurt | 1 | All Maps","name_short":"frk-1","host":"frk-1.de.uncletopia.com","port":27015,"enabled":true,"region":"eu","cc":"de","latitude":50.110924,"longitude":8.682127,"reserved":0,"last_update":"0001-01-01T00:00:00Z","name_a2s":"Uncletopia | Frankfurt | 1 | All Maps","protocol":17,"map":"pl_pier","folder":"tf","game":"Team Fortress","app_id":440,"player_count":2,"max_players":24,"Bots":0,"server_type":"Dedicated","server_os":"Linux","password":true,"vac":true,"version":"7708610","steam_id":85568392924469989,"keywords":["nocrits","nodmgspread","payload","uncletopia"],"game_id":440,"stv_port":0,"stv_name":"","players":[{"user_id":2,"name":"thekoolest88","steam_id":76561199022415672,"connected_time":871000000000,"state":"active","ping":146},{"user_id":3,"name":"richardhpg","steam_id":76561199027087074,"connected_time":289000000000,"state":"active","ping":60}]},{"server_id":110,"name":"Uncletopia | Frankfurt | 2 | All Maps","name_short":"frk-2","host":"frk-1.de.uncletopia.com","port":27025,"enabled":true,"region":"eu","cc":"de","latitude":50.110924,"longitude":8.682127,"reserved":0,"last_update":"0001-01-01T00:00:00Z","name_a2s":"Uncletopia | Frankfurt | 2 | All Maps","protocol":17,"map":"pl_pier","folder":"tf","game":"Team Fortress","app_id":440,"player_count":0,"max_players":24,"Bots":0,"server_type":"Dedicated","server_os":"Linux","password":true,"vac":true,"version":"7708610","steam_id":85568392924469990,"keywords":["nocrits","nodmgspread","payload","uncletopia"],"game_id":440,"stv_port":0,"stv_name":"","players":null},{"server_id":308,"name":"Uncletopia | Frankfurt | 3 | All Maps","name_short":"frk-3","host":"frk-1.de.uncletopia.com","port":27035,"enabled":true,"region":"eu","cc":"de","latitude":50.110924,"longitude":8.682127,"reserved":0,"last_update":"0001-01-01T00:00:00Z","name_a2s":"Uncletopia | Frankfurt | 3 | All Maps","protocol":17,"map":"koth_cascade","folder":"tf","game":"Team Fortress","app_id":440,"player_count":0,"max_players":24,"Bots":0,"server_type":"Dedicated","server_os":"Linux","password":true,"vac":true,"version":"7708610","steam_id":85568392924504274,"keywords":["cp","nocrits","nodmgspread","uncletopia"],"game_id":440,"stv_port":0,"stv_name":"","players":null},{"server_id":309,"name":"Uncletopia | Frankfurt | 4 | All Maps","name_short":"frk-4","host":"frk-1.de.uncletopia.com","port":27045,"enabled":true,"region":"eu","cc":"de","latitude":50.110924,"longitude":8.682127,"reserved":0,"last_update":"0001-01-01T00:00:00Z","name_a2s":"Uncletopia | Frankfurt | 4 | All Maps","protocol":17,"map":"pl_swiftwater_final1","folder":"tf","game":"Team Fortress","app_id":440,"player_count":0,"max_players":24,"Bots":0,"server_type":"Dedicated","server_os":"Linux","password":true,"vac":true,"version":"7708610","steam_id":85568392924504275,"keywords":["nocrits","nodmgspread","payload","uncletopia"],"game_id":440,"stv_port":0,"stv_name":"","players":null},{"server_id":310,"name":"Uncletopia | Frankfurt | 5 | All Maps","name_short":"frk-5","host":"frk-1.de.uncletopia.com","port":27055,"enabled":true,"region":"eu","cc":"de","latitude":50.110924,"longitude":8.682127,"reserved":0,"last_update":"0001-01-01T00:00:00Z","name_a2s":"Uncletopia | Frankfurt | 5 | All Maps","protocol":17,"map":"koth_cascade","folder":"tf","game":"Team Fortress","app_id":440,"player_count":0,"max_players":24,"Bots":0,"server_type":"Dedicated","server_os":"Linux","password":true,"vac":true,"version":"7708610","steam_id":85568392924504277,"keywords":["cp","nocrits","nodmgspread","uncletopia"],"game_id":440,"stv_port":0,"stv_name":"","players":null},{"server_id":311,"name":"Uncletopia | Frankfurt | 6 | All Maps","name_short":"frk-6","host":"frk-1.de.uncletopia.com","port":27065,"enabled":true,"region":"eu","cc":"de","latitude":50.110924,"longitude":8.682127,"reserved":0,"last_update":"0001-01-01T00:00:00Z","name_a2s":"Uncletopia | Frankfurt | 6 | All Maps","protocol":17,"map":"koth_lakeside_final","folder":"tf","game":"Team Fortress","app_id":440,"player_count":0,"max_players":24,"Bots":0,"server_type":"Dedicated","server_os":"Linux","password":true,"vac":true,"version":"7708610","steam_id":85568392924504278,"keywords":["cp","nocrits","nodmgspread","uncletopia"],"game_id":440,"stv_port":0,"stv_name":"","players":null},{"server_id":23,"name":"Uncletopia | Frankfurt | 7 | No Payload","name_short":"frk-7","host":"frk-1.de.uncletopia.com","port":27075,"enabled":true,"region":"eu","cc":"de","latitude":50.110924,"longitude":8.682127,"reserved":0,"last_update":"0001-01-01T00:00:00Z","name_a2s":"Uncletopia | Frankfurt | 7 | No Payload","protocol":17,"map":"pl_frontier_final","folder":"tf","game":"Team Fortress","app_id":440,"player_count":0,"max_players":24,"Bots":0,"server_type":"Dedicated","server_os":"Linux","password":true,"vac":true,"version":"7708610","steam_id":85568392924742827,"keywords":["nocrits","nodmgspread","payload","uncletopia"],"game_id":440,"stv_port":0,"stv_name":"","players":null},{"server_id":24,"name":"Uncletopia | Frankfurt | 8 | Community","name_short":"frk-8","host":"frk-1.de.uncletopia.com","port":27085,"enabled":true,"region":"eu","cc":"de","latitude":50.110924,"longitude":8.682127,"reserved":0,"last_update":"0001-01-01T00:00:00Z","name_a2s":"Uncletopia | Frankfurt | 8 | Community","protocol":17,"map":"cp_mountainlab","folder":"tf","game":"Team Fortress","app_id":440,"player_count":0,"max_players":24,"Bots":0,"server_type":"Dedicated","server_os":"Linux","password":true,"vac":true,"version":"7708610","steam_id":85568392924742828,"keywords":["cp","nocrits","nodmgspread","uncletopia"],"game_id":440,"stv_port":0,"stv_name":"","players":null},{"server_id":202,"name":"Uncletopia | Hong Kong | 1 | All Maps","name_short":"hgk-1","host":"hgk-1.hk.uncletopia.com","port":27015,"enabled":true,"region":"asia","cc":"hk","latitude":22.302711,"longitude":114.177216,"reserved":0,"last_update":"0001-01-01T00:00:00Z","name_a2s":"Uncletopia | Hong Kong | 1 | All Maps","protocol":17,"map":"pl_snowycoast","folder":"tf","game":"Team Fortress","app_id":440,"player_count":22,"max_players":24,"Bots":0,"server_type":"Dedicated","server_os":"Linux","password":true,"vac":true,"version":"7708610","steam_id":85568392924494504,"keywords":["nocrits","nodmgspread","payload","uncletopia"],"game_id":440,"stv_port":27016,"stv_name":"Uncletopia | Hong Kong | 1 | All Maps | STV","players":[{"user_id":112,"name":"cock tickler","steam_id":76561198412329672,"connected_time":2410000000000,"state":"active","ping":87},{"user_id":130,"name":"BBOY","steam_id":76561198070719495,"connected_time":1582000000000,"state":"active","ping":74},{"user_id":146,"name":"Kiyomi","steam_id":76561198240627872,"connected_time":193000000000,"state":"active","ping":46},{"user_id":140,"name":"monkeyman536","steam_id":76561197997717737,"connected_time":919000000000,"state":"active","ping":133},{"user_id":103,"name":"Wakiiiz","steam_id":76561198850134590,"connected_time":3399000000000,"state":"active","ping":57},{"user_id":148,"name":"can.","steam_id":76561199101260999,"connected_time":155000000000,"state":"active","ping":71},{"user_id":142,"name":"Dunce","steam_id":76561198097350308,"connected_time":732000000000,"state":"active","ping":81},{"user_id":128,"name":"The Average Furry","steam_id":76561198968246032,"connected_time":1608000000000,"state":"active","ping":63},{"user_id":105,"name":"雪ノ下雪乃のoppai","steam_id":76561198008307645,"connected_time":3269000000000,"state":"active","ping":71},{"user_id":143,"name":"cellum95","steam_id":76561198172146871,"connected_time":679000000000,"state":"active","ping":81},{"user_id":149,"name":"the sex","steam_id":76561198129661272,"connected_time":142000000000,"state":"active","ping":90},{"user_id":106,"name":"Nimbus","steam_id":76561198877713016,"connected_time":3266000000000,"state":"active","ping":80},{"user_id":117,"name":"blue mountain coffee","steam_id":76561198823374287,"connected_time":2116000000000,"state":"active","ping":77},{"user_id":150,"name":"*","steam_id":76561198360026912,"connected_time":122000000000,"state":"active","ping":80},{"user_id":129,"name":"MS PowerPoint","steam_id":76561198369523192,"connected_time":1599000000000,"state":"active","ping":63},{"user_id":131,"name":"BT◢◤","steam_id":76561198874462097,"connected_time":1582000000000,"state":"active","ping":115},{"user_id":151,"name":"Lir","steam_id":76561198980563251,"connected_time":28000000000,"state":"spawning","ping":131},{"user_id":133,"name":"ogey","steam_id":76561198074339034,"connected_time":1535000000000,"state":"active","ping":76},{"user_id":124,"name":"mufat","steam_id":76561199205514309,"connected_time":1952000000000,"state":"active","ping":76},{"user_id":136,"name":"Lúd","steam_id":76561198828840546,"connected_time":1378000000000,"state":"active","ping":70},{"user_id":137,"name":"Smoulder","steam_id":76561199258175379,"connected_time":1361000000000,"state":"active","ping":81},{"user_id":139,"name":"CaptainBozo","steam_id":76561199151959977,"connected_time":944000000000,"state":"active","ping":55}]},{"server_id":1,"name":"Uncletopia | Los Angeles | 1 | All Maps","name_short":"lax-1","host":"lax-1.us.uncletopia.com","port":27015,"enabled":true,"region":"us-west","cc":"us","latitude":33.94279,"longitude":-118.41004,"reserved":0,"last_update":"0001-01-01T00:00:00Z","name_a2s":"Uncletopia | Los Angeles | 1 | All Maps","protocol":17,"map":"koth_cascade","folder":"tf","game":"Team Fortress","app_id":440,"player_count":0,"max_players":24,"Bots":0,"server_type":"Dedicated","server_os":"Linux","password":true,"vac":true,"version":"7708610","steam_id":85568392924469991,"keywords":["cp","nocrits","nodmgspread","uncletopia"],"game_id":440,"stv_port":27016,"stv_name":"Uncletopia | Los Angeles | 1 | All Maps | STV","players":null},{"server_id":112,"name":"Uncletopia | Los Angeles | 2 | All Maps","name_short":"lax-2","host":"lax-1.us.uncletopia.com","port":27025,"enabled":true,"region":"us-west","cc":"us","latitude":33.94279,"longitude":-118.41004,"reserved":0,"last_update":"0001-01-01T00:00:00Z","name_a2s":"Uncletopia | Los Angeles | 2 | All Maps","protocol":17,"map":"ctf_2fort","folder":"tf","game":"Team Fortress","app_id":440,"player_count":23,"max_players":24,"Bots":0,"server_type":"Dedicated","server_os":"Linux","password":true,"vac":true,"version":"7708610","steam_id":85568392924469992,"keywords":["ctf","nocrits","nodmgspread","uncletopia"],"game_id":440,"stv_port":27026,"stv_name":"Uncletopia | Los Angeles | 2 | All Maps | STV","players":[{"user_id":164,"name":"shplunker","steam_id":76561198169291327,"connected_time":3724000000000,"state":"active","ping":130},{"user_id":190,"name":"air bud ego death","steam_id":76561198040475254,"connected_time":772000000000,"state":"active","ping":71},{"user_id":202,"name":"chander541","steam_id":76561199063919924,"connected_time":209000000000,"state":"active","ping":60},{"user_id":198,"name":"delight","steam_id":76561197980280272,"connected_time":349000000000,"state":"active","ping":75},{"user_id":203,"name":"5-MeO-DMT","steam_id":76561198089527768,"connected_time":153000000000,"state":"active","ping":82},{"user_id":189,"name":"⛧Alkahestry","steam_id":76561198109641497,"connected_time":783000000000,"state":"active","ping":45},{"user_id":152,"name":"Arbiter Soul","steam_id":76561198067798973,"connected_time":4627000000000,"state":"active","ping":103},{"user_id":199,"name":"CheekyMcCheek","steam_id":76561198081978491,"connected_time":242000000000,"state":"active","ping":57},{"user_id":200,"name":"Amogous Supreme","steam_id":76561198025476774,"connected_time":224000000000,"state":"active","ping":63},{"user_id":185,"name":"Nocturnal","steam_id":76561198278704738,"connected_time":1444000000000,"state":"active","ping":73},{"user_id":160,"name":"Sykes10","steam_id":76561198279623105,"connected_time":4082000000000,"state":"active","ping":47},{"user_id":163,"name":"Perididdle","steam_id":76561198056864606,"connected_time":3851000000000,"state":"active","ping":83},{"user_id":162,"name":"セイバー","steam_id":76561198169223408,"connected_time":3912000000000,"state":"active","ping":59},{"user_id":204,"name":"SonofaBishop","steam_id":76561198121118762,"connected_time":127000000000,"state":"active","ping":110},{"user_id":195,"name":"Owl_eyes","steam_id":76561198066199203,"connected_time":468000000000,"state":"active","ping":57},{"user_id":177,"name":"Xmas Xtar","steam_id":76561198301774048,"connected_time":2498000000000,"state":"active","ping":69},{"user_id":205,"name":"Cobra","steam_id":76561198148418531,"connected_time":81000000000,"state":"active","ping":107},{"user_id":191,"name":"ElShaggy","steam_id":76561198148870214,"connected_time":508000000000,"state":"active","ping":51},{"user_id":167,"name":"pt","steam_id":76561198143023330,"connected_time":3694000000000,"state":"active","ping":47},{"user_id":196,"name":"Omega\"Hell's Wall\"EXE","steam_id":76561198395291970,"connected_time":465000000000,"state":"active","ping":47},{"user_id":139,"name":"JJP","steam_id":76561198032914094,"connected_time":5291000000000,"state":"active","ping":52},{"user_id":197,"name":"Nathan Loves You","steam_id":76561198047371790,"connected_time":456000000000,"state":"active","ping":91},{"user_id":206,"name":"Delightful MadCat","steam_id":76561198086178426,"connected_time":42000000000,"state":"spawning","ping":114}]},{"server_id":324,"name":"Uncletopia | Los Angeles | 3 | All Maps","name_short":"lax-3","host":"lax-1.us.uncletopia.com","port":27035,"enabled":true,"region":"us-west","cc":"us","latitude":33.94279,"longitude":-118.41004,"reserved":0,"last_update":"0001-01-01T00:00:00Z","name_a2s":"Uncletopia | Los Angeles | 3 | All Maps","protocol":17,"map":"koth_highpass","folder":"tf","game":"Team Fortress","app_id":440,"player_count":0,"max_players":24,"Bots":0,"server_type":"Dedicated","server_os":"Linux","password":true,"vac":true,"version":"7708610","steam_id":85568392924510198,"keywords":["cp","nocrits","nodmgspread","uncletopia"],"game_id":440,"stv_port":27036,"stv_name":"Uncletopia | Los Angeles | 3 | All Maps | STV","players":null},{"server_id":25,"name":"Uncletopia | Los Angeles | 4 | No Payload","name_short":"lax-4","host":"lax-1.us.uncletopia.com","port":27045,"enabled":true,"region":"us-west","cc":"us","latitude":33.94279,"longitude":-118.41004,"reserved":0,"last_update":"0001-01-01T00:00:00Z","name_a2s":"Uncletopia | Los Angeles | 4 | No Payload","protocol":17,"map":"koth_lazarus","folder":"tf","game":"Team Fortress","app_id":440,"player_count":0,"max_players":24,"Bots":0,"server_type":"Dedicated","server_os":"Linux","password":true,"vac":true,"version":"7708610","steam_id":85568392924510199,"keywords":["cp","nocrits","nodmgspread","uncletopia"],"game_id":440,"stv_port":27046,"stv_name":"Uncletopia | Los Angeles | 4 | No Payload | STV","players":null},{"server_id":11,"name":"Uncletopia | London | 1 | All Maps","name_short":"lon-1","host":"lon-1.uk.uncletopia.com","port":27015,"enabled":true,"region":"eu","cc":"gb","latitude":51.509865,"longitude":-0.118092,"reserved":0,"last_update":"0001-01-01T00:00:00Z","name_a2s":"Uncletopia | London | 1 | All Maps","protocol":17,"map":"koth_viaduct","folder":"tf","game":"Team Fortress","app_id":440,"player_count":0,"max_players":24,"Bots":0,"server_type":"Dedicated","server_os":"Linux","password":true,"vac":true,"version":"7708610","steam_id":85568392924367362,"keywords":["cp","nocrits","nodmgspread","uncletopia"],"game_id":440,"stv_port":0,"stv_name":"","players":null},{"server_id":114,"name":"Uncletopia | London | 2 | All Maps","name_short":"lon-2","host":"lon-1.uk.uncletopia.com","port":27025,"enabled":true,"region":"eu","cc":"gb","latitude":51.509865,"longitude":-0.118092,"reserved":0,"last_update":"0001-01-01T00:00:00Z","name_a2s":"Uncletopia | London | 2 | All Maps","protocol":17,"map":"cp_snakewater_final1","folder":"tf","game":"Team Fortress","app_id":440,"player_count":0,"max_players":24,"Bots":0,"server_type":"Dedicated","server_os":"Linux","password":true,"vac":true,"version":"7708610","steam_id":85568392924470941,"keywords":["cp","nocrits","nodmgspread","uncletopia"],"game_id":440,"stv_port":0,"stv_name":"","players":null},{"server_id":320,"name":"Uncletopia | London | 3 | All Maps","name_short":"lon-3","host":"lon-1.uk.uncletopia.com","port":27035,"enabled":true,"region":"eu","cc":"gb","latitude":51.509865,"longitude":-0.118092,"reserved":0,"last_update":"0001-01-01T00:00:00Z","name_a2s":"Uncletopia | London | 3 | All Maps","protocol":17,"map":"cp_altitude","folder":"tf","game":"Team Fortress","app_id":440,"player_count":0,"max_players":24,"Bots":0,"server_type":"Dedicated","server_os":"Linux","password":true,"vac":true,"version":"7708610","steam_id":85568392924510192,"keywords":["cp","nocrits","nodmgspread","uncletopia"],"game_id":440,"stv_port":0,"stv_name":"","players":null},{"server_id":321,"name":"Uncletopia | London | 4 | All Maps","name_short":"lon-4","host":"lon-1.uk.uncletopia.com","port":27045,"enabled":true,"region":"eu","cc":"gb","latitude":51.509865,"longitude":-0.118092,"reserved":0,"last_update":"0001-01-01T00:00:00Z","name_a2s":"Uncletopia | London | 4 | All Maps","protocol":17,"map":"koth_viaduct","folder":"tf","game":"Team Fortress","app_id":440,"player_count":0,"max_players":24,"Bots":0,"server_type":"Dedicated","server_os":"Linux","password":true,"vac":true,"version":"7708610","steam_id":85568392924510193,"keywords":["cp","nocrits","nodmgspread","uncletopia"],"game_id":440,"stv_port":0,"stv_name":"","players":null},{"server_id":21,"name":"Uncletopia | London | 5 | All Maps","name_short":"lon-5","host":"lon-1.uk.uncletopia.com","port":27055,"enabled":true,"region":"eu","cc":"gb","latitude":51.509865,"longitude":-0.118092,"reserved":0,"last_update":"0001-01-01T00:00:00Z","name_a2s":"Uncletopia | London | 5 | All Maps","protocol":17,"map":"koth_lakeside_final","folder":"tf","game":"Team Fortress","app_id":440,"player_count":0,"max_players":24,"Bots":0,"server_type":"Dedicated","server_os":"Linux","password":true,"vac":true,"version":"7708610","steam_id":85568392924742829,"keywords":["cp","nocrits","nodmgspread","uncletopia"],"game_id":440,"stv_port":0,"stv_name":"","players":null},{"server_id":22,"name":"Uncletopia | London | 6 | All Maps","name_short":"lon-6","host":"lon-1.uk.uncletopia.com","port":27065,"enabled":true,"region":"eu","cc":"gb","latitude":51.509865,"longitude":-0.118092,"reserved":0,"last_update":"0001-01-01T00:00:00Z","name_a2s":"Uncletopia | London | 6 | All Maps","protocol":17,"map":"koth_viaduct","folder":"tf","game":"Team Fortress","app_id":440,"player_count":0,"max_players":24,"Bots":0,"server_type":"Dedicated","server_os":"Linux","password":true,"vac":true,"version":"7708610","steam_id":85568392924742830,"keywords":["cp","nocrits","nodmgspread","uncletopia"],"game_id":440,"stv_port":0,"stv_name":"","players":null},{"server_id":40,"name":"Uncletopia | London | 7 | No Payload","name_short":"lon-7","host":"lon-1.uk.uncletopia.com","port":27075,"enabled":true,"region":"eu","cc":"gb","latitude":51.509865,"longitude":-0.118092,"reserved":0,"last_update":"0001-01-01T00:00:00Z","name_a2s":"Uncletopia | London | 7 | No Payload","protocol":17,"map":"cp_snakewater_final1","folder":"tf","game":"Team Fortress","app_id":440,"player_count":0,"max_players":24,"Bots":0,"server_type":"Dedicated","server_os":"Linux","password":true,"vac":true,"version":"7708610","steam_id":85568392924964314,"keywords":["cp","nocrits","nodmgspread","uncletopia"],"game_id":440,"stv_port":0,"stv_name":"","players":null},{"server_id":41,"name":"Uncletopia | London | 8 | Community","name_short":"lon-8","host":"lon-1.uk.uncletopia.com","port":27085,"enabled":true,"region":"eu","cc":"gb","latitude":51.509865,"longitude":-0.118092,"reserved":0,"last_update":"0001-01-01T00:00:00Z","name_a2s":"Uncletopia | London | 8 | Community","protocol":17,"map":"cp_snakewater_final1","folder":"tf","game":"Team Fortress","app_id":440,"player_count":0,"max_players":24,"Bots":0,"server_type":"Dedicated","server_os":"Linux","password":true,"vac":true,"version":"7708610","steam_id":85568392924964315,"keywords":["cp","nocrits","nodmgspread","uncletopia"],"game_id":440,"stv_port":0,"stv_name":"","players":null},{"server_id":300,"name":"Uncletopia | Montréal | 1 | All Maps","name_short":"mtl-1","host":"mtl-1.ca.uncletopia.com","port":27015,"enabled":true,"region":"us-east","cc":"ca","latitude":45.50889,"longitude":-73.56167,"reserved":0,"last_update":"0001-01-01T00:00:00Z","name_a2s":"Uncletopia | Montréal | 1 | All Maps","protocol":17,"map":"koth_highpass","folder":"tf","game":"Team Fortress","app_id":440,"player_count":0,"max_players":24,"Bots":0,"server_type":"Dedicated","server_os":"Linux","password":true,"vac":true,"version":"7708610","steam_id":85568392924500087,"keywords":["cp","nocrits","nodmgspread","uncletopia"],"game_id":440,"stv_port":27016,"stv_name":"Uncletopia | Montréal | 1 | All Maps | STV","players":null},{"server_id":301,"name":"Uncletopia | Montréal | 2 | All Maps","name_short":"mtl-2","host":"mtl-1.ca.uncletopia.com","port":27025,"enabled":true,"region":"us-east","cc":"ca","latitude":45.50889,"longitude":-73.56167,"reserved":0,"last_update":"0001-01-01T00:00:00Z","name_a2s":"Uncletopia | Montréal | 2 | All Maps","protocol":17,"map":"koth_cascade","folder":"tf","game":"Team Fortress","app_id":440,"player_count":0,"max_players":24,"Bots":0,"server_type":"Dedicated","server_os":"Linux","password":true,"vac":true,"version":"7708610","steam_id":85568392924500088,"keywords":["cp","nocrits","nodmgspread","uncletopia"],"game_id":440,"stv_port":27026,"stv_name":"Uncletopia | Montréal | 2 | All Maps | STV","players":null},{"server_id":302,"name":"Uncletopia | Montréal | 3 | All Maps","name_short":"mtl-3","host":"mtl-1.ca.uncletopia.com","port":27035,"enabled":true,"region":"us-east","cc":"ca","latitude":45.50889,"longitude":-73.56167,"reserved":0,"last_update":"0001-01-01T00:00:00Z","name_a2s":"Uncletopia | Montréal | 3 | All Maps","protocol":17,"map":"koth_highpass","folder":"tf","game":"Team Fortress","app_id":440,"player_count":0,"max_players":24,"Bots":0,"server_type":"Dedicated","server_os":"Linux","password":true,"vac":true,"version":"7708610","steam_id":85568392924500089,"keywords":["cp","nocrits","nodmgspread","uncletopia"],"game_id":440,"stv_port":27036,"stv_name":"Uncletopia | Montréal | 3 | All Maps | STV","players":null},{"server_id":303,"name":"Uncletopia | Montréal | 4 | No Payload","name_short":"mtl-4","host":"mtl-1.ca.uncletopia.com","port":27045,"enabled":true,"region":"us-east","cc":"ca","latitude":45.50889,"longitude":-73.56167,"reserved":0,"last_update":"0001-01-01T00:00:00Z","name_a2s":"Uncletopia | Montréal | 4 | No Payload","protocol":17,"map":"ctf_sawmill","folder":"tf","game":"Team Fortress","app_id":440,"player_count":0,"max_players":24,"Bots":0,"server_type":"Dedicated","server_os":"Linux","password":true,"vac":true,"version":"7708610","steam_id":85568392924500090,"keywords":["ctf","nocrits","nodmgspread","uncletopia"],"game_id":440,"stv_port":27046,"stv_name":"Uncletopia | Montréal | 4 | No Payload | STV","players":null},{"server_id":13,"name":"Uncletopia | New York City | 1 | All Maps","name_short":"nyc-1","host":"nyc-1.us.uncletopia.com","port":27015,"enabled":true,"region":"us-east","cc":"us","latitude":40.73061,"longitude":-73.93524,"reserved":0,"last_update":"0001-01-01T00:00:00Z","name_a2s":"Uncletopia | New York City | 1 | All Maps","protocol":17,"map":"cp_snakewater_final1","folder":"tf","game":"Team Fortress","app_id":440,"player_count":1,"max_players":24,"Bots":0,"server_type":"Dedicated","server_os":"Linux","password":true,"vac":true,"version":"7708610","steam_id":85568392924469993,"keywords":["cp","nocrits","nodmgspread","uncletopia"],"game_id":440,"stv_port":27016,"stv_name":"Uncletopia | New York City | 1 | All Maps | STV","players":[{"user_id":207,"name":"randomusername","steam_id":76561199078214700,"connected_time":554000000000,"state":"active","ping":61}]},{"server_id":14,"name":"Uncletopia | New York City | 2 | All Maps","name_short":"nyc-2","host":"nyc-1.us.uncletopia.com","port":27025,"enabled":true,"region":"us-east","cc":"us","latitude":40.73061,"longitude":-73.93524,"reserved":0,"last_update":"0001-01-01T00:00:00Z","name_a2s":"Uncletopia | New York City | 2 | All Maps","protocol":17,"map":"pl_upward","folder":"tf","game":"Team Fortress","app_id":440,"player_count":1,"max_players":24,"Bots":0,"server_type":"Dedicated","server_os":"Linux","password":true,"vac":true,"version":"7708610","steam_id":85568392924469994,"keywords":["nocrits","nodmgspread","payload","uncletopia"],"game_id":440,"stv_port":27026,"stv_name":"Uncletopia | New York City | 2 | All Maps | STV","players":[{"user_id":530,"name":"cornsoup","steam_id":76561198083597196,"connected_time":1515000000000,"state":"active","ping":44}]},{"server_id":15,"name":"Uncletopia | New York City | 3 | All Maps","name_short":"nyc-3","host":"nyc-1.us.uncletopia.com","port":27035,"enabled":true,"region":"us-east","cc":"us","latitude":40.73061,"longitude":-73.93524,"reserved":0,"last_update":"0001-01-01T00:00:00Z","name_a2s":"Uncletopia | New York City | 3 | All Maps","protocol":17,"map":"cp_process_final","folder":"tf","game":"Team Fortress","app_id":440,"player_count":24,"max_players":24,"Bots":0,"server_type":"Dedicated","server_os":"Linux","password":true,"vac":true,"version":"7708610","steam_id":85568392924742820,"keywords":["cp","nocrits","nodmgspread","uncletopia"],"game_id":440,"stv_port":27036,"stv_name":"Uncletopia | New York City | 3 | All Maps | STV","players":[{"user_id":549,"name":"Chesh","steam_id":76561197990316722,"connected_time":379000000000,"state":"active","ping":70},{"user_id":509,"name":"davidflyswag","steam_id":76561198979060652,"connected_time":2581000000000,"state":"active","ping":60},{"user_id":504,"name":"rat performance","steam_id":76561198065854668,"connected_time":3125000000000,"state":"active","ping":119},{"user_id":510,"name":"BMongrel","steam_id":76561198072166677,"connected_time":2574000000000,"state":"active","ping":77},{"user_id":507,"name":"InfernoFlower64","steam_id":76561198181097391,"connected_time":2868000000000,"state":"active","ping":158},{"user_id":537,"name":"Rock Kickass","steam_id":76561198450510841,"connected_time":1005000000000,"state":"active","ping":114},{"user_id":529,"name":"Jaeger Bombastic","steam_id":76561198129825533,"connected_time":1694000000000,"state":"active","ping":45},{"user_id":512,"name":"Larry T.G","steam_id":76561198140157079,"connected_time":2465000000000,"state":"active","ping":70},{"user_id":513,"name":"Joe Shiesty","steam_id":76561198152434348,"connected_time":2451000000000,"state":"active","ping":84},{"user_id":515,"name":"Epic Cleveland","steam_id":76561198079468469,"connected_time":2383000000000,"state":"active","ping":47},{"user_id":550,"name":"Collin","steam_id":76561198341399913,"connected_time":372000000000,"state":"active","ping":52},{"user_id":538,"name":"Ledraque","steam_id":76561198107345198,"connected_time":898000000000,"state":"active","ping":107},{"user_id":519,"name":"Chuunimaru","steam_id":76561198052495935,"connected_time":2327000000000,"state":"active","ping":47},{"user_id":539,"name":"kametro4","steam_id":76561198835430429,"connected_time":853000000000,"state":"active","ping":86},{"user_id":546,"name":"zzz","steam_id":76561198351895498,"connected_time":509000000000,"state":"active","ping":42},{"user_id":547,"name":"Papaya Dog","steam_id":76561198109634877,"connected_time":505000000000,"state":"active","ping":97},{"user_id":522,"name":"Chilidestroy","steam_id":76561199101551797,"connected_time":2286000000000,"state":"active","ping":75},{"user_id":551,"name":"A Terrible Shot","steam_id":76561198045523833,"connected_time":332000000000,"state":"active","ping":92},{"user_id":552,"name":"Nobuunga","steam_id":76561198100614981,"connected_time":280000000000,"state":"active","ping":98},{"user_id":525,"name":"twitch.tv/Yoshi21 | TF2Pugs.com","steam_id":76561198002516729,"connected_time":1914000000000,"state":"active","ping":71},{"user_id":526,"name":"brae","steam_id":76561198047126327,"connected_time":1843000000000,"state":"active","ping":117},{"user_id":553,"name":"Rust","steam_id":76561198063959574,"connected_time":274000000000,"state":"active","ping":66},{"user_id":531,"name":"zeno","steam_id":76561198188253013,"connected_time":1662000000000,"state":"active","ping":59},{"user_id":554,"name":"rlty","steam_id":76561198009395055,"connected_time":208000000000,"state":"active","ping":59}]},{"server_id":16,"name":"Uncletopia | New York City | 4 | Community","name_short":"nyc-4","host":"nyc-1.us.uncletopia.com","port":27045,"enabled":true,"region":"us-east","cc":"us","latitude":40.73061,"longitude":-73.93524,"reserved":0,"last_update":"0001-01-01T00:00:00Z","name_a2s":"Uncletopia | New York City | 4 | Community","protocol":17,"map":"workshop/koth_ramjam_v2_b2.ugc2865676487","folder":"tf","game":"Team Fortress","app_id":440,"player_count":0,"max_players":24,"Bots":0,"server_type":"Dedicated","server_os":"Linux","password":true,"vac":true,"version":"7708610","steam_id":85568392924742821,"keywords":["cp","nocrits","nodmgspread","uncletopia"],"game_id":440,"stv_port":27046,"stv_name":"Uncletopia | New York City | 4 | Community | STV","players":null},{"server_id":142,"name":"Uncletopia | São Paulo | 1 | All Maps","name_short":"sao-1","host":"sao-1.br.uncletopia.com","port":27015,"enabled":true,"region":"sa","cc":"br","latitude":-23.533773,"longitude":-46.62529,"reserved":0,"last_update":"0001-01-01T00:00:00Z","name_a2s":"Uncletopia | São Paulo | 1 | All Maps","protocol":17,"map":"koth_viaduct","folder":"tf","game":"Team Fortress","app_id":440,"player_count":0,"max_players":24,"Bots":0,"server_type":"Dedicated","server_os":"Linux","password":true,"vac":true,"version":"7708610","steam_id":85568392924469996,"keywords":["cp","nocrits","nodmgspread","uncletopia"],"game_id":440,"stv_port":27016,"stv_name":"Uncletopia | São Paulo | 1 | All Maps | STV","players":null},{"server_id":143,"name":"Uncletopia | São Paulo | 2 | All Maps","name_short":"sao-2","host":"sao-2.br.uncletopia.com","port":27015,"enabled":true,"region":"sa","cc":"br","latitude":-23.533773,"longitude":-46.62529,"reserved":0,"last_update":"0001-01-01T00:00:00Z","name_a2s":"Uncletopia | São Paulo | 2 | All Maps","protocol":17,"map":"koth_cascade","folder":"tf","game":"Team Fortress","app_id":440,"player_count":0,"max_players":24,"Bots":0,"server_type":"Dedicated","server_os":"Linux","password":true,"vac":true,"version":"7708610","steam_id":85568392924485349,"keywords":["cp","nocrits","nodmgspread","uncletopia"],"game_id":440,"stv_port":27016,"stv_name":"Uncletopia | São Paulo | 2 | All Maps | STV","players":null},{"server_id":7,"name":"Uncletopia | Seattle | 1 | All Maps","name_short":"sea-1","host":"sea-1.us.uncletopia.com","port":27015,"enabled":true,"region":"us-west","cc":"us","latitude":47.608013,"longitude":-122.33517,"reserved":0,"last_update":"0001-01-01T00:00:00Z","name_a2s":"Uncletopia | Seattle | 1 | All Maps","protocol":17,"map":"pl_upward","folder":"tf","game":"Team Fortress","app_id":440,"player_count":11,"max_players":24,"Bots":0,"server_type":"Dedicated","server_os":"Linux","password":true,"vac":true,"version":"7708610","steam_id":85568392924469997,"keywords":["nocrits","nodmgspread","payload","uncletopia"],"game_id":440,"stv_port":27016,"stv_name":"Uncletopia | Seattle | 1 | All Maps | STV","players":[{"user_id":436,"name":"FuseKnight","steam_id":76561198439948701,"connected_time":799000000000,"state":"active","ping":120},{"user_id":449,"name":"mohamy_19","steam_id":76561198075833698,"connected_time":80000000000,"state":"active","ping":60},{"user_id":441,"name":"Madcows","steam_id":76561198021695614,"connected_time":220000000000,"state":"active","ping":53},{"user_id":442,"name":"300 Ping Gaming [WLP]","steam_id":76561199042160997,"connected_time":215000000000,"state":"active","ping":196},{"user_id":443,"name":"McNamJam","steam_id":76561198028128686,"connected_time":208000000000,"state":"active","ping":69},{"user_id":444,"name":"Bluebird","steam_id":76561199143106401,"connected_time":204000000000,"state":"active","ping":106},{"user_id":445,"name":"Noctis","steam_id":76561198845208323,"connected_time":177000000000,"state":"active","ping":107},{"user_id":446,"name":"the ultracheese","steam_id":76561198331060772,"connected_time":131000000000,"state":"active","ping":157},{"user_id":447,"name":"hypotenuse","steam_id":76561198062479158,"connected_time":117000000000,"state":"active","ping":52},{"user_id":448,"name":"Team Fartpiss Poo","steam_id":76561199163591880,"connected_time":101000000000,"state":"active","ping":123},{"user_id":303,"name":"Pubk","steam_id":76561198095939571,"connected_time":12315000000000,"state":"active","ping":36}]},{"server_id":119,"name":"Uncletopia | Seattle | 2 | All Maps","name_short":"sea-2","host":"sea-1.us.uncletopia.com","port":27025,"enabled":true,"region":"us-west","cc":"us","latitude":47.608013,"longitude":-122.33517,"reserved":0,"last_update":"0001-01-01T00:00:00Z","name_a2s":"Uncletopia | Seattle | 2 | All Maps","protocol":17,"map":"pl_upward","folder":"tf","game":"Team Fortress","app_id":440,"player_count":24,"max_players":24,"Bots":0,"server_type":"Dedicated","server_os":"Linux","password":true,"vac":true,"version":"7708610","steam_id":85568392924469998,"keywords":["nocrits","nodmgspread","payload","uncletopia"],"game_id":440,"stv_port":27026,"stv_name":"Uncletopia | Seattle | 2 | All Maps | STV","players":[{"user_id":341,"name":"xenolith","steam_id":76561198041496496,"connected_time":1946000000000,"state":"active","ping":110},{"user_id":347,"name":"eraser cat","steam_id":76561199045570463,"connected_time":1468000000000,"state":"active","ping":52},{"user_id":360,"name":"honk","steam_id":76561198050398028,"connected_time":363000000000,"state":"active","ping":121},{"user_id":305,"name":"Bob the Builder","steam_id":76561199069029812,"connected_time":4171000000000,"state":"active","ping":67},{"user_id":356,"name":"tokemaster69","steam_id":76561198083996924,"connected_time":759000000000,"state":"active","ping":85},{"user_id":344,"name":"spenca","steam_id":76561198025371154,"connected_time":1890000000000,"state":"active","ping":80},{"user_id":337,"name":"dougrocks421","steam_id":76561198165063918,"connected_time":2003000000000,"state":"active","ping":41},{"user_id":325,"name":"Sailor","steam_id":76561199081983517,"connected_time":3251000000000,"state":"active","ping":93},{"user_id":306,"name":"marknakhla11","steam_id":76561198122038289,"connected_time":4124000000000,"state":"active","ping":82},{"user_id":330,"name":"Sinn","steam_id":76561199013434543,"connected_time":3106000000000,"state":"active","ping":70},{"user_id":345,"name":"Wormy Getting Coal","steam_id":76561198054539200,"connected_time":1567000000000,"state":"active","ping":53},{"user_id":357,"name":"wile","steam_id":76561198125261443,"connected_time":736000000000,"state":"active","ping":58},{"user_id":354,"name":"Richiebeans","steam_id":76561198026558654,"connected_time":812000000000,"state":"active","ping":107},{"user_id":342,"name":"catgirl","steam_id":76561198020736672,"connected_time":1924000000000,"state":"active","ping":133},{"user_id":361,"name":"Sniff","steam_id":76561198010270922,"connected_time":89000000000,"state":"active","ping":44},{"user_id":353,"name":"Seagoll","steam_id":76561198017953606,"connected_time":1023000000000,"state":"active","ping":123},{"user_id":358,"name":"Squidward Tortellini","steam_id":76561199017850660,"connected_time":733000000000,"state":"active","ping":110},{"user_id":348,"name":"JTuu","steam_id":76561198030606396,"connected_time":1454000000000,"state":"active","ping":42},{"user_id":336,"name":"Ayayahuasca","steam_id":76561199002906056,"connected_time":2094000000000,"state":"active","ping":53},{"user_id":332,"name":"a crazy hobo","steam_id":76561198289650060,"connected_time":2857000000000,"state":"active","ping":72},{"user_id":321,"name":"[K.Y.L.L.]Drone #0432 (they/it)","steam_id":76561198027321950,"connected_time":3287000000000,"state":"active","ping":51},{"user_id":359,"name":"Ecliptica","steam_id":76561198171951333,"connected_time":694000000000,"state":"active","ping":153},{"user_id":352,"name":"Shooon","steam_id":76561198006107947,"connected_time":1259000000000,"state":"active","ping":68},{"user_id":322,"name":"Be Gay, Do Crimes, Smoke Weed!","steam_id":76561198092419868,"connected_time":3286000000000,"state":"active","ping":47}]},{"server_id":17,"name":"Uncletopia | San Francisco | 1 | All Maps","name_short":"sfo-1","host":"sfo-1.us.uncletopia.com","port":27015,"enabled":true,"region":"us-west","cc":"us","latitude":37.77397,"longitude":-122.4313,"reserved":0,"last_update":"0001-01-01T00:00:00Z","name_a2s":"Uncletopia | San Francisco | 1 | All Maps","protocol":17,"map":"koth_highpass","folder":"tf","game":"Team Fortress","app_id":440,"player_count":0,"max_players":24,"Bots":0,"server_type":"Dedicated","server_os":"Linux","password":true,"vac":true,"version":"7708610","steam_id":85568392924469999,"keywords":["cp","nocrits","nodmgspread","uncletopia"],"game_id":440,"stv_port":27016,"stv_name":"Uncletopia | San Francisco | 1 | All Maps | STV","players":null},{"server_id":18,"name":"Uncletopia | San Francisco | 2 | All Maps","name_short":"sfo-2","host":"sfo-1.us.uncletopia.com","port":27025,"enabled":true,"region":"us-west","cc":"us","latitude":37.77397,"longitude":-122.4313,"reserved":0,"last_update":"0001-01-01T00:00:00Z","name_a2s":"Uncletopia | San Francisco | 2 | All Maps","protocol":17,"map":"pl_badwater","folder":"tf","game":"Team Fortress","app_id":440,"player_count":24,"max_players":24,"Bots":0,"server_type":"Dedicated","server_os":"Linux","password":true,"vac":true,"version":"7708610","steam_id":85568392924470000,"keywords":["nocrits","nodmgspread","payload","uncletopia"],"game_id":440,"stv_port":27026,"stv_name":"Uncletopia | San Francisco | 2 | All Maps | STV","players":[{"user_id":193,"name":"lol","steam_id":76561198026491738,"connected_time":204000000000,"state":"active","ping":60},{"user_id":180,"name":"SolarusD","steam_id":76561198029279861,"connected_time":939000000000,"state":"active","ping":46},{"user_id":92,"name":"big car","steam_id":76561198067082350,"connected_time":6791000000000,"state":"active","ping":55},{"user_id":172,"name":"Jesus","steam_id":76561198018890911,"connected_time":1242000000000,"state":"active","ping":85},{"user_id":116,"name":"Mignyanne :3","steam_id":76561198048754056,"connected_time":5266000000000,"state":"active","ping":45},{"user_id":164,"name":"Doozy","steam_id":76561198033106776,"connected_time":2341000000000,"state":"active","ping":98},{"user_id":123,"name":"K-2","steam_id":76561198322606535,"connected_time":4390000000000,"state":"active","ping":63},{"user_id":165,"name":"Lambchop","steam_id":76561198043900363,"connected_time":2104000000000,"state":"active","ping":57},{"user_id":195,"name":"oil","steam_id":76561198099980149,"connected_time":64000000000,"state":"active","ping":60},{"user_id":131,"name":"JON","steam_id":76561198057971005,"connected_time":3691000000000,"state":"active","ping":55},{"user_id":132,"name":"Evanb","steam_id":76561198042057792,"connected_time":3679000000000,"state":"active","ping":70},{"user_id":158,"name":"goldhed","steam_id":76561198051751133,"connected_time":2644000000000,"state":"active","ping":78},{"user_id":156,"name":"Mom","steam_id":76561198207936000,"connected_time":2784000000000,"state":"active","ping":40},{"user_id":181,"name":"dewey","steam_id":76561198132791511,"connected_time":892000000000,"state":"active","ping":58},{"user_id":168,"name":"Testicular Torsion","steam_id":76561197968179862,"connected_time":1607000000000,"state":"active","ping":62},{"user_id":187,"name":"jesus christ","steam_id":76561198315825042,"connected_time":486000000000,"state":"active","ping":44},{"user_id":176,"name":"mi me ma mo mu mi me ma mo mu","steam_id":76561198248461754,"connected_time":1133000000000,"state":"active","ping":59},{"user_id":188,"name":"AGTCO Texas","steam_id":76561198053276976,"connected_time":475000000000,"state":"active","ping":61},{"user_id":160,"name":"Lily Thorn","steam_id":76561198305488625,"connected_time":2583000000000,"state":"active","ping":70},{"user_id":194,"name":"happer","steam_id":76561198018252253,"connected_time":193000000000,"state":"active","ping":53},{"user_id":161,"name":"It is Chopper Wednesday","steam_id":76561198117057283,"connected_time":2573000000000,"state":"active","ping":105},{"user_id":107,"name":"Stormtroper","steam_id":76561198251067522,"connected_time":5915000000000,"state":"active","ping":109},{"user_id":191,"name":"Smelvin #killtf2","steam_id":76561198135274720,"connected_time":394000000000,"state":"active","ping":65},{"user_id":171,"name":"girls LOVE it","steam_id":76561198035698704,"connected_time":1295000000000,"state":"active","ping":47}]},{"server_id":19,"name":"Uncletopia | San Francisco | 3 | No Payload","name_short":"sfo-3","host":"sfo-1.us.uncletopia.com","port":27035,"enabled":true,"region":"us-west","cc":"us","latitude":37.77397,"longitude":-122.4313,"reserved":0,"last_update":"0001-01-01T00:00:00Z","name_a2s":"Uncletopia | San Francisco | 3 | No Payload","protocol":17,"map":"cp_coldfront","folder":"tf","game":"Team Fortress","app_id":440,"player_count":0,"max_players":24,"Bots":0,"server_type":"Dedicated","server_os":"Linux","password":true,"vac":true,"version":"7708610","steam_id":85568392924742824,"keywords":["cp","nocrits","nodmgspread","uncletopia"],"game_id":440,"stv_port":27036,"stv_name":"Uncletopia | San Francisco | 3 | No Payload | STV","players":null},{"server_id":20,"name":"Uncletopia | San Francisco | 4 | Community","name_short":"sfo-4","host":"sfo-1.us.uncletopia.com","port":27045,"enabled":true,"region":"us-west","cc":"us","latitude":37.77397,"longitude":-122.4313,"reserved":0,"last_update":"0001-01-01T00:00:00Z","name_a2s":"Uncletopia | San Francisco | 4 | Community","protocol":17,"map":"workshop/koth_synthetic_rc6a.ugc1549817316","folder":"tf","game":"Team Fortress","app_id":440,"player_count":0,"max_players":24,"Bots":0,"server_type":"Dedicated","server_os":"Linux","password":true,"vac":true,"version":"7708610","steam_id":85568392924742826,"keywords":["cp","nocrits","nodmgspread","uncletopia"],"game_id":440,"stv_port":27046,"stv_name":"Uncletopia | San Francisco | 4 | Community | STV","players":null},{"server_id":141,"name":"Uncletopia | Sydney | 1 | All Maps","name_short":"syd-1","host":"syd-1.au.uncletopia.com","port":27015,"enabled":true,"region":"au","cc":"au","latitude":-33.865143,"longitude":151.2099,"reserved":0,"last_update":"0001-01-01T00:00:00Z","name_a2s":"Uncletopia | Sydney | 1 | All Maps","protocol":17,"map":"cp_snakewater_final1","folder":"tf","game":"Team Fortress","app_id":440,"player_count":24,"max_players":24,"Bots":0,"server_type":"Dedicated","server_os":"Linux","password":true,"vac":true,"version":"7708610","steam_id":85568392924470001,"keywords":["cp","nocrits","nodmgspread","uncletopia"],"game_id":440,"stv_port":27016,"stv_name":"Uncletopia | Sydney | 1 | All Maps | STV","players":[{"user_id":196,"name":"Vanessa","steam_id":76561198077728992,"connected_time":234000000000,"state":"active","ping":60},{"user_id":190,"name":"J''''","steam_id":76561198047565137,"connected_time":587000000000,"state":"active","ping":51},{"user_id":184,"name":"super nintendo chalmers","steam_id":76561198046239819,"connected_time":1262000000000,"state":"active","ping":112},{"user_id":185,"name":"hendog","steam_id":76561198063477445,"connected_time":1256000000000,"state":"active","ping":62},{"user_id":125,"name":"jimboco","steam_id":76561198250813408,"connected_time":5632000000000,"state":"active","ping":55},{"user_id":179,"name":"callistoAshley","steam_id":76561198178116375,"connected_time":1354000000000,"state":"active","ping":51},{"user_id":187,"name":"AmethystDragon10","steam_id":76561198412979983,"connected_time":859000000000,"state":"active","ping":73},{"user_id":168,"name":"Pellagra","steam_id":76561198072383513,"connected_time":2355000000000,"state":"active","ping":47},{"user_id":48,"name":"Kumbya Kumbya Kumbya Kumbya","steam_id":76561198117979249,"connected_time":11551000000000,"state":"active","ping":99},{"user_id":175,"name":"no teles 4 u","steam_id":76561198018478297,"connected_time":1872000000000,"state":"active","ping":66},{"user_id":171,"name":"Del Davis","steam_id":76561199365669004,"connected_time":2101000000000,"state":"active","ping":59},{"user_id":186,"name":"The Gaming","steam_id":76561198914415738,"connected_time":1052000000000,"state":"active","ping":57},{"user_id":173,"name":"Marzell","steam_id":76561198151276153,"connected_time":2060000000000,"state":"active","ping":95},{"user_id":189,"name":"Shivu","steam_id":76561198006459867,"connected_time":607000000000,"state":"active","ping":59},{"user_id":180,"name":"Selling Anti-Matter for $543","steam_id":76561198070708382,"connected_time":1338000000000,"state":"active","ping":58},{"user_id":169,"name":"B4SIC","steam_id":76561198859236021,"connected_time":2326000000000,"state":"active","ping":67},{"user_id":181,"name":"Dangerous DPad","steam_id":76561198452829128,"connected_time":1335000000000,"state":"active","ping":61},{"user_id":192,"name":"Pizzaray","steam_id":76561198005075102,"connected_time":459000000000,"state":"active","ping":44},{"user_id":197,"name":"Phlog enthusiast","steam_id":76561198344085093,"connected_time":161000000000,"state":"active","ping":94},{"user_id":195,"name":"perturb","steam_id":76561198085124297,"connected_time":323000000000,"state":"active","ping":45},{"user_id":174,"name":"your grandmas toaster","steam_id":76561199070168033,"connected_time":2019000000000,"state":"active","ping":54},{"user_id":156,"name":"Macca","steam_id":76561198010207998,"connected_time":3531000000000,"state":"active","ping":54},{"user_id":191,"name":"Vsauce","steam_id":76561198100064404,"connected_time":507000000000,"state":"active","ping":30},{"user_id":92,"name":"man ahhh","steam_id":76561198129577552,"connected_time":8736000000000,"state":"active","ping":80}]},{"server_id":123,"name":"Uncletopia | Sydney | 2 | All Maps","name_short":"syd-2","host":"syd-1.au.uncletopia.com","port":27025,"enabled":true,"region":"au","cc":"au","latitude":-33.865143,"longitude":151.2099,"reserved":0,"last_update":"0001-01-01T00:00:00Z","name_a2s":"Uncletopia | Sydney | 2 | All Maps","protocol":17,"map":"pl_upward","folder":"tf","game":"Team Fortress","app_id":440,"player_count":22,"max_players":24,"Bots":0,"server_type":"Dedicated","server_os":"Linux","password":true,"vac":true,"version":"7708610","steam_id":85568392924470002,"keywords":["nocrits","nodmgspread","payload","uncletopia"],"game_id":440,"stv_port":27026,"stv_name":"Uncletopia | Sydney | 2 | All Maps | STV","players":[{"user_id":135,"name":"cimpact","steam_id":76561198452258917,"connected_time":60000000000,"state":"active","ping":157},{"user_id":130,"name":"MyNameIsName","steam_id":76561199099935119,"connected_time":302000000000,"state":"active","ping":51},{"user_id":118,"name":"hive","steam_id":76561199099744527,"connected_time":1042000000000,"state":"active","ping":45},{"user_id":104,"name":"Queen Elizabeth the second","steam_id":76561199383689810,"connected_time":2113000000000,"state":"active","ping":177},{"user_id":131,"name":"FreedomSpite","steam_id":76561198152368094,"connected_time":200000000000,"state":"active","ping":36},{"user_id":119,"name":"Frankie","steam_id":76561199116054942,"connected_time":1026000000000,"state":"active","ping":46},{"user_id":120,"name":"michael","steam_id":76561198052848358,"connected_time":844000000000,"state":"active","ping":54},{"user_id":101,"name":"Dr. Hoppity","steam_id":76561197999715646,"connected_time":2235000000000,"state":"active","ping":59},{"user_id":132,"name":"Professional Model Railroader","steam_id":76561199249059042,"connected_time":160000000000,"state":"active","ping":93},{"user_id":41,"name":"The thing under the bed","steam_id":76561199305879202,"connected_time":6610000000000,"state":"active","ping":97},{"user_id":122,"name":"Parabolic","steam_id":76561198095307975,"connected_time":752000000000,"state":"active","ping":64},{"user_id":123,"name":"BurritoAndrew","steam_id":76561198959130320,"connected_time":736000000000,"state":"active","ping":84},{"user_id":103,"name":"xX_sexhaver_Xx(real)","steam_id":76561199205171109,"connected_time":2160000000000,"state":"active","ping":74},{"user_id":124,"name":"EXTRA THICC","steam_id":76561198333936835,"connected_time":719000000000,"state":"active","ping":52},{"user_id":125,"name":"Chocolate Lightning","steam_id":76561198213958971,"connected_time":568000000000,"state":"active","ping":90},{"user_id":126,"name":"Siderpy","steam_id":76561198090225463,"connected_time":556000000000,"state":"active","ping":52},{"user_id":127,"name":"AzureFox","steam_id":76561198108179408,"connected_time":493000000000,"state":"active","ping":102},{"user_id":128,"name":"badmn","steam_id":76561198056462343,"connected_time":483000000000,"state":"active","ping":60},{"user_id":129,"name":"L-Neo","steam_id":76561198123242967,"connected_time":462000000000,"state":"active","ping":45},{"user_id":133,"name":"Soup","steam_id":76561198136460826,"connected_time":159000000000,"state":"active","ping":45},{"user_id":134,"name":"Hyluv \u003c3 (They/Her)","steam_id":76561198165570322,"connected_time":85000000000,"state":"active","ping":39},{"user_id":98,"name":"Pak'n'Save","steam_id":76561199199754055,"connected_time":2879000000000,"state":"active","ping":59}]},{"server_id":395,"name":"Uncletopia | Sydney | 3 | All Maps","name_short":"syd-3","host":"syd-1.au.uncletopia.com","port":27035,"enabled":true,"region":"au","cc":"au","latitude":-33.865143,"longitude":151.2099,"reserved":0,"last_update":"0001-01-01T00:00:00Z","name_a2s":"Uncletopia | Sydney | 3 | All Maps","protocol":17,"map":"koth_cascade","folder":"tf","game":"Team Fortress","app_id":440,"player_count":0,"max_players":24,"Bots":0,"server_type":"Dedicated","server_os":"Linux","password":true,"vac":true,"version":"7708610","steam_id":85568392925194467,"keywords":["cp","nocrits","nodmgspread","uncletopia"],"game_id":440,"stv_port":27036,"stv_name":"Uncletopia | Sydney | 3 | All Maps | STV","players":null},{"server_id":396,"name":"Uncletopia | Sydney | 4 | All Maps","name_short":"syd-4","host":"syd-1.au.uncletopia.com","port":27045,"enabled":true,"region":"au","cc":"au","latitude":-33.865143,"longitude":151.2099,"reserved":0,"last_update":"0001-01-01T00:00:00Z","name_a2s":"Uncletopia | Sydney | 4 | All Maps","protocol":17,"map":"pl_swiftwater_final1","folder":"tf","game":"Team Fortress","app_id":440,"player_count":2,"max_players":24,"Bots":0,"server_type":"Dedicated","server_os":"Linux","password":true,"vac":true,"version":"7708610","steam_id":85568392925397958,"keywords":["nocrits","nodmgspread","payload","uncletopia"],"game_id":440,"stv_port":27046,"stv_name":"Uncletopia | Sydney | 4 | All Maps | STV","players":[{"user_id":8,"name":"starfinder","steam_id":76561199071758773,"connected_time":836000000000,"state":"active","ping":67},{"user_id":9,"name":"Underrocks","steam_id":76561198134725167,"connected_time":819000000000,"state":"active","ping":79}]},{"server_id":58,"name":"Uncletopia | Sydney | 5 | No Payload","name_short":"syd-5","host":"syd-1.au.uncletopia.com","port":27055,"enabled":true,"region":"au","cc":"au","latitude":-33.865143,"longitude":151.2099,"reserved":0,"last_update":"0001-01-01T00:00:00Z","name_a2s":"Uncletopia | Sydney | 5 | No Payload","protocol":17,"map":"koth_cascade","folder":"tf","game":"Team Fortress","app_id":440,"player_count":0,"max_players":24,"Bots":0,"server_type":"Dedicated","server_os":"Linux","password":true,"vac":true,"version":"7708610","steam_id":85568392925397959,"keywords":["cp","nocrits","nodmgspread","uncletopia"],"game_id":440,"stv_port":0,"stv_name":"","players":null},{"server_id":59,"name":"Uncletopia | Sydney | 6 | Community","name_short":"syd-6","host":"syd-1.au.uncletopia.com","port":27065,"enabled":true,"region":"au","cc":"au","latitude":-33.865143,"longitude":151.2099,"reserved":0,"last_update":"0001-01-01T00:00:00Z","name_a2s":"Uncletopia | Sydney | 6 | Community","protocol":17,"map":"workshop/koth_synthetic_rc6a.ugc1549817316","folder":"tf","game":"Team Fortress","app_id":440,"player_count":0,"max_players":24,"Bots":0,"server_type":"Dedicated","server_os":"Linux","password":true,"vac":true,"version":"7708610","steam_id":85568392925397960,"keywords":["cp","nocrits","nodmgspread","uncletopia"],"game_id":440,"stv_port":27066,"stv_name":"Uncletopia | Sydney | 6 | Community | STV","players":null},{"server_id":49,"name":"Uncletopia | Warsaw | 1 | All Maps","name_short":"waw-1","host":"waw-1.pl.uncletopia.com","port":27015,"enabled":true,"region":"eu","cc":"pl","latitude":52.2297,"longitude":21.017532,"reserved":0,"last_update":"0001-01-01T00:00:00Z","name_a2s":"Uncletopia | Warsaw | 1 | All Maps","protocol":17,"map":"cp_mountainlab","folder":"tf","game":"Team Fortress","app_id":440,"player_count":0,"max_players":24,"Bots":0,"server_type":"Dedicated","server_os":"Linux","password":true,"vac":true,"version":"7708610","steam_id":85568392925397850,"keywords":["cp","nocrits","nodmgspread","uncletopia"],"game_id":440,"stv_port":0,"stv_name":"","players":null},{"server_id":50,"name":"Uncletopia | Warsaw | 2 | All Maps","name_short":"waw-2","host":"waw-1.pl.uncletopia.com","port":27025,"enabled":true,"region":"eu","cc":"pl","latitude":52.2297,"longitude":21.017532,"reserved":0,"last_update":"0001-01-01T00:00:00Z","name_a2s":"Uncletopia | Warsaw | 2 | All Maps","protocol":17,"map":"pl_badwater","folder":"tf","game":"Team Fortress","app_id":440,"player_count":0,"max_players":24,"Bots":0,"server_type":"Dedicated","server_os":"Linux","password":true,"vac":true,"version":"7708610","steam_id":85568392925397851,"keywords":["nocrits","nodmgspread","payload","uncletopia"],"game_id":440,"stv_port":0,"stv_name":"","players":null},{"server_id":51,"name":"Uncletopia | Warsaw | 3 | All Maps","name_short":"waw-3","host":"waw-1.pl.uncletopia.com","port":27035,"enabled":true,"region":"eu","cc":"pl","latitude":52.2297,"longitude":21.017532,"reserved":0,"last_update":"0001-01-01T00:00:00Z","name_a2s":"Uncletopia | Warsaw | 3 | All Maps","protocol":17,"map":"koth_cascade","folder":"tf","game":"Team Fortress","app_id":440,"player_count":0,"max_players":24,"Bots":0,"server_type":"Dedicated","server_os":"Linux","password":true,"vac":true,"version":"7708610","steam_id":85568392925397852,"keywords":["cp","nocrits","nodmgspread","uncletopia"],"game_id":440,"stv_port":0,"stv_name":"","players":null},{"server_id":52,"name":"Uncletopia | Warsaw | 4 | All Maps","name_short":"waw-4","host":"waw-1.pl.uncletopia.com","port":27045,"enabled":true,"region":"eu","cc":"pl","latitude":52.2297,"longitude":21.017532,"reserved":0,"last_update":"0001-01-01T00:00:00Z","name_a2s":"Uncletopia | Warsaw | 4 | All Maps","protocol":17,"map":"cp_mountainlab","folder":"tf","game":"Team Fortress","app_id":440,"player_count":0,"max_players":24,"Bots":0,"server_type":"Dedicated","server_os":"Linux","password":true,"vac":true,"version":"7708610","steam_id":85568392925397853,"keywords":["cp","nocrits","nodmgspread","uncletopia"],"game_id":440,"stv_port":0,"stv_name":"","players":null},{"server_id":53,"name":"Uncletopia | Warsaw | 5 | No Payload","name_short":"waw-5","host":"waw-1.pl.uncletopia.com","port":27055,"enabled":true,"region":"eu","cc":"pl","latitude":52.2297,"longitude":21.017532,"reserved":0,"last_update":"0001-01-01T00:00:00Z","name_a2s":"Uncletopia | Warsaw | 5 | No Payload","protocol":17,"map":"cp_dustbowl","folder":"tf","game":"Team Fortress","app_id":440,"player_count":0,"max_players":24,"Bots":0,"server_type":"Dedicated","server_os":"Linux","password":true,"vac":true,"version":"7708610","steam_id":85568392925397854,"keywords":["cp","nocrits","nodmgspread","uncletopia"],"game_id":440,"stv_port":0,"stv_name":"","players":null},{"server_id":54,"name":"Uncletopia | Warsaw | 6 | Community","name_short":"waw-6","host":"waw-1.pl.uncletopia.com","port":27065,"enabled":true,"region":"eu","cc":"pl","latitude":52.2297,"longitude":21.017532,"reserved":0,"last_update":"0001-01-01T00:00:00Z","name_a2s":"Uncletopia | Warsaw | 6 | Community","protocol":17,"map":"koth_highpass","folder":"tf","game":"Team Fortress","app_id":440,"player_count":0,"max_players":24,"Bots":0,"server_type":"Dedicated","server_os":"Linux","password":true,"vac":true,"version":"7708610","steam_id":85568392925397856,"keywords":["cp","nocrits","nodmgspread","uncletopia"],"game_id":440,"stv_port":0,"stv_name":"","players":null}]}