{"status":true,"message":"","result":[{"server_id":9,"name":"Uncletopia | Atlanta | 1 | All Maps","name_short":"atl-1","host":"atl-1.us.uncletopia.com","port":27015,"enabled":true,"region":"us-east","cc":"us","latitude":33.753746,"longitude":-84.38633,"reserved":0,"last_update":"0001-01-01T00:00:00Z","name_a2s":"Uncletopia | Atlanta | 1 | All Maps","protocol":17,"map":"pl_borneo","folder":"tf","game":"Team Fortress","app_id":440,"player_count":24,"max_players":24,"Bots":0,"server_type":"Dedicated","server_os":"Linux","password":true,"vac":true,"version":"7882260","steam_id":85568392924469982,"keywords":["nocrits","nodmgspread","payload","uncletopia"],"game_id":440,"stv_port":27016,"stv_name":"Uncletopia | Atlanta | 1 | All Maps | STV","players":[{"user_id":118,"name":"Dev","steam_id":76561198388276870,"connected_time":1397000000000,"state":"active","ping":86},{"user_id":109,"name":"Sup m8","steam_id":76561198081659121,"connected_time":1917000000000,"state":"active","ping":56},{"user_id":125,"name":"Weerk","steam_id":76561199209543551,"connected_time":692000000000,"state":"active","ping":73},{"user_id":104,"name":"SparkStorm","steam_id":76561198095817025,"connected_time":1967000000000,"state":"active","ping":34},{"user_id":121,"name":"drain.pablo.2005","steam_id":76561198303963691,"connected_time":1006000000000,"state":"active","ping":60},{"user_id":130,"name":"Pango","steam_id":76561198069811545,"connected_time":456000000000,"state":"active","ping":45},{"user_id":126,"name":"Reverie","steam_id":76561198149406613,"connected_time":651000000000,"state":"active","ping":60},{"user_id":115,"name":"TransientPoe","steam_id":76561198028957025,"connected_time":1577000000000,"state":"active","ping":71},{"user_id":103,"name":"William Wallace","steam_id":76561199343316814,"connected_time":1971000000000,"state":"active","ping":55},{"user_id":83,"name":"milo","steam_id":76561199061380038,"connected_time":4174000000000,"state":"active","ping":57},{"user_id":105,"name":"BIG HOG","steam_id":76561198079923652,"connected_time":1963000000000,"state":"active","ping":71},{"user_id":106,"name":"J The Jounin","steam_id":76561198034583622,"connected_time":1962000000000,"state":"active","ping":60},{"user_id":110,"name":"thomasdee725!!!","steam_id":76561199189526173,"connected_time":1841000000000,"state":"active","ping":83},{"user_id":127,"name":"_normal","steam_id":76561198338505734,"connected_time":649000000000,"state":"active","ping":98},{"user_id":78,"name":"Blossom","steam_id":76561198088220476,"connected_time":4707000000000,"state":"active","ping":81},{"user_id":131,"name":"Temujin","steam_id":76561198030936583,"connected_time":435000000000,"state":"active","ping":49},{"user_id":129,"name":"mineblast99","steam_id":76561199065648954,"connected_time":510000000000,"state":"active","ping":59},{"user_id":120,"name":"zik","steam_id":76561198122186802,"connected_time":1066000000000,"state":"active","ping":57},{"user_id":87,"name":"Lucky","steam_id":76561198418262145,"connected_time":3281000000000,"state":"active","ping":115},{"user_id":84,"name":"daffodil","steam_id":76561198049480053,"connected_time":3855000000000,"state":"active","ping":71},{"user_id":101,"name":"Bag","steam_id":76561198012395490,"connected_time":2164000000000,"state":"active","ping":59},{"user_id":112,"name":"highschool drop-out","steam_id":76561198366299848,"connected_time":1747000000000,"state":"active","ping":53},{"user_id":124,"name":"Indigolake","steam_id":76561198202215807,"connected_time":714000000000,"state":"active","ping":92},{"user_id":117,"name":"sentry turret","steam_id":76561198327057433,"connected_time":1550000000000,"state":"active","ping":90}]},{"server_id":104,"name":"Uncletopia | Atlanta | 2 | All Maps","name_short":"atl-2","host":"atl-1.us.uncletopia.com","port":27025,"enabled":true,"region":"us-east","cc":"us","latitude":33.753746,"longitude":-84.38633,"reserved":0,"last_update":"0001-01-01T00:00:00Z","name_a2s":"Uncletopia | Atlanta | 2 | All Maps","protocol":17,"map":"pl_badwater","folder":"tf","game":"Team Fortress","app_id":440,"player_count":1,"max_players":24,"Bots":0,"server_type":"Dedicated","server_os":"Linux","password":true,"vac":true,"version":"7882260","steam_id":85568392924469983,"keywords":["nocrits","nodmgspread","payload","uncletopia"],"game_id":440,"stv_port":27026,"stv_name":"Uncletopia | Atlanta | 2 | All Maps | STV","players":[{"user_id":5,"name":"MrVafflesAC","steam_id":76561199114500775,"connected_time":180000000000,"state":"active","ping":56}]},{"server_id":400,"name":"Uncletopia | Atlanta | 3 | Community","name_short":"atl-3","host":"atl-1.us.uncletopia.com","port":27035,"enabled":true,"region":"us-east","cc":"us","latitude":33.753746,"longitude":-84.38633,"reserved":0,"last_update":"0001-01-01T00:00:00Z","name_a2s":"Uncletopia | Atlanta | 3 | Community","protocol":17,"map":"cp_sunshine","folder":"tf","game":"Team Fortress","app_id":440,"player_count":0,"max_players":24,"Bots":0,"server_type":"Dedicated","server_os":"Linux","password":true,"vac":true,"version":"7882260","steam_id":85568392924515187,"keywords":["cp","nocrits","nodmgspread","uncletopia"],"game_id":440,"stv_port":27036,"stv_name":"Uncletopia | Atlanta | 3 | Community | STV","players":null},{"server_id":401,"name":"Uncletopia | Atlanta | 4 | No Payload","name_short":"atl-4","host":"atl-1.us.uncletopia.com","port":27045,"enabled":true,"region":"us-east","cc":"us","latitude":33.753746,"longitude":-84.38633,"reserved":0,"last_update":"0001-01-01T00:00:00Z","name_a2s":"","protocol":0,"map":"","folder":"","game":"","app_id":0,"player_count":0,"max_players":0,"Bots":0,"server_type":"","server_os":"","password":false,"vac":false,"version":"","steam_id":0,"keywords":null,"game_id":0,"stv_port":0,"stv_name":"","players":null},{"server_id":2,"name":"Uncletopia | Chicago | 1 | All Maps","name_short":"chi-1","host":"chi-1.us.uncletopia.com","port":27015,"enabled":true,"region":"us-central","cc":"us","latitude":41.881832,"longitude":-87.62318,"reserved":0,"last_update":"0001-01-01T00:00:00Z","name_a2s":"Uncletopia | Chicago | 1 | All Maps","protocol":17,"map":"pl_barnblitz","folder":"tf","game":"Team Fortress","app_id":440,"player_count":24,"max_players":24,"Bots":0,"server_type":"Dedicated","server_os":"Linux","password":true,"vac":true,"version":"7882260","steam_id":85568392924469984,"keywords":["nocrits","nodmgspread","payload","uncletopia"],"game_id":440,"stv_port":27016,"stv_name":"Uncletopia | Chicago | 1 | All Maps | STV","players":[{"user_id":193,"name":"richarven","steam_id":76561198189429665,"connected_time":9012000000000,"state":"active","ping":69},{"user_id":265,"name":"Brass beast in my pants","steam_id":76561199132214008,"connected_time":1822000000000,"state":"active","ping":97},{"user_id":287,"name":"Doggo.exe","steam_id":76561197979080610,"connected_time":187000000000,"state":"active","ping":80},{"user_id":260,"name":"Notsocreative","steam_id":76561198236372202,"connected_time":2765000000000,"state":"active","ping":78},{"user_id":236,"name":"Horrizan","steam_id":76561197965028480,"connected_time":5380000000000,"state":"active","ping":88},{"user_id":271,"name":"greg club","steam_id":76561198370506193,"connected_time":1570000000000,"state":"active","ping":51},{"user_id":281,"name":"Dr. Krazo","steam_id":76561198049236587,"connected_time":619000000000,"state":"active","ping":76},{"user_id":262,"name":"coodge","steam_id":76561198139080439,"connected_time":2400000000000,"state":"active","ping":79},{"user_id":266,"name":"k3ramb1t","steam_id":76561198097880352,"connected_time":1802000000000,"state":"active","ping":74},{"user_id":215,"name":"Nassu","steam_id":76561198147367577,"connected_time":7056000000000,"state":"active","ping":75},{"user_id":286,"name":"Owl Pacino","steam_id":76561197979970666,"connected_time":212000000000,"state":"active","ping":54},{"user_id":285,"name":"ttv/lilirouxxx","steam_id":76561198000522179,"connected_time":408000000000,"state":"active","ping":64},{"user_id":284,"name":"Cedric","steam_id":76561198072090580,"connected_time":445000000000,"state":"active","ping":88},{"user_id":242,"name":"noah","steam_id":76561198173310157,"connected_time":4701000000000,"state":"active","ping":53},{"user_id":282,"name":"PheebsyDeebsy","steam_id":76561198101509436,"connected_time":575000000000,"state":"active","ping":99},{"user_id":276,"name":"Snom","steam_id":76561198333827920,"connected_time":1329000000000,"state":"active","ping":99},{"user_id":272,"name":"Space Lizard","steam_id":76561198056798193,"connected_time":1527000000000,"state":"active","ping":72},{"user_id":264,"name":"Tavros","steam_id":76561198297961039,"connected_time":1956000000000,"state":"active","ping":50},{"user_id":263,"name":"Gnarly Shark Bite","steam_id":76561198004058342,"connected_time":2022000000000,"state":"active","ping":70},{"user_id":270,"name":"corik","steam_id":76561198261748842,"connected_time":1628000000000,"state":"active","ping":67},{"user_id":254,"name":"Hoop","steam_id":76561199124865843,"connected_time":3032000000000,"state":"active","ping":62},{"user_id":204,"name":"feliser","steam_id":76561198084336096,"connected_time":8573000000000,"state":"active","ping":54},{"user_id":277,"name":"Rein","steam_id":76561198300340427,"connected_time":940000000000,"state":"active","ping":61},{"user_id":246,"name":"picklejuice dealer","steam_id":76561198031675881,"connected_time":4245000000000,"state":"active","ping":43}]},{"server_id":106,"name":"Uncletopia | Chicago | 2 | All Maps","name_short":"chi-2","host":"chi-1.us.uncletopia.com","port":27025,"enabled":true,"region":"us-central","cc":"us","latitude":41.881832,"longitude":-87.62318,"reserved":0,"last_update":"0001-01-01T00:00:00Z","name_a2s":"Uncletopia | Chicago | 2 | All Maps","protocol":17,"map":"cp_mountainlab","folder":"tf","game":"Team Fortress","app_id":440,"player_count":24,"max_players":24,"Bots":0,"server_type":"Dedicated","server_os":"Linux","password":true,"vac":true,"version":"7882260","steam_id":85568392924469985,"keywords":["cp","nocrits","nodmgspread","uncletopia"],"game_id":440,"stv_port":27026,"stv_name":"Uncletopia | Chicago | 2 | All Maps | STV","players":[{"user_id":319,"name":"Illuminaughty","steam_id":76561199163662910,"connected_time":82000000000,"state":"active","ping":62},{"user_id":169,"name":"crashymicsplody","steam_id":76561198213916765,"connected_time":4728000000000,"state":"active","ping":59},{"user_id":280,"name":"BOTBOT","steam_id":76561198271928618,"connected_time":1647000000000,"state":"active","ping":75},{"user_id":296,"name":"Disco Fever","steam_id":76561198069532215,"connected_time":1396000000000,"state":"active","ping":75},{"user_id":307,"name":"Sartupial","steam_id":76561198443169940,"connected_time":1225000000000,"state":"active","ping":69},{"user_id":252,"name":"robotman5","steam_id":76561197996783330,"connected_time":2875000000000,"state":"active","ping":74},{"user_id":309,"name":"YOUNG UPGRADE","steam_id":76561198035474725,"connected_time":1192000000000,"state":"active","ping":75},{"user_id":265,"name":"CFG Ponder","steam_id":76561198127039453,"connected_time":2000000000000,"state":"active","ping":101},{"user_id":244,"name":"‚éæ Ethereal ‚èå","steam_id":76561199385170644,"connected_time":3093000000000,"state":"active","ping":49},{"user_id":278,"name":"cakgamin","steam_id":76561199088909749,"connected_time":1753000000000,"state":"active","ping":62},{"user_id":283,"name":"JackAttacks143","steam_id":76561198971889483,"connected_time":1587000000000,"state":"active","ping":88},{"user_id":311,"name":"pandoRA","steam_id":76561198075490385,"connected_time":1179000000000,"state":"active","ping":100},{"user_id":258,"name":"Womp","steam_id":76561198245103000,"connected_time":2297000000000,"state":"active","ping":73},{"user_id":285,"name":"Amyxts36","steam_id":76561198872232094,"connected_time":1545000000000,"state":"active","ping":81},{"user_id":246,"name":"MankTKO","steam_id":76561198189421005,"connected_time":3089000000000,"state":"active","ping":167},{"user_id":306,"name":"Shattered Glass","steam_id":76561198116835391,"connected_time":1261000000000,"state":"active","ping":88},{"user_id":317,"name":"momb","steam_id":76561198142234038,"connected_time":463000000000,"state":"active","ping":88},{"user_id":256,"name":"STENDO_CLIP","steam_id":76561198059570167,"connected_time":2470000000000,"state":"active","ping":118},{"user_id":318,"name":"The local hobo","steam_id":76561198289650060,"connected_time":267000000000,"state":"active","ping":80},{"user_id":315,"name":"Auto-Fellatio","steam_id":76561198056078945,"connected_time":989000000000,"state":"active","ping":65},{"user_id":320,"name":"jamalbob33","steam_id":76561198410281331,"connected_time":52000000000,"state":"active","ping":95},{"user_id":160,"name":"hatchetax","steam_id":76561199013337543,"connected_time":5236000000000,"state":"active","ping":71},{"user_id":321,"name":"Bon Gripper","steam_id":76561198090074621,"connected_time":36000000000,"state":"active","ping":67},{"user_id":262,"name":"tasty","steam_id":76561198083839061,"connected_time":2134000000000,"state":"active","ping":71}]},{"server_id":402,"name":"Uncletopia | Chicago | 3 | All Maps","name_short":"chi-3","host":"chi-1.us.uncletopia.com","port":27035,"enabled":true,"region":"us-central","cc":"us","latitude":41.881832,"longitude":-87.62318,"reserved":0,"last_update":"0001-01-01T00:00:00Z","name_a2s":"Uncletopia | Chicago | 3 | All Maps","protocol":17,"map":"pl_pier","folder":"tf","game":"Team Fortress","app_id":440,"player_count":19,"max_players":24,"Bots":0,"server_type":"Dedicated","server_os":"Linux","password":true,"vac":true,"version":"7882260","steam_id":85568392924515191,"keywords":["nocrits","nodmgspread","payload","uncletopia"],"game_id":440,"stv_port":27036,"stv_name":"Uncletopia | Chicago | 3 | All Maps | STV","players":[{"user_id":395,"name":"Recyclops","steam_id":76561198258909388,"connected_time":492000000000,"state":"active","ping":47},{"user_id":398,"name":"128gb sd card","steam_id":76561198043636749,"connected_time":314000000000,"state":"active","ping":92},{"user_id":341,"name":"C papi","steam_id":76561198027779564,"connected_time":4039000000000,"state":"active","ping":46},{"user_id":371,"name":"gendermutt","steam_id":76561198152857317,"connected_time":1706000000000,"state":"active","ping":35},{"user_id":319,"name":"DISCO BITCH!!","steam_id":76561198111259720,"connected_time":4458000000000,"state":"active","ping":65},{"user_id":386,"name":"KingofNothing","steam_id":76561198269174117,"connected_time":1151000000000,"state":"active","ping":66},{"user_id":388,"name":"sine","steam_id":76561198012038088,"connected_time":1109000000000,"state":"active","ping":49},{"user_id":394,"name":"Rornir","steam_id":76561198081829615,"connected_time":508000000000,"state":"active","ping":37},{"user_id":402,"name":"Master John Thursday","steam_id":76561197987593154,"connected_time":6000000000,"state":"spawning","ping":67},{"user_id":399,"name":"pinglefingle","steam_id":76561198216580197,"connected_time":223000000000,"state":"active","ping":59},{"user_id":397,"name":"-|FG|- Hamilkar Barca","steam_id":76561198091666474,"connected_time":340000000000,"state":"active","ping":62},{"user_id":401,"name":"strctfsh","steam_id":76561198083619784,"connected_time":193000000000,"state":"active","ping":50},{"user_id":328,"name":"rat","steam_id":76561198313364985,"connected_time":4239000000000,"state":"active","ping":66},{"user_id":389,"name":"Error 4 Oh Four","steam_id":76561198121637567,"connected_time":1106000000000,"state":"active","ping":75},{"user_id":358,"name":"Carrion Crawler","steam_id":76561198069814977,"connected_time":2868000000000,"state":"active","ping":67},{"user_id":334,"name":"raps","steam_id":76561198188722751,"connected_time":4166000000000,"state":"active","ping":93},{"user_id":346,"name":"Dracula, King of All Vampires","steam_id":76561198026930160,"connected_time":3650000000000,"state":"active","ping":73},{"user_id":370,"name":"Chimpanzee","steam_id":76561198850387282,"connected_time":2349000000000,"state":"active","ping":87},{"user_id":384,"name":"Jovo","steam_id":76561197993265970,"connected_time":1336000000000,"state":"active","ping":72}]},{"server_id":403,"name":"Uncletopia | Chicago | 4 | All Maps","name_short":"chi-4","host":"chi-1.us.uncletopia.com","port":27045,"enabled":true,"region":"us-central","cc":"us","latitude":41.881832,"longitude":-87.62318,"reserved":0,"last_update":"0001-01-01T00:00:00Z","name_a2s":"Uncletopia | Chicago | 4 | All Maps","protocol":17,"map":"pl_swiftwater_final1","folder":"tf","game":"Team Fortress","app_id":440,"player_count":22,"max_players":24,"Bots":0,"server_type":"Dedicated","server_os":"Linux","password":true,"vac":true,"version":"7882260","steam_id":85568392924515193,"keywords":["nocrits","nodmgspread","payload","uncletopia"],"game_id":440,"stv_port":27046,"stv_name":"Uncletopia | Chicago | 4 | All Maps | STV","players":[{"user_id":288,"name":"the piss boiling machine","steam_id":76561198113716047,"connected_time":713000000000,"state":"active","ping":61},{"user_id":266,"name":"PorkTheChop","steam_id":76561198008883658,"connected_time":2096000000000,"state":"active","ping":46},{"user_id":285,"name":"Technic","steam_id":76561198200302281,"connected_time":817000000000,"state":"active","ping":71},{"user_id":300,"name":"sardine","steam_id":76561198162797626,"connected_time":451000000000,"state":"active","ping":87},{"user_id":282,"name":"Okpar","steam_id":76561199221067945,"connected_time":1374000000000,"state":"active","ping":94},{"user_id":287,"name":"tiny terry","steam_id":76561198001488041,"connected_time":772000000000,"state":"active","ping":91},{"user_id":305,"name":"heady_asskill","steam_id":76561197982882284,"connected_time":73000000000,"state":"active","ping":75},{"user_id":243,"name":"ÔºîÔºê Ôº¶Ôº∞Ôº≥","steam_id":76561198272394965,"connected_time":3597000000000,"state":"active","ping":136},{"user_id":268,"name":"quint","steam_id":76561198046797995,"connected_time":1880000000000,"state":"active","ping":57},{"user_id":301,"name":"lukamine","steam_id":76561198166827208,"connected_time":450000000000,"state":"active","ping":94},{"user_id":292,"name":"spud stealer 2000","steam_id":76561199264293695,"connected_time":643000000000,"state":"active","ping":60},{"user_id":306,"name":"ADALEXAD","steam_id":76561198037496891,"connected_time":67000000000,"state":"active","ping":115},{"user_id":307,"name":"Waiting...","steam_id":76561198984449256,"connected_time":11000000000,"state":"spawning","ping":155},{"user_id":293,"name":"PootZilla","steam_id":76561198073870352,"connected_time":612000000000,"state":"active","ping":93},{"user_id":283,"name":"TheUltimatePybro","steam_id":76561198119425604,"connected_time":1157000000000,"state":"active","ping":78},{"user_id":294,"name":"Big man real strong","steam_id":76561198173921691,"connected_time":571000000000,"state":"active","ping":90},{"user_id":296,"name":".Cassius.","steam_id":76561199181383832,"connected_time":560000000000,"state":"active","ping":62},{"user_id":297,"name":"Fumpo","steam_id":76561198206873365,"connected_time":528000000000,"state":"active","ping":68},{"user_id":302,"name":"ultralisk52","steam_id":76561198051666604,"connected_time":378000000000,"state":"active","ping":60},{"user_id":298,"name":"sir_chandestroy","steam_id":76561198035851163,"connected_time":527000000000,"state":"active","ping":59},{"user_id":277,"name":"dr peppah chug!","steam_id":76561198068835693,"connected_time":1686000000000,"state":"active","ping":89},{"user_id":304,"name":"P. Sebs","steam_id":76561198112354627,"connected_time":280000000000,"state":"active","ping":58}]},{"server_id":36,"name":"Uncletopia | Chicago | 5 | All Maps","name_short":"chi-5","host":"chi-2.us.uncletopia.com","port":27015,"enabled":true,"region":"us-central","cc":"us","latitude":41.881832,"longitude":-87.62318,"reserved":0,"last_update":"0001-01-01T00:00:00Z","name_a2s":"Uncletopia | Chicago | 5 | All Maps","protocol":17,"map":"cp_altitude","folder":"tf","game":"Team Fortress","app_id":440,"player_count":24,"max_players":24,"Bots":0,"server_type":"Dedicated","server_os":"Linux","password":true,"vac":true,"version":"7882260","steam_id":85568392924866362,"keywords":["cp","nocrits","nodmgspread","uncletopia"],"game_id":440,"stv_port":27016,"stv_name":"Uncletopia | Chicago | 5 | All Maps | STV","players":[{"user_id":159,"name":"bicth","steam_id":76561198086314381,"connected_time":944000000000,"state":"active","ping":73},{"user_id":174,"name":"Big Boy B-Franks","steam_id":76561198050292373,"connected_time":109000000000,"state":"active","ping":97},{"user_id":126,"name":"Peri","steam_id":76561198255311543,"connected_time":2281000000000,"state":"active","ping":79},{"user_id":170,"name":"chaffy","steam_id":76561198021754567,"connected_time":181000000000,"state":"active","ping":56},{"user_id":147,"name":"Jump man Mscout","steam_id":76561199467334502,"connected_time":1116000000000,"state":"active","ping":90},{"user_id":130,"name":"Angel Wolfie","steam_id":76561198026562237,"connected_time":2114000000000,"state":"active","ping":66},{"user_id":148,"name":"juanito \u003c3","steam_id":76561198096751293,"connected_time":1079000000000,"state":"active","ping":67},{"user_id":166,"name":"Grilled Jizo","steam_id":76561199250875340,"connected_time":548000000000,"state":"active","ping":106},{"user_id":172,"name":"sunny","steam_id":76561198069380992,"connected_time":139000000000,"state":"active","ping":76},{"user_id":84,"name":"thorn648","steam_id":76561198012565777,"connected_time":4290000000000,"state":"active","ping":68},{"user_id":175,"name":"Wigl","steam_id":76561198019324464,"connected_time":80000000000,"state":"active","ping":70},{"user_id":141,"name":"BonesJohnson","steam_id":76561198799169951,"connected_time":1429000000000,"state":"active","ping":144},{"user_id":155,"name":"FryGuy512","steam_id":76561198131506012,"connected_time":1007000000000,"state":"active","ping":78},{"user_id":132,"name":"98 Koshien","steam_id":76561198883741129,"connected_time":2085000000000,"state":"active","ping":68},{"user_id":173,"name":"BorstchBag","steam_id":76561198155294045,"connected_time":138000000000,"state":"active","ping":82},{"user_id":176,"name":"Drift7114","steam_id":76561199044419505,"connected_time":76000000000,"state":"active","ping":169},{"user_id":167,"name":"Thetree","steam_id":76561198353791668,"connected_time":539000000000,"state":"active","ping":174},{"user_id":152,"name":"Smoothicc","steam_id":76561197980790325,"connected_time":1048000000000,"state":"active","ping":90},{"user_id":142,"name":"Linksaver1","steam_id":76561198096312838,"connected_time":1429000000000,"state":"active","ping":104},{"user_id":103,"name":"CyberZayne","steam_id":76561198002351356,"connected_time":3023000000000,"state":"active","ping":94},{"user_id":94,"name":"Elud4","steam_id":76561198049072796,"connected_time":3640000000000,"state":"active","ping":78},{"user_id":156,"name":"ScandinavianRice","steam_id":76561198125059181,"connected_time":1003000000000,"state":"active","ping":77},{"user_id":171,"name":"lpk","steam_id":76561198025478698,"connected_time":161000000000,"state":"active","ping":46},{"user_id":165,"name":"Chazore Allure","steam_id":76561198051683305,"connected_time":642000000000,"state":"active","ping":64}]},{"server_id":37,"name":"Uncletopia | Chicago | 6 | All Maps","name_short":"chi-6","host":"chi-2.us.uncletopia.com","port":27025,"enabled":true,"region":"us-central","cc":"us","latitude":41.881832,"longitude":-87.62318,"reserved":0,"last_update":"0001-01-01T00:00:00Z","name_a2s":"Uncletopia | Chicago | 6 | All Maps","protocol":17,"map":"koth_cascade","folder":"tf","game":"Team Fortress","app_id":440,"player_count":0,"max_players":24,"Bots":0,"server_type":"Dedicated","server_os":"Linux","password":true,"vac":true,"version":"7882260","steam_id":85568392924866363,"keywords":["cp","nocrits","nodmgspread","uncletopia"],"game_id":440,"stv_port":27026,"stv_name":"Uncletopia | Chicago | 6 | All Maps | STV","players":null},{"server_id":38,"name":"Uncletopia | Chicago | 7 | Stopwatch Beta","name_short":"chi-7","host":"chi-2.us.uncletopia.com","port":27035,"enabled":true,"region":"us-central","cc":"us","latitude":41.881832,"longitude":-87.62318,"reserved":0,"last_update":"0001-01-01T00:00:00Z","name_a2s":"Uncletopia | Chicago | 7 | Stopwatch Beta","protocol":17,"map":"pl_borneo","folder":"tf","game":"Team Fortress","app_id":440,"player_count":0,"max_players":24,"Bots":0,"server_type":"Dedicated","server_os":"Linux","password":true,"vac":true,"version":"7882260","steam_id":85568392924866364,"keywords":["nocrits","nodmgspread","payload","uncletopia"],"game_id":440,"stv_port":27036,"stv_name":"Uncletopia | Chicago | 7 | Stopwatch Beta | STV","players":null},{"server_id":39,"name":"Uncletopia | Chicago | 8 | Community","name_short":"chi-8","host":"chi-2.us.uncletopia.com","port":27045,"enabled":true,"region":"us-central","cc":"us","latitude":41.881832,"longitude":-87.62318,"reserved":0,"last_update":"0001-01-01T00:00:00Z","name_a2s":"Uncletopia | Chicago | 8 | Community","protocol":17,"map":"workshop/cp_mannbase_rc2a.ugc1900737467","folder":"tf","game":"Team Fortress","app_id":440,"player_count":0,"max_players":24,"Bots":0,"server_type":"Dedicated","server_os":"Linux","password":true,"vac":true,"version":"7882260","steam_id":85568392924866365,"keywords":["cp","nocrits","nodmgspread","uncletopia"],"game_id":440,"stv_port":27046,"stv_name":"Uncletopia | Chicago | 8 | Community | STV","players":null},{"server_id":8,"name":"Uncletopia | Dallas | 1 | All Maps","name_short":"dal-1","host":"dal-1.us.uncletopia.com","port":27015,"enabled":true,"region":"us-central","cc":"us","latitude":32.779167,"longitude":-96.80889,"reserved":0,"last_update":"0001-01-01T00:00:00Z","name_a2s":"Uncletopia | Dallas | 1 | All Maps","protocol":17,"map":"koth_viaduct","folder":"tf","game":"Team Fortress","app_id":440,"player_count":15,"max_players":24,"Bots":0,"server_type":"Dedicated","server_os":"Linux","password":true,"vac":true,"version":"7882260","steam_id":85568392924469986,"keywords":["cp","nocrits","nodmgspread","uncletopia"],"game_id":440,"stv_port":27016,"stv_name":"Uncletopia | Dallas | 1 | All Maps | STV","players":[{"user_id":47,"name":"wishihadacoolname","steam_id":76561198239310698,"connected_time":1081000000000,"state":"active","ping":45},{"user_id":66,"name":"bachphong760","steam_id":76561199433780443,"connected_time":8000000000,"state":"active","ping":263},{"user_id":52,"name":"Critical","steam_id":76561198123744966,"connected_time":503000000000,"state":"active","ping":88},{"user_id":50,"name":"sky walker","steam_id":76561198937717599,"connected_time":868000000000,"state":"active","ping":44},{"user_id":51,"name":"Moonadoo","steam_id":76561198133377546,"connected_time":857000000000,"state":"active","ping":76},{"user_id":53,"name":"vastrobotmax","steam_id":76561198417110724,"connected_time":500000000000,"state":"active","ping":108},{"user_id":54,"name":"TheAvigamer","steam_id":76561198068069261,"connected_time":466000000000,"state":"active","ping":94},{"user_id":55,"name":"Grungy Bungee","steam_id":76561199105386998,"connected_time":452000000000,"state":"active","ping":87},{"user_id":57,"name":"Kheprii","steam_id":76561198095899274,"connected_time":340000000000,"state":"active","ping":95},{"user_id":59,"name":"Artgrenadier","steam_id":76561198063305359,"connected_time":162000000000,"state":"active","ping":75},{"user_id":60,"name":"Spongebob gigachad","steam_id":76561198988504125,"connected_time":126000000000,"state":"active","ping":161},{"user_id":61,"name":"Ê≠ª","steam_id":76561198127525888,"connected_time":91000000000,"state":"active","ping":55},{"user_id":65,"name":"Sturdy","steam_id":76561198138131840,"connected_time":28000000000,"state":"active","ping":56},{"user_id":63,"name":"nizumi","steam_id":76561198375159043,"connected_time":50000000000,"state":"active","ping":190},{"user_id":64,"name":"A Drunken Fedora Salesman","steam_id":76561198056238723,"connected_time":49000000000,"state":"active","ping":114}]},{"server_id":108,"name":"Uncletopia | Dallas | 2 | All Maps","name_short":"dal-2","host":"dal-1.us.uncletopia.com","port":27025,"enabled":true,"region":"us-central","cc":"us","latitude":32.779167,"longitude":-96.80889,"reserved":0,"last_update":"0001-01-01T00:00:00Z","name_a2s":"Uncletopia | Dallas | 2 | All Maps","protocol":17,"map":"koth_viaduct","folder":"tf","game":"Team Fortress","app_id":440,"player_count":0,"max_players":24,"Bots":0,"server_type":"Dedicated","server_os":"Linux","password":true,"vac":true,"version":"7882260","steam_id":85568392924469988,"keywords":["cp","nocrits","nodmgspread","uncletopia"],"game_id":440,"stv_port":27026,"stv_name":"Uncletopia | Dallas | 2 | All Maps | STV","players":null},{"server_id":5,"name":"Uncletopia | Frankfurt | 1 | All Maps","name_short":"frk-1","host":"frk-1.de.uncletopia.com","port":27015,"enabled":true,"region":"eu","cc":"de","latitude":50.110924,"longitude":8.682127,"reserved":0,"last_update":"0001-01-01T00:00:00Z","name_a2s":"Uncletopia | Frankfurt | 1 | All Maps","protocol":17,"map":"pl_upward","folder":"tf","game":"Team Fortress","app_id":440,"player_count":24,"max_players":24,"Bots":0,"server_type":"Dedicated","server_os":"Linux","password":true,"vac":true,"version":"7882260","steam_id":85568392924469989,"keywords":["nocrits","nodmgspread","payload","uncletopia"],"game_id":440,"stv_port":27016,"stv_name":"Uncletopia | Frankfurt | 1 | All Maps | STV","players":[{"user_id":226,"name":"–∏–ª–∫–∞ –ø–∞–∞–Ω–∞–Ω–µ–Ω","steam_id":76561199149307190,"connected_time":2704000000000,"state":"active","ping":78},{"user_id":254,"name":"Goober","steam_id":76561198054795379,"connected_time":1633000000000,"state":"active","ping":59},{"user_id":257,"name":"1ggy","steam_id":76561199051285912,"connected_time":1457000000000,"state":"active","ping":76},{"user_id":205,"name":"BELADIT","steam_id":76561198011911501,"connected_time":4353000000000,"state":"active","ping":70},{"user_id":258,"name":"Znoz","steam_id":76561198012093928,"connected_time":1360000000000,"state":"active","ping":88},{"user_id":228,"name":"burgz","steam_id":76561198109955787,"connected_time":2637000000000,"state":"active","ping":58},{"user_id":256,"name":"Astolfo","steam_id":76561198354584982,"connected_time":1505000000000,"state":"active","ping":52},{"user_id":259,"name":"Not Sussy Tanuki","steam_id":76561198137289375,"connected_time":1339000000000,"state":"active","ping":95},{"user_id":272,"name":"Krzty","steam_id":76561198306160711,"connected_time":74000000000,"state":"active","ping":57},{"user_id":268,"name":"Van Elf","steam_id":76561198125442551,"connected_time":396000000000,"state":"active","ping":64},{"user_id":231,"name":"Average Sniper Enjoyer","steam_id":76561197965556042,"connected_time":2613000000000,"state":"active","ping":81},{"user_id":260,"name":"someone","steam_id":76561198377208758,"connected_time":1338000000000,"state":"active","ping":97},{"user_id":266,"name":"Umbro","steam_id":76561198087930438,"connected_time":653000000000,"state":"active","ping":75},{"user_id":138,"name":"LordTrap.exe","steam_id":76561198318089716,"connected_time":9122000000000,"state":"active","ping":56},{"user_id":222,"name":"gegit08","steam_id":76561199040010283,"connected_time":2882000000000,"state":"active","ping":88},{"user_id":270,"name":"M4R1O","steam_id":76561198050528464,"connected_time":215000000000,"state":"active","ping":64},{"user_id":267,"name":"Gooby","steam_id":76561198158343951,"connected_time":549000000000,"state":"active","ping":47},{"user_id":262,"name":"cursedbygod‚ô°","steam_id":76561198318291047,"connected_time":855000000000,"state":"active","ping":116},{"user_id":261,"name":"Rwqriuwm","steam_id":76561199143232222,"connected_time":934000000000,"state":"active","ping":105},{"user_id":263,"name":"Hoff","steam_id":76561198138540938,"connected_time":821000000000,"state":"active","ping":83},{"user_id":265,"name":"Syd","steam_id":76561198020515027,"connected_time":803000000000,"state":"active","ping":79},{"user_id":240,"name":"Megik Wizard","steam_id":76561198079302316,"connected_time":2299000000000,"state":"active","ping":91},{"user_id":269,"name":"DeCypher \u003c3","steam_id":76561198171992619,"connected_time":383000000000,"state":"active","ping":59},{"user_id":238,"name":"Krefa12","steam_id":76561198268375393,"connected_time":2421000000000,"state":"active","ping":94}]},{"server_id":110,"name":"Uncletopia | Frankfurt | 2 | All Maps","name_short":"frk-2","host":"frk-1.de.uncletopia.com","port":27025,"enabled":true,"region":"eu","cc":"de","latitude":50.110924,"longitude":8.682127,"reserved":0,"last_update":"0001-01-01T00:00:00Z","name_a2s":"Uncletopia | Frankfurt | 2 | All Maps","protocol":17,"map":"koth_suijin","folder":"tf","game":"Team Fortress","app_id":440,"player_count":24,"max_players":24,"Bots":0,"server_type":"Dedicated","server_os":"Linux","password":true,"vac":true,"version":"7882260","steam_id":85568392924469990,"keywords":["cp","nocrits","nodmgspread","uncletopia"],"game_id":440,"stv_port":27026,"stv_name":"Uncletopia | Frankfurt | 2 | All Maps | STV","players":[{"user_id":198,"name":"Tea","steam_id":76561198799243030,"connected_time":613000000000,"state":"active","ping":68},{"user_id":199,"name":"Banzar1","steam_id":76561198170325423,"connected_time":603000000000,"state":"active","ping":123},{"user_id":164,"name":"pull out method","steam_id":76561199235435358,"connected_time":2137000000000,"state":"active","ping":80},{"user_id":186,"name":"mrmrmrmrmmrrmrmrmrmrmr","steam_id":76561199382535912,"connected_time":993000000000,"state":"active","ping":68},{"user_id":126,"name":"Yelowchy","steam_id":76561198199416121,"connected_time":6337000000000,"state":"active","ping":63},{"user_id":200,"name":"Salk√®","steam_id":76561199216611062,"connected_time":420000000000,"state":"active","ping":70},{"user_id":187,"name":"Hanƒ±mSever23","steam_id":76561198142124751,"connected_time":985000000000,"state":"active","ping":104},{"user_id":203,"name":"svantezch","steam_id":76561198373831657,"connected_time":128000000000,"state":"active","ping":71},{"user_id":175,"name":"Mr.O #deletesniper","steam_id":76561198039567498,"connected_time":1527000000000,"state":"active","ping":67},{"user_id":184,"name":"MatesThePlayer","steam_id":76561198066156449,"connected_time":1103000000000,"state":"active","ping":58},{"user_id":189,"name":"lobzade","steam_id":76561198195685370,"connected_time":976000000000,"state":"active","ping":45},{"user_id":192,"name":"Brick Of Beans","steam_id":76561198828750755,"connected_time":905000000000,"state":"active","ping":60},{"user_id":180,"name":"Elfie","steam_id":76561198206802255,"connected_time":1242000000000,"state":"active","ping":70},{"user_id":191,"name":"Kati","steam_id":76561198007231088,"connected_time":914000000000,"state":"active","ping":61},{"user_id":193,"name":"netsurfer","steam_id":76561198836246326,"connected_time":904000000000,"state":"active","ping":108},{"user_id":182,"name":"xiiski","steam_id":76561198152387747,"connected_time":1206000000000,"state":"active","ping":107},{"user_id":202,"name":"Max","steam_id":76561198080956366,"connected_time":214000000000,"state":"active","ping":87},{"user_id":195,"name":"Leafeon","steam_id":76561199219653853,"connected_time":847000000000,"state":"active","ping":55},{"user_id":205,"name":"Gorzel","steam_id":76561198828273330,"connected_time":24000000000,"state":"spawning","ping":60},{"user_id":197,"name":"Sensei","steam_id":76561198383582429,"connected_time":722000000000,"state":"active","ping":91},{"user_id":53,"name":"Creature :3:3","steam_id":76561198869564327,"connected_time":10430000000000,"state":"active","ping":94},{"user_id":138,"name":"Acu1000","steam_id":76561198996751455,"connected_time":5774000000000,"state":"active","ping":90},{"user_id":171,"name":"S.V.I.L.A.R","steam_id":76561198828348612,"connected_time":1865000000000,"state":"active","ping":96},{"user_id":204,"name":"lyudmilakh","steam_id":76561198362779878,"connected_time":80000000000,"state":"active","ping":91}]},{"server_id":308,"name":"Uncletopia | Frankfurt | 3 | All Maps","name_short":"frk-3","host":"frk-1.de.uncletopia.com","port":27035,"enabled":true,"region":"eu","cc":"de","latitude":50.110924,"longitude":8.682127,"reserved":0,"last_update":"0001-01-01T00:00:00Z","name_a2s":"Uncletopia | Frankfurt | 3 | All Maps","protocol":17,"map":"cp_dustbowl","folder":"tf","game":"Team Fortress","app_id":440,"player_count":23,"max_players":24,"Bots":0,"server_type":"Dedicated","server_os":"Linux","password":true,"vac":true,"version":"7882260","steam_id":85568392924504274,"keywords":["cp","nocrits","nodmgspread","uncletopia"],"game_id":440,"stv_port":27036,"stv_name":"Uncletopia | Frankfurt | 3 | All Maps | STV","players":[{"user_id":53,"name":"EddieTheBear","steam_id":76561197962698753,"connected_time":1368000000000,"state":"active","ping":74},{"user_id":54,"name":"Patrik Stj√§rna","steam_id":76561198044435735,"connected_time":1349000000000,"state":"active","ping":81},{"user_id":55,"name":"DOODL","steam_id":76561198358378176,"connected_time":1347000000000,"state":"active","ping":80},{"user_id":56,"name":"Gardvord","steam_id":76561198120715753,"connected_time":1306000000000,"state":"active","ping":72},{"user_id":57,"name":"Tortoise01Swe","steam_id":76561198118673227,"connected_time":1280000000000,"state":"active","ping":70},{"user_id":58,"name":"Commander Slem","steam_id":76561198064900840,"connected_time":1279000000000,"state":"active","ping":82},{"user_id":59,"name":"Chromega","steam_id":76561199075307750,"connected_time":1158000000000,"state":"active","ping":55},{"user_id":61,"name":"Spectre","steam_id":76561198163819482,"connected_time":1091000000000,"state":"active","ping":73},{"user_id":62,"name":"taivaltaja","steam_id":76561198093458326,"connected_time":1088000000000,"state":"active","ping":58},{"user_id":73,"name":"Xoollunmih","steam_id":76561198927908257,"connected_time":714000000000,"state":"active","ping":57},{"user_id":64,"name":"Banatical Bean","steam_id":76561198122356617,"connected_time":1030000000000,"state":"active","ping":67},{"user_id":65,"name":"schocky","steam_id":76561197965924454,"connected_time":1024000000000,"state":"active","ping":46},{"user_id":66,"name":"DarkMagicBETA","steam_id":76561198299731569,"connected_time":940000000000,"state":"active","ping":73},{"user_id":67,"name":"Xestoch","steam_id":76561197999642906,"connected_time":887000000000,"state":"active","ping":118},{"user_id":81,"name":"Pascal Darras","steam_id":76561198052136478,"connected_time":492000000000,"state":"active","ping":83},{"user_id":80,"name":"Spich","steam_id":76561199017245962,"connected_time":547000000000,"state":"active","ping":91},{"user_id":85,"name":"Issei Hyoudou ÂÖµËó§ ‰∏ÄË™†","steam_id":76561198174088183,"connected_time":96000000000,"state":"active","ping":69},{"user_id":72,"name":"snorrbrod","steam_id":76561198142389396,"connected_time":736000000000,"state":"active","ping":70},{"user_id":74,"name":"aughhh","steam_id":76561199000081676,"connected_time":710000000000,"state":"active","ping":60},{"user_id":77,"name":"Captain Scrumpe","steam_id":76561198032206577,"connected_time":687000000000,"state":"active","ping":81},{"user_id":82,"name":"Average meme enjoyer","steam_id":76561199087566663,"connected_time":466000000000,"state":"active","ping":84},{"user_id":78,"name":"strohkopf9","steam_id":76561198059349860,"connected_time":687000000000,"state":"active","ping":68},{"user_id":84,"name":"Ashy my beloved","steam_id":76561199122356477,"connected_time":382000000000,"state":"active","ping":73}]},{"server_id":309,"name":"Uncletopia | Frankfurt | 4 | All Maps","name_short":"frk-4","host":"frk-1.de.uncletopia.com","port":27045,"enabled":true,"region":"eu","cc":"de","latitude":50.110924,"longitude":8.682127,"reserved":0,"last_update":"0001-01-01T00:00:00Z","name_a2s":"Uncletopia | Frankfurt | 4 | All Maps","protocol":17,"map":"pl_upward","folder":"tf","game":"Team Fortress","app_id":440,"player_count":24,"max_players":24,"Bots":0,"server_type":"Dedicated","server_os":"Linux","password":true,"vac":true,"version":"7882260","steam_id":85568392924504275,"keywords":["nocrits","nodmgspread","payload","uncletopia"],"game_id":440,"stv_port":27046,"stv_name":"Uncletopia | Frankfurt | 4 | All Maps | STV","players":[{"user_id":409,"name":"You're doin good lad","steam_id":76561198350707031,"connected_time":3427000000000,"state":"active","ping":90},{"user_id":455,"name":"mero","steam_id":76561198293147412,"connected_time":121000000000,"state":"active","ping":97},{"user_id":447,"name":"hello hi","steam_id":76561198148074472,"connected_time":610000000000,"state":"active","ping":40},{"user_id":448,"name":"dopamine enjoyer","steam_id":76561198140591983,"connected_time":607000000000,"state":"active","ping":90},{"user_id":431,"name":"WomenBeardLike","steam_id":76561198390184314,"connected_time":1814000000000,"state":"active","ping":63},{"user_id":426,"name":"„ÄêAdam„Äë","steam_id":76561198803089620,"connected_time":2415000000000,"state":"active","ping":66},{"user_id":449,"name":"Paavo","steam_id":76561198038707190,"connected_time":604000000000,"state":"active","ping":85},{"user_id":453,"name":"Wolframen","steam_id":76561198074103958,"connected_time":529000000000,"state":"active","ping":71},{"user_id":454,"name":"bghmas","steam_id":76561198355249966,"connected_time":245000000000,"state":"active","ping":74},{"user_id":371,"name":"frank","steam_id":76561198214063660,"connected_time":4945000000000,"state":"active","ping":67},{"user_id":421,"name":"outlaw","steam_id":76561198323805289,"connected_time":2781000000000,"state":"active","ping":45},{"user_id":443,"name":"MAKENTAKEN","steam_id":76561199127359587,"connected_time":1251000000000,"state":"active","ping":93},{"user_id":450,"name":"wee woo","steam_id":76561198147277460,"connected_time":602000000000,"state":"active","ping":59},{"user_id":402,"name":"Saihtama","steam_id":76561198067497192,"connected_time":3648000000000,"state":"active","ping":79},{"user_id":420,"name":"Buddy","steam_id":76561198050185582,"connected_time":2897000000000,"state":"active","ping":68},{"user_id":451,"name":"smella fartois","steam_id":76561198023211417,"connected_time":600000000000,"state":"active","ping":63},{"user_id":437,"name":"Dr Sex","steam_id":76561198029044617,"connected_time":1643000000000,"state":"active","ping":63},{"user_id":452,"name":"DreamDiver","steam_id":76561198025087989,"connected_time":548000000000,"state":"active","ping":75},{"user_id":434,"name":"Brinnck","steam_id":76561198340776600,"connected_time":1765000000000,"state":"active","ping":61},{"user_id":344,"name":"herbal tea","steam_id":76561197980736364,"connected_time":7142000000000,"state":"active","ping":71},{"user_id":456,"name":"apples","steam_id":76561198032787233,"connected_time":84000000000,"state":"active","ping":87},{"user_id":436,"name":"Koli","steam_id":76561197992428783,"connected_time":1686000000000,"state":"active","ping":47},{"user_id":445,"name":"BeattieBAP","steam_id":76561199010866988,"connected_time":644000000000,"state":"active","ping":80},{"user_id":389,"name":"Suomenjuusto","steam_id":76561198991491758,"connected_time":4258000000000,"state":"active","ping":99}]},{"server_id":310,"name":"Uncletopia | Frankfurt | 5 | All Maps","name_short":"frk-5","host":"frk-1.de.uncletopia.com","port":27055,"enabled":true,"region":"eu","cc":"de","latitude":50.110924,"longitude":8.682127,"reserved":0,"last_update":"0001-01-01T00:00:00Z","name_a2s":"Uncletopia | Frankfurt | 5 | All Maps","protocol":17,"map":"cp_snakewater_final1","folder":"tf","game":"Team Fortress","app_id":440,"player_count":24,"max_players":24,"Bots":0,"server_type":"Dedicated","server_os":"Linux","password":true,"vac":true,"version":"7882260","steam_id":85568392924504277,"keywords":["cp","nocrits","nodmgspread","uncletopia"],"game_id":440,"stv_port":27056,"stv_name":"Uncletopia | Frankfurt | 5 | All Maps | STV","players":[{"user_id":174,"name":"Rimx","steam_id":76561198053034840,"connected_time":3580000000000,"state":"active","ping":89},{"user_id":200,"name":"0","steam_id":76561199084809092,"connected_time":1497000000000,"state":"active","ping":97},{"user_id":216,"name":"Petight","steam_id":76561197999438798,"connected_time":539000000000,"state":"active","ping":45},{"user_id":197,"name":"NoobfromHell","steam_id":76561198394221491,"connected_time":2083000000000,"state":"active","ping":62},{"user_id":215,"name":"Soerlssoelss√∂en","steam_id":76561197993060585,"connected_time":606000000000,"state":"active","ping":71},{"user_id":161,"name":"Pilaarius","steam_id":76561198120273212,"connected_time":4102000000000,"state":"active","ping":89},{"user_id":162,"name":"notMe","steam_id":76561198040429367,"connected_time":4083000000000,"state":"active","ping":82},{"user_id":192,"name":"Vershal Smershal","steam_id":76561198116223995,"connected_time":2448000000000,"state":"active","ping":59},{"user_id":218,"name":"Udinese Dion","steam_id":76561198067931573,"connected_time":179000000000,"state":"active","ping":55},{"user_id":140,"name":"Bajas","steam_id":76561198179339326,"connected_time":6835000000000,"state":"active","ping":75},{"user_id":95,"name":"Kahvi","steam_id":76561198723244199,"connected_time":10524000000000,"state":"active","ping":89},{"user_id":204,"name":"porta","steam_id":76561198876318011,"connected_time":1438000000000,"state":"active","ping":59},{"user_id":183,"name":"SlowMode","steam_id":76561198039631442,"connected_time":3247000000000,"state":"active","ping":80},{"user_id":185,"name":"big poo","steam_id":76561199088284199,"connected_time":3137000000000,"state":"active","ping":62},{"user_id":201,"name":"God's Goofiest Goober","steam_id":76561198103175187,"connected_time":1480000000000,"state":"active","ping":64},{"user_id":217,"name":"Ardello","steam_id":76561198864484125,"connected_time":473000000000,"state":"active","ping":81},{"user_id":210,"name":"vadr","steam_id":76561198334528186,"connected_time":1209000000000,"state":"active","ping":59},{"user_id":132,"name":"top 10 movement videos","steam_id":76561199195985387,"connected_time":8255000000000,"state":"active","ping":87},{"user_id":199,"name":"Dor_atar","steam_id":76561198973980542,"connected_time":1676000000000,"state":"active","ping":70},{"user_id":175,"name":"Toasty5050","steam_id":76561198073540881,"connected_time":3539000000000,"state":"active","ping":47},{"user_id":213,"name":"Sonic","steam_id":76561198081692577,"connected_time":919000000000,"state":"active","ping":60},{"user_id":188,"name":"agent youppii","steam_id":76561198055264447,"connected_time":2886000000000,"state":"active","ping":74},{"user_id":179,"name":"Solymr ibn Wali Barad","steam_id":76561198044008976,"connected_time":3363000000000,"state":"active","ping":75},{"user_id":212,"name":"ALL BALLS NO SHAFT","steam_id":76561198028701695,"connected_time":1149000000000,"state":"active","ping":69}]},{"server_id":311,"name":"Uncletopia | Frankfurt | 6 | All Maps","name_short":"frk-6","host":"frk-1.de.uncletopia.com","port":27065,"enabled":true,"region":"eu","cc":"de","latitude":50.110924,"longitude":8.682127,"reserved":0,"last_update":"0001-01-01T00:00:00Z","name_a2s":"Uncletopia | Frankfurt | 6 | All Maps","protocol":17,"map":"cp_dustbowl","folder":"tf","game":"Team Fortress","app_id":440,"player_count":24,"max_players":24,"Bots":0,"server_type":"Dedicated","server_os":"Linux","password":true,"vac":true,"version":"7882260","steam_id":85568392924504278,"keywords":["cp","nocrits","nodmgspread","uncletopia"],"game_id":440,"stv_port":27066,"stv_name":"Uncletopia | Frankfurt | 6 | All Maps | STV","players":[{"user_id":293,"name":"phoenix","steam_id":76561198065008074,"connected_time":4476000000000,"state":"active","ping":70},{"user_id":337,"name":"r06u3","steam_id":76561198254099253,"connected_time":1282000000000,"state":"active","ping":174},{"user_id":331,"name":"SpaceCake","steam_id":76561198151394497,"connected_time":2021000000000,"state":"active","ping":73},{"user_id":346,"name":"ti snimaesh kimono","steam_id":76561198012264375,"connected_time":719000000000,"state":"active","ping":60},{"user_id":335,"name":"Lucky B.üèÜ","steam_id":76561198077571162,"connected_time":1448000000000,"state":"active","ping":63},{"user_id":222,"name":"sunshine (he/him)","steam_id":76561198084597975,"connected_time":8672000000000,"state":"active","ping":63},{"user_id":345,"name":"Efficient German Gaming","steam_id":76561198021552128,"connected_time":809000000000,"state":"active","ping":100},{"user_id":318,"name":"Benzo Fury","steam_id":76561198025259336,"connected_time":2947000000000,"state":"active","ping":53},{"user_id":332,"name":"Ewelinka Zniszczenia","steam_id":76561198307374456,"connected_time":1933000000000,"state":"active","ping":67},{"user_id":295,"name":"R0Z3","steam_id":76561199027065608,"connected_time":4446000000000,"state":"active","ping":67},{"user_id":290,"name":"bunglar","steam_id":76561198027374166,"connected_time":4705000000000,"state":"active","ping":55},{"user_id":339,"name":"hananamanna","steam_id":76561198006570285,"connected_time":1273000000000,"state":"active","ping":99},{"user_id":319,"name":"DeSepp","steam_id":76561198063149086,"connected_time":2940000000000,"state":"active","ping":55},{"user_id":308,"name":"One-Face","steam_id":76561197999384826,"connected_time":3309000000000,"state":"active","ping":46},{"user_id":340,"name":"Kapitan Polska","steam_id":76561197968069413,"connected_time":1226000000000,"state":"active","ping":70},{"user_id":265,"name":"Jos√© Antonio Primo de Rivera","steam_id":76561197981932264,"connected_time":6184000000000,"state":"active","ping":61},{"user_id":312,"name":"Spectral Sloth","steam_id":76561198170083139,"connected_time":3214000000000,"state":"active","ping":81},{"user_id":320,"name":"Devil","steam_id":76561198129721935,"connected_time":2923000000000,"state":"active","ping":76},{"user_id":333,"name":"Turk Scout","steam_id":76561198975267711,"connected_time":1815000000000,"state":"active","ping":93},{"user_id":347,"name":"1couver","steam_id":76561198168553215,"connected_time":437000000000,"state":"active","ping":103},{"user_id":321,"name":"üóªüé¥Hadrian Maloneüé¥üóª","steam_id":76561198036151103,"connected_time":2920000000000,"state":"active","ping":65},{"user_id":212,"name":"giclure :;","steam_id":76561197986362828,"connected_time":9140000000000,"state":"active","ping":57},{"user_id":343,"name":"Even R√º√ºd","steam_id":76561197981144291,"connected_time":1173000000000,"state":"active","ping":75},{"user_id":325,"name":"skindiver376","steam_id":76561198056533071,"connected_time":2769000000000,"state":"active","ping":56}]},{"server_id":23,"name":"Uncletopia | Frankfurt | 7 | Stopwatch Beta","name_short":"frk-7","host":"frk-1.de.uncletopia.com","port":27075,"enabled":true,"region":"eu","cc":"de","latitude":50.110924,"longitude":8.682127,"reserved":0,"last_update":"0001-01-01T00:00:00Z","name_a2s":"Uncletopia | Frankfurt | 7 | Stopwatch Beta","protocol":17,"map":"workshop/koth_clearcut_b15.ugc2107050255","folder":"tf","game":"Team Fortress","app_id":440,"player_count":0,"max_players":24,"Bots":0,"server_type":"Dedicated","server_os":"Linux","password":true,"vac":true,"version":"7882260","steam_id":85568392924742827,"keywords":["cp","nocrits","nodmgspread","uncletopia"],"game_id":440,"stv_port":27076,"stv_name":"Uncletopia | Frankfurt | 7 | Stopwatch Beta | STV","players":null},{"server_id":24,"name":"Uncletopia | Frankfurt | 8 | Community","name_short":"frk-8","host":"frk-1.de.uncletopia.com","port":27085,"enabled":true,"region":"eu","cc":"de","latitude":50.110924,"longitude":8.682127,"reserved":0,"last_update":"0001-01-01T00:00:00Z","name_a2s":"Uncletopia | Frankfurt | 8 | Community","protocol":17,"map":"workshop/koth_slaughter_rc1.ugc1712845210","folder":"tf","game":"Team Fortress","app_id":440,"player_count":22,"max_players":24,"Bots":0,"server_type":"Dedicated","server_os":"Linux","password":true,"vac":true,"version":"7882260","steam_id":85568392924742828,"keywords":["cp","nocrits","nodmgspread","uncletopia"],"game_id":440,"stv_port":27086,"stv_name":"Uncletopia | Frankfurt | 8 | Community | STV","players":[{"user_id":115,"name":"brewery","steam_id":76561198927527338,"connected_time":699000000000,"state":"active","ping":92},{"user_id":118,"name":"SHFO","steam_id":76561198132104112,"connected_time":400000000000,"state":"active","ping":69},{"user_id":96,"name":"Stigurna","steam_id":76561198063906822,"connected_time":2299000000000,"state":"active","ping":96},{"user_id":114,"name":"Irbynx","steam_id":76561197980421195,"connected_time":911000000000,"state":"active","ping":79},{"user_id":117,"name":"duckels","steam_id":76561198127790695,"connected_time":620000000000,"state":"active","ping":44},{"user_id":119,"name":"MrBanana","steam_id":76561198116021623,"connected_time":335000000000,"state":"active","ping":53},{"user_id":129,"name":"Edgebug Earl","steam_id":76561198254677491,"connected_time":52000000000,"state":"active","ping":76},{"user_id":121,"name":"Femboy Girl Porg Wife","steam_id":76561198043350234,"connected_time":241000000000,"state":"active","ping":158},{"user_id":26,"name":"SDCK! GardenFungus tf2easy.com","steam_id":76561198054894337,"connected_time":5934000000000,"state":"active","ping":55},{"user_id":102,"name":"hedon/","steam_id":76561198249832770,"connected_time":1996000000000,"state":"active","ping":58},{"user_id":86,"name":"you're wasting your time","steam_id":76561199282911650,"connected_time":2915000000000,"state":"active","ping":53},{"user_id":122,"name":"Actual Goblin","steam_id":76561198118929194,"connected_time":235000000000,"state":"active","ping":157},{"user_id":109,"name":"Fish 'n' Chips","steam_id":76561198033476886,"connected_time":1323000000000,"state":"active","ping":45},{"user_id":128,"name":"Ruffles","steam_id":76561198104896547,"connected_time":119000000000,"state":"active","ping":72},{"user_id":124,"name":"‚òûLaZe‚òú","steam_id":76561198202191400,"connected_time":188000000000,"state":"active","ping":74},{"user_id":125,"name":"Jonathan","steam_id":76561198087988880,"connected_time":186000000000,"state":"active","ping":56},{"user_id":126,"name":"Endik (#SaveTF2)","steam_id":76561199114978709,"connected_time":186000000000,"state":"active","ping":77},{"user_id":127,"name":"Fat Pigeon","steam_id":76561198817940142,"connected_time":183000000000,"state":"active","ping":54},{"user_id":130,"name":"Krabs","steam_id":76561198161679477,"connected_time":31000000000,"state":"active","ping":58},{"user_id":113,"name":"Dixxy","steam_id":76561198010760019,"connected_time":1066000000000,"state":"active","ping":164},{"user_id":74,"name":"NANI?!?!?!","steam_id":76561198172078559,"connected_time":3441000000000,"state":"active","ping":91},{"user_id":100,"name":"rob","steam_id":76561198122211848,"connected_time":2064000000000,"state":"active","ping":93}]},{"server_id":202,"name":"Uncletopia | Hong Kong | 1 | All Maps","name_short":"hgk-1","host":"hgk-1.hk.uncletopia.com","port":27015,"enabled":true,"region":"asia","cc":"hk","latitude":22.302711,"longitude":114.177216,"reserved":0,"last_update":"0001-01-01T00:00:00Z","name_a2s":"Uncletopia | Hong Kong | 1 | All Maps","protocol":17,"map":"pl_pier","folder":"tf","game":"Team Fortress","app_id":440,"player_count":0,"max_players":24,"Bots":0,"server_type":"Dedicated","server_os":"Linux","password":true,"vac":true,"version":"7882260","steam_id":85568392924494504,"keywords":["nocrits","nodmgspread","payload","uncletopia"],"game_id":440,"stv_port":27016,"stv_name":"Uncletopia | Hong Kong | 1 | All Maps | STV","players":null},{"server_id":1,"name":"Uncletopia | Los Angeles | 1 | All Maps","name_short":"lax-1","host":"lax-1.us.uncletopia.com","port":27015,"enabled":true,"region":"us-west","cc":"us","latitude":33.94279,"longitude":-118.41004,"reserved":0,"last_update":"0001-01-01T00:00:00Z","name_a2s":"Uncletopia | Los Angeles | 1 | All Maps","protocol":17,"map":"cp_snakewater_final1","folder":"tf","game":"Team Fortress","app_id":440,"player_count":0,"max_players":24,"Bots":0,"server_type":"Dedicated","server_os":"Linux","password":true,"vac":true,"version":"7882260","steam_id":85568392924469991,"keywords":["cp","nocrits","nodmgspread","uncletopia"],"game_id":440,"stv_port":27016,"stv_name":"Uncletopia | Los Angeles | 1 | All Maps | STV","players":null},{"server_id":112,"name":"Uncletopia | Los Angeles | 2 | All Maps","name_short":"lax-2","host":"lax-1.us.uncletopia.com","port":27025,"enabled":true,"region":"us-west","cc":"us","latitude":33.94279,"longitude":-118.41004,"reserved":0,"last_update":"0001-01-01T00:00:00Z","name_a2s":"Uncletopia | Los Angeles | 2 | All Maps","protocol":17,"map":"koth_viaduct","folder":"tf","game":"Team Fortress","app_id":440,"player_count":0,"max_players":24,"Bots":0,"server_type":"Dedicated","server_os":"Linux","password":true,"vac":true,"version":"7882260","steam_id":85568392924469992,"keywords":["cp","nocrits","nodmgspread","uncletopia"],"game_id":440,"stv_port":27026,"stv_name":"Uncletopia | Los Angeles | 2 | All Maps | STV","players":null},{"server_id":324,"name":"Uncletopia | Los Angeles | 3 | All Maps","name_short":"lax-3","host":"lax-1.us.uncletopia.com","port":27035,"enabled":true,"region":"us-west","cc":"us","latitude":33.94279,"longitude":-118.41004,"reserved":0,"last_update":"0001-01-01T00:00:00Z","name_a2s":"Uncletopia | Los Angeles | 3 | All Maps","protocol":17,"map":"cp_snakewater_final1","folder":"tf","game":"Team Fortress","app_id":440,"player_count":0,"max_players":24,"Bots":0,"server_type":"Dedicated","server_os":"Linux","password":true,"vac":true,"version":"7882260","steam_id":85568392924510198,"keywords":["cp","nocrits","nodmgspread","uncletopia"],"game_id":440,"stv_port":27036,"stv_name":"Uncletopia | Los Angeles | 3 | All Maps | STV","players":null},{"server_id":25,"name":"Uncletopia | Los Angeles | 4 | Stopwatch Beta","name_short":"lax-4","host":"lax-1.us.uncletopia.com","port":27045,"enabled":true,"region":"us-west","cc":"us","latitude":33.94279,"longitude":-118.41004,"reserved":0,"last_update":"0001-01-01T00:00:00Z","name_a2s":"Uncletopia | Los Angeles | 4 | Stopwatch Beta","protocol":17,"map":"workshop/koth_ramjam_rc1.ugc459778887","folder":"tf","game":"Team Fortress","app_id":440,"player_count":0,"max_players":24,"Bots":0,"server_type":"Dedicated","server_os":"Linux","password":true,"vac":true,"version":"7882260","steam_id":85568392924510199,"keywords":["cp","nocrits","nodmgspread","uncletopia"],"game_id":440,"stv_port":27046,"stv_name":"Uncletopia | Los Angeles | 4 | Stopwatch Beta | STV","players":null},{"server_id":11,"name":"Uncletopia | London | 1 | All Maps","name_short":"lon-1","host":"lon-1.uk.uncletopia.com","port":27015,"enabled":true,"region":"eu","cc":"gb","latitude":51.509865,"longitude":-0.118092,"reserved":0,"last_update":"0001-01-01T00:00:00Z","name_a2s":"Uncletopia | London | 1 | All Maps","protocol":17,"map":"pl_borneo","folder":"tf","game":"Team Fortress","app_id":440,"player_count":24,"max_players":24,"Bots":0,"server_type":"Dedicated","server_os":"Linux","password":true,"vac":true,"version":"7882260","steam_id":85568392924367362,"keywords":["nocrits","nodmgspread","payload","uncletopia"],"game_id":440,"stv_port":27016,"stv_name":"Uncletopia | London | 1 | All Maps | STV","players":[{"user_id":584,"name":"Fwebbie","steam_id":76561199006875621,"connected_time":1289000000000,"state":"active","ping":47},{"user_id":586,"name":"flr","steam_id":76561198249327786,"connected_time":1100000000000,"state":"active","ping":75},{"user_id":589,"name":"Yeets3er","steam_id":76561199137127757,"connected_time":832000000000,"state":"active","ping":55},{"user_id":577,"name":"permed ball hair gaming","steam_id":76561198294857933,"connected_time":2302000000000,"state":"active","ping":57},{"user_id":570,"name":"Mitrev","steam_id":76561198157124880,"connected_time":2668000000000,"state":"active","ping":73},{"user_id":567,"name":"General Petrov","steam_id":76561198027204104,"connected_time":2756000000000,"state":"active","ping":79},{"user_id":571,"name":"epic gamer moment","steam_id":76561198299515070,"connected_time":2637000000000,"state":"active","ping":106},{"user_id":594,"name":"Cosmetic brain","steam_id":76561198055936410,"connected_time":145000000000,"state":"active","ping":75},{"user_id":578,"name":"Arcweld","steam_id":76561198816060720,"connected_time":2247000000000,"state":"active","ping":71},{"user_id":557,"name":"Watermelon","steam_id":76561198078349914,"connected_time":3519000000000,"state":"active","ping":52},{"user_id":565,"name":"Son Goku","steam_id":76561199383437138,"connected_time":2888000000000,"state":"active","ping":130},{"user_id":538,"name":"Xenometan","steam_id":76561198208408392,"connected_time":4705000000000,"state":"active","ping":113},{"user_id":595,"name":"Master Of Noob","steam_id":76561198217926783,"connected_time":136000000000,"state":"active","ping":75},{"user_id":591,"name":"Hive","steam_id":76561199480966681,"connected_time":681000000000,"state":"active","ping":74},{"user_id":581,"name":"Jinx my beloved","steam_id":76561198819986745,"connected_time":2014000000000,"state":"active","ping":99},{"user_id":593,"name":"Mannequin","steam_id":76561198128833974,"connected_time":215000000000,"state":"active","ping":50},{"user_id":592,"name":"my fault og","steam_id":76561198256811438,"connected_time":620000000000,"state":"active","ping":108},{"user_id":580,"name":"goff","steam_id":76561198118989010,"connected_time":2218000000000,"state":"active","ping":47},{"user_id":552,"name":"Jonno","steam_id":76561198023443744,"connected_time":3666000000000,"state":"active","ping":53},{"user_id":583,"name":"trite","steam_id":76561197983765323,"connected_time":1316000000000,"state":"active","ping":52},{"user_id":572,"name":"Skye","steam_id":76561198058946511,"connected_time":2634000000000,"state":"active","ping":58},{"user_id":579,"name":"CottonPicker404","steam_id":76561199485020000,"connected_time":2235000000000,"state":"active","ping":87},{"user_id":585,"name":"Jack","steam_id":76561198325505238,"connected_time":1104000000000,"state":"active","ping":86},{"user_id":587,"name":"DobreStarachowickie","steam_id":76561198027126737,"connected_time":1099000000000,"state":"active","ping":70}]},{"server_id":114,"name":"Uncletopia | London | 2 | All Maps","name_short":"lon-2","host":"lon-1.uk.uncletopia.com","port":27025,"enabled":true,"region":"eu","cc":"gb","latitude":51.509865,"longitude":-0.118092,"reserved":0,"last_update":"0001-01-01T00:00:00Z","name_a2s":"Uncletopia | London | 2 | All Maps","protocol":17,"map":"pl_thundermountain","folder":"tf","game":"Team Fortress","app_id":440,"player_count":24,"max_players":24,"Bots":0,"server_type":"Dedicated","server_os":"Linux","password":true,"vac":true,"version":"7882260","steam_id":85568392924470941,"keywords":["nocrits","nodmgspread","payload","uncletopia"],"game_id":440,"stv_port":27026,"stv_name":"Uncletopia | London | 2 | All Maps | STV","players":[{"user_id":555,"name":"TheBeardedM1G","steam_id":76561198040208946,"connected_time":1579000000000,"state":"active","ping":87},{"user_id":509,"name":"Acanda","steam_id":76561198123246537,"connected_time":2803000000000,"state":"active","ping":69},{"user_id":557,"name":"Ran33","steam_id":76561197991474499,"connected_time":1398000000000,"state":"active","ping":88},{"user_id":550,"name":"Yanniki","steam_id":76561197986058110,"connected_time":1856000000000,"state":"active","ping":60},{"user_id":532,"name":"Delta Melta","steam_id":76561198283391403,"connected_time":2211000000000,"state":"active","ping":56},{"user_id":553,"name":"Chromy","steam_id":76561198061947223,"connected_time":1629000000000,"state":"active","ping":90},{"user_id":397,"name":"Scikesr","steam_id":76561198105182357,"connected_time":10279000000000,"state":"active","ping":84},{"user_id":503,"name":"Carrot (woman)","steam_id":76561198139404261,"connected_time":3301000000000,"state":"active","ping":43},{"user_id":556,"name":"Weebot00","steam_id":76561199479204459,"connected_time":1465000000000,"state":"active","ping":58},{"user_id":527,"name":"night.s","steam_id":76561198326287823,"connected_time":2401000000000,"state":"active","ping":76},{"user_id":490,"name":"The Bee","steam_id":76561198127779511,"connected_time":3749000000000,"state":"active","ping":59},{"user_id":511,"name":"Doctor Marijuana","steam_id":76561198288289879,"connected_time":2786000000000,"state":"active","ping":49},{"user_id":552,"name":"SpyCrab  Erik Twice","steam_id":76561198009710309,"connected_time":1724000000000,"state":"active","ping":61},{"user_id":566,"name":"rets","steam_id":76561198061551392,"connected_time":69000000000,"state":"active","ping":63},{"user_id":515,"name":"Mr.Duck","steam_id":76561197983710667,"connected_time":2751000000000,"state":"active","ping":86},{"user_id":487,"name":"shooer! :D \u003e\u003c(((¬∫\u003e","steam_id":76561198110531281,"connected_time":3828000000000,"state":"active","ping":80},{"user_id":565,"name":"Kafe","steam_id":76561198083673594,"connected_time":128000000000,"state":"spawning","ping":56},{"user_id":354,"name":"Lotto","steam_id":76561198012295174,"connected_time":12672000000000,"state":"active","ping":70},{"user_id":567,"name":"Shelly1052","steam_id":76561199043551053,"connected_time":6000000000,"state":"spawning","ping":70},{"user_id":563,"name":"Trendyboy","steam_id":76561197994908436,"connected_time":539000000000,"state":"active","ping":77},{"user_id":502,"name":"Germanium_Ge","steam_id":76561198130561775,"connected_time":3447000000000,"state":"active","ping":53},{"user_id":517,"name":"dash.","steam_id":76561198084796149,"connected_time":2731000000000,"state":"active","ping":47},{"user_id":549,"name":"AmssoBador Spacelot","steam_id":76561197993444617,"connected_time":1879000000000,"state":"active","ping":76},{"user_id":554,"name":"PGAndy","steam_id":76561199218070297,"connected_time":1618000000000,"state":"active","ping":97}]},{"server_id":320,"name":"Uncletopia | London | 3 | All Maps","name_short":"lon-3","host":"lon-1.uk.uncletopia.com","port":27035,"enabled":true,"region":"eu","cc":"gb","latitude":51.509865,"longitude":-0.118092,"reserved":0,"last_update":"0001-01-01T00:00:00Z","name_a2s":"Uncletopia | London | 3 | All Maps","protocol":17,"map":"koth_harvest_final","folder":"tf","game":"Team Fortress","app_id":440,"player_count":23,"max_players":24,"Bots":0,"server_type":"Dedicated","server_os":"Linux","password":true,"vac":true,"version":"7882260","steam_id":85568392924510192,"keywords":["cp","nocrits","nodmgspread","uncletopia"],"game_id":440,"stv_port":27036,"stv_name":"Uncletopia | London | 3 | All Maps | STV","players":[{"user_id":427,"name":"jge","steam_id":76561198123186387,"connected_time":1223000000000,"state":"active","ping":62},{"user_id":464,"name":"[MNI] Xkiller¬Æ","steam_id":76561198087093907,"connected_time":101000000000,"state":"active","ping":72},{"user_id":467,"name":"Quiet Kid","steam_id":76561199134800446,"connected_time":26000000000,"state":"active","ping":102},{"user_id":462,"name":"ponozka153","steam_id":76561198854448400,"connected_time":237000000000,"state":"active","ping":61},{"user_id":431,"name":"Tort","steam_id":76561198329646769,"connected_time":1170000000000,"state":"active","ping":56},{"user_id":394,"name":"zvekan","steam_id":76561198381101196,"connected_time":4125000000000,"state":"active","ping":64},{"user_id":456,"name":"TunnelVision","steam_id":76561198232823472,"connected_time":404000000000,"state":"active","ping":57},{"user_id":432,"name":"YaG-10 (29-K)","steam_id":76561198112012468,"connected_time":1166000000000,"state":"active","ping":82},{"user_id":452,"name":"Schwarzschild radius(Rg=2GM/c^2","steam_id":76561198179463343,"connected_time":571000000000,"state":"active","ping":45},{"user_id":446,"name":"Miya","steam_id":76561198041967141,"connected_time":950000000000,"state":"active","ping":68},{"user_id":449,"name":"Generic text","steam_id":76561198291962185,"connected_time":772000000000,"state":"active","ping":91},{"user_id":436,"name":"JC","steam_id":76561198029213352,"connected_time":1117000000000,"state":"active","ping":30},{"user_id":447,"name":"RLCrazyCat3","steam_id":76561197983757878,"connected_time":926000000000,"state":"active","ping":63},{"user_id":441,"name":"Strange Doctor","steam_id":76561198088767375,"connected_time":1072000000000,"state":"active","ping":148},{"user_id":415,"name":"generic alias","steam_id":76561198271607226,"connected_time":2608000000000,"state":"active","ping":83},{"user_id":349,"name":"Defecticon","steam_id":76561198394837863,"connected_time":7448000000000,"state":"active","ping":90},{"user_id":437,"name":"max","steam_id":76561198027033926,"connected_time":1114000000000,"state":"active","ping":58},{"user_id":461,"name":"Breddie Mercury","steam_id":76561198804590384,"connected_time":265000000000,"state":"active","ping":79},{"user_id":460,"name":"YBOT554","steam_id":76561198836830645,"connected_time":286000000000,"state":"active","ping":43},{"user_id":466,"name":"gandalf zaza","steam_id":76561198059787688,"connected_time":63000000000,"state":"active","ping":214},{"user_id":459,"name":"a bullet","steam_id":76561198809248362,"connected_time":348000000000,"state":"active","ping":90},{"user_id":363,"name":"registered M203 owner","steam_id":76561199090545523,"connected_time":6774000000000,"state":"active","ping":37},{"user_id":414,"name":"alleged idiot cyclops","steam_id":76561198013502376,"connected_time":3190000000000,"state":"active","ping":59}]},{"server_id":321,"name":"Uncletopia | London | 4 | All Maps","name_short":"lon-4","host":"lon-1.uk.uncletopia.com","port":27045,"enabled":true,"region":"eu","cc":"gb","latitude":51.509865,"longitude":-0.118092,"reserved":0,"last_update":"0001-01-01T00:00:00Z","name_a2s":"Uncletopia | London | 4 | All Maps","protocol":17,"map":"pl_badwater","folder":"tf","game":"Team Fortress","app_id":440,"player_count":24,"max_players":24,"Bots":0,"server_type":"Dedicated","server_os":"Linux","password":true,"vac":true,"version":"7882260","steam_id":85568392924510193,"keywords":["nocrits","nodmgspread","payload","uncletopia"],"game_id":440,"stv_port":27046,"stv_name":"Uncletopia | London | 4 | All Maps | STV","players":[{"user_id":621,"name":"Spunty","steam_id":76561198128779870,"connected_time":480000000000,"state":"active","ping":45},{"user_id":632,"name":"shakunetsu","steam_id":76561198057859386,"connected_time":67000000000,"state":"active","ping":75},{"user_id":616,"name":"Purplish","steam_id":76561198006393993,"connected_time":1402000000000,"state":"active","ping":45},{"user_id":617,"name":"tWx","steam_id":76561198123145824,"connected_time":1345000000000,"state":"active","ping":75},{"user_id":605,"name":"maybe blw.tf","steam_id":76561199028670732,"connected_time":2061000000000,"state":"active","ping":61},{"user_id":614,"name":"Mean Green Peen","steam_id":76561198228455736,"connected_time":1537000000000,"state":"active","ping":48},{"user_id":593,"name":"cortex","steam_id":76561198839790230,"connected_time":2776000000000,"state":"active","ping":82},{"user_id":606,"name":"Noob","steam_id":76561199060468786,"connected_time":2060000000000,"state":"active","ping":91},{"user_id":630,"name":"Talkkari","steam_id":76561198025327723,"connected_time":232000000000,"state":"active","ping":73},{"user_id":519,"name":"Killer13","steam_id":76561198303460133,"connected_time":6723000000000,"state":"active","ping":147},{"user_id":620,"name":"Pacyfista Feminista Frutarianin","steam_id":76561198435883762,"connected_time":834000000000,"state":"active","ping":99},{"user_id":623,"name":"78 :3","steam_id":76561198208328357,"connected_time":456000000000,"state":"active","ping":90},{"user_id":631,"name":"Lasauttaja","steam_id":76561198009823148,"connected_time":89000000000,"state":"active","ping":66},{"user_id":578,"name":"Matrix108","steam_id":76561198180382327,"connected_time":3746000000000,"state":"active","ping":75},{"user_id":596,"name":"clems17","steam_id":76561199420685482,"connected_time":2630000000000,"state":"active","ping":62},{"user_id":597,"name":"Rez","steam_id":76561198410598772,"connected_time":2621000000000,"state":"active","ping":54},{"user_id":633,"name":"csnipery","steam_id":76561199435280050,"connected_time":37000000000,"state":"active","ping":75},{"user_id":624,"name":"stickurr","steam_id":76561198089536805,"connected_time":442000000000,"state":"active","ping":45},{"user_id":514,"name":"XuMuK","steam_id":76561198102102340,"connected_time":6851000000000,"state":"active","ping":83},{"user_id":601,"name":"[P-roc] Cmm Bert","steam_id":76561198016658674,"connected_time":2539000000000,"state":"active","ping":58},{"user_id":625,"name":"lomse_","steam_id":76561198146939162,"connected_time":431000000000,"state":"active","ping":58},{"user_id":629,"name":"Somethingü§ô","steam_id":76561198375358222,"connected_time":276000000000,"state":"active","ping":46},{"user_id":626,"name":"mangoface","steam_id":76561199028760996,"connected_time":419000000000,"state":"active","ping":79},{"user_id":562,"name":"SnowShot","steam_id":76561198004766638,"connected_time":5006000000000,"state":"active","ping":80}]},{"server_id":21,"name":"Uncletopia | London | 5 | All Maps","name_short":"lon-5","host":"lon-1.uk.uncletopia.com","port":27055,"enabled":true,"region":"eu","cc":"gb","latitude":51.509865,"longitude":-0.118092,"reserved":0,"last_update":"0001-01-01T00:00:00Z","name_a2s":"Uncletopia | London | 5 | All Maps","protocol":17,"map":"cp_mountainlab","folder":"tf","game":"Team Fortress","app_id":440,"player_count":24,"max_players":24,"Bots":0,"server_type":"Dedicated","server_os":"Linux","password":true,"vac":true,"version":"7882260","steam_id":85568392924742829,"keywords":["cp","nocrits","nodmgspread","uncletopia"],"game_id":440,"stv_port":27056,"stv_name":"Uncletopia | London | 5 | All Maps | STV","players":[{"user_id":269,"name":"‚òÖ Luxe","steam_id":76561198866691839,"connected_time":3196000000000,"state":"active","ping":45},{"user_id":313,"name":"weleenkerk","steam_id":76561198143969491,"connected_time":41000000000,"state":"spawning","ping":72},{"user_id":302,"name":"Mr. Oak","steam_id":76561198331315713,"connected_time":610000000000,"state":"active","ping":55},{"user_id":209,"name":"Caliban","steam_id":76561197999696839,"connected_time":6320000000000,"state":"active","ping":119},{"user_id":281,"name":"Dr. Funkenstein","steam_id":76561197977816210,"connected_time":1705000000000,"state":"active","ping":48},{"user_id":303,"name":"piss man (real)","steam_id":76561198839843428,"connected_time":571000000000,"state":"active","ping":147},{"user_id":233,"name":"The Subway Scientist","steam_id":76561198193757646,"connected_time":4903000000000,"state":"active","ping":51},{"user_id":291,"name":"pakin157","steam_id":76561198035125667,"connected_time":1447000000000,"state":"active","ping":87},{"user_id":294,"name":"Providence","steam_id":76561198003920270,"connected_time":1229000000000,"state":"active","ping":70},{"user_id":244,"name":"Sta≈Ñczyk","steam_id":76561197998906563,"connected_time":4587000000000,"state":"active","ping":45},{"user_id":311,"name":"Enkloth!","steam_id":76561198115106008,"connected_time":221000000000,"state":"active","ping":49},{"user_id":274,"name":"zsonyik :^D","steam_id":76561198180119047,"connected_time":2812000000000,"state":"active","ping":88},{"user_id":279,"name":"omony","steam_id":76561197983750025,"connected_time":1766000000000,"state":"active","ping":101},{"user_id":312,"name":"padillacampos","steam_id":76561198161923970,"connected_time":214000000000,"state":"active","ping":76},{"user_id":299,"name":"ran is running","steam_id":76561199443185667,"connected_time":1030000000000,"state":"active","ping":165},{"user_id":307,"name":"futer","steam_id":76561198059699043,"connected_time":471000000000,"state":"active","ping":81},{"user_id":305,"name":"I own the penis scooter","steam_id":76561198173218318,"connected_time":525000000000,"state":"active","ping":47},{"user_id":278,"name":"DENZ3L","steam_id":76561198121892767,"connected_time":2310000000000,"state":"active","ping":82},{"user_id":284,"name":"Heroine Nisa","steam_id":76561198013748040,"connected_time":1669000000000,"state":"active","ping":79},{"user_id":306,"name":"`*¬¥'¬¥¬¥'`'*'`*'''¬®'","steam_id":76561198139303045,"connected_time":505000000000,"state":"active","ping":94},{"user_id":286,"name":"Cheesy","steam_id":76561198016538483,"connected_time":1659000000000,"state":"active","ping":81},{"user_id":308,"name":"Waff00","steam_id":76561198848377100,"connected_time":446000000000,"state":"active","ping":137},{"user_id":289,"name":"dabuttsniffer","steam_id":76561198369227367,"connected_time":1499000000000,"state":"active","ping":99},{"user_id":290,"name":"SeeYouSpaceRobot","steam_id":76561198454018197,"connected_time":1488000000000,"state":"active","ping":63}]},{"server_id":22,"name":"Uncletopia | London | 6 | All Maps","name_short":"lon-6","host":"lon-1.uk.uncletopia.com","port":27065,"enabled":true,"region":"eu","cc":"gb","latitude":51.509865,"longitude":-0.118092,"reserved":0,"last_update":"0001-01-01T00:00:00Z","name_a2s":"Uncletopia | London | 6 | All Maps","protocol":17,"map":"pl_badwater","folder":"tf","game":"Team Fortress","app_id":440,"player_count":24,"max_players":24,"Bots":0,"server_type":"Dedicated","server_os":"Linux","password":true,"vac":true,"version":"7882260","steam_id":85568392924742830,"keywords":["nocrits","nodmgspread","payload","uncletopia"],"game_id":440,"stv_port":27066,"stv_name":"Uncletopia | London | 6 | All Maps | STV","players":[{"user_id":11,"name":"SimonTheOverseer","steam_id":76561198957685588,"connected_time":4037000000000,"state":"active","ping":62},{"user_id":58,"name":"hichem","steam_id":76561198056197307,"connected_time":181000000000,"state":"active","ping":57},{"user_id":48,"name":"ricky pee pee","steam_id":76561198152620745,"connected_time":1455000000000,"state":"active","ping":56},{"user_id":14,"name":"name me pls","steam_id":76561199273576072,"connected_time":3633000000000,"state":"active","ping":54},{"user_id":51,"name":"a rat","steam_id":76561198381491880,"connected_time":935000000000,"state":"active","ping":98},{"user_id":23,"name":"Chin Chung Phong","steam_id":76561198097244166,"connected_time":2205000000000,"state":"active","ping":82},{"user_id":24,"name":"Omyskull","steam_id":76561198131711758,"connected_time":2145000000000,"state":"active","ping":67},{"user_id":47,"name":"CiVillain","steam_id":76561198059617732,"connected_time":1513000000000,"state":"active","ping":68},{"user_id":50,"name":"dunduu","steam_id":76561198875240717,"connected_time":1251000000000,"state":"active","ping":77},{"user_id":21,"name":"zebulon","steam_id":76561198384683504,"connected_time":2365000000000,"state":"active","ping":56},{"user_id":22,"name":"Trippy","steam_id":76561198962647544,"connected_time":2363000000000,"state":"active","ping":61},{"user_id":27,"name":"ScaryTree","steam_id":76561199384362833,"connected_time":2057000000000,"state":"active","ping":47},{"user_id":55,"name":"Unusual Spycrab","steam_id":76561198164397570,"connected_time":622000000000,"state":"active","ping":54},{"user_id":53,"name":"vurtun","steam_id":76561198857395274,"connected_time":635000000000,"state":"active","ping":59},{"user_id":54,"name":"Yuzu","steam_id":76561198121694613,"connected_time":626000000000,"state":"active","ping":52},{"user_id":31,"name":"skullhead289","steam_id":76561199086481600,"connected_time":1943000000000,"state":"active","ping":40},{"user_id":57,"name":"Well, off to hang myself","steam_id":76561198053374944,"connected_time":534000000000,"state":"active","ping":65},{"user_id":33,"name":"zorze supreme.exe","steam_id":76561198996333022,"connected_time":1935000000000,"state":"active","ping":73},{"user_id":43,"name":"imarko2927","steam_id":76561199467000846,"connected_time":1798000000000,"state":"active","ping":94},{"user_id":36,"name":"Plep","steam_id":76561198840259819,"connected_time":1897000000000,"state":"active","ping":54},{"user_id":44,"name":" Ä…™·¥ã·¥è·¥ò‚ìΩ","steam_id":76561198101822510,"connected_time":1750000000000,"state":"active","ping":81},{"user_id":38,"name":"d3xxty","steam_id":76561198310647633,"connected_time":1879000000000,"state":"active","ping":99},{"user_id":56,"name":"FATTY","steam_id":76561198087962709,"connected_time":622000000000,"state":"active","ping":78},{"user_id":41,"name":"gonad epic","steam_id":76561198217435839,"connected_time":1869000000000,"state":"active","ping":170}]},{"server_id":40,"name":"Uncletopia | London | 7 | No Payload","name_short":"lon-7","host":"lon-1.uk.uncletopia.com","port":27075,"enabled":true,"region":"eu","cc":"gb","latitude":51.509865,"longitude":-0.118092,"reserved":0,"last_update":"0001-01-01T00:00:00Z","name_a2s":"Uncletopia | London | 7 | No Payload","protocol":17,"map":"cp_egypt_final","folder":"tf","game":"Team Fortress","app_id":440,"player_count":4,"max_players":24,"Bots":0,"server_type":"Dedicated","server_os":"Linux","password":true,"vac":true,"version":"7882260","steam_id":85568392924964314,"keywords":["cp","nocrits","nodmgspread","uncletopia"],"game_id":440,"stv_port":27076,"stv_name":"Uncletopia | London | 7 | No Payload | STV","players":[{"user_id":13,"name":"HERISSON","steam_id":76561199062194778,"connected_time":554000000000,"state":"active","ping":79},{"user_id":14,"name":"Double_binks","steam_id":76561199438485598,"connected_time":508000000000,"state":"active","ping":49},{"user_id":15,"name":"Yugoooii","steam_id":76561199426989328,"connected_time":503000000000,"state":"active","ping":59},{"user_id":16,"name":"aurelien.manouvrier","steam_id":76561198803188218,"connected_time":451000000000,"state":"active","ping":55}]},{"server_id":41,"name":"Uncletopia | London | 8 | Community","name_short":"lon-8","host":"lon-1.uk.uncletopia.com","port":27085,"enabled":true,"region":"eu","cc":"gb","latitude":51.509865,"longitude":-0.118092,"reserved":0,"last_update":"0001-01-01T00:00:00Z","name_a2s":"Uncletopia | London | 8 | Community","protocol":17,"map":"workshop/koth_synthetic_rc6a.ugc1549817316","folder":"tf","game":"Team Fortress","app_id":440,"player_count":0,"max_players":24,"Bots":0,"server_type":"Dedicated","server_os":"Linux","password":true,"vac":true,"version":"7882260","steam_id":85568392924964315,"keywords":["cp","nocrits","nodmgspread","uncletopia"],"game_id":440,"stv_port":27086,"stv_name":"Uncletopia | London | 8 | Community | STV","players":null},{"server_id":300,"name":"Uncletopia | Montr√©al | 1 | All Maps","name_short":"mtl-1","host":"mtl-1.ca.uncletopia.com","port":27015,"enabled":true,"region":"us-east","cc":"ca","latitude":45.50889,"longitude":-73.56167,"reserved":0,"last_update":"0001-01-01T00:00:00Z","name_a2s":"Uncletopia | Montr√©al | 1 | All Maps","protocol":17,"map":"cp_process_final","folder":"tf","game":"Team Fortress","app_id":440,"player_count":0,"max_players":24,"Bots":0,"server_type":"Dedicated","server_os":"Linux","password":true,"vac":true,"version":"7882260","steam_id":85568392924500087,"keywords":["cp","nocrits","nodmgspread","uncletopia"],"game_id":440,"stv_port":27016,"stv_name":"Uncletopia | Montr√©al | 1 | All Maps | STV","players":null},{"server_id":301,"name":"Uncletopia | Montr√©al | 2 | All Maps","name_short":"mtl-2","host":"mtl-1.ca.uncletopia.com","port":27025,"enabled":true,"region":"us-east","cc":"ca","latitude":45.50889,"longitude":-73.56167,"reserved":0,"last_update":"0001-01-01T00:00:00Z","name_a2s":"Uncletopia | Montr√©al | 2 | All Maps","protocol":17,"map":"pl_swiftwater_final1","folder":"tf","game":"Team Fortress","app_id":440,"player_count":0,"max_players":24,"Bots":0,"server_type":"Dedicated","server_os":"Linux","password":true,"vac":true,"version":"7882260","steam_id":85568392924500088,"keywords":["nocrits","nodmgspread","payload","uncletopia"],"game_id":440,"stv_port":27026,"stv_name":"Uncletopia | Montr√©al | 2 | All Maps | STV","players":null},{"server_id":302,"name":"Uncletopia | Montr√©al | 3 | All Maps","name_short":"mtl-3","host":"mtl-1.ca.uncletopia.com","port":27035,"enabled":true,"region":"us-east","cc":"ca","latitude":45.50889,"longitude":-73.56167,"reserved":0,"last_update":"0001-01-01T00:00:00Z","name_a2s":"Uncletopia | Montr√©al | 3 | All Maps","protocol":17,"map":"pl_borneo","folder":"tf","game":"Team Fortress","app_id":440,"player_count":0,"max_players":24,"Bots":0,"server_type":"Dedicated","server_os":"Linux","password":true,"vac":true,"version":"7882260","steam_id":85568392924500089,"keywords":["nocrits","nodmgspread","payload","uncletopia"],"game_id":440,"stv_port":27036,"stv_name":"Uncletopia | Montr√©al | 3 | All Maps | STV","players":null},{"server_id":303,"name":"Uncletopia | Montr√©al | 4 | No Payload","name_short":"mtl-4","host":"mtl-1.ca.uncletopia.com","port":27045,"enabled":true,"region":"us-east","cc":"ca","latitude":45.50889,"longitude":-73.56167,"reserved":0,"last_update":"0001-01-01T00:00:00Z","name_a2s":"Uncletopia | Montr√©al | 4 | No Payload","protocol":17,"map":"cp_altitude","folder":"tf","game":"Team Fortress","app_id":440,"player_count":0,"max_players":24,"Bots":0,"server_type":"Dedicated","server_os":"Linux","password":true,"vac":true,"version":"7882260","steam_id":85568392924500090,"keywords":["cp","nocrits","nodmgspread","uncletopia"],"game_id":440,"stv_port":27046,"stv_name":"Uncletopia | Montr√©al | 4 | No Payload | STV","players":null},{"server_id":13,"name":"Uncletopia | New York City | 1 | All Maps","name_short":"nyc-1","host":"nyc-1.us.uncletopia.com","port":27015,"enabled":true,"region":"us-east","cc":"us","latitude":40.73061,"longitude":-73.93524,"reserved":0,"last_update":"0001-01-01T00:00:00Z","name_a2s":"Uncletopia | New York City | 1 | All Maps","protocol":17,"map":"pl_thundermountain","folder":"tf","game":"Team Fortress","app_id":440,"player_count":24,"max_players":24,"Bots":0,"server_type":"Dedicated","server_os":"Linux","password":true,"vac":true,"version":"7882260","steam_id":85568392924469993,"keywords":["nocrits","nodmgspread","payload","uncletopia"],"game_id":440,"stv_port":27016,"stv_name":"Uncletopia | New York City | 1 | All Maps | STV","players":[{"user_id":234,"name":"cool safe name","steam_id":76561198237827742,"connected_time":1893000000000,"state":"active","ping":46},{"user_id":240,"name":"Mitosis scout","steam_id":76561198205070101,"connected_time":1068000000000,"state":"active","ping":116},{"user_id":245,"name":"monkey","steam_id":76561198099481645,"connected_time":544000000000,"state":"active","ping":44},{"user_id":244,"name":"Silly Fella","steam_id":76561198073434502,"connected_time":691000000000,"state":"active","ping":78},{"user_id":250,"name":"sigmoodus hamoodus gardoodus","steam_id":76561198222776116,"connected_time":151000000000,"state":"active","ping":67},{"user_id":167,"name":"leer.","steam_id":76561198864458303,"connected_time":5641000000000,"state":"active","ping":56},{"user_id":221,"name":"Bother","steam_id":76561198336750909,"connected_time":2537000000000,"state":"active","ping":45},{"user_id":200,"name":"marisa kirisame","steam_id":76561198337692867,"connected_time":3900000000000,"state":"active","ping":66},{"user_id":146,"name":"xen","steam_id":76561198048568188,"connected_time":6832000000000,"state":"active","ping":49},{"user_id":188,"name":"Kaithepi","steam_id":76561198431664933,"connected_time":4842000000000,"state":"active","ping":114},{"user_id":206,"name":"goopshit","steam_id":76561198126489501,"connected_time":3736000000000,"state":"active","ping":62},{"user_id":239,"name":"SEWER RODENT","steam_id":76561198858984051,"connected_time":1194000000000,"state":"active","ping":54},{"user_id":119,"name":"Mr. Crispy Lips","steam_id":76561198028157625,"connected_time":8918000000000,"state":"active","ping":99},{"user_id":120,"name":"Bee_Pirate","steam_id":76561199000599111,"connected_time":8906000000000,"state":"active","ping":70},{"user_id":246,"name":"Biggles","steam_id":76561198126576389,"connected_time":474000000000,"state":"active","ping":46},{"user_id":228,"name":"KaleScrooge","steam_id":76561199229442595,"connected_time":2001000000000,"state":"active","ping":202},{"user_id":201,"name":"genuine mitosis scout","steam_id":76561198814096380,"connected_time":3884000000000,"state":"active","ping":81},{"user_id":249,"name":"mike","steam_id":76561198099412571,"connected_time":210000000000,"state":"active","ping":48},{"user_id":194,"name":"King Baldski","steam_id":76561198359568400,"connected_time":4374000000000,"state":"active","ping":134},{"user_id":209,"name":"Jackass in a box","steam_id":76561198355268305,"connected_time":3539000000000,"state":"active","ping":88},{"user_id":247,"name":"Badeline Gaming","steam_id":76561198873589800,"connected_time":361000000000,"state":"active","ping":62},{"user_id":231,"name":"Draco6257","steam_id":76561199147322448,"connected_time":1970000000000,"state":"active","ping":41},{"user_id":232,"name":"BasicPeaches","steam_id":76561198190890150,"connected_time":1965000000000,"state":"active","ping":67},{"user_id":242,"name":"PieTheMan","steam_id":76561198027825469,"connected_time":944000000000,"state":"active","ping":99}]},{"server_id":14,"name":"Uncletopia | New York City | 2 | All Maps","name_short":"nyc-2","host":"nyc-1.us.uncletopia.com","port":27025,"enabled":true,"region":"us-east","cc":"us","latitude":40.73061,"longitude":-73.93524,"reserved":0,"last_update":"0001-01-01T00:00:00Z","name_a2s":"Uncletopia | New York City | 2 | All Maps","protocol":17,"map":"koth_lakeside_final","folder":"tf","game":"Team Fortress","app_id":440,"player_count":0,"max_players":24,"Bots":0,"server_type":"Dedicated","server_os":"Linux","password":true,"vac":true,"version":"7882260","steam_id":85568392924469994,"keywords":["cp","nocrits","nodmgspread","uncletopia"],"game_id":440,"stv_port":27026,"stv_name":"Uncletopia | New York City | 2 | All Maps | STV","players":null},{"server_id":15,"name":"Uncletopia | New York City | 3 | Stopwatch Beta","name_short":"nyc-3","host":"nyc-1.us.uncletopia.com","port":27035,"enabled":true,"region":"us-east","cc":"us","latitude":40.73061,"longitude":-73.93524,"reserved":0,"last_update":"0001-01-01T00:00:00Z","name_a2s":"Uncletopia | New York City | 3 | Stopwatch Beta","protocol":17,"map":"pl_borneo","folder":"tf","game":"Team Fortress","app_id":440,"player_count":0,"max_players":24,"Bots":0,"server_type":"Dedicated","server_os":"Linux","password":true,"vac":true,"version":"7882260","steam_id":85568392924742820,"keywords":["nocrits","nodmgspread","payload","uncletopia"],"game_id":440,"stv_port":27036,"stv_name":"Uncletopia | New York City | 3 | Stopwatch Beta | STV","players":null},{"server_id":16,"name":"Uncletopia | New York City | 4 | Community","name_short":"nyc-4","host":"nyc-1.us.uncletopia.com","port":27045,"enabled":true,"region":"us-east","cc":"us","latitude":40.73061,"longitude":-73.93524,"reserved":0,"last_update":"0001-01-01T00:00:00Z","name_a2s":"Uncletopia | New York City | 4 | Community","protocol":17,"map":"pl_badwater","folder":"tf","game":"Team Fortress","app_id":440,"player_count":0,"max_players":24,"Bots":0,"server_type":"Dedicated","server_os":"Linux","password":true,"vac":true,"version":"7882260","steam_id":85568392924742821,"keywords":["nocrits","nodmgspread","payload","uncletopia"],"game_id":440,"stv_port":27046,"stv_name":"Uncletopia | New York City | 4 | Community | STV","players":null},{"server_id":142,"name":"Uncletopia | S√£o Paulo | 1 | All Maps","name_short":"sao-1","host":"sao-1.br.uncletopia.com","port":27015,"enabled":true,"region":"sa","cc":"br","latitude":-23.533773,"longitude":-46.62529,"reserved":0,"last_update":"0001-01-01T00:00:00Z","name_a2s":"Uncletopia | S√£o Paulo | 1 | All Maps","protocol":17,"map":"cp_process_final","folder":"tf","game":"Team Fortress","app_id":440,"player_count":0,"max_players":24,"Bots":0,"server_type":"Dedicated","server_os":"Linux","password":true,"vac":true,"version":"7882260","steam_id":85568392924469996,"keywords":["cp","nocrits","nodmgspread","uncletopia"],"game_id":440,"stv_port":27016,"stv_name":"Uncletopia | S√£o Paulo | 1 | All Maps | STV","players":null},{"server_id":143,"name":"Uncletopia | S√£o Paulo | 2 | All Maps","name_short":"sao-2","host":"sao-2.br.uncletopia.com","port":27015,"enabled":true,"region":"sa","cc":"br","latitude":-23.533773,"longitude":-46.62529,"reserved":0,"last_update":"0001-01-01T00:00:00Z","name_a2s":"Uncletopia | S√£o Paulo | 2 | All Maps","protocol":17,"map":"cp_process_final","folder":"tf","game":"Team Fortress","app_id":440,"player_count":1,"max_players":24,"Bots":0,"server_type":"Dedicated","server_os":"Linux","password":true,"vac":true,"version":"7882260","steam_id":85568392924485349,"keywords":["cp","nocrits","nodmgspread","uncletopia"],"game_id":440,"stv_port":27016,"stv_name":"Uncletopia | S√£o Paulo | 2 | All Maps | STV","players":[{"user_id":57,"name":"Trigonomancer","steam_id":76561198149081380,"connected_time":121000000000,"state":"active","ping":94}]},{"server_id":7,"name":"Uncletopia | Seattle | 1 | All Maps","name_short":"sea-1","host":"sea-1.us.uncletopia.com","port":27015,"enabled":true,"region":"us-west","cc":"us","latitude":47.608013,"longitude":-122.33517,"reserved":0,"last_update":"0001-01-01T00:00:00Z","name_a2s":"Uncletopia | Seattle | 1 | All Maps","protocol":17,"map":"cp_dustbowl","folder":"tf","game":"Team Fortress","app_id":440,"player_count":24,"max_players":24,"Bots":0,"server_type":"Dedicated","server_os":"Linux","password":true,"vac":true,"version":"7882260","steam_id":85568392924469997,"keywords":["cp","nocrits","nodmgspread","uncletopia"],"game_id":440,"stv_port":27016,"stv_name":"Uncletopia | Seattle | 1 | All Maps | STV","players":[{"user_id":247,"name":"CG.ConfusingFoe","steam_id":76561199005898955,"connected_time":1656000000000,"state":"active","ping":77},{"user_id":265,"name":"Azosion","steam_id":76561198861267703,"connected_time":986000000000,"state":"active","ping":76},{"user_id":251,"name":"gumcuzzler","steam_id":76561198118644686,"connected_time":1505000000000,"state":"active","ping":77},{"user_id":233,"name":"ghostt·óù","steam_id":76561199214430703,"connected_time":2422000000000,"state":"active","ping":99},{"user_id":249,"name":"Gravicks","steam_id":76561198044491171,"connected_time":1612000000000,"state":"active","ping":97},{"user_id":228,"name":"corg","steam_id":76561198338740292,"connected_time":2645000000000,"state":"active","ping":81},{"user_id":198,"name":"Shivs","steam_id":76561198170708197,"connected_time":4658000000000,"state":"active","ping":78},{"user_id":252,"name":"Shark Sandwich","steam_id":76561198025007938,"connected_time":1496000000000,"state":"active","ping":56},{"user_id":260,"name":"BellGrief","steam_id":76561198453489762,"connected_time":1364000000000,"state":"active","ping":144},{"user_id":270,"name":"The Phantom Shitter","steam_id":76561198060731432,"connected_time":542000000000,"state":"active","ping":90},{"user_id":264,"name":"Pinkson","steam_id":76561198097116110,"connected_time":1228000000000,"state":"active","ping":112},{"user_id":235,"name":"Franz","steam_id":76561198041929745,"connected_time":2315000000000,"state":"active","ping":65},{"user_id":217,"name":"¬∞Creamy Gilligan","steam_id":76561198001569384,"connected_time":3323000000000,"state":"active","ping":125},{"user_id":238,"name":"BlazedBunny","steam_id":76561198243610560,"connected_time":2149000000000,"state":"active","ping":82},{"user_id":253,"name":"Mr8bittripper","steam_id":76561198133894229,"connected_time":1475000000000,"state":"active","ping":35},{"user_id":268,"name":"Spectral Washing Machine","steam_id":76561198103611423,"connected_time":617000000000,"state":"active","ping":67},{"user_id":215,"name":"AmiableNebula","steam_id":76561198094306627,"connected_time":3522000000000,"state":"active","ping":73},{"user_id":267,"name":"evilOlive","steam_id":76561198106222025,"connected_time":723000000000,"state":"active","ping":77},{"user_id":274,"name":"banjobun #savelight_env","steam_id":76561198116814525,"connected_time":58000000000,"state":"active","ping":75},{"user_id":273,"name":"Jacob Hornberger 2016","steam_id":76561198204549723,"connected_time":78000000000,"state":"active","ping":117},{"user_id":246,"name":"RadioRave","steam_id":76561198240837534,"connected_time":1711000000000,"state":"active","ping":81},{"user_id":269,"name":"D0VE","steam_id":76561198151618566,"connected_time":601000000000,"state":"active","ping":60},{"user_id":259,"name":"SnazzyCelestial","steam_id":76561198328763813,"connected_time":1386000000000,"state":"active","ping":132},{"user_id":272,"name":"Cam","steam_id":76561198285054047,"connected_time":96000000000,"state":"active","ping":77}]},{"server_id":119,"name":"Uncletopia | Seattle | 2 | All Maps","name_short":"sea-2","host":"sea-1.us.uncletopia.com","port":27025,"enabled":true,"region":"us-west","cc":"us","latitude":47.608013,"longitude":-122.33517,"reserved":0,"last_update":"0001-01-01T00:00:00Z","name_a2s":"Uncletopia | Seattle | 2 | All Maps","protocol":17,"map":"koth_viaduct","folder":"tf","game":"Team Fortress","app_id":440,"player_count":24,"max_players":24,"Bots":0,"server_type":"Dedicated","server_os":"Linux","password":true,"vac":true,"version":"7882260","steam_id":85568392924469998,"keywords":["cp","nocrits","nodmgspread","uncletopia"],"game_id":440,"stv_port":27026,"stv_name":"Uncletopia | Seattle | 2 | All Maps | STV","players":[{"user_id":93,"name":"Smooky","steam_id":76561198191435451,"connected_time":1451000000000,"state":"active","ping":138},{"user_id":97,"name":"bing","steam_id":76561198005160560,"connected_time":1027000000000,"state":"active","ping":154},{"user_id":106,"name":"Charles","steam_id":76561199031612530,"connected_time":672000000000,"state":"active","ping":52},{"user_id":110,"name":"Jpzarde","steam_id":76561197978240364,"connected_time":179000000000,"state":"active","ping":95},{"user_id":91,"name":"Snippykeegan","steam_id":76561198274529343,"connected_time":1717000000000,"state":"active","ping":64},{"user_id":107,"name":"monkey squirts","steam_id":76561197983101644,"connected_time":580000000000,"state":"active","ping":67},{"user_id":101,"name":"Gold_S4 #saveTF2","steam_id":76561199082435571,"connected_time":907000000000,"state":"active","ping":114},{"user_id":18,"name":"The Dinkle","steam_id":76561198098155041,"connected_time":7029000000000,"state":"active","ping":81},{"user_id":70,"name":"Harold","steam_id":76561198057317770,"connected_time":4054000000000,"state":"active","ping":59},{"user_id":98,"name":"gugcat","steam_id":76561198129822860,"connected_time":1002000000000,"state":"active","ping":79},{"user_id":87,"name":"ShredMaan","steam_id":76561198429982138,"connected_time":2171000000000,"state":"active","ping":83},{"user_id":86,"name":"The Collective","steam_id":76561198170423483,"connected_time":2192000000000,"state":"active","ping":128},{"user_id":109,"name":"Cosmic Torgue","steam_id":76561198828724945,"connected_time":393000000000,"state":"active","ping":128},{"user_id":92,"name":"Strikerbolt","steam_id":76561199095622897,"connected_time":1660000000000,"state":"active","ping":81},{"user_id":32,"name":"FlamingManiac","steam_id":76561198361996837,"connected_time":6083000000000,"state":"active","ping":120},{"user_id":60,"name":"Tyler\u0026Fingers","steam_id":76561198085154485,"connected_time":4936000000000,"state":"active","ping":142},{"user_id":100,"name":"Sedna","steam_id":76561198120797504,"connected_time":919000000000,"state":"active","ping":198},{"user_id":85,"name":"Jolly","steam_id":76561198116357972,"connected_time":2212000000000,"state":"active","ping":72},{"user_id":89,"name":"Larra","steam_id":76561198087721593,"connected_time":2100000000000,"state":"active","ping":102},{"user_id":105,"name":"Pneumo.","steam_id":76561197987911883,"connected_time":705000000000,"state":"active","ping":72},{"user_id":75,"name":"bird doctor","steam_id":76561199144340440,"connected_time":3243000000000,"state":"active","ping":71},{"user_id":104,"name":"Shadow Wizard Money Gang","steam_id":76561198149634242,"connected_time":846000000000,"state":"active","ping":99},{"user_id":108,"name":"kaleyz","steam_id":76561198330715708,"connected_time":537000000000,"state":"active","ping":55},{"user_id":84,"name":"MacchuPeachu","steam_id":76561199093242587,"connected_time":2504000000000,"state":"active","ping":66}]},{"server_id":406,"name":"Uncletopia | Seattle | 3 | Stopwatch Beta","name_short":"sea-3","host":"sea-1.us.uncletopia.com","port":27035,"enabled":true,"region":"us-west","cc":"us","latitude":47.608013,"longitude":-122.33517,"reserved":0,"last_update":"0001-01-01T00:00:00Z","name_a2s":"Uncletopia | Seattle | 3 | Stopwatch Beta","protocol":17,"map":"pl_swiftwater_final1","folder":"tf","game":"Team Fortress","app_id":440,"player_count":0,"max_players":24,"Bots":0,"server_type":"Dedicated","server_os":"Linux","password":true,"vac":true,"version":"7882260","steam_id":85568392924515217,"keywords":["nocrits","nodmgspread","payload","uncletopia"],"game_id":440,"stv_port":27036,"stv_name":"Uncletopia | Seattle | 3 | Stopwatch Beta | STV","players":null},{"server_id":17,"name":"Uncletopia | San Francisco | 1 | All Maps","name_short":"sfo-1","host":"sfo-1.us.uncletopia.com","port":27015,"enabled":true,"region":"us-west","cc":"us","latitude":37.77397,"longitude":-122.4313,"reserved":0,"last_update":"0001-01-01T00:00:00Z","name_a2s":"Uncletopia | San Francisco | 1 | All Maps","protocol":17,"map":"cp_process_final","folder":"tf","game":"Team Fortress","app_id":440,"player_count":0,"max_players":24,"Bots":0,"server_type":"Dedicated","server_os":"Linux","password":true,"vac":true,"version":"7757534","steam_id":85568392924469999,"keywords":["cp","nocrits","nodmgspread","uncletopia"],"game_id":440,"stv_port":27016,"stv_name":"Uncletopia | San Francisco | 1 | All Maps | STV","players":null},{"server_id":18,"name":"Uncletopia | San Francisco | 2 | All Maps","name_short":"sfo-2","host":"sfo-1.us.uncletopia.com","port":27025,"enabled":true,"region":"us-west","cc":"us","latitude":37.77397,"longitude":-122.4313,"reserved":0,"last_update":"0001-01-01T00:00:00Z","name_a2s":"Uncletopia | San Francisco | 2 | All Maps","protocol":17,"map":"koth_highpass","folder":"tf","game":"Team Fortress","app_id":440,"player_count":0,"max_players":24,"Bots":0,"server_type":"Dedicated","server_os":"Linux","password":true,"vac":true,"version":"7757534","steam_id":85568392924470000,"keywords":["cp","nocrits","nodmgspread","uncletopia"],"game_id":440,"stv_port":27026,"stv_name":"Uncletopia | San Francisco | 2 | All Maps | STV","players":null},{"server_id":19,"name":"Uncletopia | San Francisco | 3 | Stopwatch Beta","name_short":"sfo-3","host":"sfo-1.us.uncletopia.com","port":27035,"enabled":true,"region":"us-west","cc":"us","latitude":37.77397,"longitude":-122.4313,"reserved":0,"last_update":"0001-01-01T00:00:00Z","name_a2s":"Uncletopia | San Francisco | 3 | Stopwatch Beta","protocol":17,"map":"koth_lakeside_final","folder":"tf","game":"Team Fortress","app_id":440,"player_count":0,"max_players":24,"Bots":0,"server_type":"Dedicated","server_os":"Linux","password":true,"vac":true,"version":"7757534","steam_id":85568392924742824,"keywords":["cp","nocrits","nodmgspread","uncletopia"],"game_id":440,"stv_port":27036,"stv_name":"Uncletopia | San Francisco | 3 | Stopwatch Beta | STV","players":null},{"server_id":20,"name":"Uncletopia | San Francisco | 4 | Community","name_short":"sfo-4","host":"sfo-1.us.uncletopia.com","port":27045,"enabled":true,"region":"us-west","cc":"us","latitude":37.77397,"longitude":-122.4313,"reserved":0,"last_update":"0001-01-01T00:00:00Z","name_a2s":"Uncletopia | San Francisco | 4 | Community","protocol":17,"map":"cp_altitude","folder":"tf","game":"Team Fortress","app_id":440,"player_count":0,"max_players":24,"Bots":0,"server_type":"Dedicated","server_os":"Linux","password":true,"vac":true,"version":"7757534","steam_id":85568392924742826,"keywords":["cp","nocrits","nodmgspread","uncletopia"],"game_id":440,"stv_port":27046,"stv_name":"Uncletopia | San Francisco | 4 | Community | STV","players":null},{"server_id":141,"name":"Uncletopia | Sydney | 1 | All Maps","name_short":"syd-1","host":"syd-1.au.uncletopia.com","port":27015,"enabled":true,"region":"au","cc":"au","latitude":-33.865143,"longitude":151.2099,"reserved":0,"last_update":"0001-01-01T00:00:00Z","name_a2s":"Uncletopia | Sydney | 1 | All Maps","protocol":17,"map":"cp_snakewater_final1","folder":"tf","game":"Team Fortress","app_id":440,"player_count":0,"max_players":24,"Bots":0,"server_type":"Dedicated","server_os":"Linux","password":true,"vac":true,"version":"7882260","steam_id":85568392924470001,"keywords":["cp","nocrits","nodmgspread","uncletopia"],"game_id":440,"stv_port":27016,"stv_name":"Uncletopia | Sydney | 1 | All Maps | STV","players":null},{"server_id":123,"name":"Uncletopia | Sydney | 2 | All Maps","name_short":"syd-2","host":"syd-1.au.uncletopia.com","port":27025,"enabled":true,"region":"au","cc":"au","latitude":-33.865143,"longitude":151.2099,"reserved":0,"last_update":"0001-01-01T00:00:00Z","name_a2s":"Uncletopia | Sydney | 2 | All Maps","protocol":17,"map":"pl_barnblitz","folder":"tf","game":"Team Fortress","app_id":440,"player_count":0,"max_players":24,"Bots":0,"server_type":"Dedicated","server_os":"Linux","password":true,"vac":true,"version":"7882260","steam_id":85568392924470002,"keywords":["nocrits","nodmgspread","payload","uncletopia"],"game_id":440,"stv_port":27026,"stv_name":"Uncletopia | Sydney | 2 | All Maps | STV","players":null},{"server_id":395,"name":"Uncletopia | Sydney | 3 | All Maps","name_short":"syd-3","host":"syd-1.au.uncletopia.com","port":27035,"enabled":true,"region":"au","cc":"au","latitude":-33.865143,"longitude":151.2099,"reserved":0,"last_update":"0001-01-01T00:00:00Z","name_a2s":"Uncletopia | Sydney | 3 | All Maps","protocol":17,"map":"pl_badwater","folder":"tf","game":"Team Fortress","app_id":440,"player_count":0,"max_players":24,"Bots":0,"server_type":"Dedicated","server_os":"Linux","password":true,"vac":true,"version":"7882260","steam_id":85568392925194467,"keywords":["nocrits","nodmgspread","payload","uncletopia"],"game_id":440,"stv_port":27036,"stv_name":"Uncletopia | Sydney | 3 | All Maps | STV","players":null},{"server_id":396,"name":"Uncletopia | Sydney | 4 | All Maps","name_short":"syd-4","host":"syd-1.au.uncletopia.com","port":27045,"enabled":true,"region":"au","cc":"au","latitude":-33.865143,"longitude":151.2099,"reserved":0,"last_update":"0001-01-01T00:00:00Z","name_a2s":"Uncletopia | Sydney | 4 | All Maps","protocol":17,"map":"cp_dustbowl","folder":"tf","game":"Team Fortress","app_id":440,"player_count":0,"max_players":24,"Bots":0,"server_type":"Dedicated","server_os":"Linux","password":true,"vac":true,"version":"7882260","steam_id":85568392925397958,"keywords":["cp","nocrits","nodmgspread","uncletopia"],"game_id":440,"stv_port":27046,"stv_name":"Uncletopia | Sydney | 4 | All Maps | STV","players":null},{"server_id":58,"name":"Uncletopia | Sydney | 5 | Stopwatch Beta","name_short":"syd-5","host":"syd-1.au.uncletopia.com","port":27055,"enabled":true,"region":"au","cc":"au","latitude":-33.865143,"longitude":151.2099,"reserved":0,"last_update":"0001-01-01T00:00:00Z","name_a2s":"Uncletopia | Sydney | 5 | Stopwatch Beta","protocol":17,"map":"cp_snakewater_final1","folder":"tf","game":"Team Fortress","app_id":440,"player_count":0,"max_players":24,"Bots":0,"server_type":"Dedicated","server_os":"Linux","password":true,"vac":true,"version":"7882260","steam_id":85568392925397959,"keywords":["cp","nocrits","nodmgspread","uncletopia"],"game_id":440,"stv_port":27056,"stv_name":"Uncletopia | Sydney | 5 | Stopwatch Beta | STV","players":null},{"server_id":59,"name":"Uncletopia | Sydney | 6 | Community","name_short":"syd-6","host":"syd-1.au.uncletopia.com","port":27065,"enabled":true,"region":"au","cc":"au","latitude":-33.865143,"longitude":151.2099,"reserved":0,"last_update":"0001-01-01T00:00:00Z","name_a2s":"Uncletopia | Sydney | 6 | Community","protocol":17,"map":"pl_snowycoast","folder":"tf","game":"Team Fortress","app_id":440,"player_count":0,"max_players":24,"Bots":0,"server_type":"Dedicated","server_os":"Linux","password":true,"vac":true,"version":"7882260","steam_id":85568392925397960,"keywords":["nocrits","nodmgspread","payload","uncletopia"],"game_id":440,"stv_port":27066,"stv_name":"Uncletopia | Sydney | 6 | Community | STV","players":null},{"server_id":49,"name":"Uncletopia | Warsaw | 1 | All Maps","name_short":"waw-1","host":"waw-1.pl.uncletopia.com","port":27015,"enabled":true,"region":"eu","cc":"pl","latitude":52.2297,"longitude":21.017532,"reserved":0,"last_update":"0001-01-01T00:00:00Z","name_a2s":"","protocol":0,"map":"","folder":"","game":"","app_id":0,"player_count":0,"max_players":0,"Bots":0,"server_type":"","server_os":"","password":false,"vac":false,"version":"","steam_id":0,"keywords":null,"game_id":0,"stv_port":0,"stv_name":"","players":null},{"server_id":50,"name":"Uncletopia | Warsaw | 2 | All Maps","name_short":"waw-2","host":"waw-1.pl.uncletopia.com","port":27025,"enabled":true,"region":"eu","cc":"pl","latitude":52.2297,"longitude":21.017532,"reserved":0,"last_update":"0001-01-01T00:00:00Z","name_a2s":"Uncletopia | Warsaw | 2 | All Maps","protocol":17,"map":"cp_mountainlab","folder":"tf","game":"Team Fortress","app_id":440,"player_count":0,"max_players":24,"Bots":0,"server_type":"Dedicated","server_os":"Linux","password":true,"vac":true,"version":"7882260","steam_id":85568392925397851,"keywords":["cp","nocrits","nodmgspread","uncletopia"],"game_id":440,"stv_port":27026,"stv_name":"Uncletopia | Warsaw | 2 | All Maps | STV","players":null},{"server_id":51,"name":"Uncletopia | Warsaw | 3 | All Maps","name_short":"waw-3","host":"waw-1.pl.uncletopia.com","port":27035,"enabled":true,"region":"eu","cc":"pl","latitude":52.2297,"longitude":21.017532,"reserved":0,"last_update":"0001-01-01T00:00:00Z","name_a2s":"Uncletopia | Warsaw | 3 | All Maps","protocol":17,"map":"koth_viaduct","folder":"tf","game":"Team Fortress","app_id":440,"player_count":0,"max_players":24,"Bots":0,"server_type":"Dedicated","server_os":"Linux","password":true,"vac":true,"version":"7882260","steam_id":85568392925397852,"keywords":["cp","nocrits","nodmgspread","uncletopia"],"game_id":440,"stv_port":27036,"stv_name":"Uncletopia | Warsaw | 3 | All Maps | STV","players":null},{"server_id":52,"name":"Uncletopia | Warsaw | 4 | All Maps","name_short":"waw-4","host":"waw-1.pl.uncletopia.com","port":27045,"enabled":true,"region":"eu","cc":"pl","latitude":52.2297,"longitude":21.017532,"reserved":0,"last_update":"0001-01-01T00:00:00Z","name_a2s":"Uncletopia | Warsaw | 4 | All Maps","protocol":17,"map":"pl_frontier_final","folder":"tf","game":"Team Fortress","app_id":440,"player_count":0,"max_players":24,"Bots":0,"server_type":"Dedicated","server_os":"Linux","password":true,"vac":true,"version":"7882260","steam_id":85568392925397853,"keywords":["nocrits","nodmgspread","payload","uncletopia"],"game_id":440,"stv_port":27046,"stv_name":"Uncletopia | Warsaw | 4 | All Maps | STV","players":null},{"server_id":53,"name":"Uncletopia | Warsaw | 5 | Stopwatch Beta","name_short":"waw-5","host":"waw-1.pl.uncletopia.com","port":27055,"enabled":true,"region":"eu","cc":"pl","latitude":52.2297,"longitude":21.017532,"reserved":0,"last_update":"0001-01-01T00:00:00Z","name_a2s":"Uncletopia | Warsaw | 5 | Stopwatch Beta","protocol":17,"map":"cp_mountainlab","folder":"tf","game":"Team Fortress","app_id":440,"player_count":0,"max_players":24,"Bots":0,"server_type":"Dedicated","server_os":"Linux","password":true,"vac":true,"version":"7882260","steam_id":85568392925397854,"keywords":["cp","nocrits","nodmgspread","uncletopia"],"game_id":440,"stv_port":27056,"stv_name":"Uncletopia | Warsaw | 5 | Stopwatch Beta | STV","players":null},{"server_id":54,"name":"Uncletopia | Warsaw | 6 | Community","name_short":"waw-6","host":"waw-1.pl.uncletopia.com","port":27065,"enabled":true,"region":"eu","cc":"pl","latitude":52.2297,"longitude":21.017532,"reserved":0,"last_update":"0001-01-01T00:00:00Z","name_a2s":"Uncletopia | Warsaw | 6 | Community","protocol":17,"map":"workshop/cp_sulfur_rc2.ugc619869471","folder":"tf","game":"Team Fortress","app_id":440,"player_count":0,"max_players":24,"Bots":0,"server_type":"Dedicated","server_os":"Linux","password":true,"vac":true,"version":"7882260","steam_id":85568392925397856,"keywords":["cp","nocrits","nodmgspread","uncletopia"],"game_id":440,"stv_port":27066,"stv_name":"Uncletopia | Warsaw | 6 | Community | STV","players":null}]}