{"status":true,"message":"","result":[{"server_id":9,"name":"Uncletopia | Atlanta | 1 | All Maps","name_short":"atl-1","host":"atl-1.us.uncletopia.com","port":27015,"enabled":true,"region":"us-east","cc":"us","latitude":33.753746,"longitude":-84.38633,"reserved":0,"last_update":"0001-01-01T00:00:00Z","name_a2s":"Uncletopia | Atlanta | 1 | All Maps","protocol":17,"map":"pl_barnblitz","folder":"tf","game":"Team Fortress","app_id":440,"player_count":17,"max_players":24,"Bots":0,"server_type":"Dedicated","server_os":"Linux","password":true,"vac":true,"version":"7961495","steam_id":85568392924469982,"keywords":["nocrits","nodmgspread","payload","uncletopia"],"game_id":440,"stv_port":27016,"stv_name":"Uncletopia | Atlanta | 1 | All Maps | STV","players":null},{"server_id":104,"name":"Uncletopia | Atlanta | 2 | All Maps","name_short":"atl-2","host":"atl-1.us.uncletopia.com","port":27025,"enabled":true,"region":"us-east","cc":"us","latitude":33.753746,"longitude":-84.38633,"reserved":0,"last_update":"0001-01-01T00:00:00Z","name_a2s":"Uncletopia | Atlanta | 2 | All Maps","protocol":17,"map":"pl_pier","folder":"tf","game":"Team Fortress","app_id":440,"player_count":1,"max_players":24,"Bots":0,"server_type":"Dedicated","server_os":"Linux","password":true,"vac":true,"version":"7961495","steam_id":85568392924469983,"keywords":["nocrits","nodmgspread","payload","uncletopia"],"game_id":440,"stv_port":27026,"stv_name":"Uncletopia | Atlanta | 2 | All Maps | STV","players":null},{"server_id":400,"name":"Uncletopia | Atlanta | 3 | Stopwatch","name_short":"atl-3","host":"atl-1.us.uncletopia.com","port":27035,"enabled":true,"region":"us-east","cc":"us","latitude":33.753746,"longitude":-84.38633,"reserved":0,"last_update":"0001-01-01T00:00:00Z","name_a2s":"Uncletopia | Atlanta | 3 | Stopwatch","protocol":17,"map":"koth_ashville_final","folder":"tf","game":"Team Fortress","app_id":440,"player_count":0,"max_players":24,"Bots":0,"server_type":"Dedicated","server_os":"Linux","password":true,"vac":true,"version":"7961495","steam_id":85568392924515187,"keywords":["cp","nocrits","nodmgspread","uncletopia"],"game_id":440,"stv_port":27036,"stv_name":"Uncletopia | Atlanta | 3 | Stopwatch | STV","players":null},{"server_id":401,"name":"Uncletopia | Atlanta | 4 | Community","name_short":"atl-4","host":"atl-1.us.uncletopia.com","port":27045,"enabled":true,"region":"us-east","cc":"us","latitude":33.753746,"longitude":-84.38633,"reserved":0,"last_update":"0001-01-01T00:00:00Z","name_a2s":"Uncletopia | Atlanta | 4 | Community","protocol":17,"map":"pl_barnblitz_pro7","folder":"tf","game":"Team Fortress","app_id":440,"player_count":3,"max_players":24,"Bots":0,"server_type":"Dedicated","server_os":"Linux","password":true,"vac":true,"version":"7961495","steam_id":85568392924515188,"keywords":["nocrits","nodmgspread","payload","uncletopia"],"game_id":440,"stv_port":27046,"stv_name":"Uncletopia | Atlanta | 4 | Community | STV","players":null},{"server_id":2,"name":"Uncletopia | Chicago | 1 | All Maps","name_short":"chi-1","host":"chi-1.us.uncletopia.com","port":27015,"enabled":true,"region":"us-central","cc":"us","latitude":41.881832,"longitude":-87.62318,"reserved":0,"last_update":"0001-01-01T00:00:00Z","name_a2s":"Uncletopia | Chicago | 1 | All Maps","protocol":17,"map":"pl_borneo","folder":"tf","game":"Team Fortress","app_id":440,"player_count":24,"max_players":24,"Bots":0,"server_type":"Dedicated","server_os":"Linux","password":true,"vac":true,"version":"7961495","steam_id":85568392924469984,"keywords":["nocrits","nodmgspread","payload","uncletopia"],"game_id":440,"stv_port":27016,"stv_name":"Uncletopia | Chicago | 1 | All Maps | STV","players":[{"user_id":252,"name":"l o o t","steam_id":76561198069954956,"connected_time":972000000000,"state":"active","ping":61},{"user_id":255,"name":"Dokkibai","steam_id":76561198355935693,"connected_time":880000000000,"state":"active","ping":45},{"user_id":231,"name":"The Guy","steam_id":76561198799183693,"connected_time":2727000000000,"state":"active","ping":83},{"user_id":248,"name":"Siz","steam_id":76561198072962154,"connected_time":1086000000000,"state":"active","ping":90},{"user_id":234,"name":"ZombieDog[N8]","steam_id":76561198056076918,"connected_time":2429000000000,"state":"active","ping":70},{"user_id":246,"name":"‚óè","steam_id":76561198999217575,"connected_time":1109000000000,"state":"active","ping":69},{"user_id":265,"name":"THORNFIELDGAMER","steam_id":76561199087167473,"connected_time":88000000000,"state":"active","ping":88},{"user_id":258,"name":"Jimmy Jones","steam_id":76561198067314793,"connected_time":504000000000,"state":"active","ping":90},{"user_id":263,"name":"battle clown","steam_id":76561198045788371,"connected_time":103000000000,"state":"active","ping":63},{"user_id":245,"name":"Fushiguro Fan Club","steam_id":76561198106381764,"connected_time":1129000000000,"state":"active","ping":50},{"user_id":260,"name":"Jerry Bondle","steam_id":76561198337512213,"connected_time":362000000000,"state":"active","ping":65},{"user_id":224,"name":"Aino","steam_id":76561198053662930,"connected_time":3280000000000,"state":"active","ping":117},{"user_id":235,"name":"Terry Crews from Brooklyn 99","steam_id":76561198357806819,"connected_time":2335000000000,"state":"active","ping":82},{"user_id":242,"name":"The good kind of chemicals","steam_id":76561197987193828,"connected_time":1176000000000,"state":"active","ping":45},{"user_id":254,"name":"Kzjytsugn","steam_id":76561198130241974,"connected_time":950000000000,"state":"active","ping":90},{"user_id":184,"name":"tlar","steam_id":76561198060117460,"connected_time":5723000000000,"state":"active","ping":61},{"user_id":240,"name":"Mellow Yellow","steam_id":76561198406276981,"connected_time":1669000000000,"state":"active","ping":56},{"user_id":171,"name":"bachira meguru fan club","steam_id":76561198079178866,"connected_time":6549000000000,"state":"active","ping":60},{"user_id":241,"name":"P.U. Poopenhauser","steam_id":76561198012093679,"connected_time":1249000000000,"state":"active","ping":85},{"user_id":239,"name":"BadLuck","steam_id":76561198096452401,"connected_time":1675000000000,"state":"active","ping":76},{"user_id":223,"name":"Deluxe_Taco34","steam_id":76561199037653437,"connected_time":3386000000000,"state":"active","ping":115},{"user_id":250,"name":"purple diesel","steam_id":76561197976548449,"connected_time":1061000000000,"state":"active","ping":86},{"user_id":220,"name":"Fiendish Frog","steam_id":76561198029478821,"connected_time":3464000000000,"state":"active","ping":71},{"user_id":264,"name":"Renegade","steam_id":76561198066847055,"connected_time":102000000000,"state":"active","ping":74}]},{"server_id":106,"name":"Uncletopia | Chicago | 2 | All Maps","name_short":"chi-2","host":"chi-1.us.uncletopia.com","port":27025,"enabled":true,"region":"us-central","cc":"us","latitude":41.881832,"longitude":-87.62318,"reserved":0,"last_update":"0001-01-01T00:00:00Z","name_a2s":"Uncletopia | Chicago | 2 | All Maps","protocol":17,"map":"pl_borneo","folder":"tf","game":"Team Fortress","app_id":440,"player_count":24,"max_players":24,"Bots":0,"server_type":"Dedicated","server_os":"Linux","password":true,"vac":true,"version":"7961495","steam_id":85568392924469985,"keywords":["nocrits","nodmgspread","payload","uncletopia"],"game_id":440,"stv_port":27026,"stv_name":"Uncletopia | Chicago | 2 | All Maps | STV","players":[{"user_id":217,"name":"BOB","steam_id":76561198000787196,"connected_time":268000000000,"state":"active","ping":150},{"user_id":108,"name":"while(1)","steam_id":76561198000876529,"connected_time":9170000000000,"state":"active","ping":59},{"user_id":140,"name":".JIFF","steam_id":76561198045181760,"connected_time":7719000000000,"state":"active","ping":60},{"user_id":212,"name":"Willy","steam_id":76561198046508940,"connected_time":441000000000,"state":"active","ping":61},{"user_id":196,"name":"22moo","steam_id":76561199075331630,"connected_time":1540000000000,"state":"active","ping":70},{"user_id":198,"name":"Kiril","steam_id":76561198051433762,"connected_time":1517000000000,"state":"active","ping":139},{"user_id":214,"name":"Sleepy","steam_id":76561198979389459,"connected_time":423000000000,"state":"active","ping":59},{"user_id":207,"name":"Leonardo DiCaprio","steam_id":76561198121886765,"connected_time":1098000000000,"state":"active","ping":58},{"user_id":200,"name":"the zoo","steam_id":76561198013732450,"connected_time":1509000000000,"state":"active","ping":53},{"user_id":191,"name":"Sableye","steam_id":76561198061247147,"connected_time":2649000000000,"state":"active","ping":62},{"user_id":189,"name":"Word To Your Mothership","steam_id":76561198034329138,"connected_time":2698000000000,"state":"active","ping":100},{"user_id":209,"name":"Femboy Medic Main","steam_id":76561198268225109,"connected_time":794000000000,"state":"active","ping":87},{"user_id":201,"name":"FireQuiz","steam_id":76561198107357249,"connected_time":1492000000000,"state":"active","ping":104},{"user_id":199,"name":"DV","steam_id":76561198295570806,"connected_time":1515000000000,"state":"active","ping":111},{"user_id":202,"name":"Lori T-Fem","steam_id":76561198964321336,"connected_time":1490000000000,"state":"active","ping":75},{"user_id":208,"name":"kite","steam_id":76561198346516392,"connected_time":972000000000,"state":"active","ping":69},{"user_id":215,"name":"Exhiet","steam_id":76561198218111020,"connected_time":361000000000,"state":"active","ping":71},{"user_id":210,"name":"je1i","steam_id":76561198268951743,"connected_time":538000000000,"state":"active","ping":65},{"user_id":206,"name":"Mr. Tickle","steam_id":76561198126684647,"connected_time":1400000000000,"state":"active","ping":60},{"user_id":186,"name":"hyaz, +rep.","steam_id":76561199100342013,"connected_time":2702000000000,"state":"active","ping":91},{"user_id":166,"name":"subdromeda","steam_id":76561198884351860,"connected_time":5071000000000,"state":"active","ping":60},{"user_id":187,"name":"Mr.brapswason","steam_id":76561198313133260,"connected_time":2702000000000,"state":"active","ping":60},{"user_id":204,"name":"Telushealth","steam_id":76561199422760247,"connected_time":1471000000000,"state":"active","ping":91},{"user_id":180,"name":"NvAka","steam_id":76561199044781490,"connected_time":3694000000000,"state":"active","ping":67}]},{"server_id":402,"name":"Uncletopia | Chicago | 3 | All Maps","name_short":"chi-3","host":"chi-1.us.uncletopia.com","port":27035,"enabled":true,"region":"us-central","cc":"us","latitude":41.881832,"longitude":-87.62318,"reserved":0,"last_update":"0001-01-01T00:00:00Z","name_a2s":"Uncletopia | Chicago | 3 | All Maps","protocol":17,"map":"pl_upward","folder":"tf","game":"Team Fortress","app_id":440,"player_count":23,"max_players":24,"Bots":0,"server_type":"Dedicated","server_os":"Linux","password":true,"vac":true,"version":"7961495","steam_id":85568392924515191,"keywords":["nocrits","nodmgspread","payload","uncletopia"],"game_id":440,"stv_port":27036,"stv_name":"Uncletopia | Chicago | 3 | All Maps | STV","players":[{"user_id":103,"name":"Mytechist","steam_id":76561198004672472,"connected_time":549000000000,"state":"active","ping":68},{"user_id":106,"name":"mount meverest","steam_id":76561198025681784,"connected_time":267000000000,"state":"active","ping":67},{"user_id":59,"name":"Keegan","steam_id":76561198051325763,"connected_time":3452000000000,"state":"active","ping":163},{"user_id":91,"name":"tgirl swag","steam_id":76561198128164970,"connected_time":1058000000000,"state":"active","ping":106},{"user_id":92,"name":"PTR","steam_id":76561198237253772,"connected_time":1053000000000,"state":"active","ping":63},{"user_id":94,"name":"wolfgrey139","steam_id":76561199206554751,"connected_time":912000000000,"state":"active","ping":69},{"user_id":98,"name":"local man","steam_id":76561198074946673,"connected_time":626000000000,"state":"active","ping":58},{"user_id":87,"name":"PzVIIIMaus","steam_id":76561198346559365,"connected_time":1335000000000,"state":"active","ping":47},{"user_id":66,"name":"shadow6","steam_id":76561197979807910,"connected_time":2338000000000,"state":"active","ping":91},{"user_id":100,"name":"GEMINI HOME ENTERTAINMENT","steam_id":76561198110057765,"connected_time":580000000000,"state":"active","ping":61},{"user_id":101,"name":"who is gavin?","steam_id":76561198069415057,"connected_time":575000000000,"state":"active","ping":68},{"user_id":63,"name":"2Tired2p1 (LGBTQIA+ rights)","steam_id":76561198800432095,"connected_time":2694000000000,"state":"active","ping":79},{"user_id":86,"name":"jan kili","steam_id":76561198289894834,"connected_time":1343000000000,"state":"active","ping":68},{"user_id":74,"name":"Scuba Steve","steam_id":76561198313018251,"connected_time":1926000000000,"state":"active","ping":80},{"user_id":81,"name":"Û†Å≥ ‚Åßfortnite56k","steam_id":76561198404564240,"connected_time":1793000000000,"state":"active","ping":63},{"user_id":47,"name":"Joe the Hooligan","steam_id":76561198814429079,"connected_time":4108000000000,"state":"active","ping":56},{"user_id":61,"name":"Local Trans Gun Nerd :3","steam_id":76561198169500112,"connected_time":2798000000000,"state":"active","ping":80},{"user_id":84,"name":"10 INCH TGIRL SCHLONG","steam_id":76561198122059018,"connected_time":1460000000000,"state":"active","ping":48},{"user_id":53,"name":"Day By Day","steam_id":76561198410957728,"connected_time":4006000000000,"state":"active","ping":46},{"user_id":85,"name":"bill","steam_id":76561199142779872,"connected_time":1442000000000,"state":"active","ping":68},{"user_id":96,"name":"momus","steam_id":76561198966979196,"connected_time":723000000000,"state":"active","ping":102},{"user_id":56,"name":"i am one in a krillion","steam_id":76561198204995668,"connected_time":3974000000000,"state":"active","ping":89},{"user_id":105,"name":"-Avh-","steam_id":76561198087593160,"connected_time":503000000000,"state":"active","ping":72}]},{"server_id":403,"name":"Uncletopia | Chicago | 4 | All Maps","name_short":"chi-4","host":"chi-1.us.uncletopia.com","port":27045,"enabled":true,"region":"us-central","cc":"us","latitude":41.881832,"longitude":-87.62318,"reserved":0,"last_update":"0001-01-01T00:00:00Z","name_a2s":"Uncletopia | Chicago | 4 | All Maps","protocol":17,"map":"pl_upward","folder":"tf","game":"Team Fortress","app_id":440,"player_count":24,"max_players":24,"Bots":0,"server_type":"Dedicated","server_os":"Linux","password":true,"vac":true,"version":"7961495","steam_id":85568392924515193,"keywords":["nocrits","nodmgspread","payload","uncletopia"],"game_id":440,"stv_port":27046,"stv_name":"Uncletopia | Chicago | 4 | All Maps | STV","players":[{"user_id":288,"name":"The Big Grove","steam_id":76561198931663998,"connected_time":79000000000,"state":"active","ping":83},{"user_id":274,"name":"Bobby Ray","steam_id":76561198044131188,"connected_time":971000000000,"state":"active","ping":75},{"user_id":278,"name":"orangesuit1","steam_id":76561199020443017,"connected_time":757000000000,"state":"active","ping":116},{"user_id":268,"name":"Javaris Jamar Javarison-Lamar","steam_id":76561197974907012,"connected_time":1155000000000,"state":"active","ping":75},{"user_id":286,"name":"Shoeshocker","steam_id":76561198174302467,"connected_time":91000000000,"state":"active","ping":62},{"user_id":266,"name":"JOOOOOOOOOOOOO!!!!!!","steam_id":76561199101638460,"connected_time":1188000000000,"state":"active","ping":68},{"user_id":279,"name":"Astrocards","steam_id":76561199184079830,"connected_time":673000000000,"state":"active","ping":71},{"user_id":228,"name":"ApertureCity","steam_id":76561198004153607,"connected_time":4327000000000,"state":"active","ping":81},{"user_id":269,"name":"speedy","steam_id":76561197974493959,"connected_time":1115000000000,"state":"active","ping":66},{"user_id":277,"name":"ma0re","steam_id":76561199231971506,"connected_time":791000000000,"state":"active","ping":56},{"user_id":282,"name":"Koishi","steam_id":76561198054541054,"connected_time":263000000000,"state":"active","ping":53},{"user_id":271,"name":"Tupac Shakur","steam_id":76561198247651486,"connected_time":1103000000000,"state":"active","ping":53},{"user_id":219,"name":"Dr.Zarann","steam_id":76561198163952958,"connected_time":5818000000000,"state":"active","ping":70},{"user_id":249,"name":"SpiritGaming4Life","steam_id":76561198799411351,"connected_time":3513000000000,"state":"active","ping":109},{"user_id":275,"name":"Soap","steam_id":76561197994893383,"connected_time":833000000000,"state":"active","ping":72},{"user_id":216,"name":"Just PYE","steam_id":76561199439622967,"connected_time":6175000000000,"state":"active","ping":101},{"user_id":184,"name":"Pango","steam_id":76561198069811545,"connected_time":8479000000000,"state":"active","ping":66},{"user_id":276,"name":"Slip","steam_id":76561199057232579,"connected_time":813000000000,"state":"active","ping":55},{"user_id":281,"name":"V3l0c1r4pt0r","steam_id":76561198295713840,"connected_time":335000000000,"state":"active","ping":68},{"user_id":284,"name":"MOVEMENTPLAYER bladeefan12","steam_id":76561198274959371,"connected_time":102000000000,"state":"active","ping":130},{"user_id":263,"name":"LazyKoala99","steam_id":76561199183623672,"connected_time":1696000000000,"state":"active","ping":64},{"user_id":280,"name":"Avo","steam_id":76561197993340494,"connected_time":337000000000,"state":"active","ping":68},{"user_id":253,"name":"Mage","steam_id":76561198285026879,"connected_time":2795000000000,"state":"active","ping":82},{"user_id":285,"name":"roto","steam_id":76561198138735860,"connected_time":101000000000,"state":"active","ping":67}]},{"server_id":36,"name":"Uncletopia | Chicago | 5 | All Maps","name_short":"chi-5","host":"chi-2.us.uncletopia.com","port":27015,"enabled":true,"region":"us-central","cc":"us","latitude":41.881832,"longitude":-87.62318,"reserved":0,"last_update":"0001-01-01T00:00:00Z","name_a2s":"Uncletopia | Chicago | 5 | All Maps","protocol":17,"map":"plr_hightower","folder":"tf","game":"Team Fortress","app_id":440,"player_count":24,"max_players":24,"Bots":0,"server_type":"Dedicated","server_os":"Linux","password":true,"vac":true,"version":"7961495","steam_id":85568392924866362,"keywords":["nocrits","nodmgspread","payload","uncletopia"],"game_id":440,"stv_port":27016,"stv_name":"Uncletopia | Chicago | 5 | All Maps | STV","players":[{"user_id":110,"name":"winning","steam_id":76561198003206947,"connected_time":2521000000000,"state":"active","ping":63},{"user_id":122,"name":"Anamm","steam_id":76561198328762510,"connected_time":1743000000000,"state":"active","ping":72},{"user_id":134,"name":"mhp","steam_id":76561198219815228,"connected_time":1228000000000,"state":"active","ping":61},{"user_id":146,"name":"totoro","steam_id":76561198210420871,"connected_time":208000000000,"state":"active","ping":45},{"user_id":121,"name":"f","steam_id":76561198215559840,"connected_time":1865000000000,"state":"active","ping":60},{"user_id":147,"name":"HAHAHAHA!!!","steam_id":76561199208835578,"connected_time":199000000000,"state":"active","ping":105},{"user_id":148,"name":"MantisToboggan","steam_id":76561197969447887,"connected_time":191000000000,"state":"active","ping":149},{"user_id":59,"name":"Drawing Tablet","steam_id":76561198079101911,"connected_time":6914000000000,"state":"active","ping":46},{"user_id":156,"name":"diarrhea al fresco","steam_id":76561198073269122,"connected_time":70000000000,"state":"active","ping":68},{"user_id":157,"name":"Ostin","steam_id":76561197993726444,"connected_time":66000000000,"state":"active","ping":73},{"user_id":135,"name":"That Darned Imp","steam_id":76561198854501307,"connected_time":1128000000000,"state":"active","ping":57},{"user_id":160,"name":"Comic","steam_id":76561198391882145,"connected_time":2000000000,"state":"spawning","ping":48},{"user_id":150,"name":"antknee","steam_id":76561198263793809,"connected_time":181000000000,"state":"active","ping":75},{"user_id":158,"name":"„ÄåDaws_Dudeguy„Äç","steam_id":76561198205838645,"connected_time":36000000000,"state":"active","ping":71},{"user_id":106,"name":"Slepii","steam_id":76561198881786224,"connected_time":2826000000000,"state":"active","ping":64},{"user_id":101,"name":"Captain Emerald The Changeling","steam_id":76561198320651177,"connected_time":2925000000000,"state":"active","ping":61},{"user_id":152,"name":"lpk","steam_id":76561198025478698,"connected_time":174000000000,"state":"active","ping":43},{"user_id":69,"name":"fresco","steam_id":76561199101199477,"connected_time":5921000000000,"state":"active","ping":69},{"user_id":153,"name":"neet","steam_id":76561197968115168,"connected_time":169000000000,"state":"active","ping":55},{"user_id":159,"name":"foofydafoofer","steam_id":76561199395830278,"connected_time":24000000000,"state":"active","ping":124},{"user_id":140,"name":"Nue Houjuu","steam_id":76561199013167718,"connected_time":470000000000,"state":"active","ping":73},{"user_id":73,"name":"Jerk Tryhard (roleplay)","steam_id":76561199470538309,"connected_time":5766000000000,"state":"active","ping":58},{"user_id":155,"name":"yellow.","steam_id":76561199182156283,"connected_time":153000000000,"state":"active","ping":38},{"user_id":113,"name":"Nazrin","steam_id":76561198246701796,"connected_time":2483000000000,"state":"active","ping":76}]},{"server_id":37,"name":"Uncletopia | Chicago | 6 | All Maps","name_short":"chi-6","host":"chi-2.us.uncletopia.com","port":27025,"enabled":true,"region":"us-central","cc":"us","latitude":41.881832,"longitude":-87.62318,"reserved":0,"last_update":"0001-01-01T00:00:00Z","name_a2s":"Uncletopia | Chicago | 6 | All Maps","protocol":17,"map":"pl_upward","folder":"tf","game":"Team Fortress","app_id":440,"player_count":24,"max_players":24,"Bots":0,"server_type":"Dedicated","server_os":"Linux","password":true,"vac":true,"version":"7961495","steam_id":85568392924866363,"keywords":["nocrits","nodmgspread","payload","uncletopia"],"game_id":440,"stv_port":27026,"stv_name":"Uncletopia | Chicago | 6 | All Maps | STV","players":[{"user_id":37,"name":"Burbuja","steam_id":76561198377842585,"connected_time":1848000000000,"state":"active","ping":116},{"user_id":51,"name":"radicalPolio","steam_id":76561197961561855,"connected_time":1171000000000,"state":"active","ping":70},{"user_id":59,"name":"DivineBanana","steam_id":76561198026529731,"connected_time":782000000000,"state":"active","ping":87},{"user_id":36,"name":"The No-Longer Mute","steam_id":76561198078359985,"connected_time":1870000000000,"state":"active","ping":58},{"user_id":69,"name":"PumpkinThink","steam_id":76561198393830529,"connected_time":458000000000,"state":"active","ping":78},{"user_id":16,"name":"Mom","steam_id":76561198207936000,"connected_time":2298000000000,"state":"active","ping":90},{"user_id":75,"name":"Boredbombknight","steam_id":76561199124037552,"connected_time":249000000000,"state":"active","ping":59},{"user_id":74,"name":"hud_saytext_time 0","steam_id":76561198010327228,"connected_time":287000000000,"state":"active","ping":174},{"user_id":76,"name":"CHIEF_JUSTICE_FUCKASS","steam_id":76561199261675844,"connected_time":226000000000,"state":"active","ping":104},{"user_id":66,"name":"ODs","steam_id":76561198113096772,"connected_time":663000000000,"state":"active","ping":122},{"user_id":38,"name":"Anstorner","steam_id":76561198274026015,"connected_time":1827000000000,"state":"active","ping":99},{"user_id":57,"name":"BIgboy535","steam_id":76561198798967935,"connected_time":892000000000,"state":"active","ping":93},{"user_id":56,"name":"h","steam_id":76561199052840531,"connected_time":950000000000,"state":"active","ping":60},{"user_id":58,"name":"Mr_sir132","steam_id":76561198125278692,"connected_time":855000000000,"state":"active","ping":109},{"user_id":62,"name":"Santa Carrying a Minigun","steam_id":76561198047845399,"connected_time":745000000000,"state":"active","ping":77},{"user_id":26,"name":"slowdance","steam_id":76561198097427947,"connected_time":2213000000000,"state":"active","ping":147},{"user_id":49,"name":"The Organ Collector","steam_id":76561198815656851,"connected_time":1219000000000,"state":"active","ping":84},{"user_id":77,"name":"cuddles","steam_id":76561199471390987,"connected_time":167000000000,"state":"active","ping":80},{"user_id":63,"name":"Crusade","steam_id":76561199192979051,"connected_time":679000000000,"state":"active","ping":93},{"user_id":73,"name":"corned beef","steam_id":76561199366782761,"connected_time":377000000000,"state":"active","ping":156},{"user_id":41,"name":"aidan","steam_id":76561198339019147,"connected_time":1803000000000,"state":"active","ping":81},{"user_id":78,"name":"Waesel","steam_id":76561198069188177,"connected_time":9000000000,"state":"spawning","ping":74},{"user_id":64,"name":"9gon S4lt","steam_id":76561198116645978,"connected_time":675000000000,"state":"active","ping":57},{"user_id":65,"name":"9gon Danmar33","steam_id":76561198056453091,"connected_time":671000000000,"state":"active","ping":60}]},{"server_id":38,"name":"Uncletopia | Chicago | 7 | Stopwatch","name_short":"chi-7","host":"chi-2.us.uncletopia.com","port":27035,"enabled":true,"region":"us-central","cc":"us","latitude":41.881832,"longitude":-87.62318,"reserved":0,"last_update":"0001-01-01T00:00:00Z","name_a2s":"Uncletopia | Chicago | 7 | Stopwatch","protocol":17,"map":"cp_snakewater_final1","folder":"tf","game":"Team Fortress","app_id":440,"player_count":0,"max_players":24,"Bots":0,"server_type":"Dedicated","server_os":"Linux","password":true,"vac":true,"version":"7961495","steam_id":85568392924866364,"keywords":["cp","nocrits","nodmgspread","uncletopia"],"game_id":440,"stv_port":27036,"stv_name":"Uncletopia | Chicago | 7 | Stopwatch | STV","players":null},{"server_id":39,"name":"Uncletopia | Chicago | 8 | Community","name_short":"chi-8","host":"chi-2.us.uncletopia.com","port":27045,"enabled":true,"region":"us-central","cc":"us","latitude":41.881832,"longitude":-87.62318,"reserved":0,"last_update":"0001-01-01T00:00:00Z","name_a2s":"Uncletopia | Chicago | 8 | Community","protocol":17,"map":"workshop/koth_product_final.ugc454272353","folder":"tf","game":"Team Fortress","app_id":440,"player_count":0,"max_players":24,"Bots":0,"server_type":"Dedicated","server_os":"Linux","password":true,"vac":true,"version":"7961495","steam_id":85568392924866365,"keywords":["cp","nocrits","nodmgspread","uncletopia"],"game_id":440,"stv_port":27046,"stv_name":"Uncletopia | Chicago | 8 | Community | STV","players":null},{"server_id":8,"name":"Uncletopia | Dallas | 1 | All Maps","name_short":"dal-1","host":"dal-1.us.uncletopia.com","port":27015,"enabled":true,"region":"us-central","cc":"us","latitude":32.779167,"longitude":-96.80889,"reserved":0,"last_update":"0001-01-01T00:00:00Z","name_a2s":"Uncletopia | Dallas | 1 | All Maps","protocol":17,"map":"pl_snowycoast","folder":"tf","game":"Team Fortress","app_id":440,"player_count":24,"max_players":24,"Bots":0,"server_type":"Dedicated","server_os":"Linux","password":true,"vac":true,"version":"7961495","steam_id":85568392924469986,"keywords":["nocrits","nodmgspread","payload","uncletopia"],"game_id":440,"stv_port":27016,"stv_name":"Uncletopia | Dallas | 1 | All Maps | STV","players":[{"user_id":160,"name":"Dox","steam_id":76561198120368589,"connected_time":732000000000,"state":"active","ping":81},{"user_id":162,"name":"U„Éªx„ÉªU","steam_id":76561198309876224,"connected_time":489000000000,"state":"active","ping":43},{"user_id":154,"name":"schmuck","steam_id":76561198143789773,"connected_time":849000000000,"state":"active","ping":45},{"user_id":117,"name":"banana gaming","steam_id":76561198334907218,"connected_time":5402000000000,"state":"active","ping":58},{"user_id":171,"name":"ThyVibeGamer","steam_id":76561199047720183,"connected_time":88000000000,"state":"active","ping":140},{"user_id":167,"name":"rock raiders enjoyer","steam_id":76561198139718219,"connected_time":437000000000,"state":"active","ping":86},{"user_id":148,"name":"Mr. Whiter","steam_id":76561198427659275,"connected_time":2074000000000,"state":"active","ping":95},{"user_id":172,"name":"LordKirby","steam_id":76561198006938286,"connected_time":47000000000,"state":"active","ping":98},{"user_id":168,"name":"corn","steam_id":76561199489247622,"connected_time":383000000000,"state":"active","ping":57},{"user_id":106,"name":"owl","steam_id":76561198088403016,"connected_time":6740000000000,"state":"active","ping":174},{"user_id":147,"name":"C Papi","steam_id":76561198027779564,"connected_time":2075000000000,"state":"active","ping":60},{"user_id":121,"name":"Rob","steam_id":76561199187786660,"connected_time":4682000000000,"state":"active","ping":57},{"user_id":142,"name":"lego star wars on the psp","steam_id":76561198148014773,"connected_time":2565000000000,"state":"active","ping":100},{"user_id":149,"name":"awawa oyoyo awawa oyoyo","steam_id":76561198062263639,"connected_time":2068000000000,"state":"active","ping":54},{"user_id":135,"name":"Maurdakar","steam_id":76561197983420976,"connected_time":3489000000000,"state":"active","ping":99},{"user_id":150,"name":"Drapph","steam_id":76561199384213314,"connected_time":2031000000000,"state":"active","ping":84},{"user_id":166,"name":"Ginnunga","steam_id":76561198000320083,"connected_time":452000000000,"state":"active","ping":83},{"user_id":130,"name":"Lolxdloldx","steam_id":76561198136887125,"connected_time":3854000000000,"state":"active","ping":100},{"user_id":118,"name":"JoJo Jumpscare","steam_id":76561199010304135,"connected_time":5220000000000,"state":"active","ping":53},{"user_id":159,"name":"P.C. Baby","steam_id":76561198067011379,"connected_time":783000000000,"state":"active","ping":87},{"user_id":128,"name":"River Rat","steam_id":76561198116383976,"connected_time":4035000000000,"state":"active","ping":118},{"user_id":137,"name":"B.","steam_id":76561198040445907,"connected_time":3435000000000,"state":"active","ping":75},{"user_id":170,"name":"Darling","steam_id":76561198127525888,"connected_time":355000000000,"state":"active","ping":51},{"user_id":103,"name":"Kheprii","steam_id":76561198095899274,"connected_time":7073000000000,"state":"active","ping":96}]},{"server_id":108,"name":"Uncletopia | Dallas | 2 | All Maps","name_short":"dal-2","host":"dal-1.us.uncletopia.com","port":27025,"enabled":true,"region":"us-central","cc":"us","latitude":32.779167,"longitude":-96.80889,"reserved":0,"last_update":"0001-01-01T00:00:00Z","name_a2s":"Uncletopia | Dallas | 2 | All Maps","protocol":17,"map":"koth_suijin","folder":"tf","game":"Team Fortress","app_id":440,"player_count":24,"max_players":24,"Bots":0,"server_type":"Dedicated","server_os":"Linux","password":true,"vac":true,"version":"7961495","steam_id":85568392924469988,"keywords":["cp","nocrits","nodmgspread","uncletopia"],"game_id":440,"stv_port":27026,"stv_name":"Uncletopia | Dallas | 2 | All Maps | STV","players":[{"user_id":161,"name":"Mint","steam_id":76561198046799445,"connected_time":81000000000,"state":"active","ping":64},{"user_id":87,"name":"Shrimp Flavored Noodles","steam_id":76561198145209609,"connected_time":3251000000000,"state":"active","ping":51},{"user_id":160,"name":"Pasta","steam_id":76561199498088524,"connected_time":103000000000,"state":"active","ping":87},{"user_id":164,"name":"Bippums","steam_id":76561198366406729,"connected_time":47000000000,"state":"active","ping":86},{"user_id":79,"name":"Proud Swift City Resident","steam_id":76561198036283992,"connected_time":4487000000000,"state":"active","ping":85},{"user_id":151,"name":"Loogus","steam_id":76561198811561721,"connected_time":487000000000,"state":"active","ping":61},{"user_id":149,"name":"The Pencil Cunts","steam_id":76561198272606252,"connected_time":628000000000,"state":"active","ping":41},{"user_id":131,"name":"felony tomfoolery charges","steam_id":76561199068981957,"connected_time":1134000000000,"state":"active","ping":75},{"user_id":148,"name":"Whompert","steam_id":76561198042939624,"connected_time":677000000000,"state":"active","ping":99},{"user_id":86,"name":"LordOfTheNoobs","steam_id":76561197962697523,"connected_time":3273000000000,"state":"active","ping":72},{"user_id":162,"name":"Aviastur","steam_id":76561198066776250,"connected_time":63000000000,"state":"active","ping":78},{"user_id":96,"name":"Octomal800","steam_id":76561199453595616,"connected_time":3164000000000,"state":"active","ping":95},{"user_id":163,"name":"nonagon infinity","steam_id":76561198397662124,"connected_time":56000000000,"state":"active","ping":67},{"user_id":154,"name":"HumbDoe","steam_id":76561198065556553,"connected_time":342000000000,"state":"active","ping":87},{"user_id":145,"name":"Trans Bumblebee","steam_id":76561198119393205,"connected_time":752000000000,"state":"active","ping":54},{"user_id":112,"name":"37 septillion tapeworms","steam_id":76561198186128723,"connected_time":2612000000000,"state":"active","ping":48},{"user_id":140,"name":"smooth brain","steam_id":76561198049253541,"connected_time":897000000000,"state":"active","ping":72},{"user_id":141,"name":"bobbymcbobington","steam_id":76561199089411172,"connected_time":883000000000,"state":"active","ping":121},{"user_id":104,"name":"Siren","steam_id":76561198047395823,"connected_time":2824000000000,"state":"active","ping":81},{"user_id":123,"name":"Smug","steam_id":76561198448205229,"connected_time":1832000000000,"state":"active","ping":75},{"user_id":143,"name":"UwU","steam_id":76561198971629959,"connected_time":867000000000,"state":"active","ping":134},{"user_id":70,"name":"CHIEF","steam_id":76561198011209422,"connected_time":4878000000000,"state":"active","ping":45},{"user_id":158,"name":"Spinkterr4","steam_id":76561199465859174,"connected_time":244000000000,"state":"active","ping":119},{"user_id":83,"name":"muri","steam_id":76561198036167494,"connected_time":4059000000000,"state":"active","ping":50}]},{"server_id":404,"name":"Uncletopia | Dallas | 3 | All Maps","name_short":"dal-3","host":"dal-1.us.uncletopia.com","port":27035,"enabled":true,"region":"us-central","cc":"us","latitude":32.779167,"longitude":-96.80889,"reserved":0,"last_update":"0001-01-01T00:00:00Z","name_a2s":"Uncletopia | Dallas | 3 | All Maps","protocol":17,"map":"koth_badlands","folder":"tf","game":"Team Fortress","app_id":440,"player_count":0,"max_players":24,"Bots":0,"server_type":"Dedicated","server_os":"Linux","password":true,"vac":true,"version":"7961495","steam_id":85568392924515219,"keywords":["cp","nocrits","nodmgspread","uncletopia"],"game_id":440,"stv_port":27036,"stv_name":"Uncletopia | Dallas | 3 | All Maps | STV","players":null},{"server_id":405,"name":"Uncletopia | Dallas | 4 | Community","name_short":"dal-4","host":"dal-1.us.uncletopia.com","port":27045,"enabled":true,"region":"us-central","cc":"us","latitude":32.779167,"longitude":-96.80889,"reserved":0,"last_update":"0001-01-01T00:00:00Z","name_a2s":"Uncletopia | Dallas | 4 | Community","protocol":17,"map":"workshop/rd_asteroid_redux_b1.ugc2154902912","folder":"tf","game":"Team Fortress","app_id":440,"player_count":0,"max_players":24,"Bots":0,"server_type":"Dedicated","server_os":"Linux","password":true,"vac":true,"version":"7961495","steam_id":85568392924515220,"keywords":["beta","nocrits","nodmgspread","rd","uncletopia"],"game_id":440,"stv_port":27046,"stv_name":"Uncletopia | Dallas | 4 | Community | STV","players":null},{"server_id":5,"name":"Uncletopia | Frankfurt | 1 | All Maps","name_short":"frk-1","host":"frk-1.de.uncletopia.com","port":27015,"enabled":true,"region":"eu","cc":"de","latitude":50.110924,"longitude":8.682127,"reserved":0,"last_update":"0001-01-01T00:00:00Z","name_a2s":"Uncletopia | Frankfurt | 1 | All Maps","protocol":17,"map":"plr_hightower","folder":"tf","game":"Team Fortress","app_id":440,"player_count":24,"max_players":24,"Bots":0,"server_type":"Dedicated","server_os":"Linux","password":true,"vac":true,"version":"7961495","steam_id":85568392924469989,"keywords":["nocrits","nodmgspread","payload","uncletopia"],"game_id":440,"stv_port":27016,"stv_name":"Uncletopia | Frankfurt | 1 | All Maps | STV","players":[{"user_id":345,"name":"c1v","steam_id":76561199085624224,"connected_time":2272000000000,"state":"active","ping":69},{"user_id":366,"name":"–°–ê–ù–Ø –í–û–î–Ü–õ–ê","steam_id":76561198343380238,"connected_time":1024000000000,"state":"active","ping":88},{"user_id":363,"name":"KaiserinoPeperinio","steam_id":76561198017683850,"connected_time":1103000000000,"state":"active","ping":70},{"user_id":382,"name":"Taconice","steam_id":76561198057812100,"connected_time":320000000000,"state":"active","ping":74},{"user_id":375,"name":"demoman jumpscare","steam_id":76561198196506951,"connected_time":478000000000,"state":"active","ping":57},{"user_id":351,"name":"Schogard","steam_id":76561198847318421,"connected_time":2229000000000,"state":"active","ping":125},{"user_id":383,"name":"MaypulSoyrup","steam_id":76561199213966821,"connected_time":220000000000,"state":"active","ping":89},{"user_id":376,"name":"Zaya","steam_id":76561198299372646,"connected_time":467000000000,"state":"active","ping":69},{"user_id":346,"name":"Erection Man","steam_id":76561198021714542,"connected_time":2258000000000,"state":"active","ping":60},{"user_id":361,"name":"Finem Belli","steam_id":76561198227177976,"connected_time":1176000000000,"state":"active","ping":48},{"user_id":377,"name":"Jamal","steam_id":76561198405426393,"connected_time":466000000000,"state":"active","ping":65},{"user_id":341,"name":"Daruun","steam_id":76561198019068781,"connected_time":2583000000000,"state":"active","ping":73},{"user_id":291,"name":"Alpi","steam_id":76561198106304435,"connected_time":5456000000000,"state":"active","ping":87},{"user_id":348,"name":"Weegad Wobus","steam_id":76561199429562693,"connected_time":2247000000000,"state":"active","ping":71},{"user_id":349,"name":"Kenny_killer_69","steam_id":76561199465207725,"connected_time":2239000000000,"state":"active","ping":81},{"user_id":355,"name":"hwg","steam_id":76561198090848620,"connected_time":2029000000000,"state":"active","ping":87},{"user_id":340,"name":"Dot","steam_id":76561198047299145,"connected_time":3072000000000,"state":"active","ping":79},{"user_id":360,"name":"Real (Real)","steam_id":76561198323425034,"connected_time":1330000000000,"state":"active","ping":85},{"user_id":381,"name":"Rocket¬≤","steam_id":76561198305856721,"connected_time":435000000000,"state":"active","ping":85},{"user_id":364,"name":"caramel‚ù§","steam_id":76561198819353867,"connected_time":1089000000000,"state":"active","ping":45},{"user_id":344,"name":"Tr√∏lli","steam_id":76561198069281758,"connected_time":2527000000000,"state":"active","ping":75},{"user_id":338,"name":"blu132","steam_id":76561198052999185,"connected_time":3257000000000,"state":"active","ping":59},{"user_id":370,"name":"Piox","steam_id":76561198125689157,"connected_time":717000000000,"state":"active","ping":63},{"user_id":380,"name":"ATC","steam_id":76561198024402573,"connected_time":441000000000,"state":"active","ping":113}]},{"server_id":110,"name":"Uncletopia | Frankfurt | 2 | All Maps","name_short":"frk-2","host":"frk-1.de.uncletopia.com","port":27025,"enabled":true,"region":"eu","cc":"de","latitude":50.110924,"longitude":8.682127,"reserved":0,"last_update":"0001-01-01T00:00:00Z","name_a2s":"Uncletopia | Frankfurt | 2 | All Maps","protocol":17,"map":"pl_swiftwater_final1","folder":"tf","game":"Team Fortress","app_id":440,"player_count":24,"max_players":24,"Bots":0,"server_type":"Dedicated","server_os":"Linux","password":true,"vac":true,"version":"7961495","steam_id":85568392924469990,"keywords":["nocrits","nodmgspread","payload","uncletopia"],"game_id":440,"stv_port":27026,"stv_name":"Uncletopia | Frankfurt | 2 | All Maps | STV","players":[{"user_id":613,"name":"LordTrap.exe","steam_id":76561198318089716,"connected_time":2044000000000,"state":"active","ping":72},{"user_id":588,"name":"notna :)","steam_id":76561198059464571,"connected_time":3416000000000,"state":"active","ping":59},{"user_id":620,"name":"Ixsus\u003c3","steam_id":76561198094756869,"connected_time":1743000000000,"state":"active","ping":58},{"user_id":636,"name":"Doxy","steam_id":76561198416143397,"connected_time":110000000000,"state":"active","ping":62},{"user_id":552,"name":"Serradoss","steam_id":76561198029367233,"connected_time":6236000000000,"state":"active","ping":57},{"user_id":599,"name":"Mong","steam_id":76561198891218910,"connected_time":2133000000000,"state":"active","ping":77},{"user_id":606,"name":"–Ø—Ä–æ–ø–æ–ª–∫ –Ø—Å–Ω—ã–µ –û—á\ufffd","steam_id":76561198138958127,"connected_time":2094000000000,"state":"active","ping":85},{"user_id":633,"name":"Dr Roach","steam_id":76561199242750887,"connected_time":892000000000,"state":"active","ping":176},{"user_id":616,"name":"NICKNAME","steam_id":76561199401737371,"connected_time":1886000000000,"state":"active","ping":69},{"user_id":593,"name":"1000-7 –ª–∏—Ç—Ä–æ–≤ –ø–∏–≤–∞","steam_id":76561198180869815,"connected_time":2578000000000,"state":"active","ping":115},{"user_id":610,"name":"Son Goku from Dragon Ball","steam_id":76561198892167960,"connected_time":2073000000000,"state":"active","ping":60},{"user_id":585,"name":"Kaziocalvice","steam_id":76561198146425583,"connected_time":3953000000000,"state":"active","ping":77},{"user_id":597,"name":"_Shkoot","steam_id":76561198318170398,"connected_time":2169000000000,"state":"active","ping":46},{"user_id":549,"name":"sokige","steam_id":76561198167112371,"connected_time":6661000000000,"state":"active","ping":88},{"user_id":634,"name":"Mike Hawk","steam_id":76561198839944310,"connected_time":425000000000,"state":"active","ping":103},{"user_id":553,"name":"Penis Contortionist","steam_id":76561198073663784,"connected_time":6059000000000,"state":"active","ping":48},{"user_id":570,"name":"Vilmukas","steam_id":76561199106648396,"connected_time":4692000000000,"state":"active","ping":58},{"user_id":617,"name":"Medic","steam_id":76561198027856977,"connected_time":1841000000000,"state":"active","ping":102},{"user_id":628,"name":"Sybils","steam_id":76561198057898401,"connected_time":1108000000000,"state":"active","ping":120},{"user_id":632,"name":"TraishiiLEL","steam_id":76561198394535445,"connected_time":928000000000,"state":"active","ping":53},{"user_id":520,"name":"Hamedius","steam_id":76561199152512027,"connected_time":8506000000000,"state":"active","ping":58},{"user_id":635,"name":"Klifton","steam_id":76561198803743443,"connected_time":194000000000,"state":"active","ping":75},{"user_id":612,"name":"–î–∞–Ω—ã–ª–æ –ø–æ–¥—Å–æ–±–∏","steam_id":76561198090586031,"connected_time":2066000000000,"state":"active","ping":74},{"user_id":623,"name":"üòà COCKDESTROYER üòà","steam_id":76561198042846999,"connected_time":1490000000000,"state":"active","ping":74}]},{"server_id":308,"name":"Uncletopia | Frankfurt | 3 | All Maps","name_short":"frk-3","host":"frk-1.de.uncletopia.com","port":27035,"enabled":true,"region":"eu","cc":"de","latitude":50.110924,"longitude":8.682127,"reserved":0,"last_update":"0001-01-01T00:00:00Z","name_a2s":"Uncletopia | Frankfurt | 3 | All Maps","protocol":17,"map":"pl_snowycoast","folder":"tf","game":"Team Fortress","app_id":440,"player_count":24,"max_players":24,"Bots":0,"server_type":"Dedicated","server_os":"Linux","password":true,"vac":true,"version":"7961495","steam_id":85568392924504274,"keywords":["nocrits","nodmgspread","payload","uncletopia"],"game_id":440,"stv_port":27036,"stv_name":"Uncletopia | Frankfurt | 3 | All Maps | STV","players":[{"user_id":474,"name":"realguy","steam_id":76561198821743257,"connected_time":157000000000,"state":"active","ping":78},{"user_id":473,"name":"Serg","steam_id":76561198218959001,"connected_time":299000000000,"state":"active","ping":66},{"user_id":475,"name":"pardner","steam_id":76561198451471161,"connected_time":144000000000,"state":"active","ping":72},{"user_id":458,"name":"The Emperor","steam_id":76561198118165718,"connected_time":1385000000000,"state":"active","ping":73},{"user_id":431,"name":"adijuice","steam_id":76561198187079875,"connected_time":2529000000000,"state":"active","ping":98},{"user_id":471,"name":"Visphiric","steam_id":76561198071938027,"connected_time":526000000000,"state":"active","ping":55},{"user_id":423,"name":"hito","steam_id":76561199077022985,"connected_time":3477000000000,"state":"active","ping":60},{"user_id":345,"name":"Wardruna96","steam_id":76561199057083828,"connected_time":7106000000000,"state":"active","ping":75},{"user_id":433,"name":"Nitro","steam_id":76561198093891507,"connected_time":2477000000000,"state":"active","ping":87},{"user_id":357,"name":"sticks","steam_id":76561198127099299,"connected_time":6734000000000,"state":"active","ping":48},{"user_id":405,"name":"Conan the Librarian","steam_id":76561198007224654,"connected_time":4631000000000,"state":"active","ping":63},{"user_id":440,"name":"„ÉÜ„Ç§„É´„Çπ","steam_id":76561198022403271,"connected_time":2206000000000,"state":"active","ping":49},{"user_id":399,"name":"H341","steam_id":76561198046754534,"connected_time":4853000000000,"state":"active","ping":79},{"user_id":419,"name":"_Alonso","steam_id":76561198041893314,"connected_time":3765000000000,"state":"active","ping":48},{"user_id":465,"name":"Petra","steam_id":76561198388355121,"connected_time":1138000000000,"state":"active","ping":88},{"user_id":468,"name":"pandeux","steam_id":76561198343527617,"connected_time":801000000000,"state":"active","ping":59},{"user_id":472,"name":"Fancy","steam_id":76561198350658462,"connected_time":459000000000,"state":"active","ping":74},{"user_id":436,"name":"tallen","steam_id":76561198061708595,"connected_time":2441000000000,"state":"active","ping":82},{"user_id":469,"name":"After8","steam_id":76561198090750865,"connected_time":731000000000,"state":"active","ping":63},{"user_id":432,"name":"gamma","steam_id":76561198204290247,"connected_time":2494000000000,"state":"active","ping":176},{"user_id":476,"name":"LonelyScot","steam_id":76561198190830395,"connected_time":139000000000,"state":"active","ping":59},{"user_id":477,"name":"alien","steam_id":76561197968892194,"connected_time":34000000000,"state":"active","ping":50},{"user_id":464,"name":"Palle","steam_id":76561198090101870,"connected_time":1325000000000,"state":"active","ping":66},{"user_id":351,"name":"DrExplosive","steam_id":76561198063678579,"connected_time":6973000000000,"state":"active","ping":61}]},{"server_id":309,"name":"Uncletopia | Frankfurt | 4 | All Maps","name_short":"frk-4","host":"frk-1.de.uncletopia.com","port":27045,"enabled":true,"region":"eu","cc":"de","latitude":50.110924,"longitude":8.682127,"reserved":0,"last_update":"0001-01-01T00:00:00Z","name_a2s":"Uncletopia | Frankfurt | 4 | All Maps","protocol":17,"map":"pl_barnblitz","folder":"tf","game":"Team Fortress","app_id":440,"player_count":24,"max_players":24,"Bots":0,"server_type":"Dedicated","server_os":"Linux","password":true,"vac":true,"version":"7961495","steam_id":85568392924504275,"keywords":["nocrits","nodmgspread","payload","uncletopia"],"game_id":440,"stv_port":27046,"stv_name":"Uncletopia | Frankfurt | 4 | All Maps | STV","players":[{"user_id":369,"name":"finjar","steam_id":76561198350473059,"connected_time":1932000000000,"state":"active","ping":88},{"user_id":376,"name":"Cursehat","steam_id":76561198071867237,"connected_time":593000000000,"state":"active","ping":95},{"user_id":382,"name":"robbie","steam_id":76561198798195287,"connected_time":454000000000,"state":"active","ping":63},{"user_id":366,"name":"Saucisse","steam_id":76561198119955969,"connected_time":1998000000000,"state":"active","ping":59},{"user_id":374,"name":"Mido","steam_id":76561198391465107,"connected_time":628000000000,"state":"active","ping":90},{"user_id":294,"name":"Syll","steam_id":76561198040736202,"connected_time":7052000000000,"state":"active","ping":88},{"user_id":386,"name":"in space the raccoons liquify","steam_id":76561198031498341,"connected_time":346000000000,"state":"active","ping":74},{"user_id":377,"name":"Giga–°had Pyro","steam_id":76561198140742485,"connected_time":585000000000,"state":"active","ping":104},{"user_id":341,"name":"travis","steam_id":76561198138119811,"connected_time":3960000000000,"state":"active","ping":58},{"user_id":378,"name":"Wolf","steam_id":76561198077053437,"connected_time":585000000000,"state":"active","ping":90},{"user_id":379,"name":"Bob D","steam_id":76561198026375630,"connected_time":573000000000,"state":"active","ping":61},{"user_id":360,"name":"fawn","steam_id":76561198440195402,"connected_time":2490000000000,"state":"active","ping":60},{"user_id":356,"name":"WEEP","steam_id":76561199499933159,"connected_time":2635000000000,"state":"active","ping":61},{"user_id":354,"name":"finbar","steam_id":76561198056812396,"connected_time":2830000000000,"state":"active","ping":86},{"user_id":346,"name":"Average Engineer Enjoyer","steam_id":76561198298618127,"connected_time":3628000000000,"state":"active","ping":47},{"user_id":192,"name":"galaxy","steam_id":76561198164819022,"connected_time":13558000000000,"state":"active","ping":66},{"user_id":372,"name":"Men hole","steam_id":76561198856259146,"connected_time":1785000000000,"state":"active","ping":119},{"user_id":394,"name":"gfjhsdf","steam_id":76561198136736426,"connected_time":99000000000,"state":"active","ping":53},{"user_id":381,"name":"12345_0098","steam_id":76561199108021499,"connected_time":566000000000,"state":"active","ping":118},{"user_id":351,"name":"Armix","steam_id":76561198079373642,"connected_time":3273000000000,"state":"active","ping":73},{"user_id":358,"name":"–õ—à—Ç—à—Ñ—É–º –ê—â—å—Ñ","steam_id":76561198816896109,"connected_time":2570000000000,"state":"active","ping":110},{"user_id":387,"name":"Tri-","steam_id":76561198133524794,"connected_time":343000000000,"state":"active","ping":61},{"user_id":292,"name":"i hack smart refrigerators","steam_id":76561199265289808,"connected_time":7208000000000,"state":"active","ping":115},{"user_id":353,"name":"lvl. 50 honkler","steam_id":76561198061688660,"connected_time":3251000000000,"state":"active","ping":107}]},{"server_id":310,"name":"Uncletopia | Frankfurt | 5 | All Maps","name_short":"frk-5","host":"frk-1.de.uncletopia.com","port":27055,"enabled":true,"region":"eu","cc":"de","latitude":50.110924,"longitude":8.682127,"reserved":0,"last_update":"0001-01-01T00:00:00Z","name_a2s":"Uncletopia | Frankfurt | 5 | All Maps","protocol":17,"map":"pl_snowycoast","folder":"tf","game":"Team Fortress","app_id":440,"player_count":24,"max_players":24,"Bots":0,"server_type":"Dedicated","server_os":"Linux","password":true,"vac":true,"version":"7961495","steam_id":85568392924504277,"keywords":["nocrits","nodmgspread","payload","uncletopia"],"game_id":440,"stv_port":27056,"stv_name":"Uncletopia | Frankfurt | 5 | All Maps | STV","players":[{"user_id":579,"name":"Isak","steam_id":76561198085959762,"connected_time":1888000000000,"state":"active","ping":75},{"user_id":570,"name":"guru{Hari}","steam_id":76561197997001681,"connected_time":2327000000000,"state":"active","ping":66},{"user_id":580,"name":"Skleton","steam_id":76561198238097290,"connected_time":1866000000000,"state":"active","ping":90},{"user_id":547,"name":"Tony","steam_id":76561198128993838,"connected_time":3128000000000,"state":"active","ping":66},{"user_id":536,"name":"The Big J","steam_id":76561198158202901,"connected_time":3602000000000,"state":"active","ping":47},{"user_id":590,"name":"Rock..","steam_id":76561198004641963,"connected_time":970000000000,"state":"active","ping":84},{"user_id":562,"name":"magnos62564","steam_id":76561198356968225,"connected_time":2722000000000,"state":"active","ping":74},{"user_id":601,"name":"JayKey","steam_id":76561198008847925,"connected_time":97000000000,"state":"active","ping":54},{"user_id":593,"name":"Kypari!","steam_id":76561198104430342,"connected_time":796000000000,"state":"active","ping":74},{"user_id":589,"name":"Kacperos12","steam_id":76561198044168268,"connected_time":1023000000000,"state":"active","ping":98},{"user_id":597,"name":"Zepheniah Mann","steam_id":76561198959835348,"connected_time":248000000000,"state":"active","ping":62},{"user_id":587,"name":"Tusho","steam_id":76561198115447383,"connected_time":1301000000000,"state":"active","ping":69},{"user_id":592,"name":"tealoverr.190","steam_id":76561199028497703,"connected_time":915000000000,"state":"active","ping":104},{"user_id":598,"name":"Arsonist","steam_id":76561199087953833,"connected_time":200000000000,"state":"active","ping":104},{"user_id":485,"name":"kino_tea","steam_id":76561199483924409,"connected_time":8049000000000,"state":"active","ping":154},{"user_id":599,"name":"ƒ∞slam'ƒ±n Zinciri - Sylas","steam_id":76561198419812739,"connected_time":194000000000,"state":"active","ping":92},{"user_id":600,"name":"TrueChaos","steam_id":76561198280651661,"connected_time":148000000000,"state":"active","ping":144},{"user_id":584,"name":"flr","steam_id":76561198249327786,"connected_time":1577000000000,"state":"active","ping":59},{"user_id":577,"name":"FUKTARD2005","steam_id":76561198839121591,"connected_time":2135000000000,"state":"active","ping":70},{"user_id":541,"name":"mex :3","steam_id":76561198091083324,"connected_time":3488000000000,"state":"active","ping":65},{"user_id":551,"name":"Biggest Homie","steam_id":76561198373107677,"connected_time":2986000000000,"state":"active","ping":82},{"user_id":578,"name":"Average meme enjoyer","steam_id":76561199087566663,"connected_time":2048000000000,"state":"active","ping":80},{"user_id":542,"name":"Shine","steam_id":76561198136297981,"connected_time":3486000000000,"state":"active","ping":66},{"user_id":492,"name":"Crunchips","steam_id":76561198004336818,"connected_time":7624000000000,"state":"active","ping":94}]},{"server_id":311,"name":"Uncletopia | Frankfurt | 6 | All Maps","name_short":"frk-6","host":"frk-1.de.uncletopia.com","port":27065,"enabled":true,"region":"eu","cc":"de","latitude":50.110924,"longitude":8.682127,"reserved":0,"last_update":"0001-01-01T00:00:00Z","name_a2s":"Uncletopia | Frankfurt | 6 | All Maps","protocol":17,"map":"cp_process_final","folder":"tf","game":"Team Fortress","app_id":440,"player_count":24,"max_players":24,"Bots":0,"server_type":"Dedicated","server_os":"Linux","password":true,"vac":true,"version":"7961495","steam_id":85568392924504278,"keywords":["cp","nocrits","nodmgspread","uncletopia"],"game_id":440,"stv_port":27066,"stv_name":"Uncletopia | Frankfurt | 6 | All Maps | STV","players":[{"user_id":531,"name":"Bill_nye_epic","steam_id":76561199216249214,"connected_time":711000000000,"state":"active","ping":133},{"user_id":526,"name":"Vyrac","steam_id":76561198135931968,"connected_time":1066000000000,"state":"active","ping":68},{"user_id":538,"name":"Xtis","steam_id":76561198043837480,"connected_time":275000000000,"state":"active","ping":74},{"user_id":484,"name":"puhaur","steam_id":76561198404557509,"connected_time":5434000000000,"state":"active","ping":50},{"user_id":527,"name":"xavier","steam_id":76561198076494034,"connected_time":1063000000000,"state":"active","ping":53},{"user_id":523,"name":"Sammyninja4329","steam_id":76561199194619954,"connected_time":1110000000000,"state":"active","ping":68},{"user_id":532,"name":"Nittugai","steam_id":76561198067366462,"connected_time":663000000000,"state":"active","ping":60},{"user_id":535,"name":"pretty dick peso","steam_id":76561198798177799,"connected_time":556000000000,"state":"active","ping":68},{"user_id":519,"name":"TommyTumblefoot","steam_id":76561198002113108,"connected_time":2095000000000,"state":"active","ping":74},{"user_id":500,"name":"Marqeye","steam_id":76561198890330517,"connected_time":4201000000000,"state":"active","ping":87},{"user_id":375,"name":"XPullaHiiri","steam_id":76561198031652375,"connected_time":13799000000000,"state":"active","ping":84},{"user_id":529,"name":"Fenced","steam_id":76561197966629582,"connected_time":1028000000000,"state":"active","ping":53},{"user_id":541,"name":"Micha≈Ç","steam_id":76561198320346362,"connected_time":85000000000,"state":"active","ping":60},{"user_id":433,"name":"eva","steam_id":76561198054474684,"connected_time":9217000000000,"state":"active","ping":73},{"user_id":496,"name":"TumeOnFire","steam_id":76561198200046346,"connected_time":4516000000000,"state":"active","ping":89},{"user_id":540,"name":"lulu","steam_id":76561199147764133,"connected_time":177000000000,"state":"active","ping":78},{"user_id":536,"name":"Moohsem","steam_id":76561198172198154,"connected_time":488000000000,"state":"active","ping":116},{"user_id":511,"name":"T K","steam_id":76561198134256917,"connected_time":3067000000000,"state":"active","ping":70},{"user_id":510,"name":"Laki","steam_id":76561198126078953,"connected_time":3086000000000,"state":"active","ping":147},{"user_id":515,"name":"PanPatrik","steam_id":76561198293331527,"connected_time":2406000000000,"state":"active","ping":54},{"user_id":479,"name":"hananamanna","steam_id":76561198006570285,"connected_time":5890000000000,"state":"active","ping":111},{"user_id":525,"name":"Gamlader","steam_id":76561198306177608,"connected_time":1081000000000,"state":"active","ping":76},{"user_id":530,"name":"releng0","steam_id":76561198120708390,"connected_time":810000000000,"state":"active","ping":83},{"user_id":537,"name":"rua1dhrigh","steam_id":76561198103740209,"connected_time":447000000000,"state":"active","ping":60}]},{"server_id":23,"name":"Uncletopia | Frankfurt | 7 | Stopwatch","name_short":"frk-7","host":"frk-1.de.uncletopia.com","port":27075,"enabled":true,"region":"eu","cc":"de","latitude":50.110924,"longitude":8.682127,"reserved":0,"last_update":"0001-01-01T00:00:00Z","name_a2s":"Uncletopia | Frankfurt | 7 | Stopwatch","protocol":17,"map":"workshop/koth_ramjam_rc1.ugc459778887","folder":"tf","game":"Team Fortress","app_id":440,"player_count":0,"max_players":24,"Bots":0,"server_type":"Dedicated","server_os":"Linux","password":true,"vac":true,"version":"7961495","steam_id":85568392924742827,"keywords":["cp","nocrits","nodmgspread","uncletopia"],"game_id":440,"stv_port":27076,"stv_name":"Uncletopia | Frankfurt | 7 | Stopwatch | STV","players":null},{"server_id":24,"name":"Uncletopia | Frankfurt | 8 | Community","name_short":"frk-8","host":"frk-1.de.uncletopia.com","port":27085,"enabled":true,"region":"eu","cc":"de","latitude":50.110924,"longitude":8.682127,"reserved":0,"last_update":"0001-01-01T00:00:00Z","name_a2s":"Uncletopia | Frankfurt | 8 | Community","protocol":17,"map":"workshop/koth_ashville_final.ugc2130459942","folder":"tf","game":"Team Fortress","app_id":440,"player_count":0,"max_players":24,"Bots":0,"server_type":"Dedicated","server_os":"Linux","password":true,"vac":true,"version":"7961495","steam_id":85568392924742828,"keywords":["cp","nocrits","nodmgspread","uncletopia"],"game_id":440,"stv_port":27086,"stv_name":"Uncletopia | Frankfurt | 8 | Community | STV","players":null},{"server_id":202,"name":"Uncletopia | Hong Kong | 1 | All Maps","name_short":"hgk-1","host":"hgk-1.hk.uncletopia.com","port":27015,"enabled":true,"region":"asia","cc":"hk","latitude":22.302711,"longitude":114.177216,"reserved":0,"last_update":"0001-01-01T00:00:00Z","name_a2s":"Uncletopia | Hong Kong | 1 | All Maps","protocol":17,"map":"koth_highpass","folder":"tf","game":"Team Fortress","app_id":440,"player_count":0,"max_players":24,"Bots":0,"server_type":"Dedicated","server_os":"Linux","password":true,"vac":true,"version":"7961495","steam_id":85568392924494504,"keywords":["cp","nocrits","nodmgspread","uncletopia"],"game_id":440,"stv_port":27016,"stv_name":"Uncletopia | Hong Kong | 1 | All Maps | STV","players":null},{"server_id":1,"name":"Uncletopia | Los Angeles | 1 | All Maps","name_short":"lax-1","host":"lax-1.us.uncletopia.com","port":27015,"enabled":true,"region":"us-west","cc":"us","latitude":33.94279,"longitude":-118.41004,"reserved":0,"last_update":"0001-01-01T00:00:00Z","name_a2s":"Uncletopia | Los Angeles | 1 | All Maps","protocol":17,"map":"pl_upward","folder":"tf","game":"Team Fortress","app_id":440,"player_count":24,"max_players":24,"Bots":0,"server_type":"Dedicated","server_os":"Linux","password":true,"vac":true,"version":"7961495","steam_id":85568392924469991,"keywords":["nocrits","nodmgspread","payload","uncletopia"],"game_id":440,"stv_port":27016,"stv_name":"Uncletopia | Los Angeles | 1 | All Maps | STV","players":[{"user_id":124,"name":"Vroooooooooooooooom","steam_id":76561198139913628,"connected_time":924000000000,"state":"active","ping":119},{"user_id":100,"name":"noceof","steam_id":76561198043656816,"connected_time":3349000000000,"state":"active","ping":163},{"user_id":114,"name":"Not pawky","steam_id":76561198148738849,"connected_time":1610000000000,"state":"active","ping":59},{"user_id":125,"name":"the keebler","steam_id":76561199486326945,"connected_time":872000000000,"state":"active","ping":99},{"user_id":98,"name":"roach","steam_id":76561198354811369,"connected_time":3765000000000,"state":"active","ping":50},{"user_id":119,"name":"1HandsomeLAD","steam_id":76561198807047496,"connected_time":1327000000000,"state":"active","ping":124},{"user_id":19,"name":"Overmeme","steam_id":76561199455124144,"connected_time":8218000000000,"state":"active","ping":107},{"user_id":81,"name":"Igrium","steam_id":76561198119549811,"connected_time":4925000000000,"state":"active","ping":67},{"user_id":74,"name":"Jazpy","steam_id":76561198036872545,"connected_time":5221000000000,"state":"active","ping":80},{"user_id":58,"name":"LilBruh","steam_id":76561198444876052,"connected_time":6422000000000,"state":"active","ping":158},{"user_id":133,"name":"judesro","steam_id":76561198352244888,"connected_time":466000000000,"state":"active","ping":137},{"user_id":122,"name":"skgmanuel","steam_id":76561198947005948,"connected_time":975000000000,"state":"active","ping":156},{"user_id":123,"name":"a real fish","steam_id":76561198845824198,"connected_time":962000000000,"state":"active","ping":116},{"user_id":134,"name":"Misterroo","steam_id":76561199251049017,"connected_time":434000000000,"state":"active","ping":78},{"user_id":132,"name":"Touka Katanouka","steam_id":76561198171521806,"connected_time":503000000000,"state":"active","ping":89},{"user_id":128,"name":"Malac","steam_id":76561198004482629,"connected_time":804000000000,"state":"active","ping":146},{"user_id":115,"name":"R0KKSTAR","steam_id":76561198206177593,"connected_time":1598000000000,"state":"active","ping":45},{"user_id":93,"name":"tomiz","steam_id":76561198827013832,"connected_time":3949000000000,"state":"active","ping":55},{"user_id":135,"name":"xbox record that","steam_id":76561198150117455,"connected_time":101000000000,"state":"active","ping":51},{"user_id":109,"name":"lil uzi squirt","steam_id":76561198045926594,"connected_time":2502000000000,"state":"active","ping":66},{"user_id":121,"name":"mentos14","steam_id":76561198097993629,"connected_time":1262000000000,"state":"active","ping":58},{"user_id":91,"name":"Nibotshooter","steam_id":76561199284825579,"connected_time":4035000000000,"state":"active","ping":77},{"user_id":130,"name":"N00SE","steam_id":76561198211473307,"connected_time":775000000000,"state":"active","ping":118},{"user_id":51,"name":"Nooblord","steam_id":76561199105123730,"connected_time":6783000000000,"state":"active","ping":89}]},{"server_id":112,"name":"Uncletopia | Los Angeles | 2 | All Maps","name_short":"lax-2","host":"lax-1.us.uncletopia.com","port":27025,"enabled":true,"region":"us-west","cc":"us","latitude":33.94279,"longitude":-118.41004,"reserved":0,"last_update":"0001-01-01T00:00:00Z","name_a2s":"Uncletopia | Los Angeles | 2 | All Maps","protocol":17,"map":"koth_cascade","folder":"tf","game":"Team Fortress","app_id":440,"player_count":0,"max_players":24,"Bots":0,"server_type":"Dedicated","server_os":"Linux","password":true,"vac":true,"version":"7961495","steam_id":85568392924469992,"keywords":["cp","nocrits","nodmgspread","uncletopia"],"game_id":440,"stv_port":27026,"stv_name":"Uncletopia | Los Angeles | 2 | All Maps | STV","players":null},{"server_id":324,"name":"Uncletopia | Los Angeles | 3 | All Maps","name_short":"lax-3","host":"lax-1.us.uncletopia.com","port":27035,"enabled":true,"region":"us-west","cc":"us","latitude":33.94279,"longitude":-118.41004,"reserved":0,"last_update":"0001-01-01T00:00:00Z","name_a2s":"Uncletopia | Los Angeles | 3 | All Maps","protocol":17,"map":"pl_frontier_final","folder":"tf","game":"Team Fortress","app_id":440,"player_count":0,"max_players":24,"Bots":0,"server_type":"Dedicated","server_os":"Linux","password":true,"vac":true,"version":"7961495","steam_id":85568392924510198,"keywords":["nocrits","nodmgspread","payload","uncletopia"],"game_id":440,"stv_port":27036,"stv_name":"Uncletopia | Los Angeles | 3 | All Maps | STV","players":null},{"server_id":25,"name":"Uncletopia | Los Angeles | 4 | Stopwatch","name_short":"lax-4","host":"lax-1.us.uncletopia.com","port":27045,"enabled":true,"region":"us-west","cc":"us","latitude":33.94279,"longitude":-118.41004,"reserved":0,"last_update":"0001-01-01T00:00:00Z","name_a2s":"Uncletopia | Los Angeles | 4 | Stopwatch","protocol":17,"map":"pl_barnblitz","folder":"tf","game":"Team Fortress","app_id":440,"player_count":0,"max_players":24,"Bots":0,"server_type":"Dedicated","server_os":"Linux","password":true,"vac":true,"version":"7961495","steam_id":85568392924510199,"keywords":["nocrits","nodmgspread","payload","uncletopia"],"game_id":440,"stv_port":27046,"stv_name":"Uncletopia | Los Angeles | 4 | Stopwatch | STV","players":null},{"server_id":11,"name":"Uncletopia | London | 1 | All Maps","name_short":"lon-1","host":"lon-1.uk.uncletopia.com","port":27015,"enabled":true,"region":"eu","cc":"gb","latitude":51.509865,"longitude":-0.118092,"reserved":0,"last_update":"0001-01-01T00:00:00Z","name_a2s":"Uncletopia | London | 1 | All Maps","protocol":17,"map":"pl_pier","folder":"tf","game":"Team Fortress","app_id":440,"player_count":24,"max_players":24,"Bots":0,"server_type":"Dedicated","server_os":"Linux","password":true,"vac":true,"version":"7961495","steam_id":85568392924367362,"keywords":["nocrits","nodmgspread","payload","uncletopia"],"game_id":440,"stv_port":27016,"stv_name":"Uncletopia | London | 1 | All Maps | STV","players":[{"user_id":331,"name":"shooer!","steam_id":76561198110531281,"connected_time":7578000000000,"state":"active","ping":71},{"user_id":398,"name":"Sir Cauterize","steam_id":76561198047079422,"connected_time":3827000000000,"state":"active","ping":51},{"user_id":420,"name":"Voltaic","steam_id":76561198024306879,"connected_time":1981000000000,"state":"active","ping":104},{"user_id":418,"name":"Purple Soup :D","steam_id":76561198985100366,"connected_time":1996000000000,"state":"active","ping":88},{"user_id":426,"name":"teddy","steam_id":76561198007436837,"connected_time":751000000000,"state":"active","ping":44},{"user_id":425,"name":"ein","steam_id":76561198152162834,"connected_time":894000000000,"state":"active","ping":100},{"user_id":428,"name":"Rx07","steam_id":76561199013720618,"connected_time":180000000000,"state":"active","ping":78},{"user_id":416,"name":"trite","steam_id":76561197983765323,"connected_time":2031000000000,"state":"active","ping":49},{"user_id":413,"name":"NitPig","steam_id":76561198212991935,"connected_time":2871000000000,"state":"active","ping":93},{"user_id":412,"name":"Aaron","steam_id":76561197990046953,"connected_time":2954000000000,"state":"active","ping":59},{"user_id":429,"name":"Woman (Real)","steam_id":76561199151823932,"connected_time":176000000000,"state":"active","ping":87},{"user_id":427,"name":"dec","steam_id":76561198009660168,"connected_time":377000000000,"state":"active","ping":47},{"user_id":424,"name":"AWildTamim","steam_id":76561198048060652,"connected_time":1013000000000,"state":"active","ping":43},{"user_id":430,"name":"AuwNina","steam_id":76561198128231464,"connected_time":175000000000,"state":"active","ping":65},{"user_id":397,"name":"noobifulbi","steam_id":76561199020066503,"connected_time":3860000000000,"state":"active","ping":84},{"user_id":414,"name":"Filip","steam_id":76561198852826447,"connected_time":2675000000000,"state":"active","ping":75},{"user_id":406,"name":"Spelunky ShopKeeper","steam_id":76561198372416737,"connected_time":3582000000000,"state":"active","ping":72},{"user_id":422,"name":"SirToast","steam_id":76561199229729107,"connected_time":1961000000000,"state":"active","ping":70},{"user_id":383,"name":"hipster_doofus","steam_id":76561197970902697,"connected_time":4950000000000,"state":"active","ping":57},{"user_id":410,"name":"I like apple","steam_id":76561198108115790,"connected_time":3476000000000,"state":"active","ping":47},{"user_id":407,"name":"Solymr ibn Wali Barad","steam_id":76561198044008976,"connected_time":3565000000000,"state":"active","ping":74},{"user_id":411,"name":"paypig","steam_id":76561198035137115,"connected_time":3437000000000,"state":"active","ping":44},{"user_id":409,"name":"dude m8","steam_id":76561198155649280,"connected_time":3519000000000,"state":"active","ping":58},{"user_id":417,"name":"‚∏∏aura‚∏∏","steam_id":76561198066258544,"connected_time":2030000000000,"state":"active","ping":60}]},{"server_id":114,"name":"Uncletopia | London | 2 | All Maps","name_short":"lon-2","host":"lon-1.uk.uncletopia.com","port":27025,"enabled":true,"region":"eu","cc":"gb","latitude":51.509865,"longitude":-0.118092,"reserved":0,"last_update":"0001-01-01T00:00:00Z","name_a2s":"Uncletopia | London | 2 | All Maps","protocol":17,"map":"pl_upward","folder":"tf","game":"Team Fortress","app_id":440,"player_count":24,"max_players":24,"Bots":0,"server_type":"Dedicated","server_os":"Linux","password":true,"vac":true,"version":"7961495","steam_id":85568392924470941,"keywords":["nocrits","nodmgspread","payload","uncletopia"],"game_id":440,"stv_port":27026,"stv_name":"Uncletopia | London | 2 | All Maps | STV","players":[{"user_id":328,"name":"Machine Elf","steam_id":76561198274465755,"connected_time":2244000000000,"state":"active","ping":57},{"user_id":357,"name":"KittyKate ‚ù§","steam_id":76561198116340817,"connected_time":376000000000,"state":"active","ping":68},{"user_id":361,"name":"skilltissues","steam_id":76561198025828664,"connected_time":107000000000,"state":"active","ping":50},{"user_id":348,"name":"cister0","steam_id":76561198130195469,"connected_time":956000000000,"state":"active","ping":86},{"user_id":343,"name":"G-Man (aka Gangsta Man)","steam_id":76561198871991529,"connected_time":1406000000000,"state":"active","ping":62},{"user_id":340,"name":"TomNoSocks","steam_id":76561198114071046,"connected_time":1543000000000,"state":"active","ping":68},{"user_id":345,"name":"sAmasam","steam_id":76561198114953928,"connected_time":1094000000000,"state":"active","ping":70},{"user_id":252,"name":"RLCrazyCat3","steam_id":76561197983757878,"connected_time":7127000000000,"state":"active","ping":68},{"user_id":298,"name":"snert","steam_id":76561198451550309,"connected_time":4522000000000,"state":"active","ping":46},{"user_id":362,"name":"Bun","steam_id":76561197989239999,"connected_time":75000000000,"state":"active","ping":154},{"user_id":304,"name":"Zetself","steam_id":76561198085251568,"connected_time":3735000000000,"state":"active","ping":67},{"user_id":349,"name":"Diggity","steam_id":76561198297157085,"connected_time":950000000000,"state":"active","ping":34},{"user_id":359,"name":"sufferin","steam_id":76561198057981508,"connected_time":366000000000,"state":"active","ping":101},{"user_id":346,"name":"‚ù§G a n K","steam_id":76561199125995565,"connected_time":1039000000000,"state":"active","ping":61},{"user_id":337,"name":"kluri","steam_id":76561198084518962,"connected_time":1708000000000,"state":"active","ping":78},{"user_id":334,"name":"Nehtrix","steam_id":76561199166167449,"connected_time":2051000000000,"state":"active","ping":140},{"user_id":344,"name":"ROX","steam_id":76561198272289320,"connected_time":1357000000000,"state":"active","ping":112},{"user_id":338,"name":"Emerald","steam_id":76561199141384216,"connected_time":1706000000000,"state":"active","ping":53},{"user_id":230,"name":"Mato","steam_id":76561198267114673,"connected_time":8670000000000,"state":"active","ping":60},{"user_id":360,"name":"LEGEND FUMO.","steam_id":76561198061033903,"connected_time":269000000000,"state":"active","ping":56},{"user_id":243,"name":"–î–ï–¢–ï–ô","steam_id":76561198379196705,"connected_time":8029000000000,"state":"active","ping":123},{"user_id":332,"name":"soup","steam_id":76561198386933065,"connected_time":2128000000000,"state":"active","ping":73},{"user_id":318,"name":"simeswipe","steam_id":76561198188471097,"connected_time":3013000000000,"state":"active","ping":85},{"user_id":352,"name":"Quote","steam_id":76561198170090267,"connected_time":622000000000,"state":"active","ping":96}]},{"server_id":320,"name":"Uncletopia | London | 3 | All Maps","name_short":"lon-3","host":"lon-1.uk.uncletopia.com","port":27035,"enabled":true,"region":"eu","cc":"gb","latitude":51.509865,"longitude":-0.118092,"reserved":0,"last_update":"0001-01-01T00:00:00Z","name_a2s":"Uncletopia | London | 3 | All Maps","protocol":17,"map":"pl_upward","folder":"tf","game":"Team Fortress","app_id":440,"player_count":24,"max_players":24,"Bots":0,"server_type":"Dedicated","server_os":"Linux","password":true,"vac":true,"version":"7961495","steam_id":85568392924510192,"keywords":["nocrits","nodmgspread","payload","uncletopia"],"game_id":440,"stv_port":27036,"stv_name":"Uncletopia | London | 3 | All Maps | STV","players":[{"user_id":596,"name":"Rockfrenzy","steam_id":76561198005428050,"connected_time":359000000000,"state":"active","ping":71},{"user_id":597,"name":"You slumber","steam_id":76561198344639692,"connected_time":322000000000,"state":"active","ping":79},{"user_id":604,"name":"Jeff","steam_id":76561199151215149,"connected_time":266000000000,"state":"active","ping":88},{"user_id":602,"name":"Your Father's Dog is Obese","steam_id":76561198070928473,"connected_time":289000000000,"state":"active","ping":127},{"user_id":600,"name":"engineer drip","steam_id":76561198991032570,"connected_time":310000000000,"state":"active","ping":90},{"user_id":601,"name":"Acorn","steam_id":76561198108400951,"connected_time":301000000000,"state":"active","ping":170},{"user_id":582,"name":"Beemo","steam_id":76561198158818775,"connected_time":2009000000000,"state":"active","ping":50},{"user_id":561,"name":"[UwU] Blackblood909","steam_id":76561198079427660,"connected_time":3263000000000,"state":"active","ping":78},{"user_id":563,"name":"The Engineer","steam_id":76561199437330739,"connected_time":3251000000000,"state":"active","ping":63},{"user_id":593,"name":"Burkol√≥","steam_id":76561198054702657,"connected_time":1152000000000,"state":"active","ping":85},{"user_id":586,"name":"Xipheria","steam_id":76561198077414706,"connected_time":1801000000000,"state":"active","ping":88},{"user_id":543,"name":"Yip","steam_id":76561198946540436,"connected_time":4401000000000,"state":"active","ping":50},{"user_id":549,"name":"Super George","steam_id":76561197997723960,"connected_time":3760000000000,"state":"active","ping":47},{"user_id":569,"name":"lexa","steam_id":76561198153381971,"connected_time":3134000000000,"state":"active","ping":86},{"user_id":553,"name":"Tea Follet","steam_id":76561198852408734,"connected_time":3553000000000,"state":"active","ping":59},{"user_id":595,"name":"akimbo gonads","steam_id":76561198413052419,"connected_time":790000000000,"state":"active","ping":48},{"user_id":603,"name":"Chaos Spy Jug Jug","steam_id":76561199168736473,"connected_time":278000000000,"state":"active","ping":69},{"user_id":488,"name":"Bronchius Bonehead","steam_id":76561198133961416,"connected_time":7613000000000,"state":"active","ping":54},{"user_id":570,"name":"Durin","steam_id":76561198063821720,"connected_time":3088000000000,"state":"active","ping":58},{"user_id":579,"name":"Will","steam_id":76561198173329977,"connected_time":2210000000000,"state":"active","ping":56},{"user_id":548,"name":"spy among us","steam_id":76561198392537090,"connected_time":3801000000000,"state":"active","ping":57},{"user_id":605,"name":"TacoDragon","steam_id":76561198215345581,"connected_time":204000000000,"state":"active","ping":64},{"user_id":587,"name":"machan","steam_id":76561198826754095,"connected_time":1604000000000,"state":"active","ping":86},{"user_id":606,"name":"belt.","steam_id":76561198850969379,"connected_time":153000000000,"state":"active","ping":86}]},{"server_id":321,"name":"Uncletopia | London | 4 | All Maps","name_short":"lon-4","host":"lon-1.uk.uncletopia.com","port":27045,"enabled":true,"region":"eu","cc":"gb","latitude":51.509865,"longitude":-0.118092,"reserved":0,"last_update":"0001-01-01T00:00:00Z","name_a2s":"Uncletopia | London | 4 | All Maps","protocol":17,"map":"koth_highpass","folder":"tf","game":"Team Fortress","app_id":440,"player_count":24,"max_players":24,"Bots":0,"server_type":"Dedicated","server_os":"Linux","password":true,"vac":true,"version":"7961495","steam_id":85568392924510193,"keywords":["cp","nocrits","nodmgspread","uncletopia"],"game_id":440,"stv_port":27046,"stv_name":"Uncletopia | London | 4 | All Maps | STV","players":[{"user_id":520,"name":"mr.resetti","steam_id":76561198974520642,"connected_time":953000000000,"state":"active","ping":78},{"user_id":505,"name":"KermSlinger","steam_id":76561198854027069,"connected_time":1892000000000,"state":"active","ping":70},{"user_id":526,"name":"ewp","steam_id":76561199148289271,"connected_time":52000000000,"state":"active","ping":201},{"user_id":466,"name":"void monad","steam_id":76561198117012334,"connected_time":2979000000000,"state":"active","ping":100},{"user_id":502,"name":"[FP] Scewtch","steam_id":76561198120500488,"connected_time":1990000000000,"state":"active","ping":53},{"user_id":519,"name":"Nooper_96","steam_id":76561199454809640,"connected_time":1110000000000,"state":"active","ping":129},{"user_id":476,"name":"·¥ã·¥ú·¥Ä Ä·¥õ","steam_id":76561199212930778,"connected_time":2823000000000,"state":"active","ping":90},{"user_id":511,"name":"Dewritos Nacho Red","steam_id":76561198048324872,"connected_time":1681000000000,"state":"active","ping":69},{"user_id":479,"name":"DreamAboutSlenderAndYouDie","steam_id":76561198107601580,"connected_time":2719000000000,"state":"active","ping":77},{"user_id":512,"name":"Supreme Kebab","steam_id":76561199117169819,"connected_time":1674000000000,"state":"active","ping":80},{"user_id":503,"name":"[FP] Rune","steam_id":76561198030842879,"connected_time":1987000000000,"state":"active","ping":46},{"user_id":521,"name":"M√©bh √ìg MacT√≠re","steam_id":76561198346399624,"connected_time":782000000000,"state":"active","ping":90},{"user_id":516,"name":"Black Tom","steam_id":76561198335730273,"connected_time":1410000000000,"state":"active","ping":58},{"user_id":498,"name":"Ledze Shuns Dope","steam_id":76561198049945010,"connected_time":2342000000000,"state":"active","ping":51},{"user_id":504,"name":"[FP] Shiken","steam_id":76561198257905663,"connected_time":1979000000000,"state":"active","ping":62},{"user_id":524,"name":"Wisey","steam_id":76561198110612600,"connected_time":441000000000,"state":"active","ping":81},{"user_id":464,"name":"SuperMinecraftKid2009","steam_id":76561198084028223,"connected_time":3088000000000,"state":"active","ping":89},{"user_id":508,"name":"Delta","steam_id":76561198268912848,"connected_time":1840000000000,"state":"active","ping":90},{"user_id":470,"name":"Halibutterhands","steam_id":76561198160361979,"connected_time":2931000000000,"state":"active","ping":110},{"user_id":522,"name":"Dromeka","steam_id":76561198963557200,"connected_time":607000000000,"state":"active","ping":56},{"user_id":525,"name":"Sza","steam_id":76561198022132105,"connected_time":358000000000,"state":"active","ping":67},{"user_id":474,"name":"ASDFASDFASDFASDF","steam_id":76561198078601337,"connected_time":2853000000000,"state":"active","ping":98},{"user_id":507,"name":"Ô∑Ω","steam_id":76561198365973345,"connected_time":1865000000000,"state":"active","ping":70},{"user_id":523,"name":"ultragamerguy2006","steam_id":76561199380378616,"connected_time":607000000000,"state":"active","ping":64}]},{"server_id":21,"name":"Uncletopia | London | 5 | All Maps","name_short":"lon-5","host":"lon-1.uk.uncletopia.com","port":27055,"enabled":true,"region":"eu","cc":"gb","latitude":51.509865,"longitude":-0.118092,"reserved":0,"last_update":"0001-01-01T00:00:00Z","name_a2s":"Uncletopia | London | 5 | All Maps","protocol":17,"map":"cp_dustbowl","folder":"tf","game":"Team Fortress","app_id":440,"player_count":23,"max_players":24,"Bots":0,"server_type":"Dedicated","server_os":"Linux","password":true,"vac":true,"version":"7961495","steam_id":85568392924742829,"keywords":["cp","nocrits","nodmgspread","uncletopia"],"game_id":440,"stv_port":27056,"stv_name":"Uncletopia | London | 5 | All Maps | STV","players":[{"user_id":574,"name":"Cezaru7252","steam_id":76561198815955374,"connected_time":26000000000,"state":"active","ping":93},{"user_id":556,"name":"Miloleopard","steam_id":76561199196616680,"connected_time":716000000000,"state":"active","ping":63},{"user_id":523,"name":"The Major Squadron","steam_id":76561198144692735,"connected_time":1800000000000,"state":"active","ping":79},{"user_id":524,"name":"Weezbeck","steam_id":76561198163487467,"connected_time":1787000000000,"state":"active","ping":78},{"user_id":553,"name":"Abska","steam_id":76561198118323803,"connected_time":773000000000,"state":"active","ping":120},{"user_id":573,"name":"Incoming","steam_id":76561199138214818,"connected_time":34000000000,"state":"spawning","ping":82},{"user_id":566,"name":"team fortress","steam_id":76561198801207748,"connected_time":511000000000,"state":"active","ping":129},{"user_id":547,"name":"JohkupohkuXD","steam_id":76561198391108762,"connected_time":928000000000,"state":"active","ping":87},{"user_id":532,"name":"A Very Disappointing Salad","steam_id":76561198020277939,"connected_time":1437000000000,"state":"active","ping":55},{"user_id":545,"name":"mohemmedmokhter2005","steam_id":76561199197650506,"connected_time":1058000000000,"state":"active","ping":106},{"user_id":546,"name":"emag live","steam_id":76561198047164140,"connected_time":991000000000,"state":"active","ping":62},{"user_id":536,"name":"Collie","steam_id":76561198149072785,"connected_time":1366000000000,"state":"active","ping":71},{"user_id":571,"name":"st","steam_id":76561198427311326,"connected_time":384000000000,"state":"active","ping":74},{"user_id":572,"name":"Dangerous Andrew","steam_id":76561198067218981,"connected_time":71000000000,"state":"active","ping":54},{"user_id":539,"name":"EmiliaFlora","steam_id":76561198827206021,"connected_time":1243000000000,"state":"active","ping":65},{"user_id":558,"name":"bryophyta","steam_id":76561197968945306,"connected_time":668000000000,"state":"active","ping":74},{"user_id":559,"name":"the beesknees;-;","steam_id":76561198924118328,"connected_time":655000000000,"state":"active","ping":44},{"user_id":554,"name":"Burpman","steam_id":76561198022897937,"connected_time":769000000000,"state":"active","ping":46},{"user_id":555,"name":"Phloggers","steam_id":76561198213268633,"connected_time":767000000000,"state":"active","ping":68},{"user_id":568,"name":"local finnish fisherman","steam_id":76561199112711355,"connected_time":438000000000,"state":"active","ping":56},{"user_id":569,"name":"tony","steam_id":76561199382978934,"connected_time":431000000000,"state":"active","ping":96},{"user_id":564,"name":"Loading....","steam_id":76561198063874351,"connected_time":605000000000,"state":"active","ping":62},{"user_id":570,"name":"Ozzie","steam_id":76561197992915315,"connected_time":404000000000,"state":"active","ping":60}]},{"server_id":22,"name":"Uncletopia | London | 6 | All Maps","name_short":"lon-6","host":"lon-1.uk.uncletopia.com","port":27065,"enabled":true,"region":"eu","cc":"gb","latitude":51.509865,"longitude":-0.118092,"reserved":0,"last_update":"0001-01-01T00:00:00Z","name_a2s":"Uncletopia | London | 6 | All Maps","protocol":17,"map":"koth_harvest_final","folder":"tf","game":"Team Fortress","app_id":440,"player_count":23,"max_players":24,"Bots":0,"server_type":"Dedicated","server_os":"Linux","password":true,"vac":true,"version":"7961495","steam_id":85568392924742830,"keywords":["cp","nocrits","nodmgspread","uncletopia"],"game_id":440,"stv_port":27066,"stv_name":"Uncletopia | London | 6 | All Maps | STV","players":[{"user_id":563,"name":"hamilton","steam_id":76561198034096096,"connected_time":5196000000000,"state":"active","ping":125},{"user_id":566,"name":"yuno appreciator","steam_id":76561198083286511,"connected_time":4484000000000,"state":"active","ping":46},{"user_id":614,"name":"Ruffel :)","steam_id":76561198136828470,"connected_time":755000000000,"state":"active","ping":70},{"user_id":619,"name":"Anri Okita's Massive Milkers","steam_id":76561199186352720,"connected_time":652000000000,"state":"active","ping":60},{"user_id":620,"name":"Luckane","steam_id":76561198009695107,"connected_time":614000000000,"state":"active","ping":45},{"user_id":583,"name":"MK-Ultra Violence","steam_id":76561198081328238,"connected_time":3506000000000,"state":"active","ping":74},{"user_id":613,"name":"sad monkey","steam_id":76561198116530769,"connected_time":903000000000,"state":"active","ping":95},{"user_id":618,"name":"stormerzz","steam_id":76561198058030238,"connected_time":684000000000,"state":"active","ping":46},{"user_id":557,"name":"Tavish","steam_id":76561197971486686,"connected_time":5413000000000,"state":"active","ping":44},{"user_id":593,"name":"XxBenShapiro420xX","steam_id":76561199229373972,"connected_time":3114000000000,"state":"active","ping":62},{"user_id":595,"name":"arthex","steam_id":76561198073687685,"connected_time":2522000000000,"state":"active","ping":72},{"user_id":631,"name":"Jeƒçmen","steam_id":76561198051617968,"connected_time":20000000000,"state":"active","ping":76},{"user_id":621,"name":"grzybiarz2022","steam_id":76561199409218561,"connected_time":614000000000,"state":"active","ping":96},{"user_id":612,"name":"rob","steam_id":76561198122211848,"connected_time":1006000000000,"state":"active","ping":93},{"user_id":586,"name":"herbal tea","steam_id":76561198179711137,"connected_time":3397000000000,"state":"active","ping":61},{"user_id":630,"name":"Milosz52","steam_id":76561199060940204,"connected_time":28000000000,"state":"spawning","ping":75},{"user_id":624,"name":"J05","steam_id":76561198857568529,"connected_time":501000000000,"state":"active","ping":60},{"user_id":610,"name":"3L","steam_id":76561198007208996,"connected_time":1177000000000,"state":"active","ping":53},{"user_id":622,"name":"nightmarebg123","steam_id":76561198968639810,"connected_time":528000000000,"state":"active","ping":106},{"user_id":591,"name":"clean carp","steam_id":76561198127053294,"connected_time":3234000000000,"state":"active","ping":74},{"user_id":573,"name":"rwota","steam_id":76561198385769722,"connected_time":4149000000000,"state":"active","ping":119},{"user_id":629,"name":"Makowako","steam_id":76561199016565502,"connected_time":239000000000,"state":"active","ping":138},{"user_id":628,"name":"Ashen","steam_id":76561198274631806,"connected_time":286000000000,"state":"active","ping":42}]},{"server_id":40,"name":"Uncletopia | London | 7 | Stopwatch","name_short":"lon-7","host":"lon-1.uk.uncletopia.com","port":27075,"enabled":true,"region":"eu","cc":"gb","latitude":51.509865,"longitude":-0.118092,"reserved":0,"last_update":"0001-01-01T00:00:00Z","name_a2s":"Uncletopia | London | 7 | Stopwatch","protocol":17,"map":"workshop/koth_ashville_final.ugc2130459942","folder":"tf","game":"Team Fortress","app_id":440,"player_count":0,"max_players":24,"Bots":0,"server_type":"Dedicated","server_os":"Linux","password":true,"vac":true,"version":"7961495","steam_id":85568392924964314,"keywords":["cp","nocrits","nodmgspread","uncletopia"],"game_id":440,"stv_port":27076,"stv_name":"Uncletopia | London | 7 | Stopwatch | STV","players":null},{"server_id":41,"name":"Uncletopia | London | 8 | Community","name_short":"lon-8","host":"lon-1.uk.uncletopia.com","port":27085,"enabled":true,"region":"eu","cc":"gb","latitude":51.509865,"longitude":-0.118092,"reserved":0,"last_update":"0001-01-01T00:00:00Z","name_a2s":"Uncletopia | London | 8 | Community","protocol":17,"map":"cp_snakewater_final1","folder":"tf","game":"Team Fortress","app_id":440,"player_count":0,"max_players":24,"Bots":0,"server_type":"Dedicated","server_os":"Linux","password":true,"vac":true,"version":"7961495","steam_id":85568392924964315,"keywords":["cp","nocrits","nodmgspread","uncletopia"],"game_id":440,"stv_port":27086,"stv_name":"Uncletopia | London | 8 | Community | STV","players":null},{"server_id":300,"name":"Uncletopia | Montr√©al | 1 | One Thousand Uncles","name_short":"mtl-1","host":"mtl-1.ca.uncletopia.com","port":27015,"enabled":true,"region":"us-east","cc":"ca","latitude":45.50889,"longitude":-73.56167,"reserved":0,"last_update":"0001-01-01T00:00:00Z","name_a2s":"","protocol":0,"map":"","folder":"","game":"","app_id":0,"player_count":13,"max_players":0,"Bots":0,"server_type":"","server_os":"","password":false,"vac":false,"version":"","steam_id":0,"keywords":null,"game_id":0,"stv_port":0,"stv_name":"","players":[{"user_id":201,"name":"Huntpk","steam_id":76561198340591674,"connected_time":6028000000000,"state":"active","ping":51},{"user_id":145,"name":"Yep","steam_id":76561198041437251,"connected_time":8723000000000,"state":"active","ping":58},{"user_id":240,"name":"Rysing Dragoon","steam_id":76561198868973721,"connected_time":3734000000000,"state":"active","ping":83},{"user_id":304,"name":"Purpurea","steam_id":76561198075376419,"connected_time":154000000000,"state":"active","ping":154},{"user_id":284,"name":"VileEvilLevi","steam_id":76561199226291414,"connected_time":2101000000000,"state":"active","ping":104},{"user_id":189,"name":"„Éá„Éà„Éü„Éº","steam_id":76561198068945560,"connected_time":7028000000000,"state":"active","ping":134},{"user_id":296,"name":"Oxygen User","steam_id":76561199111975528,"connected_time":664000000000,"state":"active","ping":79},{"user_id":286,"name":"mountainkug","steam_id":76561199491802535,"connected_time":1679000000000,"state":"active","ping":72},{"user_id":307,"name":"DrMisteryous2","steam_id":76561198336307012,"connected_time":39000000000,"state":"active","ping":172},{"user_id":306,"name":"Ping","steam_id":76561199206514106,"connected_time":93000000000,"state":"active","ping":65},{"user_id":288,"name":"FallingEcos","steam_id":76561199495039850,"connected_time":1585000000000,"state":"active","ping":48},{"user_id":302,"name":"Napoleon Dynamite","steam_id":76561198068064706,"connected_time":263000000000,"state":"active","ping":44},{"user_id":191,"name":"Zweitonegoismus","steam_id":76561198071728831,"connected_time":6805000000000,"state":"active","ping":65}]},{"server_id":301,"name":"Uncletopia | Montr√©al | 2 | One Thousand Uncles","name_short":"mtl-2","host":"mtl-1.ca.uncletopia.com","port":27025,"enabled":true,"region":"us-east","cc":"ca","latitude":45.50889,"longitude":-73.56167,"reserved":0,"last_update":"0001-01-01T00:00:00Z","name_a2s":"","protocol":0,"map":"","folder":"","game":"","app_id":0,"player_count":4,"max_players":0,"Bots":0,"server_type":"","server_os":"","password":false,"vac":false,"version":"","steam_id":0,"keywords":null,"game_id":0,"stv_port":0,"stv_name":"","players":[{"user_id":41,"name":"Waaagh!","steam_id":76561197995317887,"connected_time":4350000000000,"state":"active","ping":33},{"user_id":84,"name":"loboto gaming","steam_id":76561199088321574,"connected_time":227000000000,"state":"active","ping":84},{"user_id":82,"name":"Im Groot","steam_id":76561198294943420,"connected_time":1266000000000,"state":"active","ping":77},{"user_id":62,"name":"Rhutebeer","steam_id":76561198018302761,"connected_time":3258000000000,"state":"active","ping":93}]},{"server_id":302,"name":"Uncletopia | Montr√©al | 3 | One Thousand Uncles","name_short":"mtl-3","host":"mtl-1.ca.uncletopia.com","port":27035,"enabled":true,"region":"us-east","cc":"ca","latitude":45.50889,"longitude":-73.56167,"reserved":0,"last_update":"0001-01-01T00:00:00Z","name_a2s":"","protocol":0,"map":"","folder":"","game":"","app_id":0,"player_count":0,"max_players":0,"Bots":0,"server_type":"","server_os":"","password":false,"vac":false,"version":"","steam_id":0,"keywords":null,"game_id":0,"stv_port":0,"stv_name":"","players":null},{"server_id":13,"name":"Uncletopia | New York City | 1 | All Maps","name_short":"nyc-1","host":"nyc-1.us.uncletopia.com","port":27015,"enabled":true,"region":"us-east","cc":"us","latitude":40.73061,"longitude":-73.93524,"reserved":0,"last_update":"0001-01-01T00:00:00Z","name_a2s":"Uncletopia | New York City | 1 | All Maps","protocol":17,"map":"pl_snowycoast","folder":"tf","game":"Team Fortress","app_id":440,"player_count":24,"max_players":24,"Bots":0,"server_type":"Dedicated","server_os":"Linux","password":true,"vac":true,"version":"7961495","steam_id":85568392924469993,"keywords":["nocrits","nodmgspread","payload","uncletopia"],"game_id":440,"stv_port":27016,"stv_name":"Uncletopia | New York City | 1 | All Maps | STV","players":[{"user_id":280,"name":"Primitive","steam_id":76561198060500671,"connected_time":3154000000000,"state":"active","ping":42},{"user_id":292,"name":"wilian","steam_id":76561198085614455,"connected_time":2812000000000,"state":"active","ping":62},{"user_id":300,"name":"Goomba Stomp","steam_id":76561198062223540,"connected_time":2192000000000,"state":"active","ping":70},{"user_id":308,"name":"Catscout","steam_id":76561198140893643,"connected_time":1905000000000,"state":"active","ping":104},{"user_id":241,"name":"Jeremopolis","steam_id":76561198079467492,"connected_time":6673000000000,"state":"active","ping":93},{"user_id":289,"name":"Loaf","steam_id":76561198446378419,"connected_time":2875000000000,"state":"active","ping":85},{"user_id":327,"name":"Jmciano24","steam_id":76561198050723212,"connected_time":771000000000,"state":"active","ping":56},{"user_id":298,"name":"Oaky Loafs","steam_id":76561198317179010,"connected_time":2479000000000,"state":"active","ping":132},{"user_id":318,"name":"Connection","steam_id":76561199230740231,"connected_time":1277000000000,"state":"active","ping":57},{"user_id":311,"name":"Yellow_Balloon125","steam_id":76561199201917131,"connected_time":1801000000000,"state":"active","ping":59},{"user_id":324,"name":"TheFrogGoesMoo","steam_id":76561198841671908,"connected_time":1055000000000,"state":"active","ping":37},{"user_id":259,"name":"Broadway Rose","steam_id":76561198046083342,"connected_time":5004000000000,"state":"active","ping":44},{"user_id":313,"name":"bird enthusiast","steam_id":76561198087661713,"connected_time":1663000000000,"state":"active","ping":68},{"user_id":323,"name":"Philo","steam_id":76561198061873341,"connected_time":1156000000000,"state":"active","ping":92},{"user_id":275,"name":"Psychosis","steam_id":76561198078659070,"connected_time":3559000000000,"state":"active","ping":63},{"user_id":330,"name":"Verathragna","steam_id":76561198067215453,"connected_time":564000000000,"state":"active","ping":59},{"user_id":331,"name":"Bush.exe","steam_id":76561198124385307,"connected_time":460000000000,"state":"active","ping":71},{"user_id":326,"name":"Xavibite","steam_id":76561198209380493,"connected_time":894000000000,"state":"active","ping":45},{"user_id":307,"name":"TeatsMcghee #TummyTroubles","steam_id":76561198036483480,"connected_time":1965000000000,"state":"active","ping":60},{"user_id":320,"name":"tua","steam_id":76561198034955422,"connected_time":1269000000000,"state":"active","ping":137},{"user_id":251,"name":"wool","steam_id":76561198869689933,"connected_time":5399000000000,"state":"active","ping":56},{"user_id":321,"name":"Bearegard","steam_id":76561198061926542,"connected_time":1240000000000,"state":"active","ping":75},{"user_id":306,"name":"‚ú™Type_Alpha","steam_id":76561198122780598,"connected_time":1993000000000,"state":"active","ping":62},{"user_id":291,"name":"taigaxx","steam_id":76561198202669250,"connected_time":2849000000000,"state":"active","ping":69}]},{"server_id":14,"name":"Uncletopia | New York City | 2 | All Maps","name_short":"nyc-2","host":"nyc-1.us.uncletopia.com","port":27025,"enabled":true,"region":"us-east","cc":"us","latitude":40.73061,"longitude":-73.93524,"reserved":0,"last_update":"0001-01-01T00:00:00Z","name_a2s":"Uncletopia | New York City | 2 | All Maps","protocol":17,"map":"cp_dustbowl","folder":"tf","game":"Team Fortress","app_id":440,"player_count":24,"max_players":24,"Bots":0,"server_type":"Dedicated","server_os":"Linux","password":true,"vac":true,"version":"7961495","steam_id":85568392924469994,"keywords":["cp","nocrits","nodmgspread","uncletopia"],"game_id":440,"stv_port":27026,"stv_name":"Uncletopia | New York City | 2 | All Maps | STV","players":[{"user_id":329,"name":"Crystall","steam_id":76561198346607700,"connected_time":2691000000000,"state":"active","ping":60},{"user_id":348,"name":"vid_","steam_id":76561198065159053,"connected_time":2169000000000,"state":"active","ping":71},{"user_id":360,"name":"Gakster","steam_id":76561198998629759,"connected_time":1531000000000,"state":"active","ping":68},{"user_id":373,"name":"Pomson Gaming","steam_id":76561199200442395,"connected_time":499000000000,"state":"active","ping":154},{"user_id":369,"name":"BubbyBoy27","steam_id":76561199102009679,"connected_time":878000000000,"state":"active","ping":83},{"user_id":363,"name":"Crouching Noob Hidden Sniper","steam_id":76561197971328473,"connected_time":1476000000000,"state":"active","ping":89},{"user_id":370,"name":"PK","steam_id":76561198368722500,"connected_time":841000000000,"state":"active","ping":72},{"user_id":357,"name":"nice grandma","steam_id":76561198964101426,"connected_time":1862000000000,"state":"active","ping":35},{"user_id":364,"name":"Mr. CubeX","steam_id":76561198805603832,"connected_time":1443000000000,"state":"active","ping":76},{"user_id":314,"name":"King Sans","steam_id":76561198294198517,"connected_time":3581000000000,"state":"active","ping":44},{"user_id":371,"name":"Satan","steam_id":76561198049821475,"connected_time":780000000000,"state":"active","ping":65},{"user_id":366,"name":"Stinkly","steam_id":76561198045010846,"connected_time":1419000000000,"state":"active","ping":78},{"user_id":323,"name":"Bug","steam_id":76561198090785579,"connected_time":2760000000000,"state":"active","ping":73},{"user_id":300,"name":"Kraftlos","steam_id":76561198074350350,"connected_time":5196000000000,"state":"active","ping":60},{"user_id":368,"name":"ToolUse","steam_id":76561198999611494,"connected_time":1219000000000,"state":"active","ping":76},{"user_id":333,"name":"radicalpig","steam_id":76561198444115177,"connected_time":2655000000000,"state":"active","ping":55},{"user_id":334,"name":"GoodleShoes","steam_id":76561198030993521,"connected_time":2654000000000,"state":"active","ping":75},{"user_id":293,"name":"Comfy!","steam_id":76561198008818346,"connected_time":5424000000000,"state":"active","ping":41},{"user_id":294,"name":"ThatGamingKiwi","steam_id":76561199170522237,"connected_time":5398000000000,"state":"active","ping":82},{"user_id":374,"name":"MemoxJota (F2P)","steam_id":76561198862661338,"connected_time":435000000000,"state":"active","ping":136},{"user_id":322,"name":"Kinder__Egg","steam_id":76561199237000917,"connected_time":2864000000000,"state":"active","ping":81},{"user_id":359,"name":"pipebombrater","steam_id":76561199029030831,"connected_time":1634000000000,"state":"active","ping":67},{"user_id":372,"name":"Vegerot","steam_id":76561197997843710,"connected_time":767000000000,"state":"active","ping":44},{"user_id":319,"name":"MechaSixVII","steam_id":76561198014927379,"connected_time":3383000000000,"state":"active","ping":68}]},{"server_id":15,"name":"Uncletopia | New York City | 3 | Stopwatch","name_short":"nyc-3","host":"nyc-1.us.uncletopia.com","port":27035,"enabled":true,"region":"us-east","cc":"us","latitude":40.73061,"longitude":-73.93524,"reserved":0,"last_update":"0001-01-01T00:00:00Z","name_a2s":"Uncletopia | New York City | 3 | Stopwatch","protocol":17,"map":"workshop/koth_product_final.ugc454272353","folder":"tf","game":"Team Fortress","app_id":440,"player_count":0,"max_players":24,"Bots":0,"server_type":"Dedicated","server_os":"Linux","password":true,"vac":true,"version":"7961495","steam_id":85568392924742820,"keywords":["cp","nocrits","nodmgspread","uncletopia"],"game_id":440,"stv_port":27036,"stv_name":"Uncletopia | New York City | 3 | Stopwatch | STV","players":null},{"server_id":16,"name":"Uncletopia | New York City | 4 | Community","name_short":"nyc-4","host":"nyc-1.us.uncletopia.com","port":27045,"enabled":true,"region":"us-east","cc":"us","latitude":40.73061,"longitude":-73.93524,"reserved":0,"last_update":"0001-01-01T00:00:00Z","name_a2s":"Uncletopia | New York City | 4 | Community","protocol":17,"map":"workshop/koth_ramjam_rc1.ugc459778887","folder":"tf","game":"Team Fortress","app_id":440,"player_count":0,"max_players":24,"Bots":0,"server_type":"Dedicated","server_os":"Linux","password":true,"vac":true,"version":"7961495","steam_id":85568392924742821,"keywords":["cp","nocrits","nodmgspread","uncletopia"],"game_id":440,"stv_port":27046,"stv_name":"Uncletopia | New York City | 4 | Community | STV","players":null},{"server_id":142,"name":"Uncletopia | S√£o Paulo | 1 | All Maps","name_short":"sao-1","host":"sao-1.br.uncletopia.com","port":27015,"enabled":true,"region":"sa","cc":"br","latitude":-23.533773,"longitude":-46.62529,"reserved":0,"last_update":"0001-01-01T00:00:00Z","name_a2s":"Uncletopia | S√£o Paulo | 1 | All Maps","protocol":17,"map":"pl_borneo","folder":"tf","game":"Team Fortress","app_id":440,"player_count":20,"max_players":24,"Bots":0,"server_type":"Dedicated","server_os":"Linux","password":true,"vac":true,"version":"7961495","steam_id":85568392924469996,"keywords":["nocrits","nodmgspread","payload","uncletopia"],"game_id":440,"stv_port":27016,"stv_name":"Uncletopia | S√£o Paulo | 1 | All Maps | STV","players":[{"user_id":114,"name":"Froot Sproots","steam_id":76561198859137049,"connected_time":2344000000000,"state":"active","ping":70},{"user_id":140,"name":"Jetology","steam_id":76561198102782759,"connected_time":210000000000,"state":"active","ping":175},{"user_id":118,"name":"Netre","steam_id":76561198145332676,"connected_time":1780000000000,"state":"active","ping":72},{"user_id":128,"name":"MathyG","steam_id":76561198825900597,"connected_time":951000000000,"state":"active","ping":90},{"user_id":129,"name":"Gogoyle50","steam_id":76561198148524228,"connected_time":902000000000,"state":"active","ping":45},{"user_id":138,"name":"paffman","steam_id":76561199100094069,"connected_time":249000000000,"state":"active","ping":118},{"user_id":86,"name":"Net15","steam_id":76561198400127080,"connected_time":5547000000000,"state":"active","ping":81},{"user_id":90,"name":"saltyf","steam_id":76561198371487673,"connected_time":5098000000000,"state":"active","ping":47},{"user_id":127,"name":"OtalGiovanni","steam_id":76561198857071387,"connected_time":1253000000000,"state":"active","ping":58},{"user_id":87,"name":"PYROCANTE #SAVETF2","steam_id":76561199152529988,"connected_time":5452000000000,"state":"active","ping":51},{"user_id":100,"name":"Adolf_Dripler_1945","steam_id":76561198963738808,"connected_time":3858000000000,"state":"active","ping":36},{"user_id":94,"name":"RafaelMRC","steam_id":76561198403003580,"connected_time":4726000000000,"state":"active","ping":46},{"user_id":121,"name":"NopeZ","steam_id":76561199227687766,"connected_time":1625000000000,"state":"active","ping":72},{"user_id":132,"name":"alvcar","steam_id":76561198279641801,"connected_time":851000000000,"state":"active","ping":63},{"user_id":133,"name":"Do√±aIku","steam_id":76561198234812504,"connected_time":803000000000,"state":"active","ping":110},{"user_id":135,"name":"Heythan","steam_id":76561198083330827,"connected_time":555000000000,"state":"active","ping":75},{"user_id":137,"name":"Hedgehog Hater","steam_id":76561198285925255,"connected_time":256000000000,"state":"active","ping":60},{"user_id":139,"name":"taterwaffles","steam_id":76561198034968060,"connected_time":212000000000,"state":"active","ping":178},{"user_id":142,"name":"‚ò≠LDE‚ôïSaitama","steam_id":76561198202709688,"connected_time":53000000000,"state":"active","ping":226},{"user_id":108,"name":"Put me back together","steam_id":76561198801175966,"connected_time":3068000000000,"state":"active","ping":65}]},{"server_id":143,"name":"Uncletopia | S√£o Paulo | 2 | Community","name_short":"sao-2","host":"sao-2.br.uncletopia.com","port":27015,"enabled":true,"region":"sa","cc":"br","latitude":-23.533773,"longitude":-46.62529,"reserved":0,"last_update":"0001-01-01T00:00:00Z","name_a2s":"Uncletopia | S√£o Paulo | 2 | Community","protocol":17,"map":"workshop/koth_kemptown_rc1.ugc767410655","folder":"tf","game":"Team Fortress","app_id":440,"player_count":0,"max_players":24,"Bots":0,"server_type":"Dedicated","server_os":"Linux","password":true,"vac":true,"version":"7961495","steam_id":85568392924485349,"keywords":["cp","nocrits","nodmgspread","uncletopia"],"game_id":440,"stv_port":27016,"stv_name":"Uncletopia | S√£o Paulo | 2 | Community | STV","players":null},{"server_id":7,"name":"Uncletopia | Seattle | 1 | All Maps","name_short":"sea-1","host":"sea-1.us.uncletopia.com","port":27015,"enabled":true,"region":"us-west","cc":"us","latitude":47.608013,"longitude":-122.33517,"reserved":0,"last_update":"0001-01-01T00:00:00Z","name_a2s":"Uncletopia | Seattle | 1 | All Maps","protocol":17,"map":"cp_5gorge","folder":"tf","game":"Team Fortress","app_id":440,"player_count":24,"max_players":24,"Bots":0,"server_type":"Dedicated","server_os":"Linux","password":true,"vac":true,"version":"7961495","steam_id":85568392924469997,"keywords":["cp","nocrits","nodmgspread","uncletopia"],"game_id":440,"stv_port":27016,"stv_name":"Uncletopia | Seattle | 1 | All Maps | STV","players":[{"user_id":268,"name":"Little Linguine","steam_id":76561198816986370,"connected_time":1333000000000,"state":"active","ping":45},{"user_id":272,"name":"Moople","steam_id":76561198889614198,"connected_time":1175000000000,"state":"active","ping":75},{"user_id":277,"name":"Lt Lushen","steam_id":76561198124083273,"connected_time":998000000000,"state":"active","ping":104},{"user_id":271,"name":"my mom","steam_id":76561199225201569,"connected_time":1301000000000,"state":"active","ping":106},{"user_id":247,"name":"HAT-WEARING‚Ñ¢ Maggot Gamer Cat","steam_id":76561197973992705,"connected_time":3686000000000,"state":"active","ping":64},{"user_id":266,"name":"Mike Bean Burritos","steam_id":76561198173430607,"connected_time":1340000000000,"state":"active","ping":46},{"user_id":294,"name":"Toaster (Hamilton Beach)","steam_id":76561198039891934,"connected_time":622000000000,"state":"active","ping":64},{"user_id":275,"name":"choco","steam_id":76561199013498035,"connected_time":1159000000000,"state":"active","ping":58},{"user_id":295,"name":"Gloiben Glubula","steam_id":76561198045441307,"connected_time":621000000000,"state":"active","ping":138},{"user_id":278,"name":"MyHeadHz","steam_id":76561198090654531,"connected_time":971000000000,"state":"active","ping":44},{"user_id":279,"name":"SomeRandomBetaFish","steam_id":76561198827731399,"connected_time":952000000000,"state":"active","ping":51},{"user_id":299,"name":"sleepy","steam_id":76561198288663776,"connected_time":298000000000,"state":"active","ping":53},{"user_id":281,"name":"the Grimm Lad","steam_id":76561198151908409,"connected_time":805000000000,"state":"active","ping":125},{"user_id":256,"name":"Batso","steam_id":76561198106589452,"connected_time":2414000000000,"state":"active","ping":77},{"user_id":300,"name":"green bean","steam_id":76561198113099204,"connected_time":273000000000,"state":"active","ping":59},{"user_id":285,"name":"Wheaty","steam_id":76561198003553412,"connected_time":770000000000,"state":"active","ping":52},{"user_id":283,"name":"BlazedBunny","steam_id":76561198243610560,"connected_time":796000000000,"state":"active","ping":127},{"user_id":249,"name":"Yoyo-Wo","steam_id":76561198880520205,"connected_time":3640000000000,"state":"active","ping":83},{"user_id":286,"name":"Yogenfruz","steam_id":76561198039460264,"connected_time":770000000000,"state":"active","ping":126},{"user_id":287,"name":"Jeffery","steam_id":76561198352805460,"connected_time":724000000000,"state":"active","ping":78},{"user_id":289,"name":"Useless","steam_id":76561198116079299,"connected_time":717000000000,"state":"active","ping":45},{"user_id":292,"name":"Justy","steam_id":76561198044014069,"connected_time":700000000000,"state":"active","ping":78},{"user_id":267,"name":"slushy :((","steam_id":76561198135281802,"connected_time":1337000000000,"state":"active","ping":44},{"user_id":301,"name":"goos  e","steam_id":76561198036774894,"connected_time":65000000000,"state":"spawning","ping":98}]},{"server_id":119,"name":"Uncletopia | Seattle | 2 | All Maps","name_short":"sea-2","host":"sea-1.us.uncletopia.com","port":27025,"enabled":true,"region":"us-west","cc":"us","latitude":47.608013,"longitude":-122.33517,"reserved":0,"last_update":"0001-01-01T00:00:00Z","name_a2s":"Uncletopia | Seattle | 2 | All Maps","protocol":17,"map":"koth_cascade","folder":"tf","game":"Team Fortress","app_id":440,"player_count":0,"max_players":24,"Bots":0,"server_type":"Dedicated","server_os":"Linux","password":true,"vac":true,"version":"7961495","steam_id":85568392924469998,"keywords":["cp","nocrits","nodmgspread","uncletopia"],"game_id":440,"stv_port":27026,"stv_name":"Uncletopia | Seattle | 2 | All Maps | STV","players":null},{"server_id":406,"name":"Uncletopia | Seattle | 3 | Stopwatch","name_short":"sea-3","host":"sea-1.us.uncletopia.com","port":27035,"enabled":true,"region":"us-west","cc":"us","latitude":47.608013,"longitude":-122.33517,"reserved":0,"last_update":"0001-01-01T00:00:00Z","name_a2s":"Uncletopia | Seattle | 3 | Stopwatch","protocol":17,"map":"pl_pier","folder":"tf","game":"Team Fortress","app_id":440,"player_count":0,"max_players":24,"Bots":0,"server_type":"Dedicated","server_os":"Linux","password":true,"vac":true,"version":"7961495","steam_id":85568392924515217,"keywords":["nocrits","nodmgspread","payload","uncletopia"],"game_id":440,"stv_port":27036,"stv_name":"Uncletopia | Seattle | 3 | Stopwatch | STV","players":null},{"server_id":17,"name":"Uncletopia | San Francisco | 1 | All Maps","name_short":"sfo-1","host":"sfo-1.us.uncletopia.com","port":27015,"enabled":true,"region":"us-west","cc":"us","latitude":37.77397,"longitude":-122.4313,"reserved":0,"last_update":"0001-01-01T00:00:00Z","name_a2s":"Uncletopia | San Francisco | 1 | All Maps","protocol":17,"map":"koth_cascade","folder":"tf","game":"Team Fortress","app_id":440,"player_count":0,"max_players":24,"Bots":0,"server_type":"Dedicated","server_os":"Linux","password":true,"vac":true,"version":"7961495","steam_id":85568392924469999,"keywords":["cp","nocrits","nodmgspread","uncletopia"],"game_id":440,"stv_port":27016,"stv_name":"Uncletopia | San Francisco | 1 | All Maps | STV","players":null},{"server_id":18,"name":"Uncletopia | San Francisco | 2 | All Maps","name_short":"sfo-2","host":"sfo-1.us.uncletopia.com","port":27025,"enabled":true,"region":"us-west","cc":"us","latitude":37.77397,"longitude":-122.4313,"reserved":0,"last_update":"0001-01-01T00:00:00Z","name_a2s":"Uncletopia | San Francisco | 2 | All Maps","protocol":17,"map":"pl_swiftwater_final1","folder":"tf","game":"Team Fortress","app_id":440,"player_count":0,"max_players":24,"Bots":0,"server_type":"Dedicated","server_os":"Linux","password":true,"vac":true,"version":"7961495","steam_id":85568392924470000,"keywords":["nocrits","nodmgspread","payload","uncletopia"],"game_id":440,"stv_port":27026,"stv_name":"Uncletopia | San Francisco | 2 | All Maps | STV","players":null},{"server_id":19,"name":"Uncletopia | San Francisco | 3 | Stopwatch","name_short":"sfo-3","host":"sfo-1.us.uncletopia.com","port":27035,"enabled":true,"region":"us-west","cc":"us","latitude":37.77397,"longitude":-122.4313,"reserved":0,"last_update":"0001-01-01T00:00:00Z","name_a2s":"Uncletopia | San Francisco | 3 | Stopwatch","protocol":17,"map":"cp_sunshine","folder":"tf","game":"Team Fortress","app_id":440,"player_count":0,"max_players":24,"Bots":0,"server_type":"Dedicated","server_os":"Linux","password":true,"vac":true,"version":"7961495","steam_id":85568392924742824,"keywords":["cp","nocrits","nodmgspread","uncletopia"],"game_id":440,"stv_port":27036,"stv_name":"Uncletopia | San Francisco | 3 | Stopwatch | STV","players":null},{"server_id":20,"name":"Uncletopia | San Francisco | 4 | Community","name_short":"sfo-4","host":"sfo-1.us.uncletopia.com","port":27045,"enabled":true,"region":"us-west","cc":"us","latitude":37.77397,"longitude":-122.4313,"reserved":0,"last_update":"0001-01-01T00:00:00Z","name_a2s":"Uncletopia | San Francisco | 4 | Community","protocol":17,"map":"workshop/koth_trenchfoot_b1a.ugc731436616","folder":"tf","game":"Team Fortress","app_id":440,"player_count":0,"max_players":24,"Bots":0,"server_type":"Dedicated","server_os":"Linux","password":true,"vac":true,"version":"7961495","steam_id":85568392924742826,"keywords":["cp","nocrits","nodmgspread","uncletopia"],"game_id":440,"stv_port":27046,"stv_name":"Uncletopia | San Francisco | 4 | Community | STV","players":null},{"server_id":141,"name":"Uncletopia | Sydney | 1 | All Maps","name_short":"syd-1","host":"syd-1.au.uncletopia.com","port":27015,"enabled":true,"region":"au","cc":"au","latitude":-33.865143,"longitude":151.2099,"reserved":0,"last_update":"0001-01-01T00:00:00Z","name_a2s":"Uncletopia | Sydney | 1 | All Maps","protocol":17,"map":"koth_lakeside_final","folder":"tf","game":"Team Fortress","app_id":440,"player_count":0,"max_players":24,"Bots":0,"server_type":"Dedicated","server_os":"Linux","password":true,"vac":true,"version":"7961495","steam_id":85568392924470001,"keywords":["cp","nocrits","nodmgspread","uncletopia"],"game_id":440,"stv_port":27016,"stv_name":"Uncletopia | Sydney | 1 | All Maps | STV","players":null},{"server_id":123,"name":"Uncletopia | Sydney | 2 | All Maps","name_short":"syd-2","host":"syd-1.au.uncletopia.com","port":27025,"enabled":true,"region":"au","cc":"au","latitude":-33.865143,"longitude":151.2099,"reserved":0,"last_update":"0001-01-01T00:00:00Z","name_a2s":"Uncletopia | Sydney | 2 | All Maps","protocol":17,"map":"koth_viaduct","folder":"tf","game":"Team Fortress","app_id":440,"player_count":0,"max_players":24,"Bots":0,"server_type":"Dedicated","server_os":"Linux","password":true,"vac":true,"version":"7961495","steam_id":85568392924470002,"keywords":["cp","nocrits","nodmgspread","uncletopia"],"game_id":440,"stv_port":27026,"stv_name":"Uncletopia | Sydney | 2 | All Maps | STV","players":null},{"server_id":395,"name":"Uncletopia | Sydney | 3 | All Maps","name_short":"syd-3","host":"syd-1.au.uncletopia.com","port":27035,"enabled":true,"region":"au","cc":"au","latitude":-33.865143,"longitude":151.2099,"reserved":0,"last_update":"0001-01-01T00:00:00Z","name_a2s":"Uncletopia | Sydney | 3 | All Maps","protocol":17,"map":"koth_highpass","folder":"tf","game":"Team Fortress","app_id":440,"player_count":0,"max_players":24,"Bots":0,"server_type":"Dedicated","server_os":"Linux","password":true,"vac":true,"version":"7961495","steam_id":85568392925194467,"keywords":["cp","nocrits","nodmgspread","uncletopia"],"game_id":440,"stv_port":27036,"stv_name":"Uncletopia | Sydney | 3 | All Maps | STV","players":null},{"server_id":396,"name":"Uncletopia | Sydney | 4 | All Maps","name_short":"syd-4","host":"syd-1.au.uncletopia.com","port":27045,"enabled":true,"region":"au","cc":"au","latitude":-33.865143,"longitude":151.2099,"reserved":0,"last_update":"0001-01-01T00:00:00Z","name_a2s":"Uncletopia | Sydney | 4 | All Maps","protocol":17,"map":"koth_viaduct","folder":"tf","game":"Team Fortress","app_id":440,"player_count":0,"max_players":24,"Bots":0,"server_type":"Dedicated","server_os":"Linux","password":true,"vac":true,"version":"7961495","steam_id":85568392925397958,"keywords":["cp","nocrits","nodmgspread","uncletopia"],"game_id":440,"stv_port":27046,"stv_name":"Uncletopia | Sydney | 4 | All Maps | STV","players":null},{"server_id":58,"name":"Uncletopia | Sydney | 5 | Stopwatch","name_short":"syd-5","host":"syd-1.au.uncletopia.com","port":27055,"enabled":true,"region":"au","cc":"au","latitude":-33.865143,"longitude":151.2099,"reserved":0,"last_update":"0001-01-01T00:00:00Z","name_a2s":"Uncletopia | Sydney | 5 | Stopwatch","protocol":17,"map":"cp_process_final","folder":"tf","game":"Team Fortress","app_id":440,"player_count":0,"max_players":24,"Bots":0,"server_type":"Dedicated","server_os":"Linux","password":true,"vac":true,"version":"7961495","steam_id":85568392925397959,"keywords":["cp","nocrits","nodmgspread","uncletopia"],"game_id":440,"stv_port":27056,"stv_name":"Uncletopia | Sydney | 5 | Stopwatch | STV","players":null},{"server_id":59,"name":"Uncletopia | Sydney | 6 | Community","name_short":"syd-6","host":"syd-1.au.uncletopia.com","port":27065,"enabled":true,"region":"au","cc":"au","latitude":-33.865143,"longitude":151.2099,"reserved":0,"last_update":"0001-01-01T00:00:00Z","name_a2s":"Uncletopia | Sydney | 6 | Community","protocol":17,"map":"workshop/pl_cashworks_final1.ugc2904065412","folder":"tf","game":"Team Fortress","app_id":440,"player_count":0,"max_players":24,"Bots":0,"server_type":"Dedicated","server_os":"Linux","password":true,"vac":true,"version":"7961495","steam_id":85568392925397960,"keywords":["nocrits","nodmgspread","payload","uncletopia"],"game_id":440,"stv_port":27066,"stv_name":"Uncletopia | Sydney | 6 | Community | STV","players":null},{"server_id":49,"name":"Uncletopia | Warsaw | 1 | One Thousand Uncles","name_short":"waw-1","host":"waw-1.pl.uncletopia.com","port":27015,"enabled":true,"region":"eu","cc":"pl","latitude":52.2297,"longitude":21.017532,"reserved":0,"last_update":"0001-01-01T00:00:00Z","name_a2s":"Uncletopia | Warsaw | 1 | One Thousand Uncles","protocol":17,"map":"cp_mercenarypark","folder":"tf","game":"Team Fortress","app_id":440,"player_count":31,"max_players":32,"Bots":16,"server_type":"Dedicated","server_os":"Linux","password":true,"vac":true,"version":"7961495","steam_id":85568392925397850,"keywords":["alltalk","bots","cp","danepve","increased_maxplayers","nocrits","norespawntime","uncletopia"],"game_id":440,"stv_port":0,"stv_name":"","players":[{"user_id":279,"name":"Horny Police","steam_id":76561198213089804,"connected_time":2578000000000,"state":"active","ping":66},{"user_id":247,"name":"pyro","steam_id":76561199255856612,"connected_time":3914000000000,"state":"active","ping":41},{"user_id":248,"name":"TheFlyingScotsMann","steam_id":76561199103572986,"connected_time":3835000000000,"state":"active","ping":186},{"user_id":250,"name":"riaan222","steam_id":76561198167235331,"connected_time":3780000000000,"state":"active","ping":233},{"user_id":255,"name":"God Of Why (Saul Godman¬Æ)","steam_id":76561199007495784,"connected_time":3166000000000,"state":"active","ping":94},{"user_id":252,"name":"ùíØùìáùìäùìàùìÅùí∂ùìã228","steam_id":76561199229195988,"connected_time":3696000000000,"state":"active","ping":93},{"user_id":273,"name":"Officerpogchamp","steam_id":76561199089266811,"connected_time":2927000000000,"state":"active","ping":301},{"user_id":275,"name":"JellieGamerYT","steam_id":76561199113839333,"connected_time":2916000000000,"state":"active","ping":87},{"user_id":280,"name":"(„Å£‚óî‚ó°‚óî)„Å£ ‚ô• ÁÑ°ÈÇ™Ê∞ó","steam_id":76561199096911882,"connected_time":2549000000000,"state":"active","ping":85},{"user_id":307,"name":"Cock Man","steam_id":76561198283638723,"connected_time":826000000000,"state":"active","ping":65},{"user_id":309,"name":"Czecze≈Ñski Katolik","steam_id":76561198270983277,"connected_time":671000000000,"state":"active","ping":30},{"user_id":326,"name":"Hazisher","steam_id":76561199244861836,"connected_time":543000000000,"state":"active","ping":118},{"user_id":333,"name":"Scug","steam_id":76561198839277073,"connected_time":57000000000,"state":"active","ping":43},{"user_id":328,"name":"–ß–∏—Ö—É–∞—Ö—É–∞","steam_id":76561199497579495,"connected_time":405000000000,"state":"active","ping":85},{"user_id":334,"name":"RandomName","steam_id":76561198055552108,"connected_time":52000000000,"state":"active","ping":107}]},{"server_id":50,"name":"Uncletopia | Warsaw | 2 | One Thousand Uncles","name_short":"waw-2","host":"waw-1.pl.uncletopia.com","port":27025,"enabled":true,"region":"eu","cc":"pl","latitude":52.2297,"longitude":21.017532,"reserved":0,"last_update":"0001-01-01T00:00:00Z","name_a2s":"Uncletopia | Warsaw | 2 | One Thousand Uncles","protocol":17,"map":"cp_dustbowl","folder":"tf","game":"Team Fortress","app_id":440,"player_count":30,"max_players":32,"Bots":16,"server_type":"Dedicated","server_os":"Linux","password":true,"vac":true,"version":"7961495","steam_id":85568392925397851,"keywords":["alltalk","bots","cp","danepve","increased_maxplayers","nocrits","norespawntime","uncletopia"],"game_id":440,"stv_port":0,"stv_name":"","players":[{"user_id":167,"name":"Jahusi!*","steam_id":76561197992445165,"connected_time":5196000000000,"state":"active","ping":69},{"user_id":269,"name":"Shadowwalker","steam_id":76561198344642637,"connected_time":1818000000000,"state":"active","ping":176},{"user_id":266,"name":"Postyro-man","steam_id":76561198048832733,"connected_time":2048000000000,"state":"active","ping":40},{"user_id":239,"name":"Ando","steam_id":76561197994056083,"connected_time":3343000000000,"state":"active","ping":69},{"user_id":186,"name":"ducklord","steam_id":76561198062163894,"connected_time":4990000000000,"state":"active","ping":68},{"user_id":292,"name":"kera","steam_id":76561198829818560,"connected_time":34000000000,"state":"active","ping":62},{"user_id":277,"name":"Max Duck","steam_id":76561198236233884,"connected_time":1441000000000,"state":"active","ping":45},{"user_id":268,"name":"smashermh","steam_id":76561199212033829,"connected_time":1918000000000,"state":"active","ping":182},{"user_id":288,"name":"TERRORIST","steam_id":76561199096023182,"connected_time":445000000000,"state":"active","ping":106},{"user_id":166,"name":"womandestroyer2006","steam_id":76561198173325629,"connected_time":5300000000000,"state":"active","ping":99},{"user_id":286,"name":"sphere","steam_id":76561197971059842,"connected_time":651000000000,"state":"active","ping":72},{"user_id":191,"name":"Kaia Brodbecker","steam_id":76561198294109951,"connected_time":4625000000000,"state":"active","ping":104},{"user_id":274,"name":"Dave","steam_id":76561197991425486,"connected_time":1652000000000,"state":"active","ping":90},{"user_id":32,"name":"kakash","steam_id":76561199420637314,"connected_time":14756000000000,"state":"active","ping":77}]},{"server_id":51,"name":"Uncletopia | Warsaw | 3 | All Maps","name_short":"waw-3","host":"waw-1.pl.uncletopia.com","port":27035,"enabled":true,"region":"eu","cc":"pl","latitude":52.2297,"longitude":21.017532,"reserved":0,"last_update":"0001-01-01T00:00:00Z","name_a2s":"Uncletopia | Warsaw | 3 | All Maps","protocol":17,"map":"koth_lakeside_final","folder":"tf","game":"Team Fortress","app_id":440,"player_count":0,"max_players":24,"Bots":0,"server_type":"Dedicated","server_os":"Linux","password":true,"vac":true,"version":"7961495","steam_id":85568392925397852,"keywords":["cp","nocrits","nodmgspread","uncletopia"],"game_id":440,"stv_port":27036,"stv_name":"Uncletopia | Warsaw | 3 | All Maps | STV","players":null},{"server_id":52,"name":"Uncletopia | Warsaw | 4 | All Maps","name_short":"waw-4","host":"waw-1.pl.uncletopia.com","port":27045,"enabled":true,"region":"eu","cc":"pl","latitude":52.2297,"longitude":21.017532,"reserved":0,"last_update":"0001-01-01T00:00:00Z","name_a2s":"Uncletopia | Warsaw | 4 | All Maps","protocol":17,"map":"koth_viaduct","folder":"tf","game":"Team Fortress","app_id":440,"player_count":0,"max_players":24,"Bots":0,"server_type":"Dedicated","server_os":"Linux","password":true,"vac":true,"version":"7961495","steam_id":85568392925397853,"keywords":["cp","nocrits","nodmgspread","uncletopia"],"game_id":440,"stv_port":27046,"stv_name":"Uncletopia | Warsaw | 4 | All Maps | STV","players":null},{"server_id":53,"name":"Uncletopia | Warsaw | 5 | Stopwatch","name_short":"waw-5","host":"waw-1.pl.uncletopia.com","port":27055,"enabled":true,"region":"eu","cc":"pl","latitude":52.2297,"longitude":21.017532,"reserved":0,"last_update":"0001-01-01T00:00:00Z","name_a2s":"Uncletopia | Warsaw | 5 | Stopwatch","protocol":17,"map":"koth_highpass","folder":"tf","game":"Team Fortress","app_id":440,"player_count":0,"max_players":24,"Bots":0,"server_type":"Dedicated","server_os":"Linux","password":true,"vac":true,"version":"7961495","steam_id":85568392925397854,"keywords":["cp","nocrits","nodmgspread","uncletopia"],"game_id":440,"stv_port":27056,"stv_name":"Uncletopia | Warsaw | 5 | Stopwatch | STV","players":null},{"server_id":54,"name":"Uncletopia | Warsaw | 6 | Community","name_short":"waw-6","host":"waw-1.pl.uncletopia.com","port":27065,"enabled":true,"region":"eu","cc":"pl","latitude":52.2297,"longitude":21.017532,"reserved":0,"last_update":"0001-01-01T00:00:00Z","name_a2s":"Uncletopia | Warsaw | 6 | Community","protocol":17,"map":"workshop/pl_corrode_rc2.ugc546577989","folder":"tf","game":"Team Fortress","app_id":440,"player_count":0,"max_players":24,"Bots":0,"server_type":"Dedicated","server_os":"Linux","password":true,"vac":true,"version":"7961495","steam_id":85568392925397856,"keywords":["nocrits","nodmgspread","payload","uncletopia"],"game_id":440,"stv_port":27066,"stv_name":"Uncletopia | Warsaw | 6 | Community | STV","players":null}]}