{"status":true,"message":"","result":[{"server_id":9,"name":"Uncletopia | Atlanta | 1 | All Maps","name_short":"atl-1","host":"atl-1.us.uncletopia.com","port":27015,"enabled":true,"region":"us-east","cc":"us","latitude":33.753746,"longitude":-84.38633,"reserved":0,"last_update":"0001-01-01T00:00:00Z","name_a2s":"Uncletopia | Atlanta | 1 | All Maps","protocol":17,"map":"pl_swiftwater_final1","folder":"tf","game":"Team Fortress","app_id":440,"player_count":22,"max_players":24,"Bots":0,"server_type":"Dedicated","server_os":"Linux","password":true,"vac":true,"version":"7880732","steam_id":85568392924469982,"keywords":["nocrits","nodmgspread","payload","uncletopia"],"game_id":440,"stv_port":27016,"stv_name":"Uncletopia | Atlanta | 1 | All Maps | STV","players":[{"user_id":78,"name":"nomad","steam_id":76561197998740399,"connected_time":243000000000,"state":"active","ping":66},{"user_id":76,"name":"Frost ♥","steam_id":76561198168870617,"connected_time":444000000000,"state":"active","ping":68},{"user_id":45,"name":"PinkLemonade","steam_id":76561198799286228,"connected_time":3050000000000,"state":"active","ping":69},{"user_id":6,"name":"BIG HOG","steam_id":76561198079923652,"connected_time":4178000000000,"state":"active","ping":62},{"user_id":79,"name":"SwiftVines","steam_id":76561198083682421,"connected_time":23000000000,"state":"spawning","ping":104},{"user_id":58,"name":"Ashes!","steam_id":76561197998475441,"connected_time":1823000000000,"state":"active","ping":77},{"user_id":10,"name":"morphine","steam_id":76561198072124799,"connected_time":4122000000000,"state":"active","ping":201},{"user_id":74,"name":"SparkStorm","steam_id":76561198095817025,"connected_time":477000000000,"state":"active","ping":39},{"user_id":39,"name":"Dob Bole","steam_id":76561198056367220,"connected_time":3265000000000,"state":"active","ping":91},{"user_id":32,"name":"Jeremopolis","steam_id":76561198079467492,"connected_time":3884000000000,"state":"active","ping":90},{"user_id":64,"name":"e0e0","steam_id":76561198293839750,"connected_time":1454000000000,"state":"active","ping":48},{"user_id":65,"name":"Inkmix(boopberrylover)","steam_id":76561198854070384,"connected_time":1228000000000,"state":"spawning","ping":124},{"user_id":60,"name":"Meat Mans Meat","steam_id":76561198062149455,"connected_time":1662000000000,"state":"active","ping":46},{"user_id":67,"name":"Limitless","steam_id":76561198057139998,"connected_time":1094000000000,"state":"active","ping":78},{"user_id":77,"name":"kite","steam_id":76561198346516392,"connected_time":341000000000,"state":"active","ping":87},{"user_id":69,"name":"Bow_","steam_id":76561198109608134,"connected_time":1035000000000,"state":"active","ping":92},{"user_id":75,"name":"Chernov","steam_id":76561198014463424,"connected_time":477000000000,"state":"active","ping":59},{"user_id":51,"name":"sam","steam_id":76561198217362968,"connected_time":2309000000000,"state":"active","ping":173},{"user_id":23,"name":"reis","steam_id":76561199232952016,"connected_time":4070000000000,"state":"active","ping":167},{"user_id":31,"name":"go touch keyboard","steam_id":76561198197388678,"connected_time":3947000000000,"state":"active","ping":62},{"user_id":73,"name":"LionHeart","steam_id":76561198075573693,"connected_time":497000000000,"state":"active","ping":61},{"user_id":54,"name":"Dr. drippenstein","steam_id":76561198209380493,"connected_time":2227000000000,"state":"active","ping":62}]},{"server_id":104,"name":"Uncletopia | Atlanta | 2 | All Maps","name_short":"atl-2","host":"atl-1.us.uncletopia.com","port":27025,"enabled":true,"region":"us-east","cc":"us","latitude":33.753746,"longitude":-84.38633,"reserved":0,"last_update":"0001-01-01T00:00:00Z","name_a2s":"Uncletopia | Atlanta | 2 | All Maps","protocol":17,"map":"pl_badwater","folder":"tf","game":"Team Fortress","app_id":440,"player_count":24,"max_players":24,"Bots":0,"server_type":"Dedicated","server_os":"Linux","password":true,"vac":true,"version":"7880732","steam_id":85568392924469983,"keywords":["nocrits","nodmgspread","payload","uncletopia"],"game_id":440,"stv_port":27026,"stv_name":"Uncletopia | Atlanta | 2 | All Maps | STV","players":[{"user_id":32,"name":"braindead","steam_id":76561198263631055,"connected_time":3164000000000,"state":"active","ping":46},{"user_id":4,"name":"cheers2x","steam_id":76561198366299848,"connected_time":4033000000000,"state":"active","ping":48},{"user_id":44,"name":"Uung","steam_id":76561198183956731,"connected_time":2536000000000,"state":"active","ping":52},{"user_id":40,"name":"Wigl","steam_id":76561198019324464,"connected_time":2704000000000,"state":"active","ping":63},{"user_id":49,"name":"Brown_Dream","steam_id":76561198975766145,"connected_time":2179000000000,"state":"active","ping":69},{"user_id":76,"name":"Partark","steam_id":76561198010265825,"connected_time":114000000000,"state":"active","ping":45},{"user_id":62,"name":"Hold Still","steam_id":76561198119536891,"connected_time":1022000000000,"state":"active","ping":67},{"user_id":51,"name":"kingjeffry2012@hotmail.com","steam_id":76561198314104415,"connected_time":1622000000000,"state":"active","ping":53},{"user_id":54,"name":"Goobed!","steam_id":76561198804349470,"connected_time":1317000000000,"state":"active","ping":84},{"user_id":53,"name":"SiurWurg","steam_id":76561198799928755,"connected_time":1392000000000,"state":"active","ping":82},{"user_id":66,"name":"Shy","steam_id":76561198394890836,"connected_time":919000000000,"state":"active","ping":53},{"user_id":14,"name":"an inebriated newt fancier","steam_id":76561197985428155,"connected_time":3533000000000,"state":"active","ping":80},{"user_id":67,"name":"dog","steam_id":76561198090737207,"connected_time":895000000000,"state":"active","ping":107},{"user_id":71,"name":"Rickysuper_52","steam_id":76561198067865179,"connected_time":747000000000,"state":"active","ping":124},{"user_id":77,"name":"Adawnby","steam_id":76561198103057295,"connected_time":96000000000,"state":"active","ping":65},{"user_id":68,"name":"Wallace Whitman","steam_id":76561198397706651,"connected_time":875000000000,"state":"active","ping":82},{"user_id":19,"name":"RollBox","steam_id":76561197997473474,"connected_time":3435000000000,"state":"active","ping":84},{"user_id":22,"name":"Eins","steam_id":76561199030343810,"connected_time":3395000000000,"state":"active","ping":41},{"user_id":69,"name":"barbara","steam_id":76561198072417792,"connected_time":873000000000,"state":"active","ping":78},{"user_id":72,"name":"mineblast99","steam_id":76561199065648954,"connected_time":716000000000,"state":"active","ping":64},{"user_id":59,"name":"Kasodani Kyouko","steam_id":76561198023178589,"connected_time":1191000000000,"state":"active","ping":95},{"user_id":70,"name":"Aerobro","steam_id":76561198033530996,"connected_time":872000000000,"state":"active","ping":88},{"user_id":37,"name":"SuppressedBarrel","steam_id":76561198032336504,"connected_time":2794000000000,"state":"active","ping":63},{"user_id":75,"name":"matlock","steam_id":76561199084019706,"connected_time":386000000000,"state":"active","ping":60}]},{"server_id":400,"name":"Uncletopia | Atlanta | 3 | Community","name_short":"atl-3","host":"atl-1.us.uncletopia.com","port":27035,"enabled":true,"region":"us-east","cc":"us","latitude":33.753746,"longitude":-84.38633,"reserved":0,"last_update":"0001-01-01T00:00:00Z","name_a2s":"Uncletopia | Atlanta | 3 | Community","protocol":17,"map":"workshop/koth_trenchfoot_b1a.ugc731436616","folder":"tf","game":"Team Fortress","app_id":440,"player_count":23,"max_players":24,"Bots":0,"server_type":"Dedicated","server_os":"Linux","password":true,"vac":true,"version":"7880732","steam_id":85568392924515187,"keywords":["cp","nocrits","nodmgspread","uncletopia"],"game_id":440,"stv_port":27036,"stv_name":"Uncletopia | Atlanta | 3 | Community | STV","players":[{"user_id":48,"name":"MINILEGOLAS","steam_id":76561198859362058,"connected_time":810000000000,"state":"active","ping":98},{"user_id":49,"name":"GuyGoom","steam_id":76561198254522178,"connected_time":749000000000,"state":"active","ping":77},{"user_id":50,"name":"Evenaris","steam_id":76561198087544319,"connected_time":721000000000,"state":"active","ping":102},{"user_id":11,"name":"Suspiciously Black Spy","steam_id":76561199050642411,"connected_time":2457000000000,"state":"active","ping":72},{"user_id":51,"name":"♥ PsychicCellar ♥","steam_id":76561198045923020,"connected_time":716000000000,"state":"active","ping":73},{"user_id":15,"name":"Spookus Iguanus","steam_id":76561198836555816,"connected_time":2350000000000,"state":"active","ping":77},{"user_id":53,"name":"We'll miss you, Pikamee","steam_id":76561198186154049,"connected_time":653000000000,"state":"active","ping":58},{"user_id":16,"name":"Verily","steam_id":76561198200558318,"connected_time":2325000000000,"state":"active","ping":60},{"user_id":52,"name":"Smeller","steam_id":76561198041767882,"connected_time":699000000000,"state":"active","ping":44},{"user_id":54,"name":"Wizard worm","steam_id":76561198843498034,"connected_time":651000000000,"state":"active","ping":73},{"user_id":46,"name":"Acómanas","steam_id":76561199031977210,"connected_time":932000000000,"state":"active","ping":56},{"user_id":55,"name":"Instinct","steam_id":76561198855439750,"connected_time":627000000000,"state":"active","ping":56},{"user_id":56,"name":"Duckywinner","steam_id":76561198254828139,"connected_time":586000000000,"state":"active","ping":61},{"user_id":60,"name":"BubbyBoy27","steam_id":76561199102009679,"connected_time":295000000000,"state":"active","ping":84},{"user_id":24,"name":"Snoozey","steam_id":76561198017120466,"connected_time":2246000000000,"state":"active","ping":66},{"user_id":65,"name":"Connie","steam_id":76561198068661013,"connected_time":193000000000,"state":"active","ping":64},{"user_id":61,"name":"idk100987","steam_id":76561199447977988,"connected_time":254000000000,"state":"active","ping":94},{"user_id":62,"name":"Yeagle","steam_id":76561199086620299,"connected_time":247000000000,"state":"active","ping":70},{"user_id":63,"name":"Peanut Arbuckle","steam_id":76561198081689361,"connected_time":241000000000,"state":"active","ping":65},{"user_id":43,"name":"rwrangler05","steam_id":76561198922899122,"connected_time":1544000000000,"state":"active","ping":112},{"user_id":36,"name":"Jeffenthropus","steam_id":76561198134204248,"connected_time":2005000000000,"state":"active","ping":67},{"user_id":37,"name":"Romo","steam_id":76561198243101572,"connected_time":1994000000000,"state":"active","ping":68},{"user_id":64,"name":"vukdrako","steam_id":76561198818135010,"connected_time":229000000000,"state":"active","ping":152}]},{"server_id":401,"name":"Uncletopia | Atlanta | 4 | No Payload","name_short":"atl-4","host":"atl-1.us.uncletopia.com","port":27045,"enabled":true,"region":"us-east","cc":"us","latitude":33.753746,"longitude":-84.38633,"reserved":0,"last_update":"0001-01-01T00:00:00Z","name_a2s":"","protocol":0,"map":"","folder":"","game":"","app_id":0,"player_count":0,"max_players":0,"Bots":0,"server_type":"","server_os":"","password":false,"vac":false,"version":"","steam_id":0,"keywords":null,"game_id":0,"stv_port":0,"stv_name":"","players":null},{"server_id":2,"name":"Uncletopia | Chicago | 1 | All Maps","name_short":"chi-1","host":"chi-1.us.uncletopia.com","port":27015,"enabled":true,"region":"us-central","cc":"us","latitude":41.881832,"longitude":-87.62318,"reserved":0,"last_update":"0001-01-01T00:00:00Z","name_a2s":"Uncletopia | Chicago | 1 | All Maps","protocol":17,"map":"pl_barnblitz","folder":"tf","game":"Team Fortress","app_id":440,"player_count":24,"max_players":24,"Bots":0,"server_type":"Dedicated","server_os":"Linux","password":true,"vac":true,"version":"7880732","steam_id":85568392924469984,"keywords":["nocrits","nodmgspread","payload","uncletopia"],"game_id":440,"stv_port":27016,"stv_name":"Uncletopia | Chicago | 1 | All Maps | STV","players":[{"user_id":60,"name":"Foreskin Reattachment service","steam_id":76561198060342804,"connected_time":949000000000,"state":"active","ping":77},{"user_id":10,"name":"いちごまろ","steam_id":76561198166100997,"connected_time":2930000000000,"state":"active","ping":71},{"user_id":63,"name":"grandma mode","steam_id":76561198155824631,"connected_time":755000000000,"state":"active","ping":112},{"user_id":11,"name":"Gaskranx","steam_id":76561198020269547,"connected_time":2884000000000,"state":"active","ping":70},{"user_id":13,"name":"canofspaghettios","steam_id":76561198124204246,"connected_time":2842000000000,"state":"active","ping":59},{"user_id":14,"name":"Alcohol Hominid","steam_id":76561198320313950,"connected_time":2835000000000,"state":"active","ping":114},{"user_id":46,"name":"Red","steam_id":76561198001939529,"connected_time":2077000000000,"state":"active","ping":100},{"user_id":55,"name":"The King","steam_id":76561198117344758,"connected_time":1223000000000,"state":"active","ping":83},{"user_id":52,"name":"Brother Pudge","steam_id":76561198247815090,"connected_time":1345000000000,"state":"active","ping":49},{"user_id":54,"name":"Cats in 3D","steam_id":76561198048051416,"connected_time":1244000000000,"state":"active","ping":70},{"user_id":59,"name":"Emberdened","steam_id":76561199163688421,"connected_time":976000000000,"state":"active","ping":99},{"user_id":20,"name":"wm1","steam_id":76561198265522923,"connected_time":2746000000000,"state":"active","ping":70},{"user_id":41,"name":"The Potato Romancer","steam_id":76561198204197648,"connected_time":2136000000000,"state":"active","ping":99},{"user_id":22,"name":"Yimberly","steam_id":76561199206923109,"connected_time":2728000000000,"state":"active","ping":85},{"user_id":49,"name":"Wso1123","steam_id":76561198048040111,"connected_time":1870000000000,"state":"active","ping":61},{"user_id":53,"name":"Dr. Robotniks Mean Bean Machine","steam_id":76561198047980627,"connected_time":1278000000000,"state":"active","ping":55},{"user_id":56,"name":"Big Puff","steam_id":76561198209820681,"connected_time":1114000000000,"state":"active","ping":72},{"user_id":43,"name":"mashallah","steam_id":76561198075111427,"connected_time":2125000000000,"state":"active","ping":59},{"user_id":27,"name":"money getting 1 percenter","steam_id":76561198012796388,"connected_time":2711000000000,"state":"active","ping":56},{"user_id":64,"name":"RoFrogle","steam_id":76561199078941377,"connected_time":528000000000,"state":"active","ping":57},{"user_id":29,"name":"Mr. Tickle","steam_id":76561198126684647,"connected_time":2704000000000,"state":"active","ping":60},{"user_id":58,"name":"Eve","steam_id":76561198052472822,"connected_time":1014000000000,"state":"active","ping":70},{"user_id":31,"name":"Charlie","steam_id":76561199098209171,"connected_time":2697000000000,"state":"active","ping":82},{"user_id":32,"name":"Sovereign","steam_id":76561198223959572,"connected_time":2686000000000,"state":"active","ping":63}]},{"server_id":106,"name":"Uncletopia | Chicago | 2 | All Maps","name_short":"chi-2","host":"chi-1.us.uncletopia.com","port":27025,"enabled":true,"region":"us-central","cc":"us","latitude":41.881832,"longitude":-87.62318,"reserved":0,"last_update":"0001-01-01T00:00:00Z","name_a2s":"Uncletopia | Chicago | 2 | All Maps","protocol":17,"map":"pl_barnblitz","folder":"tf","game":"Team Fortress","app_id":440,"player_count":24,"max_players":24,"Bots":0,"server_type":"Dedicated","server_os":"Linux","password":true,"vac":true,"version":"7880732","steam_id":85568392924469985,"keywords":["nocrits","nodmgspread","payload","uncletopia"],"game_id":440,"stv_port":27026,"stv_name":"Uncletopia | Chicago | 2 | All Maps | STV","players":[{"user_id":65,"name":"[ˈlukɑ]","steam_id":76561197984462669,"connected_time":875000000000,"state":"active","ping":181},{"user_id":66,"name":"tonyforshyr","steam_id":76561198846474978,"connected_time":683000000000,"state":"active","ping":73},{"user_id":52,"name":"Maverick","steam_id":76561198322829814,"connected_time":1362000000000,"state":"active","ping":83},{"user_id":75,"name":"lcy13vv","steam_id":76561197995997446,"connected_time":149000000000,"state":"active","ping":55},{"user_id":76,"name":"OddSlaush","steam_id":76561198043898488,"connected_time":99000000000,"state":"active","ping":90},{"user_id":11,"name":"vv","steam_id":76561198134813102,"connected_time":4083000000000,"state":"active","ping":60},{"user_id":42,"name":"Ciela","steam_id":76561198799403828,"connected_time":2312000000000,"state":"active","ping":50},{"user_id":47,"name":"Poopdick McGee","steam_id":76561198168976029,"connected_time":1992000000000,"state":"active","ping":112},{"user_id":69,"name":"LilDreamer","steam_id":76561198804054102,"connected_time":243000000000,"state":"active","ping":55},{"user_id":63,"name":"gendermutt","steam_id":76561198152857317,"connected_time":1030000000000,"state":"active","ping":53},{"user_id":72,"name":"Mug Moment Gaming","steam_id":76561198233098136,"connected_time":187000000000,"state":"active","ping":52},{"user_id":55,"name":"Icewetalot","steam_id":76561199167985720,"connected_time":1189000000000,"state":"active","ping":97},{"user_id":68,"name":"Garbunkle","steam_id":76561198389831507,"connected_time":350000000000,"state":"active","ping":68},{"user_id":56,"name":"Marijuanaut","steam_id":76561198069814977,"connected_time":1184000000000,"state":"active","ping":68},{"user_id":57,"name":"woww","steam_id":76561199272630650,"connected_time":1146000000000,"state":"active","ping":83},{"user_id":58,"name":"goliath birdeater","steam_id":76561198089852954,"connected_time":1135000000000,"state":"active","ping":82},{"user_id":51,"name":"Morgster","steam_id":76561198131697761,"connected_time":1754000000000,"state":"active","ping":93},{"user_id":67,"name":"CherriKat (she/her)","steam_id":76561198821297512,"connected_time":499000000000,"state":"active","ping":103},{"user_id":38,"name":"Drapph","steam_id":76561199384213314,"connected_time":3257000000000,"state":"active","ping":66},{"user_id":28,"name":"Remmy","steam_id":76561198268857418,"connected_time":3911000000000,"state":"active","ping":71},{"user_id":60,"name":"Soupman_Official","steam_id":76561198314308732,"connected_time":1112000000000,"state":"active","ping":84},{"user_id":70,"name":"LVL 4 Dispenser Gaming","steam_id":76561198044244547,"connected_time":241000000000,"state":"active","ping":77},{"user_id":77,"name":"Ojen","steam_id":76561197998414482,"connected_time":56000000000,"state":"active","ping":80},{"user_id":45,"name":"popfulmail","steam_id":76561198865971290,"connected_time":2030000000000,"state":"active","ping":96}]},{"server_id":402,"name":"Uncletopia | Chicago | 3 | All Maps","name_short":"chi-3","host":"chi-1.us.uncletopia.com","port":27035,"enabled":true,"region":"us-central","cc":"us","latitude":41.881832,"longitude":-87.62318,"reserved":0,"last_update":"0001-01-01T00:00:00Z","name_a2s":"Uncletopia | Chicago | 3 | All Maps","protocol":17,"map":"plr_nightfall_final","folder":"tf","game":"Team Fortress","app_id":440,"player_count":24,"max_players":24,"Bots":0,"server_type":"Dedicated","server_os":"Linux","password":true,"vac":true,"version":"7880732","steam_id":85568392924515191,"keywords":["nocrits","nodmgspread","payload","uncletopia"],"game_id":440,"stv_port":27036,"stv_name":"Uncletopia | Chicago | 3 | All Maps | STV","players":[{"user_id":61,"name":"identity","steam_id":76561198140584050,"connected_time":239000000000,"state":"active","ping":64},{"user_id":4,"name":"NUt","steam_id":76561198031007966,"connected_time":4130000000000,"state":"active","ping":74},{"user_id":6,"name":"TEZOS","steam_id":76561197972656632,"connected_time":4101000000000,"state":"active","ping":51},{"user_id":63,"name":"DDM","steam_id":76561197989699054,"connected_time":227000000000,"state":"active","ping":71},{"user_id":54,"name":"Simply_Komeiji","steam_id":76561198354177703,"connected_time":1459000000000,"state":"active","ping":90},{"user_id":9,"name":"Super Ghostbusters (Full Album)","steam_id":76561198057415490,"connected_time":3914000000000,"state":"active","ping":50},{"user_id":68,"name":"bomb","steam_id":76561198359135819,"connected_time":35000000000,"state":"active","ping":95},{"user_id":11,"name":"Moisteur","steam_id":76561198415594894,"connected_time":3879000000000,"state":"active","ping":148},{"user_id":58,"name":"i really like this dog :)","steam_id":76561198882404753,"connected_time":522000000000,"state":"active","ping":74},{"user_id":34,"name":"Redkiller","steam_id":76561199453655288,"connected_time":3546000000000,"state":"active","ping":74},{"user_id":36,"name":"Goldensliv","steam_id":76561198161673891,"connected_time":3503000000000,"state":"active","ping":92},{"user_id":38,"name":"drrockso20[MicS]","steam_id":76561198001003987,"connected_time":2985000000000,"state":"active","ping":91},{"user_id":64,"name":"reallyfriendly","steam_id":76561197996819313,"connected_time":199000000000,"state":"active","ping":80},{"user_id":65,"name":"acurlyquote","steam_id":76561198110033420,"connected_time":181000000000,"state":"active","ping":63},{"user_id":20,"name":"Sprit ♥","steam_id":76561198268780781,"connected_time":3697000000000,"state":"active","ping":54},{"user_id":21,"name":"Lowvast","steam_id":76561198068455981,"connected_time":3693000000000,"state":"active","ping":74},{"user_id":56,"name":"sqerkbo","steam_id":76561198080012700,"connected_time":1143000000000,"state":"active","ping":61},{"user_id":57,"name":"hill of the king","steam_id":76561198099491925,"connected_time":571000000000,"state":"active","ping":75},{"user_id":66,"name":"CJDGuy","steam_id":76561198213009545,"connected_time":159000000000,"state":"active","ping":46},{"user_id":42,"name":"Wimojimo12","steam_id":76561198370459596,"connected_time":1940000000000,"state":"active","ping":62},{"user_id":29,"name":"Goober","steam_id":76561198988863807,"connected_time":3639000000000,"state":"active","ping":72},{"user_id":31,"name":"Darling","steam_id":76561198127525888,"connected_time":3630000000000,"state":"active","ping":77},{"user_id":46,"name":"scemo","steam_id":76561198057536994,"connected_time":1806000000000,"state":"active","ping":78},{"user_id":47,"name":"Truly Cryo","steam_id":76561198347497484,"connected_time":1806000000000,"state":"active","ping":86}]},{"server_id":403,"name":"Uncletopia | Chicago | 4 | All Maps","name_short":"chi-4","host":"chi-1.us.uncletopia.com","port":27045,"enabled":true,"region":"us-central","cc":"us","latitude":41.881832,"longitude":-87.62318,"reserved":0,"last_update":"0001-01-01T00:00:00Z","name_a2s":"Uncletopia | Chicago | 4 | All Maps","protocol":17,"map":"koth_viaduct","folder":"tf","game":"Team Fortress","app_id":440,"player_count":3,"max_players":24,"Bots":0,"server_type":"Dedicated","server_os":"Linux","password":true,"vac":true,"version":"7880732","steam_id":85568392924515193,"keywords":["cp","nocrits","nodmgspread","uncletopia"],"game_id":440,"stv_port":27046,"stv_name":"Uncletopia | Chicago | 4 | All Maps | STV","players":[{"user_id":6,"name":"Enron Hubbard","steam_id":76561198012951411,"connected_time":1933000000000,"state":"active","ping":53},{"user_id":7,"name":"Cruisin'","steam_id":76561199245457119,"connected_time":1659000000000,"state":"active","ping":83},{"user_id":9,"name":"GeneralMike","steam_id":76561198065799430,"connected_time":838000000000,"state":"active","ping":55}]},{"server_id":36,"name":"Uncletopia | Chicago | 5 | All Maps","name_short":"chi-5","host":"chi-2.us.uncletopia.com","port":27015,"enabled":true,"region":"us-central","cc":"us","latitude":41.881832,"longitude":-87.62318,"reserved":0,"last_update":"0001-01-01T00:00:00Z","name_a2s":"Uncletopia | Chicago | 5 | All Maps","protocol":17,"map":"koth_lakeside_final","folder":"tf","game":"Team Fortress","app_id":440,"player_count":0,"max_players":24,"Bots":0,"server_type":"Dedicated","server_os":"Linux","password":true,"vac":true,"version":"7880732","steam_id":85568392924866362,"keywords":["cp","nocrits","nodmgspread","uncletopia"],"game_id":440,"stv_port":27016,"stv_name":"Uncletopia | Chicago | 5 | All Maps | STV","players":null},{"server_id":37,"name":"Uncletopia | Chicago | 6 | All Maps","name_short":"chi-6","host":"chi-2.us.uncletopia.com","port":27025,"enabled":true,"region":"us-central","cc":"us","latitude":41.881832,"longitude":-87.62318,"reserved":0,"last_update":"0001-01-01T00:00:00Z","name_a2s":"Uncletopia | Chicago | 6 | All Maps","protocol":17,"map":"koth_cascade","folder":"tf","game":"Team Fortress","app_id":440,"player_count":0,"max_players":24,"Bots":0,"server_type":"Dedicated","server_os":"Linux","password":true,"vac":true,"version":"7880732","steam_id":85568392924866363,"keywords":["cp","nocrits","nodmgspread","uncletopia"],"game_id":440,"stv_port":27026,"stv_name":"Uncletopia | Chicago | 6 | All Maps | STV","players":null},{"server_id":38,"name":"Uncletopia | Chicago | 7 | Stopwatch Beta","name_short":"chi-7","host":"chi-2.us.uncletopia.com","port":27035,"enabled":true,"region":"us-central","cc":"us","latitude":41.881832,"longitude":-87.62318,"reserved":0,"last_update":"0001-01-01T00:00:00Z","name_a2s":"Uncletopia | Chicago | 7 | Stopwatch Beta","protocol":17,"map":"cp_mountainlab","folder":"tf","game":"Team Fortress","app_id":440,"player_count":0,"max_players":24,"Bots":0,"server_type":"Dedicated","server_os":"Linux","password":true,"vac":true,"version":"7880732","steam_id":85568392924866364,"keywords":["cp","nocrits","nodmgspread","uncletopia"],"game_id":440,"stv_port":27036,"stv_name":"Uncletopia | Chicago | 7 | Stopwatch Beta | STV","players":null},{"server_id":39,"name":"Uncletopia | Chicago | 8 | Community","name_short":"chi-8","host":"chi-2.us.uncletopia.com","port":27045,"enabled":true,"region":"us-central","cc":"us","latitude":41.881832,"longitude":-87.62318,"reserved":0,"last_update":"0001-01-01T00:00:00Z","name_a2s":"Uncletopia | Chicago | 8 | Community","protocol":17,"map":"cp_sunshine","folder":"tf","game":"Team Fortress","app_id":440,"player_count":0,"max_players":24,"Bots":0,"server_type":"Dedicated","server_os":"Linux","password":true,"vac":true,"version":"7880732","steam_id":85568392924866365,"keywords":["cp","nocrits","nodmgspread","uncletopia"],"game_id":440,"stv_port":27046,"stv_name":"Uncletopia | Chicago | 8 | Community | STV","players":null},{"server_id":8,"name":"Uncletopia | Dallas | 1 | All Maps","name_short":"dal-1","host":"dal-1.us.uncletopia.com","port":27015,"enabled":true,"region":"us-central","cc":"us","latitude":32.779167,"longitude":-96.80889,"reserved":0,"last_update":"0001-01-01T00:00:00Z","name_a2s":"Uncletopia | Dallas | 1 | All Maps","protocol":17,"map":"cp_dustbowl","folder":"tf","game":"Team Fortress","app_id":440,"player_count":24,"max_players":24,"Bots":0,"server_type":"Dedicated","server_os":"Linux","password":true,"vac":true,"version":"7880732","steam_id":85568392924469986,"keywords":["cp","nocrits","nodmgspread","uncletopia"],"game_id":440,"stv_port":27016,"stv_name":"Uncletopia | Dallas | 1 | All Maps | STV","players":[{"user_id":16,"name":"TheEmeraldLiker","steam_id":76561198323926464,"connected_time":2582000000000,"state":"active","ping":116},{"user_id":22,"name":"Tri-Dot","steam_id":76561199075186597,"connected_time":1827000000000,"state":"active","ping":88},{"user_id":21,"name":"Garfelf","steam_id":76561198419850129,"connected_time":1998000000000,"state":"active","ping":139},{"user_id":61,"name":"Funke Monke","steam_id":76561198079440976,"connected_time":797000000000,"state":"active","ping":67},{"user_id":69,"name":"CUBICLE #35","steam_id":76561198799010228,"connected_time":201000000000,"state":"active","ping":69},{"user_id":70,"name":"Crustacean Daddy","steam_id":76561198993807061,"connected_time":193000000000,"state":"active","ping":84},{"user_id":68,"name":"I am in your walls","steam_id":76561198881209174,"connected_time":214000000000,"state":"active","ping":66},{"user_id":66,"name":"robertJMP","steam_id":76561199066260919,"connected_time":400000000000,"state":"active","ping":68},{"user_id":52,"name":"nemaxilb","steam_id":76561199074875663,"connected_time":1132000000000,"state":"active","ping":76},{"user_id":59,"name":"borkus","steam_id":76561198167174088,"connected_time":881000000000,"state":"active","ping":60},{"user_id":64,"name":"momb","steam_id":76561198142234038,"connected_time":479000000000,"state":"active","ping":84},{"user_id":32,"name":"Owl Pacino","steam_id":76561197979970666,"connected_time":1375000000000,"state":"active","ping":75},{"user_id":42,"name":"Trove","steam_id":76561198110970476,"connected_time":1278000000000,"state":"active","ping":59},{"user_id":37,"name":"Big Dick Swinging","steam_id":76561198053819929,"connected_time":1325000000000,"state":"active","ping":75},{"user_id":74,"name":"Cad","steam_id":76561198312145232,"connected_time":142000000000,"state":"active","ping":93},{"user_id":60,"name":"bought this cart for 15 dollars","steam_id":76561198253731826,"connected_time":855000000000,"state":"active","ping":79},{"user_id":65,"name":"CreativeUsername","steam_id":76561198186045503,"connected_time":460000000000,"state":"active","ping":74},{"user_id":72,"name":"Hunter Biden's Wallet","steam_id":76561197974772585,"connected_time":183000000000,"state":"active","ping":69},{"user_id":75,"name":"Human Person","steam_id":76561198283855440,"connected_time":138000000000,"state":"active","ping":79},{"user_id":48,"name":"FluttyPutty","steam_id":76561198218446556,"connected_time":1216000000000,"state":"active","ping":67},{"user_id":62,"name":"harrison.avenue","steam_id":76561198037288988,"connected_time":796000000000,"state":"active","ping":110},{"user_id":76,"name":"chicken","steam_id":76561198196998007,"connected_time":27000000000,"state":"active","ping":93},{"user_id":57,"name":"Big J","steam_id":76561199189855696,"connected_time":1033000000000,"state":"active","ping":81},{"user_id":63,"name":"Wolbey","steam_id":76561198042148095,"connected_time":791000000000,"state":"active","ping":80}]},{"server_id":108,"name":"Uncletopia | Dallas | 2 | All Maps","name_short":"dal-2","host":"dal-1.us.uncletopia.com","port":27025,"enabled":true,"region":"us-central","cc":"us","latitude":32.779167,"longitude":-96.80889,"reserved":0,"last_update":"0001-01-01T00:00:00Z","name_a2s":"Uncletopia | Dallas | 2 | All Maps","protocol":17,"map":"pl_snowycoast","folder":"tf","game":"Team Fortress","app_id":440,"player_count":0,"max_players":24,"Bots":0,"server_type":"Dedicated","server_os":"Linux","password":true,"vac":true,"version":"7880732","steam_id":85568392924469988,"keywords":["nocrits","nodmgspread","payload","uncletopia"],"game_id":440,"stv_port":27026,"stv_name":"Uncletopia | Dallas | 2 | All Maps | STV","players":null},{"server_id":5,"name":"Uncletopia | Frankfurt | 1 | All Maps","name_short":"frk-1","host":"frk-1.de.uncletopia.com","port":27015,"enabled":true,"region":"eu","cc":"de","latitude":50.110924,"longitude":8.682127,"reserved":0,"last_update":"0001-01-01T00:00:00Z","name_a2s":"Uncletopia | Frankfurt | 1 | All Maps","protocol":17,"map":"cp_yukon_final","folder":"tf","game":"Team Fortress","app_id":440,"player_count":0,"max_players":24,"Bots":0,"server_type":"Dedicated","server_os":"Linux","password":true,"vac":true,"version":"7880732","steam_id":85568392924469989,"keywords":["cp","nocrits","nodmgspread","uncletopia"],"game_id":440,"stv_port":27016,"stv_name":"Uncletopia | Frankfurt | 1 | All Maps | STV","players":null},{"server_id":110,"name":"Uncletopia | Frankfurt | 2 | All Maps","name_short":"frk-2","host":"frk-1.de.uncletopia.com","port":27025,"enabled":true,"region":"eu","cc":"de","latitude":50.110924,"longitude":8.682127,"reserved":0,"last_update":"0001-01-01T00:00:00Z","name_a2s":"Uncletopia | Frankfurt | 2 | All Maps","protocol":17,"map":"koth_highpass","folder":"tf","game":"Team Fortress","app_id":440,"player_count":24,"max_players":24,"Bots":0,"server_type":"Dedicated","server_os":"Linux","password":true,"vac":true,"version":"7880732","steam_id":85568392924469990,"keywords":["cp","nocrits","nodmgspread","uncletopia"],"game_id":440,"stv_port":27026,"stv_name":"Uncletopia | Frankfurt | 2 | All Maps | STV","players":[{"user_id":6,"name":"The.Real.Genesis","steam_id":76561198999652040,"connected_time":2589000000000,"state":"active","ping":37},{"user_id":44,"name":"V0iDZMAX","steam_id":76561198153592566,"connected_time":283000000000,"state":"active","ping":54},{"user_id":9,"name":"Michał","steam_id":76561198320346362,"connected_time":2041000000000,"state":"active","ping":50},{"user_id":17,"name":"major snags","steam_id":76561198308393015,"connected_time":1383000000000,"state":"active","ping":65},{"user_id":26,"name":"HatMann","steam_id":76561198821664938,"connected_time":881000000000,"state":"active","ping":86},{"user_id":18,"name":"nyanezt","steam_id":76561198253734265,"connected_time":1380000000000,"state":"active","ping":79},{"user_id":35,"name":"Frank","steam_id":76561198086672774,"connected_time":671000000000,"state":"active","ping":62},{"user_id":32,"name":"Genuine","steam_id":76561197966295765,"connected_time":726000000000,"state":"active","ping":32},{"user_id":49,"name":"poy","steam_id":76561198114063534,"connected_time":163000000000,"state":"active","ping":43},{"user_id":23,"name":"git bash -er","steam_id":76561198072586494,"connected_time":1115000000000,"state":"active","ping":58},{"user_id":24,"name":"skill","steam_id":76561198106012909,"connected_time":1110000000000,"state":"active","ping":69},{"user_id":38,"name":"BELADIT","steam_id":76561198011911501,"connected_time":478000000000,"state":"active","ping":63},{"user_id":28,"name":"the least schizo med main","steam_id":76561198048530109,"connected_time":760000000000,"state":"active","ping":60},{"user_id":39,"name":"Destroy TF2","steam_id":76561198055389492,"connected_time":456000000000,"state":"active","ping":52},{"user_id":41,"name":"увынск","steam_id":76561198172046813,"connected_time":374000000000,"state":"active","ping":74},{"user_id":42,"name":"BubbaGump","steam_id":76561198077479126,"connected_time":353000000000,"state":"active","ping":72},{"user_id":34,"name":"halo 3 rat","steam_id":76561198439007717,"connected_time":676000000000,"state":"active","ping":79},{"user_id":43,"name":"Generic text","steam_id":76561198291962185,"connected_time":300000000000,"state":"active","ping":75},{"user_id":45,"name":"Mlanky","steam_id":76561198047796778,"connected_time":269000000000,"state":"active","ping":46},{"user_id":46,"name":"tired medic main","steam_id":76561198255340533,"connected_time":266000000000,"state":"active","ping":79},{"user_id":47,"name":"$zhern","steam_id":76561198027033926,"connected_time":239000000000,"state":"active","ping":63},{"user_id":48,"name":"Ječmen","steam_id":76561198051617968,"connected_time":202000000000,"state":"active","ping":68},{"user_id":52,"name":"Shlongulator","steam_id":76561198149779201,"connected_time":30000000000,"state":"spawning","ping":74},{"user_id":51,"name":"ComradeFloppy","steam_id":76561198295671740,"connected_time":88000000000,"state":"active","ping":59}]},{"server_id":308,"name":"Uncletopia | Frankfurt | 3 | All Maps","name_short":"frk-3","host":"frk-1.de.uncletopia.com","port":27035,"enabled":true,"region":"eu","cc":"de","latitude":50.110924,"longitude":8.682127,"reserved":0,"last_update":"0001-01-01T00:00:00Z","name_a2s":"Uncletopia | Frankfurt | 3 | All Maps","protocol":17,"map":"cp_altitude","folder":"tf","game":"Team Fortress","app_id":440,"player_count":0,"max_players":24,"Bots":0,"server_type":"Dedicated","server_os":"Linux","password":true,"vac":true,"version":"7880732","steam_id":85568392924504274,"keywords":["cp","nocrits","nodmgspread","uncletopia"],"game_id":440,"stv_port":27036,"stv_name":"Uncletopia | Frankfurt | 3 | All Maps | STV","players":null},{"server_id":309,"name":"Uncletopia | Frankfurt | 4 | All Maps","name_short":"frk-4","host":"frk-1.de.uncletopia.com","port":27045,"enabled":true,"region":"eu","cc":"de","latitude":50.110924,"longitude":8.682127,"reserved":0,"last_update":"0001-01-01T00:00:00Z","name_a2s":"Uncletopia | Frankfurt | 4 | All Maps","protocol":17,"map":"pl_borneo","folder":"tf","game":"Team Fortress","app_id":440,"player_count":24,"max_players":24,"Bots":0,"server_type":"Dedicated","server_os":"Linux","password":true,"vac":true,"version":"7880732","steam_id":85568392924504275,"keywords":["nocrits","nodmgspread","payload","uncletopia"],"game_id":440,"stv_port":27046,"stv_name":"Uncletopia | Frankfurt | 4 | All Maps | STV","players":[{"user_id":3,"name":"Mr_Pulse_","steam_id":76561198095001602,"connected_time":4153000000000,"state":"active","ping":87},{"user_id":60,"name":"uma","steam_id":76561198147976939,"connected_time":526000000000,"state":"active","ping":58},{"user_id":38,"name":"Luuk","steam_id":76561198088266026,"connected_time":2880000000000,"state":"active","ping":51},{"user_id":32,"name":"Pastill","steam_id":76561198067484436,"connected_time":3459000000000,"state":"active","ping":96},{"user_id":8,"name":"Dag!","steam_id":76561198030147941,"connected_time":4044000000000,"state":"active","ping":64},{"user_id":37,"name":"cazador","steam_id":76561198123096922,"connected_time":3119000000000,"state":"active","ping":91},{"user_id":10,"name":"Johan","steam_id":76561199380849468,"connected_time":3991000000000,"state":"active","ping":63},{"user_id":52,"name":"xavier","steam_id":76561198076494034,"connected_time":1762000000000,"state":"active","ping":54},{"user_id":33,"name":"Bambi","steam_id":76561198166972711,"connected_time":3458000000000,"state":"active","ping":71},{"user_id":48,"name":"MAKENTAKEN","steam_id":76561199127359587,"connected_time":2218000000000,"state":"active","ping":88},{"user_id":14,"name":"dimitrij_6ix_god","steam_id":76561199023275543,"connected_time":3903000000000,"state":"active","ping":74},{"user_id":61,"name":"Dan86130","steam_id":76561199187190436,"connected_time":501000000000,"state":"active","ping":66},{"user_id":17,"name":"LordWoodpecker","steam_id":76561198031647387,"connected_time":3823000000000,"state":"active","ping":58},{"user_id":18,"name":"Fat Pigeon","steam_id":76561198817940142,"connected_time":3814000000000,"state":"active","ping":52},{"user_id":20,"name":"LOBZIK","steam_id":76561198114830120,"connected_time":3788000000000,"state":"active","ping":75},{"user_id":63,"name":"ChPerette","steam_id":76561198060004887,"connected_time":470000000000,"state":"active","ping":45},{"user_id":36,"name":"fear","steam_id":76561198043836847,"connected_time":3138000000000,"state":"active","ping":61},{"user_id":23,"name":"Vershal Smershal","steam_id":76561198116223995,"connected_time":3731000000000,"state":"active","ping":60},{"user_id":27,"name":"After8","steam_id":76561198090750865,"connected_time":3677000000000,"state":"active","ping":66},{"user_id":66,"name":"BlueBlueFox","steam_id":76561198053817230,"connected_time":167000000000,"state":"active","ping":76},{"user_id":59,"name":"breedable","steam_id":76561198010300032,"connected_time":791000000000,"state":"active","ping":60},{"user_id":54,"name":"HelwiiHill","steam_id":76561198066730552,"connected_time":1318000000000,"state":"active","ping":91},{"user_id":65,"name":"BLACKBIRD CLOSE [she/her]","steam_id":76561198262910410,"connected_time":402000000000,"state":"active","ping":99},{"user_id":44,"name":"BrownBreadMan","steam_id":76561199092834214,"connected_time":2667000000000,"state":"active","ping":60}]},{"server_id":310,"name":"Uncletopia | Frankfurt | 5 | All Maps","name_short":"frk-5","host":"frk-1.de.uncletopia.com","port":27055,"enabled":true,"region":"eu","cc":"de","latitude":50.110924,"longitude":8.682127,"reserved":0,"last_update":"0001-01-01T00:00:00Z","name_a2s":"Uncletopia | Frankfurt | 5 | All Maps","protocol":17,"map":"cp_yukon_final","folder":"tf","game":"Team Fortress","app_id":440,"player_count":0,"max_players":24,"Bots":0,"server_type":"Dedicated","server_os":"Linux","password":true,"vac":true,"version":"7880732","steam_id":85568392924504277,"keywords":["cp","nocrits","nodmgspread","uncletopia"],"game_id":440,"stv_port":27056,"stv_name":"Uncletopia | Frankfurt | 5 | All Maps | STV","players":null},{"server_id":311,"name":"Uncletopia | Frankfurt | 6 | All Maps","name_short":"frk-6","host":"frk-1.de.uncletopia.com","port":27065,"enabled":true,"region":"eu","cc":"de","latitude":50.110924,"longitude":8.682127,"reserved":0,"last_update":"0001-01-01T00:00:00Z","name_a2s":"Uncletopia | Frankfurt | 6 | All Maps","protocol":17,"map":"cp_yukon_final","folder":"tf","game":"Team Fortress","app_id":440,"player_count":0,"max_players":24,"Bots":0,"server_type":"Dedicated","server_os":"Linux","password":true,"vac":true,"version":"7880732","steam_id":85568392924504278,"keywords":["cp","nocrits","nodmgspread","uncletopia"],"game_id":440,"stv_port":27066,"stv_name":"Uncletopia | Frankfurt | 6 | All Maps | STV","players":null},{"server_id":23,"name":"Uncletopia | Frankfurt | 7 | Stopwatch Beta","name_short":"frk-7","host":"frk-1.de.uncletopia.com","port":27075,"enabled":true,"region":"eu","cc":"de","latitude":50.110924,"longitude":8.682127,"reserved":0,"last_update":"0001-01-01T00:00:00Z","name_a2s":"Uncletopia | Frankfurt | 7 | Stopwatch Beta","protocol":17,"map":"workshop/pl_summercoast_rc8e.ugc1761528829","folder":"tf","game":"Team Fortress","app_id":440,"player_count":0,"max_players":24,"Bots":0,"server_type":"Dedicated","server_os":"Linux","password":true,"vac":true,"version":"7880732","steam_id":85568392924742827,"keywords":["nocrits","nodmgspread","payload","uncletopia"],"game_id":440,"stv_port":27076,"stv_name":"Uncletopia | Frankfurt | 7 | Stopwatch Beta | STV","players":null},{"server_id":24,"name":"Uncletopia | Frankfurt | 8 | Community","name_short":"frk-8","host":"frk-1.de.uncletopia.com","port":27085,"enabled":true,"region":"eu","cc":"de","latitude":50.110924,"longitude":8.682127,"reserved":0,"last_update":"0001-01-01T00:00:00Z","name_a2s":"Uncletopia | Frankfurt | 8 | Community","protocol":17,"map":"workshop/rd_asteroid_redux_b1.ugc2154902912","folder":"tf","game":"Team Fortress","app_id":440,"player_count":0,"max_players":24,"Bots":0,"server_type":"Dedicated","server_os":"Linux","password":true,"vac":true,"version":"7880732","steam_id":85568392924742828,"keywords":["beta","nocrits","nodmgspread","rd","uncletopia"],"game_id":440,"stv_port":27086,"stv_name":"Uncletopia | Frankfurt | 8 | Community | STV","players":null},{"server_id":202,"name":"Uncletopia | Hong Kong | 1 | All Maps","name_short":"hgk-1","host":"hgk-1.hk.uncletopia.com","port":27015,"enabled":true,"region":"asia","cc":"hk","latitude":22.302711,"longitude":114.177216,"reserved":0,"last_update":"0001-01-01T00:00:00Z","name_a2s":"Uncletopia | Hong Kong | 1 | All Maps","protocol":17,"map":"pl_pier","folder":"tf","game":"Team Fortress","app_id":440,"player_count":0,"max_players":24,"Bots":0,"server_type":"Dedicated","server_os":"Linux","password":true,"vac":true,"version":"7880732","steam_id":85568392924494504,"keywords":["nocrits","nodmgspread","payload","uncletopia"],"game_id":440,"stv_port":27016,"stv_name":"Uncletopia | Hong Kong | 1 | All Maps | STV","players":null},{"server_id":1,"name":"Uncletopia | Los Angeles | 1 | All Maps","name_short":"lax-1","host":"lax-1.us.uncletopia.com","port":27015,"enabled":true,"region":"us-west","cc":"us","latitude":33.94279,"longitude":-118.41004,"reserved":0,"last_update":"0001-01-01T00:00:00Z","name_a2s":"Uncletopia | Los Angeles | 1 | All Maps","protocol":17,"map":"pl_swiftwater_final1","folder":"tf","game":"Team Fortress","app_id":440,"player_count":0,"max_players":24,"Bots":0,"server_type":"Dedicated","server_os":"Linux","password":true,"vac":true,"version":"7880732","steam_id":85568392924469991,"keywords":["nocrits","nodmgspread","payload","uncletopia"],"game_id":440,"stv_port":27016,"stv_name":"Uncletopia | Los Angeles | 1 | All Maps | STV","players":null},{"server_id":112,"name":"Uncletopia | Los Angeles | 2 | All Maps","name_short":"lax-2","host":"lax-1.us.uncletopia.com","port":27025,"enabled":true,"region":"us-west","cc":"us","latitude":33.94279,"longitude":-118.41004,"reserved":0,"last_update":"0001-01-01T00:00:00Z","name_a2s":"Uncletopia | Los Angeles | 2 | All Maps","protocol":17,"map":"koth_viaduct","folder":"tf","game":"Team Fortress","app_id":440,"player_count":0,"max_players":24,"Bots":0,"server_type":"Dedicated","server_os":"Linux","password":true,"vac":true,"version":"7880732","steam_id":85568392924469992,"keywords":["cp","nocrits","nodmgspread","uncletopia"],"game_id":440,"stv_port":27026,"stv_name":"Uncletopia | Los Angeles | 2 | All Maps | STV","players":null},{"server_id":324,"name":"Uncletopia | Los Angeles | 3 | All Maps","name_short":"lax-3","host":"lax-1.us.uncletopia.com","port":27035,"enabled":true,"region":"us-west","cc":"us","latitude":33.94279,"longitude":-118.41004,"reserved":0,"last_update":"0001-01-01T00:00:00Z","name_a2s":"Uncletopia | Los Angeles | 3 | All Maps","protocol":17,"map":"pl_borneo","folder":"tf","game":"Team Fortress","app_id":440,"player_count":0,"max_players":24,"Bots":0,"server_type":"Dedicated","server_os":"Linux","password":true,"vac":true,"version":"7880732","steam_id":85568392924510198,"keywords":["nocrits","nodmgspread","payload","uncletopia"],"game_id":440,"stv_port":27036,"stv_name":"Uncletopia | Los Angeles | 3 | All Maps | STV","players":null},{"server_id":25,"name":"Uncletopia | Los Angeles | 4 | Stopwatch Beta","name_short":"lax-4","host":"lax-1.us.uncletopia.com","port":27045,"enabled":true,"region":"us-west","cc":"us","latitude":33.94279,"longitude":-118.41004,"reserved":0,"last_update":"0001-01-01T00:00:00Z","name_a2s":"Uncletopia | Los Angeles | 4 | Stopwatch Beta","protocol":17,"map":"koth_highpass","folder":"tf","game":"Team Fortress","app_id":440,"player_count":0,"max_players":24,"Bots":0,"server_type":"Dedicated","server_os":"Linux","password":true,"vac":true,"version":"7880732","steam_id":85568392924510199,"keywords":["cp","nocrits","nodmgspread","uncletopia"],"game_id":440,"stv_port":27046,"stv_name":"Uncletopia | Los Angeles | 4 | Stopwatch Beta | STV","players":null},{"server_id":11,"name":"Uncletopia | London | 1 | All Maps","name_short":"lon-1","host":"lon-1.uk.uncletopia.com","port":27015,"enabled":true,"region":"eu","cc":"gb","latitude":51.509865,"longitude":-0.118092,"reserved":0,"last_update":"0001-01-01T00:00:00Z","name_a2s":"Uncletopia | London | 1 | All Maps","protocol":17,"map":"pl_badwater","folder":"tf","game":"Team Fortress","app_id":440,"player_count":23,"max_players":24,"Bots":0,"server_type":"Dedicated","server_os":"Linux","password":true,"vac":true,"version":"7880732","steam_id":85568392924367362,"keywords":["nocrits","nodmgspread","payload","uncletopia"],"game_id":440,"stv_port":27016,"stv_name":"Uncletopia | London | 1 | All Maps | STV","players":[{"user_id":70,"name":"Milk","steam_id":76561198125876588,"connected_time":121000000000,"state":"active","ping":45},{"user_id":50,"name":"Themadnessman","steam_id":76561198079732032,"connected_time":2007000000000,"state":"active","ping":83},{"user_id":53,"name":"ThePigKing","steam_id":76561198124945814,"connected_time":1683000000000,"state":"active","ping":54},{"user_id":62,"name":"Guy called Tycho","steam_id":76561198044560715,"connected_time":956000000000,"state":"active","ping":55},{"user_id":57,"name":"Woman (Real)","steam_id":76561199151823932,"connected_time":1223000000000,"state":"active","ping":90},{"user_id":60,"name":"8 Ball","steam_id":76561197960988736,"connected_time":985000000000,"state":"active","ping":46},{"user_id":58,"name":"Peat","steam_id":76561197992168067,"connected_time":1111000000000,"state":"active","ping":65},{"user_id":72,"name":"Reprobus","steam_id":76561198332243756,"connected_time":75000000000,"state":"active","ping":72},{"user_id":61,"name":"Ecy","steam_id":76561198110756682,"connected_time":984000000000,"state":"active","ping":55},{"user_id":37,"name":"MEGOS","steam_id":76561198172740637,"connected_time":2217000000000,"state":"active","ping":60},{"user_id":69,"name":"Soda Drink","steam_id":76561198202990635,"connected_time":142000000000,"state":"active","ping":68},{"user_id":63,"name":"twitch.tv/Dr.Sex","steam_id":76561198029044617,"connected_time":933000000000,"state":"active","ping":45},{"user_id":45,"name":"grim reaper god","steam_id":76561199394194512,"connected_time":2131000000000,"state":"active","ping":59},{"user_id":64,"name":"Strafely","steam_id":76561199242567438,"connected_time":919000000000,"state":"active","ping":66},{"user_id":29,"name":"laser","steam_id":76561198036030697,"connected_time":2334000000000,"state":"active","ping":68},{"user_id":35,"name":"r4s1","steam_id":76561198024034917,"connected_time":2239000000000,"state":"active","ping":51},{"user_id":49,"name":"Rat head","steam_id":76561198184360615,"connected_time":2025000000000,"state":"active","ping":112},{"user_id":47,"name":"boofing prozac","steam_id":76561198851157897,"connected_time":2087000000000,"state":"active","ping":61},{"user_id":65,"name":"Ichbaplaya","steam_id":76561198152701211,"connected_time":839000000000,"state":"active","ping":72},{"user_id":39,"name":"shh... tiny carrots r sleeping","steam_id":76561198069649097,"connected_time":2213000000000,"state":"active","ping":47},{"user_id":67,"name":"ayadam","steam_id":76561198161515769,"connected_time":394000000000,"state":"active","ping":116},{"user_id":41,"name":"Klokov","steam_id":76561198240633534,"connected_time":2195000000000,"state":"active","ping":70},{"user_id":56,"name":"ROBIN HOOD","steam_id":76561198096547662,"connected_time":1428000000000,"state":"active","ping":52}]},{"server_id":114,"name":"Uncletopia | London | 2 | All Maps","name_short":"lon-2","host":"lon-1.uk.uncletopia.com","port":27025,"enabled":true,"region":"eu","cc":"gb","latitude":51.509865,"longitude":-0.118092,"reserved":0,"last_update":"0001-01-01T00:00:00Z","name_a2s":"Uncletopia | London | 2 | All Maps","protocol":17,"map":"pl_badwater","folder":"tf","game":"Team Fortress","app_id":440,"player_count":25,"max_players":24,"Bots":0,"server_type":"Dedicated","server_os":"Linux","password":true,"vac":true,"version":"7880732","steam_id":85568392924470941,"keywords":["nocrits","nodmgspread","payload","uncletopia"],"game_id":440,"stv_port":27026,"stv_name":"Uncletopia | London | 2 | All Maps | STV","players":[{"user_id":78,"name":"sharp stick enjoyer","steam_id":76561198070962612,"connected_time":623000000000,"state":"active","ping":42},{"user_id":51,"name":"6'3 horny aroused male with gun","steam_id":76561199042470246,"connected_time":2590000000000,"state":"active","ping":60},{"user_id":81,"name":"Skinny101","steam_id":76561197985599360,"connected_time":124000000000,"state":"active","ping":52},{"user_id":8,"name":"SPHEEEE","steam_id":76561198410598772,"connected_time":4162000000000,"state":"active","ping":55},{"user_id":9,"name":"CiVillain","steam_id":76561198059617732,"connected_time":4150000000000,"state":"active","ping":61},{"user_id":63,"name":"General Petrov","steam_id":76561198027204104,"connected_time":1395000000000,"state":"active","ping":86},{"user_id":11,"name":"that fat croc from donkey kong","steam_id":76561198159172495,"connected_time":4127000000000,"state":"active","ping":76},{"user_id":66,"name":"WiiSportKing","steam_id":76561198114139081,"connected_time":1343000000000,"state":"active","ping":54},{"user_id":56,"name":"Minimi","steam_id":76561198873850443,"connected_time":2547000000000,"state":"active","ping":45},{"user_id":83,"name":"beurgeur","steam_id":76561198872426314,"connected_time":99000000000,"state":"active","ping":37},{"user_id":50,"name":"thatCerv","steam_id":76561198037798308,"connected_time":2595000000000,"state":"active","ping":59},{"user_id":37,"name":"bachusa1657","steam_id":76561198202175911,"connected_time":3888000000000,"state":"active","ping":78},{"user_id":68,"name":"Terra","steam_id":76561198074482461,"connected_time":1169000000000,"state":"active","ping":98},{"user_id":62,"name":"Oxer","steam_id":76561198055942412,"connected_time":1468000000000,"state":"active","ping":80},{"user_id":43,"name":"nudjura","steam_id":76561198281986139,"connected_time":3400000000000,"state":"active","ping":34},{"user_id":79,"name":"ricky pee pee","steam_id":76561198152620745,"connected_time":185000000000,"state":"active","ping":57},{"user_id":44,"name":"SpaceNut","steam_id":76561198059198302,"connected_time":3230000000000,"state":"active","ping":69},{"user_id":27,"name":"Boil em mash em","steam_id":76561198026508026,"connected_time":4062000000000,"state":"active","ping":67},{"user_id":82,"name":"Stańczyk","steam_id":76561197998906563,"connected_time":114000000000,"state":"active","ping":41},{"user_id":30,"name":"♥ aura ♥","steam_id":76561198066258544,"connected_time":4042000000000,"state":"active","ping":66},{"user_id":49,"name":"yoursbzt","steam_id":76561198201866574,"connected_time":2670000000000,"state":"active","ping":81},{"user_id":67,"name":"cat","steam_id":76561198832231975,"connected_time":1315000000000,"state":"active","ping":93},{"user_id":34,"name":"Gbus","steam_id":76561198072335838,"connected_time":4026000000000,"state":"active","ping":56},{"user_id":76,"name":"ShoobyDooby","steam_id":76561198118473910,"connected_time":681000000000,"state":"active","ping":59},{"user_id":86,"name":"Haha?","steam_id":76561198056882245,"connected_time":2000000000,"state":"spawning","ping":40}]},{"server_id":320,"name":"Uncletopia | London | 3 | All Maps","name_short":"lon-3","host":"lon-1.uk.uncletopia.com","port":27035,"enabled":true,"region":"eu","cc":"gb","latitude":51.509865,"longitude":-0.118092,"reserved":0,"last_update":"0001-01-01T00:00:00Z","name_a2s":"Uncletopia | London | 3 | All Maps","protocol":17,"map":"cp_yukon_final","folder":"tf","game":"Team Fortress","app_id":440,"player_count":0,"max_players":24,"Bots":0,"server_type":"Dedicated","server_os":"Linux","password":true,"vac":true,"version":"7880732","steam_id":85568392924510192,"keywords":["cp","nocrits","nodmgspread","uncletopia"],"game_id":440,"stv_port":27036,"stv_name":"Uncletopia | London | 3 | All Maps | STV","players":null},{"server_id":321,"name":"Uncletopia | London | 4 | All Maps","name_short":"lon-4","host":"lon-1.uk.uncletopia.com","port":27045,"enabled":true,"region":"eu","cc":"gb","latitude":51.509865,"longitude":-0.118092,"reserved":0,"last_update":"0001-01-01T00:00:00Z","name_a2s":"Uncletopia | London | 4 | All Maps","protocol":17,"map":"cp_yukon_final","folder":"tf","game":"Team Fortress","app_id":440,"player_count":0,"max_players":24,"Bots":0,"server_type":"Dedicated","server_os":"Linux","password":true,"vac":true,"version":"7880732","steam_id":85568392924510193,"keywords":["cp","nocrits","nodmgspread","uncletopia"],"game_id":440,"stv_port":27046,"stv_name":"Uncletopia | London | 4 | All Maps | STV","players":null},{"server_id":21,"name":"Uncletopia | London | 5 | All Maps","name_short":"lon-5","host":"lon-1.uk.uncletopia.com","port":27055,"enabled":true,"region":"eu","cc":"gb","latitude":51.509865,"longitude":-0.118092,"reserved":0,"last_update":"0001-01-01T00:00:00Z","name_a2s":"Uncletopia | London | 5 | All Maps","protocol":17,"map":"pl_pier","folder":"tf","game":"Team Fortress","app_id":440,"player_count":24,"max_players":24,"Bots":0,"server_type":"Dedicated","server_os":"Linux","password":true,"vac":true,"version":"7880732","steam_id":85568392924742829,"keywords":["nocrits","nodmgspread","payload","uncletopia"],"game_id":440,"stv_port":27056,"stv_name":"Uncletopia | London | 5 | All Maps | STV","players":[{"user_id":84,"name":"Mata_FM","steam_id":76561198044824504,"connected_time":557000000000,"state":"active","ping":75},{"user_id":71,"name":"nebula","steam_id":76561198155852828,"connected_time":1227000000000,"state":"active","ping":45},{"user_id":12,"name":"meatsoupcube","steam_id":76561198276802249,"connected_time":3936000000000,"state":"active","ping":106},{"user_id":60,"name":"Lyncurion","steam_id":76561199260022725,"connected_time":1809000000000,"state":"active","ping":81},{"user_id":47,"name":"Lil' Peen","steam_id":76561198073852509,"connected_time":2668000000000,"state":"active","ping":44},{"user_id":15,"name":"meriones","steam_id":76561198034234373,"connected_time":3898000000000,"state":"active","ping":44},{"user_id":81,"name":"Famished Capybara","steam_id":76561198799282784,"connected_time":627000000000,"state":"active","ping":68},{"user_id":83,"name":"padillacampos","steam_id":76561198161923970,"connected_time":560000000000,"state":"active","ping":75},{"user_id":72,"name":"FoOzTV","steam_id":76561197998636728,"connected_time":1179000000000,"state":"active","ping":69},{"user_id":85,"name":"Sambuca","steam_id":76561199233979726,"connected_time":555000000000,"state":"active","ping":90},{"user_id":63,"name":"Ferlo","steam_id":76561198095561504,"connected_time":1796000000000,"state":"active","ping":52},{"user_id":86,"name":"Solima","steam_id":76561198045349099,"connected_time":551000000000,"state":"active","ping":59},{"user_id":55,"name":"lol","steam_id":76561198104438656,"connected_time":2073000000000,"state":"active","ping":73},{"user_id":40,"name":"reign","steam_id":76561198047269484,"connected_time":3159000000000,"state":"active","ping":59},{"user_id":64,"name":"Beeman999","steam_id":76561198138266242,"connected_time":1784000000000,"state":"active","ping":62},{"user_id":73,"name":"Wolf","steam_id":76561199131131400,"connected_time":1153000000000,"state":"active","ping":89},{"user_id":87,"name":"better feed sneed","steam_id":76561198079524152,"connected_time":539000000000,"state":"active","ping":68},{"user_id":65,"name":"Rai-the-CobaltClaw","steam_id":76561198027741747,"connected_time":1781000000000,"state":"active","ping":78},{"user_id":26,"name":"moomin","steam_id":76561198200607926,"connected_time":3778000000000,"state":"active","ping":85},{"user_id":88,"name":"Private Sex","steam_id":76561199007574830,"connected_time":521000000000,"state":"active","ping":63},{"user_id":77,"name":"Sonya♥","steam_id":76561198012428880,"connected_time":1019000000000,"state":"active","ping":89},{"user_id":57,"name":"Atlas","steam_id":76561198072189527,"connected_time":1824000000000,"state":"active","ping":54},{"user_id":66,"name":"tube","steam_id":76561198188642265,"connected_time":1781000000000,"state":"active","ping":71},{"user_id":69,"name":"GoatLord1","steam_id":76561198157964544,"connected_time":1386000000000,"state":"active","ping":56}]},{"server_id":22,"name":"Uncletopia | London | 6 | All Maps","name_short":"lon-6","host":"lon-1.uk.uncletopia.com","port":27065,"enabled":true,"region":"eu","cc":"gb","latitude":51.509865,"longitude":-0.118092,"reserved":0,"last_update":"0001-01-01T00:00:00Z","name_a2s":"Uncletopia | London | 6 | All Maps","protocol":17,"map":"pl_snowycoast","folder":"tf","game":"Team Fortress","app_id":440,"player_count":3,"max_players":24,"Bots":0,"server_type":"Dedicated","server_os":"Linux","password":true,"vac":true,"version":"7880732","steam_id":85568392924742830,"keywords":["nocrits","nodmgspread","payload","uncletopia"],"game_id":440,"stv_port":27066,"stv_name":"Uncletopia | London | 6 | All Maps | STV","players":[{"user_id":5,"name":"Ratatatatatatouille","steam_id":76561198182267098,"connected_time":1333000000000,"state":"active","ping":85},{"user_id":6,"name":"Slaught","steam_id":76561198067328985,"connected_time":1322000000000,"state":"active","ping":52},{"user_id":7,"name":"Helpful Hobo","steam_id":76561198250872082,"connected_time":339000000000,"state":"active","ping":226}]},{"server_id":40,"name":"Uncletopia | London | 7 | No Payload","name_short":"lon-7","host":"lon-1.uk.uncletopia.com","port":27075,"enabled":true,"region":"eu","cc":"gb","latitude":51.509865,"longitude":-0.118092,"reserved":0,"last_update":"0001-01-01T00:00:00Z","name_a2s":"Uncletopia | London | 7 | No Payload","protocol":17,"map":"cp_yukon_final","folder":"tf","game":"Team Fortress","app_id":440,"player_count":0,"max_players":24,"Bots":0,"server_type":"Dedicated","server_os":"Linux","password":true,"vac":true,"version":"7880732","steam_id":85568392924964314,"keywords":["cp","nocrits","nodmgspread","uncletopia"],"game_id":440,"stv_port":27076,"stv_name":"Uncletopia | London | 7 | No Payload | STV","players":null},{"server_id":41,"name":"Uncletopia | London | 8 | Community","name_short":"lon-8","host":"lon-1.uk.uncletopia.com","port":27085,"enabled":true,"region":"eu","cc":"gb","latitude":51.509865,"longitude":-0.118092,"reserved":0,"last_update":"0001-01-01T00:00:00Z","name_a2s":"Uncletopia | London | 8 | Community","protocol":17,"map":"workshop/rd_asteroid_redux_b1.ugc2154902912","folder":"tf","game":"Team Fortress","app_id":440,"player_count":0,"max_players":24,"Bots":0,"server_type":"Dedicated","server_os":"Linux","password":true,"vac":true,"version":"7880732","steam_id":85568392924964315,"keywords":["beta","nocrits","nodmgspread","rd","uncletopia"],"game_id":440,"stv_port":27086,"stv_name":"Uncletopia | London | 8 | Community | STV","players":null},{"server_id":300,"name":"Uncletopia | Montréal | 1 | All Maps","name_short":"mtl-1","host":"mtl-1.ca.uncletopia.com","port":27015,"enabled":true,"region":"us-east","cc":"ca","latitude":45.50889,"longitude":-73.56167,"reserved":0,"last_update":"0001-01-01T00:00:00Z","name_a2s":"Uncletopia | Montréal | 1 | All Maps","protocol":17,"map":"cp_yukon_final","folder":"tf","game":"Team Fortress","app_id":440,"player_count":0,"max_players":24,"Bots":0,"server_type":"Dedicated","server_os":"Linux","password":true,"vac":true,"version":"7880732","steam_id":85568392924500087,"keywords":["cp","nocrits","nodmgspread","uncletopia"],"game_id":440,"stv_port":27016,"stv_name":"Uncletopia | Montréal | 1 | All Maps | STV","players":null},{"server_id":301,"name":"Uncletopia | Montréal | 2 | All Maps","name_short":"mtl-2","host":"mtl-1.ca.uncletopia.com","port":27025,"enabled":true,"region":"us-east","cc":"ca","latitude":45.50889,"longitude":-73.56167,"reserved":0,"last_update":"0001-01-01T00:00:00Z","name_a2s":"Uncletopia | Montréal | 2 | All Maps","protocol":17,"map":"koth_cascade","folder":"tf","game":"Team Fortress","app_id":440,"player_count":0,"max_players":24,"Bots":0,"server_type":"Dedicated","server_os":"Linux","password":true,"vac":true,"version":"7880732","steam_id":85568392924500088,"keywords":["cp","nocrits","nodmgspread","uncletopia"],"game_id":440,"stv_port":27026,"stv_name":"Uncletopia | Montréal | 2 | All Maps | STV","players":null},{"server_id":302,"name":"Uncletopia | Montréal | 3 | All Maps","name_short":"mtl-3","host":"mtl-1.ca.uncletopia.com","port":27035,"enabled":true,"region":"us-east","cc":"ca","latitude":45.50889,"longitude":-73.56167,"reserved":0,"last_update":"0001-01-01T00:00:00Z","name_a2s":"Uncletopia | Montréal | 3 | All Maps","protocol":17,"map":"pl_frontier_final","folder":"tf","game":"Team Fortress","app_id":440,"player_count":0,"max_players":24,"Bots":0,"server_type":"Dedicated","server_os":"Linux","password":true,"vac":true,"version":"7880732","steam_id":85568392924500089,"keywords":["nocrits","nodmgspread","payload","uncletopia"],"game_id":440,"stv_port":27036,"stv_name":"Uncletopia | Montréal | 3 | All Maps | STV","players":null},{"server_id":303,"name":"Uncletopia | Montréal | 4 | No Payload","name_short":"mtl-4","host":"mtl-1.ca.uncletopia.com","port":27045,"enabled":true,"region":"us-east","cc":"ca","latitude":45.50889,"longitude":-73.56167,"reserved":0,"last_update":"0001-01-01T00:00:00Z","name_a2s":"Uncletopia | Montréal | 4 | No Payload","protocol":17,"map":"cp_yukon_final","folder":"tf","game":"Team Fortress","app_id":440,"player_count":0,"max_players":24,"Bots":0,"server_type":"Dedicated","server_os":"Linux","password":true,"vac":true,"version":"7880732","steam_id":85568392924500090,"keywords":["cp","nocrits","nodmgspread","uncletopia"],"game_id":440,"stv_port":27046,"stv_name":"Uncletopia | Montréal | 4 | No Payload | STV","players":null},{"server_id":13,"name":"Uncletopia | New York City | 1 | All Maps","name_short":"nyc-1","host":"nyc-1.us.uncletopia.com","port":27015,"enabled":true,"region":"us-east","cc":"us","latitude":40.73061,"longitude":-73.93524,"reserved":0,"last_update":"0001-01-01T00:00:00Z","name_a2s":"Uncletopia | New York City | 1 | All Maps","protocol":17,"map":"pl_barnblitz","folder":"tf","game":"Team Fortress","app_id":440,"player_count":24,"max_players":24,"Bots":0,"server_type":"Dedicated","server_os":"Linux","password":true,"vac":true,"version":"7880732","steam_id":85568392924469993,"keywords":["nocrits","nodmgspread","payload","uncletopia"],"game_id":440,"stv_port":27016,"stv_name":"Uncletopia | New York City | 1 | All Maps | STV","players":[{"user_id":60,"name":"Inpecular","steam_id":76561198096571237,"connected_time":790000000000,"state":"active","ping":90},{"user_id":68,"name":"poiuytrewqwqwqwqwqwqwqwqwqwqwqw","steam_id":76561199105253001,"connected_time":114000000000,"state":"active","ping":54},{"user_id":63,"name":"CFGU || RAWRWAFL","steam_id":76561198032118386,"connected_time":543000000000,"state":"active","ping":96},{"user_id":7,"name":"drdoofus123","steam_id":76561198016826181,"connected_time":3475000000000,"state":"active","ping":63},{"user_id":57,"name":"val","steam_id":76561198177716494,"connected_time":816000000000,"state":"active","ping":45},{"user_id":47,"name":"Reaper","steam_id":76561198435826103,"connected_time":1982000000000,"state":"active","ping":98},{"user_id":10,"name":"ludacris #1 rapper","steam_id":76561198070380404,"connected_time":3188000000000,"state":"active","ping":44},{"user_id":11,"name":"HollyBlocky","steam_id":76561198030156100,"connected_time":3130000000000,"state":"active","ping":75},{"user_id":41,"name":"Crazy Ivan","steam_id":76561197993072059,"connected_time":2220000000000,"state":"active","ping":61},{"user_id":51,"name":"The Loveable CHI.I.BI.","steam_id":76561198039262228,"connected_time":1757000000000,"state":"active","ping":62},{"user_id":70,"name":"elincyt","steam_id":76561198967771724,"connected_time":87000000000,"state":"spawning","ping":73},{"user_id":36,"name":"Truffleoil","steam_id":76561198114689041,"connected_time":2552000000000,"state":"active","ping":58},{"user_id":37,"name":"Stupid Sexy Flanders","steam_id":76561198136311983,"connected_time":2544000000000,"state":"active","ping":71},{"user_id":66,"name":"Ghost Mountain","steam_id":76561198273383183,"connected_time":269000000000,"state":"active","ping":76},{"user_id":46,"name":"cool safe name","steam_id":76561198237827742,"connected_time":2008000000000,"state":"active","ping":47},{"user_id":45,"name":"monke12344","steam_id":76561199274757725,"connected_time":2053000000000,"state":"active","ping":73},{"user_id":72,"name":"Victor Skull","steam_id":76561198352212864,"connected_time":9000000000,"state":"spawning","ping":85},{"user_id":44,"name":"American Bread","steam_id":76561198325062089,"connected_time":2163000000000,"state":"active","ping":71},{"user_id":64,"name":"Hank the Tank","steam_id":76561198424853684,"connected_time":501000000000,"state":"active","ping":67},{"user_id":23,"name":"Panic Opossum","steam_id":76561198043838227,"connected_time":3066000000000,"state":"active","ping":60},{"user_id":59,"name":"Broadsword","steam_id":76561198011160411,"connected_time":792000000000,"state":"active","ping":80},{"user_id":67,"name":"Meth cooker","steam_id":76561199371685870,"connected_time":205000000000,"state":"active","ping":70},{"user_id":39,"name":"MEEEHH DIIICCKKK","steam_id":76561199315167502,"connected_time":2495000000000,"state":"active","ping":61},{"user_id":69,"name":"Kritzburgh","steam_id":76561198149466938,"connected_time":109000000000,"state":"active","ping":53}]},{"server_id":14,"name":"Uncletopia | New York City | 2 | All Maps","name_short":"nyc-2","host":"nyc-1.us.uncletopia.com","port":27025,"enabled":true,"region":"us-east","cc":"us","latitude":40.73061,"longitude":-73.93524,"reserved":0,"last_update":"0001-01-01T00:00:00Z","name_a2s":"Uncletopia | New York City | 2 | All Maps","protocol":17,"map":"pl_barnblitz","folder":"tf","game":"Team Fortress","app_id":440,"player_count":24,"max_players":24,"Bots":0,"server_type":"Dedicated","server_os":"Linux","password":true,"vac":true,"version":"7880732","steam_id":85568392924469994,"keywords":["nocrits","nodmgspread","payload","uncletopia"],"game_id":440,"stv_port":27026,"stv_name":"Uncletopia | New York City | 2 | All Maps | STV","players":[{"user_id":50,"name":"bruhvil","steam_id":76561199148843989,"connected_time":56000000000,"state":"active","ping":115},{"user_id":7,"name":"Waaagh!","steam_id":76561197995317887,"connected_time":2350000000000,"state":"active","ping":60},{"user_id":39,"name":"abed","steam_id":76561198072856511,"connected_time":616000000000,"state":"active","ping":69},{"user_id":52,"name":"professional twelve year old","steam_id":76561198858796870,"connected_time":34000000000,"state":"active","ping":103},{"user_id":41,"name":"SnareString","steam_id":76561199082119457,"connected_time":583000000000,"state":"active","ping":122},{"user_id":12,"name":"Guy In A Peashooter Costume","steam_id":76561198832738000,"connected_time":1642000000000,"state":"active","ping":69},{"user_id":51,"name":"Sychke","steam_id":76561198067144055,"connected_time":42000000000,"state":"active","ping":60},{"user_id":53,"name":"Corn Dog","steam_id":76561198014276989,"connected_time":33000000000,"state":"active","ping":88},{"user_id":54,"name":"what","steam_id":76561198082336619,"connected_time":27000000000,"state":"active","ping":63},{"user_id":18,"name":"gfloum","steam_id":76561198817585886,"connected_time":1143000000000,"state":"active","ping":173},{"user_id":37,"name":"Si.","steam_id":76561198107650444,"connected_time":654000000000,"state":"active","ping":81},{"user_id":48,"name":"BigBubble42","steam_id":76561198136286123,"connected_time":145000000000,"state":"active","ping":68},{"user_id":23,"name":"IPlayGamez","steam_id":76561198041387508,"connected_time":1011000000000,"state":"active","ping":53},{"user_id":31,"name":"Yakul","steam_id":76561198100040013,"connected_time":754000000000,"state":"active","ping":91},{"user_id":25,"name":"Mighty","steam_id":76561198096569755,"connected_time":917000000000,"state":"active","ping":128},{"user_id":26,"name":"Ceiling Man","steam_id":76561198003959902,"connected_time":916000000000,"state":"active","ping":44},{"user_id":27,"name":"M∞nMan","steam_id":76561198045287074,"connected_time":892000000000,"state":"active","ping":58},{"user_id":55,"name":"PGReddd","steam_id":76561198196771733,"connected_time":21000000000,"state":"active","ping":248},{"user_id":29,"name":"STENDO_CLIP","steam_id":76561198059570167,"connected_time":851000000000,"state":"active","ping":103},{"user_id":32,"name":"pinkissocool {f2p}","steam_id":76561198989599828,"connected_time":750000000000,"state":"active","ping":42},{"user_id":38,"name":"spherewithahat","steam_id":76561199122192660,"connected_time":640000000000,"state":"active","ping":57},{"user_id":49,"name":"LemonZest","steam_id":76561199196369249,"connected_time":145000000000,"state":"active","ping":68},{"user_id":43,"name":"pickles8080","steam_id":76561198352109679,"connected_time":549000000000,"state":"active","ping":65},{"user_id":47,"name":"Dennisvr97","steam_id":76561198016721121,"connected_time":425000000000,"state":"active","ping":146}]},{"server_id":15,"name":"Uncletopia | New York City | 3 | Stopwatch Beta","name_short":"nyc-3","host":"nyc-1.us.uncletopia.com","port":27035,"enabled":true,"region":"us-east","cc":"us","latitude":40.73061,"longitude":-73.93524,"reserved":0,"last_update":"0001-01-01T00:00:00Z","name_a2s":"Uncletopia | New York City | 3 | Stopwatch Beta","protocol":17,"map":"koth_cascade","folder":"tf","game":"Team Fortress","app_id":440,"player_count":0,"max_players":24,"Bots":0,"server_type":"Dedicated","server_os":"Linux","password":true,"vac":true,"version":"7880732","steam_id":85568392924742820,"keywords":["cp","nocrits","nodmgspread","uncletopia"],"game_id":440,"stv_port":27036,"stv_name":"Uncletopia | New York City | 3 | Stopwatch Beta | STV","players":null},{"server_id":16,"name":"Uncletopia | New York City | 4 | Community","name_short":"nyc-4","host":"nyc-1.us.uncletopia.com","port":27045,"enabled":true,"region":"us-east","cc":"us","latitude":40.73061,"longitude":-73.93524,"reserved":0,"last_update":"0001-01-01T00:00:00Z","name_a2s":"Uncletopia | New York City | 4 | Community","protocol":17,"map":"workshop/rd_asteroid_redux_b1.ugc2154902912","folder":"tf","game":"Team Fortress","app_id":440,"player_count":0,"max_players":24,"Bots":0,"server_type":"Dedicated","server_os":"Linux","password":true,"vac":true,"version":"7880732","steam_id":85568392924742821,"keywords":["beta","nocrits","nodmgspread","rd","uncletopia"],"game_id":440,"stv_port":27046,"stv_name":"Uncletopia | New York City | 4 | Community | STV","players":null},{"server_id":142,"name":"Uncletopia | São Paulo | 1 | All Maps","name_short":"sao-1","host":"sao-1.br.uncletopia.com","port":27015,"enabled":true,"region":"sa","cc":"br","latitude":-23.533773,"longitude":-46.62529,"reserved":0,"last_update":"0001-01-01T00:00:00Z","name_a2s":"Uncletopia | São Paulo | 1 | All Maps","protocol":17,"map":"koth_cascade","folder":"tf","game":"Team Fortress","app_id":440,"player_count":0,"max_players":24,"Bots":0,"server_type":"Dedicated","server_os":"Linux","password":true,"vac":true,"version":"7880732","steam_id":85568392924469996,"keywords":["cp","nocrits","nodmgspread","uncletopia"],"game_id":440,"stv_port":27016,"stv_name":"Uncletopia | São Paulo | 1 | All Maps | STV","players":null},{"server_id":143,"name":"Uncletopia | São Paulo | 2 | All Maps","name_short":"sao-2","host":"sao-2.br.uncletopia.com","port":27015,"enabled":true,"region":"sa","cc":"br","latitude":-23.533773,"longitude":-46.62529,"reserved":0,"last_update":"0001-01-01T00:00:00Z","name_a2s":"Uncletopia | São Paulo | 2 | All Maps","protocol":17,"map":"koth_highpass","folder":"tf","game":"Team Fortress","app_id":440,"player_count":2,"max_players":24,"Bots":0,"server_type":"Dedicated","server_os":"Linux","password":true,"vac":true,"version":"7880732","steam_id":85568392924485349,"keywords":["cp","nocrits","nodmgspread","uncletopia"],"game_id":440,"stv_port":27016,"stv_name":"Uncletopia | São Paulo | 2 | All Maps | STV","players":[{"user_id":10,"name":"guarda-chuva","steam_id":76561198078694330,"connected_time":1021000000000,"state":"active","ping":54},{"user_id":11,"name":"Tert_14","steam_id":76561198185952289,"connected_time":1018000000000,"state":"active","ping":66}]},{"server_id":7,"name":"Uncletopia | Seattle | 1 | All Maps","name_short":"sea-1","host":"sea-1.us.uncletopia.com","port":27015,"enabled":true,"region":"us-west","cc":"us","latitude":47.608013,"longitude":-122.33517,"reserved":0,"last_update":"0001-01-01T00:00:00Z","name_a2s":"Uncletopia | Seattle | 1 | All Maps","protocol":17,"map":"pl_badwater","folder":"tf","game":"Team Fortress","app_id":440,"player_count":24,"max_players":24,"Bots":0,"server_type":"Dedicated","server_os":"Linux","password":true,"vac":true,"version":"7880732","steam_id":85568392924469997,"keywords":["nocrits","nodmgspread","payload","uncletopia"],"game_id":440,"stv_port":27016,"stv_name":"Uncletopia | Seattle | 1 | All Maps | STV","players":[{"user_id":60,"name":"Snailbarf","steam_id":76561197993545268,"connected_time":1078000000000,"state":"active","ping":87},{"user_id":6,"name":"liliLovesUnicorns83","steam_id":76561199391478575,"connected_time":3887000000000,"state":"active","ping":73},{"user_id":47,"name":"Mico (Mico)","steam_id":76561198125462953,"connected_time":2067000000000,"state":"active","ping":47},{"user_id":9,"name":"The Professor","steam_id":76561198046165617,"connected_time":3745000000000,"state":"active","ping":87},{"user_id":64,"name":"RaixaR","steam_id":76561198025289430,"connected_time":308000000000,"state":"active","ping":102},{"user_id":12,"name":"MisterManne","steam_id":76561198106598600,"connected_time":3629000000000,"state":"active","ping":55},{"user_id":48,"name":"Daperlin","steam_id":76561198091299113,"connected_time":2030000000000,"state":"active","ping":130},{"user_id":34,"name":"BlazedBunny","steam_id":76561198243610560,"connected_time":3125000000000,"state":"active","ping":81},{"user_id":56,"name":"Pah-Wraith Gul Dukat","steam_id":76561198033918106,"connected_time":1290000000000,"state":"active","ping":83},{"user_id":66,"name":"Punished Jeff (Drain Messiah)","steam_id":76561198304252584,"connected_time":297000000000,"state":"active","ping":65},{"user_id":45,"name":"Smile","steam_id":76561198110008786,"connected_time":2233000000000,"state":"active","ping":45},{"user_id":18,"name":"cool beans","steam_id":76561198045758072,"connected_time":3466000000000,"state":"active","ping":60},{"user_id":22,"name":"porfer","steam_id":76561199118049168,"connected_time":3282000000000,"state":"active","ping":81},{"user_id":51,"name":"Lock'd","steam_id":76561198170108230,"connected_time":1723000000000,"state":"active","ping":76},{"user_id":39,"name":"Super crak 202 9","steam_id":76561199176207530,"connected_time":2830000000000,"state":"active","ping":91},{"user_id":61,"name":"SpinetinglingToast","steam_id":76561198099470670,"connected_time":840000000000,"state":"active","ping":123},{"user_id":52,"name":"Fh","steam_id":76561198000903511,"connected_time":1661000000000,"state":"active","ping":61},{"user_id":53,"name":"Grill Skills","steam_id":76561198053575147,"connected_time":1606000000000,"state":"active","ping":65},{"user_id":27,"name":"YesMargaret","steam_id":76561198127971751,"connected_time":3237000000000,"state":"active","ping":115},{"user_id":67,"name":"Ricky Dicky Doo Dah Grimes","steam_id":76561198143221900,"connected_time":6000000000,"state":"spawning","ping":353},{"user_id":59,"name":"DaBigA","steam_id":76561198326492538,"connected_time":1101000000000,"state":"active","ping":55},{"user_id":54,"name":"ShiverBorn","steam_id":76561198384811149,"connected_time":1599000000000,"state":"active","ping":121},{"user_id":44,"name":"everytime we touch nightcore","steam_id":76561198049258493,"connected_time":2352000000000,"state":"active","ping":45},{"user_id":46,"name":"mega","steam_id":76561198089520959,"connected_time":2232000000000,"state":"active","ping":100}]},{"server_id":119,"name":"Uncletopia | Seattle | 2 | All Maps","name_short":"sea-2","host":"sea-1.us.uncletopia.com","port":27025,"enabled":true,"region":"us-west","cc":"us","latitude":47.608013,"longitude":-122.33517,"reserved":0,"last_update":"0001-01-01T00:00:00Z","name_a2s":"Uncletopia | Seattle | 2 | All Maps","protocol":17,"map":"pl_snowycoast","folder":"tf","game":"Team Fortress","app_id":440,"player_count":24,"max_players":24,"Bots":0,"server_type":"Dedicated","server_os":"Linux","password":true,"vac":true,"version":"7880732","steam_id":85568392924469998,"keywords":["nocrits","nodmgspread","payload","uncletopia"],"game_id":440,"stv_port":27026,"stv_name":"Uncletopia | Seattle | 2 | All Maps | STV","players":[{"user_id":8,"name":"a cat plushie","steam_id":76561198080046542,"connected_time":2348000000000,"state":"active","ping":49},{"user_id":36,"name":"emissions_master","steam_id":76561198870649125,"connected_time":526000000000,"state":"active","ping":79},{"user_id":37,"name":"RefriedToast","steam_id":76561198166187853,"connected_time":472000000000,"state":"active","ping":81},{"user_id":9,"name":"[TTV]slendermansmoom","steam_id":76561199053946374,"connected_time":2308000000000,"state":"active","ping":66},{"user_id":34,"name":"Lolxdloldx","steam_id":76561198136887125,"connected_time":1446000000000,"state":"active","ping":100},{"user_id":12,"name":"dweamy","steam_id":76561198119181880,"connected_time":2032000000000,"state":"active","ping":89},{"user_id":13,"name":"GrabHis_AndTwist_It","steam_id":76561198139155108,"connected_time":2026000000000,"state":"active","ping":131},{"user_id":14,"name":"Semeka","steam_id":76561198405404117,"connected_time":1999000000000,"state":"active","ping":46},{"user_id":35,"name":"COOL master_9","steam_id":76561198073041151,"connected_time":1281000000000,"state":"active","ping":124},{"user_id":16,"name":"Goose","steam_id":76561198036774894,"connected_time":1956000000000,"state":"active","ping":53},{"user_id":38,"name":"GamerMan","steam_id":76561199058616824,"connected_time":447000000000,"state":"active","ping":82},{"user_id":18,"name":"serious jester","steam_id":76561198079609974,"connected_time":1815000000000,"state":"active","ping":86},{"user_id":39,"name":"Jade Greenleaf","steam_id":76561198304845413,"connected_time":440000000000,"state":"active","ping":149},{"user_id":45,"name":"Gaiduk","steam_id":76561198112323877,"connected_time":58000000000,"state":"active","ping":136},{"user_id":33,"name":"Finkly","steam_id":76561198049828110,"connected_time":1465000000000,"state":"active","ping":47},{"user_id":32,"name":"Chimpanzee","steam_id":76561198850387282,"connected_time":1525000000000,"state":"active","ping":131},{"user_id":23,"name":"Honeybunch","steam_id":76561198014850580,"connected_time":1738000000000,"state":"active","ping":39},{"user_id":24,"name":"Portal2Player","steam_id":76561198062870114,"connected_time":1730000000000,"state":"active","ping":131},{"user_id":25,"name":"FI LO","steam_id":76561198976530881,"connected_time":1718000000000,"state":"active","ping":66},{"user_id":26,"name":"walterslittlekitten2014","steam_id":76561198127211709,"connected_time":1701000000000,"state":"active","ping":121},{"user_id":28,"name":"astro☆","steam_id":76561198284131272,"connected_time":1691000000000,"state":"active","ping":99},{"user_id":29,"name":"Freddy","steam_id":76561198211717529,"connected_time":1687000000000,"state":"active","ping":102},{"user_id":30,"name":"PPFitzenreit","steam_id":76561199381005210,"connected_time":1644000000000,"state":"active","ping":89},{"user_id":44,"name":"Seriously Bruh","steam_id":76561198070408485,"connected_time":208000000000,"state":"active","ping":51}]},{"server_id":406,"name":"Uncletopia | Seattle | 3 | Stopwatch Beta","name_short":"sea-3","host":"sea-1.us.uncletopia.com","port":27035,"enabled":true,"region":"us-west","cc":"us","latitude":47.608013,"longitude":-122.33517,"reserved":0,"last_update":"0001-01-01T00:00:00Z","name_a2s":"Uncletopia | Seattle | 3 | Stopwatch Beta","protocol":17,"map":"pl_badwater","folder":"tf","game":"Team Fortress","app_id":440,"player_count":0,"max_players":24,"Bots":0,"server_type":"Dedicated","server_os":"Linux","password":true,"vac":true,"version":"7880732","steam_id":85568392924515217,"keywords":["nocrits","nodmgspread","payload","uncletopia"],"game_id":440,"stv_port":27036,"stv_name":"Uncletopia | Seattle | 3 | Stopwatch Beta | STV","players":null},{"server_id":17,"name":"Uncletopia | San Francisco | 1 | All Maps","name_short":"sfo-1","host":"sfo-1.us.uncletopia.com","port":27015,"enabled":true,"region":"us-west","cc":"us","latitude":37.77397,"longitude":-122.4313,"reserved":0,"last_update":"0001-01-01T00:00:00Z","name_a2s":"Uncletopia | San Francisco | 1 | All Maps","protocol":17,"map":"cp_altitude","folder":"tf","game":"Team Fortress","app_id":440,"player_count":0,"max_players":24,"Bots":0,"server_type":"Dedicated","server_os":"Linux","password":true,"vac":true,"version":"7757534","steam_id":85568392924469999,"keywords":["cp","nocrits","nodmgspread","uncletopia"],"game_id":440,"stv_port":27016,"stv_name":"Uncletopia | San Francisco | 1 | All Maps | STV","players":null},{"server_id":18,"name":"Uncletopia | San Francisco | 2 | All Maps","name_short":"sfo-2","host":"sfo-1.us.uncletopia.com","port":27025,"enabled":true,"region":"us-west","cc":"us","latitude":37.77397,"longitude":-122.4313,"reserved":0,"last_update":"0001-01-01T00:00:00Z","name_a2s":"Uncletopia | San Francisco | 2 | All Maps","protocol":17,"map":"koth_highpass","folder":"tf","game":"Team Fortress","app_id":440,"player_count":0,"max_players":24,"Bots":0,"server_type":"Dedicated","server_os":"Linux","password":true,"vac":true,"version":"7757534","steam_id":85568392924470000,"keywords":["cp","nocrits","nodmgspread","uncletopia"],"game_id":440,"stv_port":27026,"stv_name":"Uncletopia | San Francisco | 2 | All Maps | STV","players":null},{"server_id":19,"name":"Uncletopia | San Francisco | 3 | Stopwatch Beta","name_short":"sfo-3","host":"sfo-1.us.uncletopia.com","port":27035,"enabled":true,"region":"us-west","cc":"us","latitude":37.77397,"longitude":-122.4313,"reserved":0,"last_update":"0001-01-01T00:00:00Z","name_a2s":"Uncletopia | San Francisco | 3 | Stopwatch Beta","protocol":17,"map":"koth_lakeside_final","folder":"tf","game":"Team Fortress","app_id":440,"player_count":0,"max_players":24,"Bots":0,"server_type":"Dedicated","server_os":"Linux","password":true,"vac":true,"version":"7757534","steam_id":85568392924742824,"keywords":["cp","nocrits","nodmgspread","uncletopia"],"game_id":440,"stv_port":27036,"stv_name":"Uncletopia | San Francisco | 3 | Stopwatch Beta | STV","players":null},{"server_id":20,"name":"Uncletopia | San Francisco | 4 | Community","name_short":"sfo-4","host":"sfo-1.us.uncletopia.com","port":27045,"enabled":true,"region":"us-west","cc":"us","latitude":37.77397,"longitude":-122.4313,"reserved":0,"last_update":"0001-01-01T00:00:00Z","name_a2s":"Uncletopia | San Francisco | 4 | Community","protocol":17,"map":"cp_altitude","folder":"tf","game":"Team Fortress","app_id":440,"player_count":0,"max_players":24,"Bots":0,"server_type":"Dedicated","server_os":"Linux","password":true,"vac":true,"version":"7757534","steam_id":85568392924742826,"keywords":["cp","nocrits","nodmgspread","uncletopia"],"game_id":440,"stv_port":27046,"stv_name":"Uncletopia | San Francisco | 4 | Community | STV","players":null},{"server_id":141,"name":"Uncletopia | Sydney | 1 | All Maps","name_short":"syd-1","host":"syd-1.au.uncletopia.com","port":27015,"enabled":true,"region":"au","cc":"au","latitude":-33.865143,"longitude":151.2099,"reserved":0,"last_update":"0001-01-01T00:00:00Z","name_a2s":"Uncletopia | Sydney | 1 | All Maps","protocol":17,"map":"pl_pier","folder":"tf","game":"Team Fortress","app_id":440,"player_count":0,"max_players":24,"Bots":0,"server_type":"Dedicated","server_os":"Linux","password":true,"vac":true,"version":"7880732","steam_id":85568392924470001,"keywords":["nocrits","nodmgspread","payload","uncletopia"],"game_id":440,"stv_port":27016,"stv_name":"Uncletopia | Sydney | 1 | All Maps | STV","players":null},{"server_id":123,"name":"Uncletopia | Sydney | 2 | All Maps","name_short":"syd-2","host":"syd-1.au.uncletopia.com","port":27025,"enabled":true,"region":"au","cc":"au","latitude":-33.865143,"longitude":151.2099,"reserved":0,"last_update":"0001-01-01T00:00:00Z","name_a2s":"Uncletopia | Sydney | 2 | All Maps","protocol":17,"map":"pl_swiftwater_final1","folder":"tf","game":"Team Fortress","app_id":440,"player_count":0,"max_players":24,"Bots":0,"server_type":"Dedicated","server_os":"Linux","password":true,"vac":true,"version":"7880732","steam_id":85568392924470002,"keywords":["nocrits","nodmgspread","payload","uncletopia"],"game_id":440,"stv_port":27026,"stv_name":"Uncletopia | Sydney | 2 | All Maps | STV","players":null},{"server_id":395,"name":"Uncletopia | Sydney | 3 | All Maps","name_short":"syd-3","host":"syd-1.au.uncletopia.com","port":27035,"enabled":true,"region":"au","cc":"au","latitude":-33.865143,"longitude":151.2099,"reserved":0,"last_update":"0001-01-01T00:00:00Z","name_a2s":"Uncletopia | Sydney | 3 | All Maps","protocol":17,"map":"koth_viaduct","folder":"tf","game":"Team Fortress","app_id":440,"player_count":0,"max_players":24,"Bots":0,"server_type":"Dedicated","server_os":"Linux","password":true,"vac":true,"version":"7880732","steam_id":85568392925194467,"keywords":["cp","nocrits","nodmgspread","uncletopia"],"game_id":440,"stv_port":27036,"stv_name":"Uncletopia | Sydney | 3 | All Maps | STV","players":null},{"server_id":396,"name":"Uncletopia | Sydney | 4 | All Maps","name_short":"syd-4","host":"syd-1.au.uncletopia.com","port":27045,"enabled":true,"region":"au","cc":"au","latitude":-33.865143,"longitude":151.2099,"reserved":0,"last_update":"0001-01-01T00:00:00Z","name_a2s":"Uncletopia | Sydney | 4 | All Maps","protocol":17,"map":"pl_upward","folder":"tf","game":"Team Fortress","app_id":440,"player_count":0,"max_players":24,"Bots":0,"server_type":"Dedicated","server_os":"Linux","password":true,"vac":true,"version":"7880732","steam_id":85568392925397958,"keywords":["nocrits","nodmgspread","payload","uncletopia"],"game_id":440,"stv_port":27046,"stv_name":"Uncletopia | Sydney | 4 | All Maps | STV","players":null},{"server_id":58,"name":"Uncletopia | Sydney | 5 | Stopwatch Beta","name_short":"syd-5","host":"syd-1.au.uncletopia.com","port":27055,"enabled":true,"region":"au","cc":"au","latitude":-33.865143,"longitude":151.2099,"reserved":0,"last_update":"0001-01-01T00:00:00Z","name_a2s":"Uncletopia | Sydney | 5 | Stopwatch Beta","protocol":17,"map":"cp_altitude","folder":"tf","game":"Team Fortress","app_id":440,"player_count":0,"max_players":24,"Bots":0,"server_type":"Dedicated","server_os":"Linux","password":true,"vac":true,"version":"7880732","steam_id":85568392925397959,"keywords":["cp","nocrits","nodmgspread","uncletopia"],"game_id":440,"stv_port":27056,"stv_name":"Uncletopia | Sydney | 5 | Stopwatch Beta | STV","players":null},{"server_id":59,"name":"Uncletopia | Sydney | 6 | Community","name_short":"syd-6","host":"syd-1.au.uncletopia.com","port":27065,"enabled":true,"region":"au","cc":"au","latitude":-33.865143,"longitude":151.2099,"reserved":0,"last_update":"0001-01-01T00:00:00Z","name_a2s":"Uncletopia | Sydney | 6 | Community","protocol":17,"map":"pl_borneo","folder":"tf","game":"Team Fortress","app_id":440,"player_count":0,"max_players":24,"Bots":0,"server_type":"Dedicated","server_os":"Linux","password":true,"vac":true,"version":"7880732","steam_id":85568392925397960,"keywords":["nocrits","nodmgspread","payload","uncletopia"],"game_id":440,"stv_port":27066,"stv_name":"Uncletopia | Sydney | 6 | Community | STV","players":null},{"server_id":49,"name":"Uncletopia | Warsaw | 1 | All Maps","name_short":"waw-1","host":"waw-1.pl.uncletopia.com","port":27015,"enabled":true,"region":"eu","cc":"pl","latitude":52.2297,"longitude":21.017532,"reserved":0,"last_update":"0001-01-01T00:00:00Z","name_a2s":"","protocol":0,"map":"","folder":"","game":"","app_id":0,"player_count":0,"max_players":0,"Bots":0,"server_type":"","server_os":"","password":false,"vac":false,"version":"","steam_id":0,"keywords":null,"game_id":0,"stv_port":0,"stv_name":"","players":null},{"server_id":50,"name":"Uncletopia | Warsaw | 2 | All Maps","name_short":"waw-2","host":"waw-1.pl.uncletopia.com","port":27025,"enabled":true,"region":"eu","cc":"pl","latitude":52.2297,"longitude":21.017532,"reserved":0,"last_update":"0001-01-01T00:00:00Z","name_a2s":"Uncletopia | Warsaw | 2 | All Maps","protocol":17,"map":"cp_yukon_final","folder":"tf","game":"Team Fortress","app_id":440,"player_count":0,"max_players":24,"Bots":0,"server_type":"Dedicated","server_os":"Linux","password":true,"vac":true,"version":"7880732","steam_id":85568392925397851,"keywords":["cp","nocrits","nodmgspread","uncletopia"],"game_id":440,"stv_port":27026,"stv_name":"Uncletopia | Warsaw | 2 | All Maps | STV","players":null},{"server_id":51,"name":"Uncletopia | Warsaw | 3 | All Maps","name_short":"waw-3","host":"waw-1.pl.uncletopia.com","port":27035,"enabled":true,"region":"eu","cc":"pl","latitude":52.2297,"longitude":21.017532,"reserved":0,"last_update":"0001-01-01T00:00:00Z","name_a2s":"Uncletopia | Warsaw | 3 | All Maps","protocol":17,"map":"cp_yukon_final","folder":"tf","game":"Team Fortress","app_id":440,"player_count":0,"max_players":24,"Bots":0,"server_type":"Dedicated","server_os":"Linux","password":true,"vac":true,"version":"7880732","steam_id":85568392925397852,"keywords":["cp","nocrits","nodmgspread","uncletopia"],"game_id":440,"stv_port":27036,"stv_name":"Uncletopia | Warsaw | 3 | All Maps | STV","players":null},{"server_id":52,"name":"Uncletopia | Warsaw | 4 | All Maps","name_short":"waw-4","host":"waw-1.pl.uncletopia.com","port":27045,"enabled":true,"region":"eu","cc":"pl","latitude":52.2297,"longitude":21.017532,"reserved":0,"last_update":"0001-01-01T00:00:00Z","name_a2s":"Uncletopia | Warsaw | 4 | All Maps","protocol":17,"map":"cp_yukon_final","folder":"tf","game":"Team Fortress","app_id":440,"player_count":0,"max_players":24,"Bots":0,"server_type":"Dedicated","server_os":"Linux","password":true,"vac":true,"version":"7880732","steam_id":85568392925397853,"keywords":["cp","nocrits","nodmgspread","uncletopia"],"game_id":440,"stv_port":27046,"stv_name":"Uncletopia | Warsaw | 4 | All Maps | STV","players":null},{"server_id":53,"name":"Uncletopia | Warsaw | 5 | Stopwatch Beta","name_short":"waw-5","host":"waw-1.pl.uncletopia.com","port":27055,"enabled":true,"region":"eu","cc":"pl","latitude":52.2297,"longitude":21.017532,"reserved":0,"last_update":"0001-01-01T00:00:00Z","name_a2s":"Uncletopia | Warsaw | 5 | Stopwatch Beta","protocol":17,"map":"workshop/koth_ramjam_rc1.ugc459778887","folder":"tf","game":"Team Fortress","app_id":440,"player_count":0,"max_players":24,"Bots":0,"server_type":"Dedicated","server_os":"Linux","password":true,"vac":true,"version":"7880732","steam_id":85568392925397854,"keywords":["cp","nocrits","nodmgspread","uncletopia"],"game_id":440,"stv_port":27056,"stv_name":"Uncletopia | Warsaw | 5 | Stopwatch Beta | STV","players":null},{"server_id":54,"name":"Uncletopia | Warsaw | 6 | Community","name_short":"waw-6","host":"waw-1.pl.uncletopia.com","port":27065,"enabled":true,"region":"eu","cc":"pl","latitude":52.2297,"longitude":21.017532,"reserved":0,"last_update":"0001-01-01T00:00:00Z","name_a2s":"Uncletopia | Warsaw | 6 | Community","protocol":17,"map":"workshop/rd_asteroid_redux_b1.ugc2154902912","folder":"tf","game":"Team Fortress","app_id":440,"player_count":0,"max_players":24,"Bots":0,"server_type":"Dedicated","server_os":"Linux","password":true,"vac":true,"version":"7880732","steam_id":85568392925397856,"keywords":["beta","nocrits","nodmgspread","rd","uncletopia"],"game_id":440,"stv_port":27066,"stv_name":"Uncletopia | Warsaw | 6 | Community | STV","players":null}]}