{"status":true,"message":"","result":[{"server_id":9,"name":"Uncletopia | Atlanta | 1 | All Maps","name_short":"atl-1","host":"atl-1.us.uncletopia.com","port":27015,"enabled":true,"region":"us-east","cc":"us","latitude":33.753746,"longitude":-84.38633,"reserved":0,"last_update":"0001-01-01T00:00:00Z","name_a2s":"Uncletopia | Atlanta | 1 | All Maps","protocol":17,"map":"koth_highpass","folder":"tf","game":"Team Fortress","app_id":440,"player_count":0,"max_players":24,"Bots":0,"server_type":"Dedicated","server_os":"Linux","password":true,"vac":true,"version":"7757534","steam_id":85568392924469982,"keywords":["cp","nocrits","nodmgspread","uncletopia"],"game_id":440,"stv_port":27016,"stv_name":"Uncletopia | Atlanta | 1 | All Maps | STV","players":null},{"server_id":104,"name":"Uncletopia | Atlanta | 2 | All Maps","name_short":"atl-2","host":"atl-1.us.uncletopia.com","port":27025,"enabled":true,"region":"us-east","cc":"us","latitude":33.753746,"longitude":-84.38633,"reserved":0,"last_update":"0001-01-01T00:00:00Z","name_a2s":"Uncletopia | Atlanta | 2 | All Maps","protocol":17,"map":"koth_viaduct","folder":"tf","game":"Team Fortress","app_id":440,"player_count":16,"max_players":24,"Bots":0,"server_type":"Dedicated","server_os":"Linux","password":true,"vac":true,"version":"7757534","steam_id":85568392924469983,"keywords":["cp","nocrits","nodmgspread","uncletopia"],"game_id":440,"stv_port":27026,"stv_name":"Uncletopia | Atlanta | 2 | All Maps | STV","players":[{"user_id":716,"name":"Aeri","steam_id":76561197996522919,"connected_time":283000000000,"state":"active","ping":80},{"user_id":720,"name":"4+1MyriadFuturesCosMo@BousouFC","steam_id":76561198181929019,"connected_time":77000000000,"state":"active","ping":67},{"user_id":704,"name":"Yummy Kabobz","steam_id":76561198067661705,"connected_time":1234000000000,"state":"active","ping":55},{"user_id":719,"name":"Narkway","steam_id":76561198308723309,"connected_time":186000000000,"state":"active","ping":53},{"user_id":712,"name":"WeArMature","steam_id":76561198046116420,"connected_time":524000000000,"state":"active","ping":155},{"user_id":721,"name":"Venezia","steam_id":76561197994107407,"connected_time":46000000000,"state":"active","ping":45},{"user_id":687,"name":"Dylan","steam_id":76561198265522923,"connected_time":2971000000000,"state":"active","ping":70},{"user_id":706,"name":"SIGMA [BS]","steam_id":76561197962604879,"connected_time":1149000000000,"state":"active","ping":70},{"user_id":698,"name":"DannyM","steam_id":76561198351165570,"connected_time":1973000000000,"state":"active","ping":55},{"user_id":688,"name":"*_*","steam_id":76561198937717599,"connected_time":2970000000000,"state":"active","ping":55},{"user_id":714,"name":"Virgin Gaming","steam_id":76561198093888772,"connected_time":367000000000,"state":"active","ping":115},{"user_id":709,"name":"CheeseCake488","steam_id":76561199407617942,"connected_time":921000000000,"state":"active","ping":129},{"user_id":692,"name":"Misty Blu ✿","steam_id":76561198011442255,"connected_time":2798000000000,"state":"active","ping":104},{"user_id":697,"name":"Stauxie","steam_id":76561198255030077,"connected_time":2375000000000,"state":"active","ping":54},{"user_id":696,"name":"Ms Chatmen","steam_id":76561198309567814,"connected_time":2599000000000,"state":"active","ping":52},{"user_id":668,"name":"cheers2x","steam_id":76561198366299848,"connected_time":4403000000000,"state":"active","ping":52}]},{"server_id":400,"name":"Uncletopia | Atlanta | 3 | Community","name_short":"atl-3","host":"atl-1.us.uncletopia.com","port":27035,"enabled":true,"region":"us-east","cc":"us","latitude":33.753746,"longitude":-84.38633,"reserved":0,"last_update":"0001-01-01T00:00:00Z","name_a2s":"Uncletopia | Atlanta | 3 | Community","protocol":17,"map":"workshop/cp_sulfur_rc2.ugc619869471","folder":"tf","game":"Team Fortress","app_id":440,"player_count":0,"max_players":24,"Bots":0,"server_type":"Dedicated","server_os":"Linux","password":true,"vac":true,"version":"7757534","steam_id":85568392924515187,"keywords":["cp","nocrits","nodmgspread","uncletopia"],"game_id":440,"stv_port":27036,"stv_name":"Uncletopia | Atlanta | 3 | Community | STV","players":null},{"server_id":401,"name":"Uncletopia | Atlanta | 4 | No Payload","name_short":"atl-4","host":"atl-1.us.uncletopia.com","port":27045,"enabled":true,"region":"us-east","cc":"us","latitude":33.753746,"longitude":-84.38633,"reserved":0,"last_update":"0001-01-01T00:00:00Z","name_a2s":"","protocol":0,"map":"","folder":"","game":"","app_id":0,"player_count":0,"max_players":0,"Bots":0,"server_type":"","server_os":"","password":false,"vac":false,"version":"","steam_id":0,"keywords":null,"game_id":0,"stv_port":0,"stv_name":"","players":null},{"server_id":2,"name":"Uncletopia | Chicago | 1 | All Maps","name_short":"chi-1","host":"chi-1.us.uncletopia.com","port":27015,"enabled":true,"region":"us-central","cc":"us","latitude":41.881832,"longitude":-87.62318,"reserved":0,"last_update":"0001-01-01T00:00:00Z","name_a2s":"Uncletopia | Chicago | 1 | All Maps","protocol":17,"map":"pl_pier","folder":"tf","game":"Team Fortress","app_id":440,"player_count":0,"max_players":24,"Bots":0,"server_type":"Dedicated","server_os":"Linux","password":true,"vac":true,"version":"7757534","steam_id":85568392924469984,"keywords":["nocrits","nodmgspread","payload","uncletopia"],"game_id":440,"stv_port":27016,"stv_name":"Uncletopia | Chicago | 1 | All Maps | STV","players":null},{"server_id":106,"name":"Uncletopia | Chicago | 2 | All Maps","name_short":"chi-2","host":"chi-1.us.uncletopia.com","port":27025,"enabled":true,"region":"us-central","cc":"us","latitude":41.881832,"longitude":-87.62318,"reserved":0,"last_update":"0001-01-01T00:00:00Z","name_a2s":"Uncletopia | Chicago | 2 | All Maps","protocol":17,"map":"pl_upward","folder":"tf","game":"Team Fortress","app_id":440,"player_count":0,"max_players":24,"Bots":0,"server_type":"Dedicated","server_os":"Linux","password":true,"vac":true,"version":"7757534","steam_id":85568392924469985,"keywords":["nocrits","nodmgspread","payload","uncletopia"],"game_id":440,"stv_port":27026,"stv_name":"Uncletopia | Chicago | 2 | All Maps | STV","players":null},{"server_id":402,"name":"Uncletopia | Chicago | 3 | All Maps","name_short":"chi-3","host":"chi-1.us.uncletopia.com","port":27035,"enabled":true,"region":"us-central","cc":"us","latitude":41.881832,"longitude":-87.62318,"reserved":0,"last_update":"0001-01-01T00:00:00Z","name_a2s":"Uncletopia | Chicago | 3 | All Maps","protocol":17,"map":"koth_king","folder":"tf","game":"Team Fortress","app_id":440,"player_count":0,"max_players":24,"Bots":0,"server_type":"Dedicated","server_os":"Linux","password":true,"vac":true,"version":"7757534","steam_id":85568392924515191,"keywords":["cp","nocrits","nodmgspread","uncletopia"],"game_id":440,"stv_port":27036,"stv_name":"Uncletopia | Chicago | 3 | All Maps | STV","players":null},{"server_id":403,"name":"Uncletopia | Chicago | 4 | All Maps","name_short":"chi-4","host":"chi-1.us.uncletopia.com","port":27045,"enabled":true,"region":"us-central","cc":"us","latitude":41.881832,"longitude":-87.62318,"reserved":0,"last_update":"0001-01-01T00:00:00Z","name_a2s":"Uncletopia | Chicago | 4 | All Maps","protocol":17,"map":"pl_frontier_final","folder":"tf","game":"Team Fortress","app_id":440,"player_count":4,"max_players":24,"Bots":0,"server_type":"Dedicated","server_os":"Linux","password":true,"vac":true,"version":"7757534","steam_id":85568392924515193,"keywords":["nocrits","nodmgspread","payload","uncletopia"],"game_id":440,"stv_port":27046,"stv_name":"Uncletopia | Chicago | 4 | All Maps | STV","players":[{"user_id":365,"name":"Shay the Sheep","steam_id":76561198065964820,"connected_time":1580000000000,"state":"active","ping":49},{"user_id":367,"name":"HallBB","steam_id":76561198278447826,"connected_time":595000000000,"state":"active","ping":78},{"user_id":368,"name":"RavenEmpress","steam_id":76561198954259711,"connected_time":100000000000,"state":"active","ping":73},{"user_id":369,"name":"Jade","steam_id":76561198092408457,"connected_time":4000000000,"state":"spawning","ping":83}]},{"server_id":36,"name":"Uncletopia | Chicago | 5 | All Maps","name_short":"chi-5","host":"chi-2.us.uncletopia.com","port":27015,"enabled":true,"region":"us-central","cc":"us","latitude":41.881832,"longitude":-87.62318,"reserved":0,"last_update":"0001-01-01T00:00:00Z","name_a2s":"Uncletopia | Chicago | 5 | All Maps","protocol":17,"map":"koth_cascade","folder":"tf","game":"Team Fortress","app_id":440,"player_count":0,"max_players":24,"Bots":0,"server_type":"Dedicated","server_os":"Linux","password":true,"vac":true,"version":"7757534","steam_id":85568392924866362,"keywords":["cp","nocrits","nodmgspread","uncletopia"],"game_id":440,"stv_port":27016,"stv_name":"Uncletopia | Chicago | 5 | All Maps | STV","players":null},{"server_id":37,"name":"Uncletopia | Chicago | 6 | All Maps","name_short":"chi-6","host":"chi-2.us.uncletopia.com","port":27025,"enabled":true,"region":"us-central","cc":"us","latitude":41.881832,"longitude":-87.62318,"reserved":0,"last_update":"0001-01-01T00:00:00Z","name_a2s":"Uncletopia | Chicago | 6 | All Maps","protocol":17,"map":"pl_frontier_final","folder":"tf","game":"Team Fortress","app_id":440,"player_count":0,"max_players":24,"Bots":0,"server_type":"Dedicated","server_os":"Linux","password":true,"vac":true,"version":"7757534","steam_id":85568392924866363,"keywords":["nocrits","nodmgspread","payload","uncletopia"],"game_id":440,"stv_port":27026,"stv_name":"Uncletopia | Chicago | 6 | All Maps | STV","players":null},{"server_id":38,"name":"Uncletopia | Chicago | 7 | Stopwatch Beta","name_short":"chi-7","host":"chi-2.us.uncletopia.com","port":27035,"enabled":true,"region":"us-central","cc":"us","latitude":41.881832,"longitude":-87.62318,"reserved":0,"last_update":"0001-01-01T00:00:00Z","name_a2s":"Uncletopia | Chicago | 7 | Stopwatch Beta","protocol":17,"map":"workshop/koth_ramjam_rc1.ugc459778887","folder":"tf","game":"Team Fortress","app_id":440,"player_count":0,"max_players":24,"Bots":0,"server_type":"Dedicated","server_os":"Linux","password":true,"vac":true,"version":"7757534","steam_id":85568392924866364,"keywords":["cp","nocrits","nodmgspread","uncletopia"],"game_id":440,"stv_port":27036,"stv_name":"Uncletopia | Chicago | 7 | Stopwatch Beta | STV","players":null},{"server_id":39,"name":"Uncletopia | Chicago | 8 | Community","name_short":"chi-8","host":"chi-2.us.uncletopia.com","port":27045,"enabled":true,"region":"us-central","cc":"us","latitude":41.881832,"longitude":-87.62318,"reserved":0,"last_update":"0001-01-01T00:00:00Z","name_a2s":"Uncletopia | Chicago | 8 | Community","protocol":17,"map":"workshop/pl_divulgence_b4b.ugc2884808746","folder":"tf","game":"Team Fortress","app_id":440,"player_count":0,"max_players":24,"Bots":0,"server_type":"Dedicated","server_os":"Linux","password":true,"vac":true,"version":"7757534","steam_id":85568392924866365,"keywords":["nocrits","nodmgspread","payload","uncletopia"],"game_id":440,"stv_port":27046,"stv_name":"Uncletopia | Chicago | 8 | Community | STV","players":null},{"server_id":8,"name":"Uncletopia | Dallas | 1 | All Maps","name_short":"dal-1","host":"dal-1.us.uncletopia.com","port":27015,"enabled":true,"region":"us-central","cc":"us","latitude":32.779167,"longitude":-96.80889,"reserved":0,"last_update":"0001-01-01T00:00:00Z","name_a2s":"Uncletopia | Dallas | 1 | All Maps","protocol":17,"map":"pl_upward","folder":"tf","game":"Team Fortress","app_id":440,"player_count":24,"max_players":24,"Bots":0,"server_type":"Dedicated","server_os":"Linux","password":true,"vac":true,"version":"7757534","steam_id":85568392924469986,"keywords":["nocrits","nodmgspread","payload","uncletopia"],"game_id":440,"stv_port":27016,"stv_name":"Uncletopia | Dallas | 1 | All Maps | STV","players":[{"user_id":957,"name":"Type Three Dabeetus","steam_id":76561198062710038,"connected_time":2378000000000,"state":"active","ping":91},{"user_id":969,"name":"Faraday","steam_id":76561198089928357,"connected_time":1635000000000,"state":"active","ping":56},{"user_id":968,"name":"Team Fartpiss Poo","steam_id":76561199163591880,"connected_time":1713000000000,"state":"active","ping":91},{"user_id":958,"name":"capybara","steam_id":76561198182288455,"connected_time":2000000000000,"state":"active","ping":79},{"user_id":959,"name":"Full-Metal-Joker","steam_id":76561198154191840,"connected_time":1971000000000,"state":"active","ping":94},{"user_id":984,"name":"BIRD UP!","steam_id":76561197981483938,"connected_time":317000000000,"state":"active","ping":73},{"user_id":940,"name":"ScrockCat","steam_id":76561198012882208,"connected_time":3472000000000,"state":"active","ping":102},{"user_id":960,"name":"Sock #NEWTF2Hunt","steam_id":76561198069090237,"connected_time":1938000000000,"state":"active","ping":56},{"user_id":926,"name":"Lore","steam_id":76561198098407538,"connected_time":5094000000000,"state":"active","ping":74},{"user_id":985,"name":"ComputeCore167","steam_id":76561198301250353,"connected_time":307000000000,"state":"active","ping":102},{"user_id":977,"name":"max payne 3","steam_id":76561198231764164,"connected_time":1213000000000,"state":"active","ping":176},{"user_id":979,"name":"Smug","steam_id":76561198448205229,"connected_time":768000000000,"state":"active","ping":74},{"user_id":981,"name":"Rain","steam_id":76561198022607401,"connected_time":511000000000,"state":"active","ping":90},{"user_id":986,"name":"ryann","steam_id":76561198042996639,"connected_time":284000000000,"state":"active","ping":83},{"user_id":944,"name":"Icarus the legend","steam_id":76561199013250091,"connected_time":3237000000000,"state":"active","ping":47},{"user_id":987,"name":"keep life warm","steam_id":76561198044443985,"connected_time":280000000000,"state":"active","ping":56},{"user_id":963,"name":"toilethumor","steam_id":76561197962028780,"connected_time":1915000000000,"state":"active","ping":73},{"user_id":964,"name":"Bearegard","steam_id":76561198061926542,"connected_time":1860000000000,"state":"active","ping":86},{"user_id":949,"name":"❤Trash Girl❤","steam_id":76561198035535924,"connected_time":2973000000000,"state":"active","ping":65},{"user_id":892,"name":"vertice","steam_id":76561199117182718,"connected_time":7449000000000,"state":"active","ping":76},{"user_id":988,"name":"Richard","steam_id":76561198044115685,"connected_time":278000000000,"state":"active","ping":90},{"user_id":975,"name":"time has run out","steam_id":76561198066450438,"connected_time":1247000000000,"state":"active","ping":97},{"user_id":970,"name":"LactationStation","steam_id":76561198025855758,"connected_time":1566000000000,"state":"active","ping":74},{"user_id":976,"name":"ReDiculous22","steam_id":76561198038391383,"connected_time":1245000000000,"state":"active","ping":44}]},{"server_id":108,"name":"Uncletopia | Dallas | 2 | All Maps","name_short":"dal-2","host":"dal-1.us.uncletopia.com","port":27025,"enabled":true,"region":"us-central","cc":"us","latitude":32.779167,"longitude":-96.80889,"reserved":0,"last_update":"0001-01-01T00:00:00Z","name_a2s":"Uncletopia | Dallas | 2 | All Maps","protocol":17,"map":"pl_upward","folder":"tf","game":"Team Fortress","app_id":440,"player_count":24,"max_players":24,"Bots":0,"server_type":"Dedicated","server_os":"Linux","password":true,"vac":true,"version":"7757534","steam_id":85568392924469988,"keywords":["nocrits","nodmgspread","payload","uncletopia"],"game_id":440,"stv_port":27026,"stv_name":"Uncletopia | Dallas | 2 | All Maps | STV","players":[{"user_id":526,"name":"humpty dumpty had a huge hog","steam_id":76561198283570535,"connected_time":1571000000000,"state":"active","ping":76},{"user_id":405,"name":"catface","steam_id":76561198096347625,"connected_time":10149000000000,"state":"active","ping":75},{"user_id":530,"name":"SiphonFIre","steam_id":76561198305327992,"connected_time":1164000000000,"state":"active","ping":48},{"user_id":532,"name":"FROYO cin","steam_id":76561198139802458,"connected_time":1154000000000,"state":"active","ping":102},{"user_id":519,"name":"pt","steam_id":76561198143023330,"connected_time":2153000000000,"state":"active","ping":76},{"user_id":470,"name":"markiplier the real","steam_id":76561198156467907,"connected_time":4855000000000,"state":"active","ping":53},{"user_id":471,"name":"Crag Walker","steam_id":76561198218882965,"connected_time":4842000000000,"state":"active","ping":65},{"user_id":531,"name":"realhedgehog2082","steam_id":76561198168931330,"connected_time":1159000000000,"state":"active","ping":69},{"user_id":528,"name":"Insert_Name_Here","steam_id":76561198089428414,"connected_time":1279000000000,"state":"active","ping":74},{"user_id":464,"name":"minty","steam_id":76561198062821894,"connected_time":5347000000000,"state":"active","ping":50},{"user_id":540,"name":"Wolfe","steam_id":76561197997350470,"connected_time":117000000000,"state":"active","ping":84},{"user_id":521,"name":"Saucy Boy","steam_id":76561198178332031,"connected_time":2025000000000,"state":"active","ping":99},{"user_id":475,"name":"TacticalFluke","steam_id":76561198403291862,"connected_time":4714000000000,"state":"active","ping":73},{"user_id":507,"name":"Harold of the Rocks","steam_id":76561198055891429,"connected_time":2934000000000,"state":"active","ping":98},{"user_id":538,"name":"Niko","steam_id":76561197985588638,"connected_time":467000000000,"state":"active","ping":102},{"user_id":453,"name":"evril vvizard miku","steam_id":76561198164445414,"connected_time":6693000000000,"state":"active","ping":90},{"user_id":541,"name":"Aroma","steam_id":76561198220367465,"connected_time":104000000000,"state":"active","ping":55},{"user_id":446,"name":"Elena Manetta","steam_id":76561197998344054,"connected_time":7162000000000,"state":"active","ping":75},{"user_id":516,"name":"Thot Police","steam_id":76561198084299100,"connected_time":2309000000000,"state":"active","ping":102},{"user_id":535,"name":"Nitro","steam_id":76561198044877244,"connected_time":834000000000,"state":"active","ping":75},{"user_id":536,"name":"remina","steam_id":76561198046091954,"connected_time":579000000000,"state":"active","ping":61},{"user_id":539,"name":"Touch Grass","steam_id":76561199480331257,"connected_time":251000000000,"state":"active","ping":56},{"user_id":451,"name":"Swiggs","steam_id":76561198135015291,"connected_time":6882000000000,"state":"active","ping":65},{"user_id":523,"name":"Cynicalrage #TF2center","steam_id":76561198085805532,"connected_time":1992000000000,"state":"active","ping":65}]},{"server_id":5,"name":"Uncletopia | Frankfurt | 1 | All Maps","name_short":"frk-1","host":"frk-1.de.uncletopia.com","port":27015,"enabled":true,"region":"eu","cc":"de","latitude":50.110924,"longitude":8.682127,"reserved":0,"last_update":"0001-01-01T00:00:00Z","name_a2s":"Uncletopia | Frankfurt | 1 | All Maps","protocol":17,"map":"cp_mountainlab","folder":"tf","game":"Team Fortress","app_id":440,"player_count":0,"max_players":24,"Bots":0,"server_type":"Dedicated","server_os":"Linux","password":true,"vac":true,"version":"7757534","steam_id":85568392924469989,"keywords":["cp","nocrits","nodmgspread","uncletopia"],"game_id":440,"stv_port":27016,"stv_name":"Uncletopia | Frankfurt | 1 | All Maps | STV","players":null},{"server_id":110,"name":"Uncletopia | Frankfurt | 2 | All Maps","name_short":"frk-2","host":"frk-1.de.uncletopia.com","port":27025,"enabled":true,"region":"eu","cc":"de","latitude":50.110924,"longitude":8.682127,"reserved":0,"last_update":"0001-01-01T00:00:00Z","name_a2s":"Uncletopia | Frankfurt | 2 | All Maps","protocol":17,"map":"koth_lakeside_final","folder":"tf","game":"Team Fortress","app_id":440,"player_count":0,"max_players":24,"Bots":0,"server_type":"Dedicated","server_os":"Linux","password":true,"vac":true,"version":"7757534","steam_id":85568392924469990,"keywords":["cp","nocrits","nodmgspread","uncletopia"],"game_id":440,"stv_port":27026,"stv_name":"Uncletopia | Frankfurt | 2 | All Maps | STV","players":null},{"server_id":308,"name":"Uncletopia | Frankfurt | 3 | All Maps","name_short":"frk-3","host":"frk-1.de.uncletopia.com","port":27035,"enabled":true,"region":"eu","cc":"de","latitude":50.110924,"longitude":8.682127,"reserved":0,"last_update":"0001-01-01T00:00:00Z","name_a2s":"Uncletopia | Frankfurt | 3 | All Maps","protocol":17,"map":"pl_swiftwater_final1","folder":"tf","game":"Team Fortress","app_id":440,"player_count":0,"max_players":24,"Bots":0,"server_type":"Dedicated","server_os":"Linux","password":true,"vac":true,"version":"7757534","steam_id":85568392924504274,"keywords":["nocrits","nodmgspread","payload","uncletopia"],"game_id":440,"stv_port":27036,"stv_name":"Uncletopia | Frankfurt | 3 | All Maps | STV","players":null},{"server_id":309,"name":"Uncletopia | Frankfurt | 4 | All Maps","name_short":"frk-4","host":"frk-1.de.uncletopia.com","port":27045,"enabled":true,"region":"eu","cc":"de","latitude":50.110924,"longitude":8.682127,"reserved":0,"last_update":"0001-01-01T00:00:00Z","name_a2s":"Uncletopia | Frankfurt | 4 | All Maps","protocol":17,"map":"pl_frontier_final","folder":"tf","game":"Team Fortress","app_id":440,"player_count":24,"max_players":24,"Bots":0,"server_type":"Dedicated","server_os":"Linux","password":true,"vac":true,"version":"7757534","steam_id":85568392924504275,"keywords":["nocrits","nodmgspread","payload","uncletopia"],"game_id":440,"stv_port":27046,"stv_name":"Uncletopia | Frankfurt | 4 | All Maps | STV","players":[{"user_id":169,"name":"Kahvi","steam_id":76561198723244199,"connected_time":897000000000,"state":"active","ping":91},{"user_id":177,"name":"ksg","steam_id":76561198042894236,"connected_time":557000000000,"state":"active","ping":62},{"user_id":147,"name":"MEGOS","steam_id":76561198172740637,"connected_time":2241000000000,"state":"active","ping":51},{"user_id":144,"name":"Dayumn","steam_id":76561198809430255,"connected_time":2379000000000,"state":"active","ping":48},{"user_id":163,"name":"peruna","steam_id":76561198000721196,"connected_time":1564000000000,"state":"active","ping":91},{"user_id":115,"name":"ciliorkun18","steam_id":76561198228942500,"connected_time":4183000000000,"state":"active","ping":90},{"user_id":133,"name":"Ясос Убибу","steam_id":76561198291861707,"connected_time":3380000000000,"state":"active","ping":130},{"user_id":138,"name":"Avoo","steam_id":76561198186954897,"connected_time":2807000000000,"state":"active","ping":63},{"user_id":183,"name":"Saltanat","steam_id":76561198802621568,"connected_time":40000000000,"state":"spawning","ping":59},{"user_id":164,"name":"Abiogenez","steam_id":76561198000332215,"connected_time":1294000000000,"state":"active","ping":63},{"user_id":171,"name":"BELADIT","steam_id":76561198011911501,"connected_time":844000000000,"state":"active","ping":62},{"user_id":172,"name":"øpossum","steam_id":76561198056152479,"connected_time":825000000000,"state":"active","ping":51},{"user_id":181,"name":"Amandus","steam_id":76561198036281079,"connected_time":78000000000,"state":"active","ping":61},{"user_id":179,"name":"WojStaGra","steam_id":76561198157277370,"connected_time":432000000000,"state":"active","ping":84},{"user_id":180,"name":"B.batt","steam_id":76561198998684199,"connected_time":135000000000,"state":"active","ping":116},{"user_id":160,"name":"Dark ^^","steam_id":76561198036241064,"connected_time":1716000000000,"state":"active","ping":53},{"user_id":184,"name":"Arti","steam_id":76561197983352845,"connected_time":37000000000,"state":"active","ping":59},{"user_id":174,"name":"Creamy","steam_id":76561198063907478,"connected_time":702000000000,"state":"active","ping":69},{"user_id":128,"name":"Hadmund Gaming","steam_id":76561198119454822,"connected_time":3640000000000,"state":"active","ping":71},{"user_id":175,"name":"scope","steam_id":76561198281647082,"connected_time":674000000000,"state":"active","ping":106},{"user_id":168,"name":"trans werewolf","steam_id":76561198107235989,"connected_time":1042000000000,"state":"active","ping":60},{"user_id":176,"name":"Pancake lover","steam_id":76561199137392321,"connected_time":590000000000,"state":"active","ping":48},{"user_id":185,"name":"I only uber spies","steam_id":76561198333241218,"connected_time":25000000000,"state":"active","ping":129},{"user_id":143,"name":"gjhkgfkjfh","steam_id":76561198031181349,"connected_time":2393000000000,"state":"active","ping":86}]},{"server_id":310,"name":"Uncletopia | Frankfurt | 5 | All Maps","name_short":"frk-5","host":"frk-1.de.uncletopia.com","port":27055,"enabled":true,"region":"eu","cc":"de","latitude":50.110924,"longitude":8.682127,"reserved":0,"last_update":"0001-01-01T00:00:00Z","name_a2s":"Uncletopia | Frankfurt | 5 | All Maps","protocol":17,"map":"koth_lakeside_final","folder":"tf","game":"Team Fortress","app_id":440,"player_count":0,"max_players":24,"Bots":0,"server_type":"Dedicated","server_os":"Linux","password":true,"vac":true,"version":"7757534","steam_id":85568392924504277,"keywords":["cp","nocrits","nodmgspread","uncletopia"],"game_id":440,"stv_port":27056,"stv_name":"Uncletopia | Frankfurt | 5 | All Maps | STV","players":null},{"server_id":311,"name":"Uncletopia | Frankfurt | 6 | All Maps","name_short":"frk-6","host":"frk-1.de.uncletopia.com","port":27065,"enabled":true,"region":"eu","cc":"de","latitude":50.110924,"longitude":8.682127,"reserved":0,"last_update":"0001-01-01T00:00:00Z","name_a2s":"Uncletopia | Frankfurt | 6 | All Maps","protocol":17,"map":"pl_frontier_final","folder":"tf","game":"Team Fortress","app_id":440,"player_count":0,"max_players":24,"Bots":0,"server_type":"Dedicated","server_os":"Linux","password":true,"vac":true,"version":"7757534","steam_id":85568392924504278,"keywords":["nocrits","nodmgspread","payload","uncletopia"],"game_id":440,"stv_port":27066,"stv_name":"Uncletopia | Frankfurt | 6 | All Maps | STV","players":null},{"server_id":23,"name":"Uncletopia | Frankfurt | 7 | Stopwatch Beta","name_short":"frk-7","host":"frk-1.de.uncletopia.com","port":27075,"enabled":true,"region":"eu","cc":"de","latitude":50.110924,"longitude":8.682127,"reserved":0,"last_update":"0001-01-01T00:00:00Z","name_a2s":"Uncletopia | Frankfurt | 7 | Stopwatch Beta","protocol":17,"map":"cp_sunshine","folder":"tf","game":"Team Fortress","app_id":440,"player_count":0,"max_players":24,"Bots":0,"server_type":"Dedicated","server_os":"Linux","password":true,"vac":true,"version":"7757534","steam_id":85568392924742827,"keywords":["cp","nocrits","nodmgspread","uncletopia"],"game_id":440,"stv_port":27076,"stv_name":"Uncletopia | Frankfurt | 7 | Stopwatch Beta | STV","players":null},{"server_id":24,"name":"Uncletopia | Frankfurt | 8 | Community","name_short":"frk-8","host":"frk-1.de.uncletopia.com","port":27085,"enabled":true,"region":"eu","cc":"de","latitude":50.110924,"longitude":8.682127,"reserved":0,"last_update":"0001-01-01T00:00:00Z","name_a2s":"Uncletopia | Frankfurt | 8 | Community","protocol":17,"map":"koth_lakeside_final","folder":"tf","game":"Team Fortress","app_id":440,"player_count":0,"max_players":24,"Bots":0,"server_type":"Dedicated","server_os":"Linux","password":true,"vac":true,"version":"7757534","steam_id":85568392924742828,"keywords":["cp","nocrits","nodmgspread","uncletopia"],"game_id":440,"stv_port":27086,"stv_name":"Uncletopia | Frankfurt | 8 | Community | STV","players":null},{"server_id":202,"name":"Uncletopia | Hong Kong | 1 | All Maps","name_short":"hgk-1","host":"hgk-1.hk.uncletopia.com","port":27015,"enabled":true,"region":"asia","cc":"hk","latitude":22.302711,"longitude":114.177216,"reserved":0,"last_update":"0001-01-01T00:00:00Z","name_a2s":"Uncletopia | Hong Kong | 1 | All Maps","protocol":17,"map":"koth_viaduct","folder":"tf","game":"Team Fortress","app_id":440,"player_count":0,"max_players":24,"Bots":0,"server_type":"Dedicated","server_os":"Linux","password":true,"vac":true,"version":"7757534","steam_id":85568392924494504,"keywords":["cp","nocrits","nodmgspread","uncletopia"],"game_id":440,"stv_port":27016,"stv_name":"Uncletopia | Hong Kong | 1 | All Maps | STV","players":null},{"server_id":1,"name":"Uncletopia | Los Angeles | 1 | All Maps","name_short":"lax-1","host":"lax-1.us.uncletopia.com","port":27015,"enabled":true,"region":"us-west","cc":"us","latitude":33.94279,"longitude":-118.41004,"reserved":0,"last_update":"0001-01-01T00:00:00Z","name_a2s":"Uncletopia | Los Angeles | 1 | All Maps","protocol":17,"map":"pl_barnblitz","folder":"tf","game":"Team Fortress","app_id":440,"player_count":0,"max_players":24,"Bots":0,"server_type":"Dedicated","server_os":"Linux","password":true,"vac":true,"version":"7757534","steam_id":85568392924469991,"keywords":["nocrits","nodmgspread","payload","uncletopia"],"game_id":440,"stv_port":27016,"stv_name":"Uncletopia | Los Angeles | 1 | All Maps | STV","players":null},{"server_id":112,"name":"Uncletopia | Los Angeles | 2 | All Maps","name_short":"lax-2","host":"lax-1.us.uncletopia.com","port":27025,"enabled":true,"region":"us-west","cc":"us","latitude":33.94279,"longitude":-118.41004,"reserved":0,"last_update":"0001-01-01T00:00:00Z","name_a2s":"Uncletopia | Los Angeles | 2 | All Maps","protocol":17,"map":"pl_pier","folder":"tf","game":"Team Fortress","app_id":440,"player_count":24,"max_players":24,"Bots":0,"server_type":"Dedicated","server_os":"Linux","password":true,"vac":true,"version":"7757534","steam_id":85568392924469992,"keywords":["nocrits","nodmgspread","payload","uncletopia"],"game_id":440,"stv_port":27026,"stv_name":"Uncletopia | Los Angeles | 2 | All Maps | STV","players":[{"user_id":503,"name":"PauperPiplup","steam_id":76561198079755313,"connected_time":4304000000000,"state":"active","ping":134},{"user_id":521,"name":"Nightwalker","steam_id":76561198078672640,"connected_time":1412000000000,"state":"active","ping":79},{"user_id":501,"name":"H-keyLF","steam_id":76561198376014891,"connected_time":4329000000000,"state":"active","ping":59},{"user_id":518,"name":"Zeruel","steam_id":76561198149673080,"connected_time":1445000000000,"state":"active","ping":49},{"user_id":481,"name":"Clagger","steam_id":76561198066701092,"connected_time":7175000000000,"state":"active","ping":63},{"user_id":523,"name":"Japanese_Spaghetti","steam_id":76561198081019897,"connected_time":1304000000000,"state":"active","ping":57},{"user_id":520,"name":"dzcreeper","steam_id":76561198072250723,"connected_time":1422000000000,"state":"active","ping":85},{"user_id":479,"name":"Lambchop","steam_id":76561198043900363,"connected_time":7298000000000,"state":"active","ping":67},{"user_id":537,"name":"Mickmissión","steam_id":76561199133527421,"connected_time":249000000000,"state":"spawning","ping":30},{"user_id":513,"name":"Windex","steam_id":76561198219612161,"connected_time":3374000000000,"state":"active","ping":84},{"user_id":539,"name":"GLXy","steam_id":76561198207551544,"connected_time":76000000000,"state":"spawning","ping":60},{"user_id":490,"name":"BuncusBeffer","steam_id":76561198285936616,"connected_time":5149000000000,"state":"active","ping":68},{"user_id":516,"name":"00","steam_id":76561198041700636,"connected_time":2910000000000,"state":"active","ping":55},{"user_id":530,"name":"nnichael","steam_id":76561198044136848,"connected_time":999000000000,"state":"active","ping":55},{"user_id":529,"name":"Nova♥","steam_id":76561198436555608,"connected_time":1062000000000,"state":"active","ping":85},{"user_id":531,"name":"Brohan","steam_id":76561198043948602,"connected_time":855000000000,"state":"active","ping":88},{"user_id":538,"name":"Starkiller","steam_id":76561198101643120,"connected_time":202000000000,"state":"active","ping":83},{"user_id":527,"name":"Arcadletus","steam_id":76561198976009938,"connected_time":1206000000000,"state":"active","ping":89},{"user_id":528,"name":"Shochu Fiend","steam_id":76561198055193376,"connected_time":1181000000000,"state":"active","ping":112},{"user_id":536,"name":"Scoutroad","steam_id":76561198136564680,"connected_time":641000000000,"state":"active","ping":91},{"user_id":540,"name":"klopse","steam_id":76561198314981454,"connected_time":60000000000,"state":"active","ping":114},{"user_id":508,"name":"International Mann of Mystery","steam_id":76561198149369302,"connected_time":3542000000000,"state":"active","ping":100},{"user_id":404,"name":"LeBron James Ferraro","steam_id":76561197995200743,"connected_time":13928000000000,"state":"active","ping":30},{"user_id":386,"name":"bigman1","steam_id":76561198050225055,"connected_time":15770000000000,"state":"active","ping":52}]},{"server_id":324,"name":"Uncletopia | Los Angeles | 3 | All Maps","name_short":"lax-3","host":"lax-1.us.uncletopia.com","port":27035,"enabled":true,"region":"us-west","cc":"us","latitude":33.94279,"longitude":-118.41004,"reserved":0,"last_update":"0001-01-01T00:00:00Z","name_a2s":"Uncletopia | Los Angeles | 3 | All Maps","protocol":17,"map":"koth_cascade","folder":"tf","game":"Team Fortress","app_id":440,"player_count":23,"max_players":24,"Bots":0,"server_type":"Dedicated","server_os":"Linux","password":true,"vac":true,"version":"7757534","steam_id":85568392924510198,"keywords":["cp","nocrits","nodmgspread","uncletopia"],"game_id":440,"stv_port":27036,"stv_name":"Uncletopia | Los Angeles | 3 | All Maps | STV","players":[{"user_id":367,"name":"The Mayo Man","steam_id":76561197995377425,"connected_time":1131000000000,"state":"active","ping":96},{"user_id":365,"name":"MASHUP KREEPS !!!","steam_id":76561198114269880,"connected_time":1818000000000,"state":"active","ping":67},{"user_id":354,"name":"Gushy Bussy w/ the Brown Juices","steam_id":76561198084222254,"connected_time":2317000000000,"state":"active","ping":109},{"user_id":355,"name":"Sock Puppet","steam_id":76561197983066945,"connected_time":2293000000000,"state":"active","ping":66},{"user_id":320,"name":"Vintage TV","steam_id":76561198800334545,"connected_time":3536000000000,"state":"active","ping":36},{"user_id":306,"name":"23™","steam_id":76561198314951185,"connected_time":4956000000000,"state":"active","ping":84},{"user_id":298,"name":"♥Cat in a Tub♥","steam_id":76561198170443243,"connected_time":5663000000000,"state":"active","ping":60},{"user_id":339,"name":"R0hban","steam_id":76561198071163718,"connected_time":2554000000000,"state":"active","ping":51},{"user_id":364,"name":"ericroblox5000","steam_id":76561198987713830,"connected_time":2007000000000,"state":"active","ping":160},{"user_id":334,"name":"Reposas","steam_id":76561198058803197,"connected_time":2678000000000,"state":"active","ping":87},{"user_id":373,"name":"chrome 2008 (she/they)","steam_id":76561198321277216,"connected_time":331000000000,"state":"active","ping":61},{"user_id":356,"name":"Bludgeon","steam_id":76561198272009412,"connected_time":2289000000000,"state":"active","ping":69},{"user_id":345,"name":"CheetosDust™","steam_id":76561198360205440,"connected_time":2411000000000,"state":"active","ping":109},{"user_id":347,"name":"tuna","steam_id":76561198128164970,"connected_time":2389000000000,"state":"active","ping":51},{"user_id":371,"name":"Boongadoonga","steam_id":76561198058525763,"connected_time":680000000000,"state":"active","ping":110},{"user_id":314,"name":"Lick Blakely","steam_id":76561198095586296,"connected_time":4124000000000,"state":"active","ping":84},{"user_id":346,"name":"tismo","steam_id":76561198114789993,"connected_time":2409000000000,"state":"active","ping":109},{"user_id":349,"name":"Platino","steam_id":76561198410957728,"connected_time":2383000000000,"state":"active","ping":102},{"user_id":369,"name":"n64stillkiksass","steam_id":76561198051383850,"connected_time":901000000000,"state":"active","ping":54},{"user_id":350,"name":"BatBread","steam_id":76561198047064919,"connected_time":2383000000000,"state":"active","ping":127},{"user_id":372,"name":"Sammich Slinger","steam_id":76561198007644532,"connected_time":370000000000,"state":"active","ping":100},{"user_id":360,"name":"sweaterfan","steam_id":76561199389567214,"connected_time":2200000000000,"state":"active","ping":94},{"user_id":351,"name":"RavenwolF","steam_id":76561197963374354,"connected_time":2369000000000,"state":"active","ping":100}]},{"server_id":25,"name":"Uncletopia | Los Angeles | 4 | Stopwatch Beta","name_short":"lax-4","host":"lax-1.us.uncletopia.com","port":27045,"enabled":true,"region":"us-west","cc":"us","latitude":33.94279,"longitude":-118.41004,"reserved":0,"last_update":"0001-01-01T00:00:00Z","name_a2s":"Uncletopia | Los Angeles | 4 | Stopwatch Beta","protocol":17,"map":"workshop/pl_barnblitz_pro7.ugc582280235","folder":"tf","game":"Team Fortress","app_id":440,"player_count":0,"max_players":24,"Bots":0,"server_type":"Dedicated","server_os":"Linux","password":true,"vac":true,"version":"7757534","steam_id":85568392924510199,"keywords":["nocrits","nodmgspread","payload","uncletopia"],"game_id":440,"stv_port":27046,"stv_name":"Uncletopia | Los Angeles | 4 | Stopwatch Beta | STV","players":null},{"server_id":11,"name":"Uncletopia | London | 1 | All Maps","name_short":"lon-1","host":"lon-1.uk.uncletopia.com","port":27015,"enabled":true,"region":"eu","cc":"gb","latitude":51.509865,"longitude":-0.118092,"reserved":0,"last_update":"0001-01-01T00:00:00Z","name_a2s":"Uncletopia | London | 1 | All Maps","protocol":17,"map":"pl_badwater","folder":"tf","game":"Team Fortress","app_id":440,"player_count":15,"max_players":24,"Bots":0,"server_type":"Dedicated","server_os":"Linux","password":true,"vac":true,"version":"7757534","steam_id":85568392924367362,"keywords":["nocrits","nodmgspread","payload","uncletopia"],"game_id":440,"stv_port":27016,"stv_name":"Uncletopia | London | 1 | All Maps | STV","players":[{"user_id":22,"name":"Uncle Terry","steam_id":76561198396415736,"connected_time":2969000000000,"state":"active","ping":73},{"user_id":34,"name":"Sal","steam_id":76561198079290898,"connected_time":832000000000,"state":"active","ping":32},{"user_id":45,"name":"Lyzz","steam_id":76561198103622650,"connected_time":211000000000,"state":"active","ping":65},{"user_id":36,"name":"BONK-TEC!","steam_id":76561198272667029,"connected_time":550000000000,"state":"active","ping":55},{"user_id":37,"name":"SHREKWAZOWSKI","steam_id":76561199247062706,"connected_time":522000000000,"state":"active","ping":377},{"user_id":47,"name":"Not Clickbait (Real)","steam_id":76561198951275407,"connected_time":133000000000,"state":"active","ping":85},{"user_id":40,"name":"purplecan","steam_id":76561199208283508,"connected_time":339000000000,"state":"active","ping":68},{"user_id":41,"name":"Loyde","steam_id":76561198029919524,"connected_time":311000000000,"state":"active","ping":92},{"user_id":42,"name":"zawaduroik","steam_id":76561199244912911,"connected_time":293000000000,"state":"active","ping":220},{"user_id":43,"name":"Xriasp","steam_id":76561198104721321,"connected_time":262000000000,"state":"active","ping":75},{"user_id":52,"name":"A stray cat","steam_id":76561198201753079,"connected_time":14000000000,"state":"active","ping":167},{"user_id":46,"name":"casual schizophrenic","steam_id":76561198255357694,"connected_time":195000000000,"state":"active","ping":87},{"user_id":48,"name":"Neon","steam_id":76561198012373755,"connected_time":125000000000,"state":"active","ping":56},{"user_id":49,"name":"Rex Z'Beq","steam_id":76561199300590000,"connected_time":98000000000,"state":"active","ping":77},{"user_id":50,"name":"BeavisOfArabia","steam_id":76561197993557589,"connected_time":87000000000,"state":"active","ping":158}]},{"server_id":114,"name":"Uncletopia | London | 2 | All Maps","name_short":"lon-2","host":"lon-1.uk.uncletopia.com","port":27025,"enabled":true,"region":"eu","cc":"gb","latitude":51.509865,"longitude":-0.118092,"reserved":0,"last_update":"0001-01-01T00:00:00Z","name_a2s":"Uncletopia | London | 2 | All Maps","protocol":17,"map":"koth_viaduct","folder":"tf","game":"Team Fortress","app_id":440,"player_count":0,"max_players":24,"Bots":0,"server_type":"Dedicated","server_os":"Linux","password":true,"vac":true,"version":"7757534","steam_id":85568392924470941,"keywords":["cp","nocrits","nodmgspread","uncletopia"],"game_id":440,"stv_port":27026,"stv_name":"Uncletopia | London | 2 | All Maps | STV","players":null},{"server_id":320,"name":"Uncletopia | London | 3 | All Maps","name_short":"lon-3","host":"lon-1.uk.uncletopia.com","port":27035,"enabled":true,"region":"eu","cc":"gb","latitude":51.509865,"longitude":-0.118092,"reserved":0,"last_update":"0001-01-01T00:00:00Z","name_a2s":"Uncletopia | London | 3 | All Maps","protocol":17,"map":"cp_dustbowl","folder":"tf","game":"Team Fortress","app_id":440,"player_count":0,"max_players":24,"Bots":0,"server_type":"Dedicated","server_os":"Linux","password":true,"vac":true,"version":"7757534","steam_id":85568392924510192,"keywords":["cp","nocrits","nodmgspread","uncletopia"],"game_id":440,"stv_port":27036,"stv_name":"Uncletopia | London | 3 | All Maps | STV","players":null},{"server_id":321,"name":"Uncletopia | London | 4 | All Maps","name_short":"lon-4","host":"lon-1.uk.uncletopia.com","port":27045,"enabled":true,"region":"eu","cc":"gb","latitude":51.509865,"longitude":-0.118092,"reserved":0,"last_update":"0001-01-01T00:00:00Z","name_a2s":"Uncletopia | London | 4 | All Maps","protocol":17,"map":"cp_dustbowl","folder":"tf","game":"Team Fortress","app_id":440,"player_count":0,"max_players":24,"Bots":0,"server_type":"Dedicated","server_os":"Linux","password":true,"vac":true,"version":"7757534","steam_id":85568392924510193,"keywords":["cp","nocrits","nodmgspread","uncletopia"],"game_id":440,"stv_port":27046,"stv_name":"Uncletopia | London | 4 | All Maps | STV","players":null},{"server_id":21,"name":"Uncletopia | London | 5 | All Maps","name_short":"lon-5","host":"lon-1.uk.uncletopia.com","port":27055,"enabled":true,"region":"eu","cc":"gb","latitude":51.509865,"longitude":-0.118092,"reserved":0,"last_update":"0001-01-01T00:00:00Z","name_a2s":"Uncletopia | London | 5 | All Maps","protocol":17,"map":"cp_altitude","folder":"tf","game":"Team Fortress","app_id":440,"player_count":0,"max_players":24,"Bots":0,"server_type":"Dedicated","server_os":"Linux","password":true,"vac":true,"version":"7757534","steam_id":85568392924742829,"keywords":["cp","nocrits","nodmgspread","uncletopia"],"game_id":440,"stv_port":27056,"stv_name":"Uncletopia | London | 5 | All Maps | STV","players":null},{"server_id":22,"name":"Uncletopia | London | 6 | All Maps","name_short":"lon-6","host":"lon-1.uk.uncletopia.com","port":27065,"enabled":true,"region":"eu","cc":"gb","latitude":51.509865,"longitude":-0.118092,"reserved":0,"last_update":"0001-01-01T00:00:00Z","name_a2s":"Uncletopia | London | 6 | All Maps","protocol":17,"map":"cp_mountainlab","folder":"tf","game":"Team Fortress","app_id":440,"player_count":0,"max_players":24,"Bots":0,"server_type":"Dedicated","server_os":"Linux","password":true,"vac":true,"version":"7757534","steam_id":85568392924742830,"keywords":["cp","nocrits","nodmgspread","uncletopia"],"game_id":440,"stv_port":27066,"stv_name":"Uncletopia | London | 6 | All Maps | STV","players":null},{"server_id":40,"name":"Uncletopia | London | 7 | No Payload","name_short":"lon-7","host":"lon-1.uk.uncletopia.com","port":27075,"enabled":true,"region":"eu","cc":"gb","latitude":51.509865,"longitude":-0.118092,"reserved":0,"last_update":"0001-01-01T00:00:00Z","name_a2s":"Uncletopia | London | 7 | No Payload","protocol":17,"map":"pl_badwater","folder":"tf","game":"Team Fortress","app_id":440,"player_count":0,"max_players":24,"Bots":0,"server_type":"Dedicated","server_os":"Linux","password":true,"vac":true,"version":"7757534","steam_id":85568392924964314,"keywords":["nocrits","nodmgspread","payload","uncletopia"],"game_id":440,"stv_port":27076,"stv_name":"Uncletopia | London | 7 | No Payload | STV","players":null},{"server_id":41,"name":"Uncletopia | London | 8 | Community","name_short":"lon-8","host":"lon-1.uk.uncletopia.com","port":27085,"enabled":true,"region":"eu","cc":"gb","latitude":51.509865,"longitude":-0.118092,"reserved":0,"last_update":"0001-01-01T00:00:00Z","name_a2s":"Uncletopia | London | 8 | Community","protocol":17,"map":"pl_barnblitz","folder":"tf","game":"Team Fortress","app_id":440,"player_count":0,"max_players":24,"Bots":0,"server_type":"Dedicated","server_os":"Linux","password":true,"vac":true,"version":"7757534","steam_id":85568392924964315,"keywords":["nocrits","nodmgspread","payload","uncletopia"],"game_id":440,"stv_port":27086,"stv_name":"Uncletopia | London | 8 | Community | STV","players":null},{"server_id":300,"name":"Uncletopia | Montréal | 1 | All Maps","name_short":"mtl-1","host":"mtl-1.ca.uncletopia.com","port":27015,"enabled":true,"region":"us-east","cc":"ca","latitude":45.50889,"longitude":-73.56167,"reserved":0,"last_update":"0001-01-01T00:00:00Z","name_a2s":"Uncletopia | Montréal | 1 | All Maps","protocol":17,"map":"cp_dustbowl","folder":"tf","game":"Team Fortress","app_id":440,"player_count":0,"max_players":24,"Bots":0,"server_type":"Dedicated","server_os":"Linux","password":true,"vac":true,"version":"7757534","steam_id":85568392924500087,"keywords":["cp","nocrits","nodmgspread","uncletopia"],"game_id":440,"stv_port":27016,"stv_name":"Uncletopia | Montréal | 1 | All Maps | STV","players":null},{"server_id":301,"name":"Uncletopia | Montréal | 2 | All Maps","name_short":"mtl-2","host":"mtl-1.ca.uncletopia.com","port":27025,"enabled":true,"region":"us-east","cc":"ca","latitude":45.50889,"longitude":-73.56167,"reserved":0,"last_update":"0001-01-01T00:00:00Z","name_a2s":"Uncletopia | Montréal | 2 | All Maps","protocol":17,"map":"cp_process_final","folder":"tf","game":"Team Fortress","app_id":440,"player_count":0,"max_players":24,"Bots":0,"server_type":"Dedicated","server_os":"Linux","password":true,"vac":true,"version":"7757534","steam_id":85568392924500088,"keywords":["cp","nocrits","nodmgspread","uncletopia"],"game_id":440,"stv_port":27026,"stv_name":"Uncletopia | Montréal | 2 | All Maps | STV","players":null},{"server_id":302,"name":"Uncletopia | Montréal | 3 | All Maps","name_short":"mtl-3","host":"mtl-1.ca.uncletopia.com","port":27035,"enabled":true,"region":"us-east","cc":"ca","latitude":45.50889,"longitude":-73.56167,"reserved":0,"last_update":"0001-01-01T00:00:00Z","name_a2s":"Uncletopia | Montréal | 3 | All Maps","protocol":17,"map":"pl_borneo","folder":"tf","game":"Team Fortress","app_id":440,"player_count":0,"max_players":24,"Bots":0,"server_type":"Dedicated","server_os":"Linux","password":true,"vac":true,"version":"7757534","steam_id":85568392924500089,"keywords":["nocrits","nodmgspread","payload","uncletopia"],"game_id":440,"stv_port":27036,"stv_name":"Uncletopia | Montréal | 3 | All Maps | STV","players":null},{"server_id":303,"name":"Uncletopia | Montréal | 4 | No Payload","name_short":"mtl-4","host":"mtl-1.ca.uncletopia.com","port":27045,"enabled":true,"region":"us-east","cc":"ca","latitude":45.50889,"longitude":-73.56167,"reserved":0,"last_update":"0001-01-01T00:00:00Z","name_a2s":"Uncletopia | Montréal | 4 | No Payload","protocol":17,"map":"koth_harvest_final","folder":"tf","game":"Team Fortress","app_id":440,"player_count":0,"max_players":24,"Bots":0,"server_type":"Dedicated","server_os":"Linux","password":true,"vac":true,"version":"7757534","steam_id":85568392924500090,"keywords":["cp","nocrits","nodmgspread","uncletopia"],"game_id":440,"stv_port":27046,"stv_name":"Uncletopia | Montréal | 4 | No Payload | STV","players":null},{"server_id":13,"name":"Uncletopia | New York City | 1 | All Maps","name_short":"nyc-1","host":"nyc-1.us.uncletopia.com","port":27015,"enabled":true,"region":"us-east","cc":"us","latitude":40.73061,"longitude":-73.93524,"reserved":0,"last_update":"0001-01-01T00:00:00Z","name_a2s":"Uncletopia | New York City | 1 | All Maps","protocol":17,"map":"pl_swiftwater_final1","folder":"tf","game":"Team Fortress","app_id":440,"player_count":0,"max_players":24,"Bots":0,"server_type":"Dedicated","server_os":"Linux","password":true,"vac":true,"version":"7757534","steam_id":85568392924469993,"keywords":["nocrits","nodmgspread","payload","uncletopia"],"game_id":440,"stv_port":27016,"stv_name":"Uncletopia | New York City | 1 | All Maps | STV","players":null},{"server_id":14,"name":"Uncletopia | New York City | 2 | All Maps","name_short":"nyc-2","host":"nyc-1.us.uncletopia.com","port":27025,"enabled":true,"region":"us-east","cc":"us","latitude":40.73061,"longitude":-73.93524,"reserved":0,"last_update":"0001-01-01T00:00:00Z","name_a2s":"Uncletopia | New York City | 2 | All Maps","protocol":17,"map":"pl_badwater","folder":"tf","game":"Team Fortress","app_id":440,"player_count":24,"max_players":24,"Bots":0,"server_type":"Dedicated","server_os":"Linux","password":true,"vac":true,"version":"7757534","steam_id":85568392924469994,"keywords":["nocrits","nodmgspread","payload","uncletopia"],"game_id":440,"stv_port":27026,"stv_name":"Uncletopia | New York City | 2 | All Maps | STV","players":[{"user_id":641,"name":".Cassius.","steam_id":76561199181383832,"connected_time":608000000000,"state":"active","ping":71},{"user_id":643,"name":"BANANA MAN","steam_id":76561198075609917,"connected_time":538000000000,"state":"active","ping":109},{"user_id":609,"name":"warrior","steam_id":76561198074500319,"connected_time":2917000000000,"state":"active","ping":122},{"user_id":628,"name":"Uzi bin Laden","steam_id":76561198218811453,"connected_time":1272000000000,"state":"active","ping":66},{"user_id":629,"name":"Riko","steam_id":76561198028097118,"connected_time":1224000000000,"state":"active","ping":66},{"user_id":630,"name":"berry nice","steam_id":76561198010173227,"connected_time":1207000000000,"state":"active","ping":105},{"user_id":637,"name":"The Milk Overlord","steam_id":76561198283995880,"connected_time":657000000000,"state":"active","ping":129},{"user_id":603,"name":"Eden Hazard","steam_id":76561198089241053,"connected_time":3728000000000,"state":"active","ping":38},{"user_id":620,"name":"Nuts","steam_id":76561198373596269,"connected_time":2502000000000,"state":"active","ping":55},{"user_id":621,"name":"Mexy","steam_id":76561198162328126,"connected_time":1769000000000,"state":"active","ping":56},{"user_id":640,"name":"Havri","steam_id":76561198070736816,"connected_time":638000000000,"state":"active","ping":112},{"user_id":607,"name":"lost in spaaaaace","steam_id":76561199085974120,"connected_time":3443000000000,"state":"active","ping":62},{"user_id":642,"name":"DollarGeneralGaming","steam_id":76561198058532240,"connected_time":582000000000,"state":"active","ping":87},{"user_id":648,"name":"Bridge the fridge","steam_id":76561199078390050,"connected_time":307000000000,"state":"active","ping":60},{"user_id":550,"name":"KBoneski ♡","steam_id":76561198307409065,"connected_time":7492000000000,"state":"active","ping":83},{"user_id":599,"name":"sharia compliant gamer","steam_id":76561198005884261,"connected_time":4253000000000,"state":"active","ping":56},{"user_id":646,"name":"TransFUNKe","steam_id":76561199234098237,"connected_time":386000000000,"state":"active","ping":60},{"user_id":579,"name":"m-Seq","steam_id":76561198114922735,"connected_time":5779000000000,"state":"active","ping":46},{"user_id":647,"name":"Umbra Star","steam_id":76561198071225917,"connected_time":367000000000,"state":"active","ping":85},{"user_id":580,"name":"CRAZY engineer","steam_id":76561198887937902,"connected_time":5774000000000,"state":"active","ping":51},{"user_id":627,"name":"Byrdseed","steam_id":76561198110709656,"connected_time":1474000000000,"state":"active","ping":109},{"user_id":586,"name":"🤨","steam_id":76561199365672047,"connected_time":5446000000000,"state":"active","ping":63},{"user_id":608,"name":"luu","steam_id":76561197994492154,"connected_time":3207000000000,"state":"active","ping":150},{"user_id":634,"name":"sanguine","steam_id":76561198392224164,"connected_time":932000000000,"state":"active","ping":66}]},{"server_id":15,"name":"Uncletopia | New York City | 3 | Stopwatch Beta","name_short":"nyc-3","host":"nyc-1.us.uncletopia.com","port":27035,"enabled":true,"region":"us-east","cc":"us","latitude":40.73061,"longitude":-73.93524,"reserved":0,"last_update":"0001-01-01T00:00:00Z","name_a2s":"Uncletopia | New York City | 3 | Stopwatch Beta","protocol":17,"map":"cp_metalworks","folder":"tf","game":"Team Fortress","app_id":440,"player_count":0,"max_players":24,"Bots":0,"server_type":"Dedicated","server_os":"Linux","password":true,"vac":true,"version":"7757534","steam_id":85568392924742820,"keywords":["cp","nocrits","nodmgspread","uncletopia"],"game_id":440,"stv_port":27036,"stv_name":"Uncletopia | New York City | 3 | Stopwatch Beta | STV","players":null},{"server_id":16,"name":"Uncletopia | New York City | 4 | Community","name_short":"nyc-4","host":"nyc-1.us.uncletopia.com","port":27045,"enabled":true,"region":"us-east","cc":"us","latitude":40.73061,"longitude":-73.93524,"reserved":0,"last_update":"0001-01-01T00:00:00Z","name_a2s":"Uncletopia | New York City | 4 | Community","protocol":17,"map":"workshop/cp_glacier_rc6.ugc2905735376","folder":"tf","game":"Team Fortress","app_id":440,"player_count":0,"max_players":24,"Bots":0,"server_type":"Dedicated","server_os":"Linux","password":true,"vac":true,"version":"7757534","steam_id":85568392924742821,"keywords":["cp","nocrits","nodmgspread","uncletopia"],"game_id":440,"stv_port":27046,"stv_name":"Uncletopia | New York City | 4 | Community | STV","players":null},{"server_id":142,"name":"Uncletopia | São Paulo | 1 | All Maps","name_short":"sao-1","host":"sao-1.br.uncletopia.com","port":27015,"enabled":true,"region":"sa","cc":"br","latitude":-23.533773,"longitude":-46.62529,"reserved":0,"last_update":"0001-01-01T00:00:00Z","name_a2s":"Uncletopia | São Paulo | 1 | All Maps","protocol":17,"map":"koth_highpass","folder":"tf","game":"Team Fortress","app_id":440,"player_count":0,"max_players":24,"Bots":0,"server_type":"Dedicated","server_os":"Linux","password":true,"vac":true,"version":"7757534","steam_id":85568392924469996,"keywords":["cp","nocrits","nodmgspread","uncletopia"],"game_id":440,"stv_port":27016,"stv_name":"Uncletopia | São Paulo | 1 | All Maps | STV","players":null},{"server_id":143,"name":"Uncletopia | São Paulo | 2 | All Maps","name_short":"sao-2","host":"sao-2.br.uncletopia.com","port":27015,"enabled":true,"region":"sa","cc":"br","latitude":-23.533773,"longitude":-46.62529,"reserved":0,"last_update":"0001-01-01T00:00:00Z","name_a2s":"Uncletopia | São Paulo | 2 | All Maps","protocol":17,"map":"koth_viaduct","folder":"tf","game":"Team Fortress","app_id":440,"player_count":0,"max_players":24,"Bots":0,"server_type":"Dedicated","server_os":"Linux","password":true,"vac":true,"version":"7757534","steam_id":85568392924485349,"keywords":["cp","nocrits","nodmgspread","uncletopia"],"game_id":440,"stv_port":27016,"stv_name":"Uncletopia | São Paulo | 2 | All Maps | STV","players":null},{"server_id":7,"name":"Uncletopia | Seattle | 1 | All Maps","name_short":"sea-1","host":"sea-1.us.uncletopia.com","port":27015,"enabled":true,"region":"us-west","cc":"us","latitude":47.608013,"longitude":-122.33517,"reserved":0,"last_update":"0001-01-01T00:00:00Z","name_a2s":"Uncletopia | Seattle | 1 | All Maps","protocol":17,"map":"pl_barnblitz","folder":"tf","game":"Team Fortress","app_id":440,"player_count":24,"max_players":24,"Bots":0,"server_type":"Dedicated","server_os":"Linux","password":true,"vac":true,"version":"7757534","steam_id":85568392924469997,"keywords":["nocrits","nodmgspread","payload","uncletopia"],"game_id":440,"stv_port":27016,"stv_name":"Uncletopia | Seattle | 1 | All Maps | STV","players":[{"user_id":771,"name":"Big Jon","steam_id":76561198402285099,"connected_time":1915000000000,"state":"active","ping":80},{"user_id":775,"name":"Bishuhp","steam_id":76561198015062850,"connected_time":1785000000000,"state":"active","ping":53},{"user_id":772,"name":"colespudzo","steam_id":76561198051127147,"connected_time":1914000000000,"state":"active","ping":48},{"user_id":721,"name":"Arsonist Goose","steam_id":76561198147441830,"connected_time":7544000000000,"state":"active","ping":75},{"user_id":781,"name":"eighr","steam_id":76561198045310420,"connected_time":901000000000,"state":"active","ping":76},{"user_id":784,"name":"h a r t","steam_id":76561198046073848,"connected_time":657000000000,"state":"active","ping":46},{"user_id":762,"name":"Marzbee115","steam_id":76561198095821025,"connected_time":3277000000000,"state":"active","ping":84},{"user_id":779,"name":"keikun","steam_id":76561198059322970,"connected_time":1581000000000,"state":"active","ping":64},{"user_id":768,"name":"Spruce","steam_id":76561198081684676,"connected_time":2661000000000,"state":"active","ping":66},{"user_id":737,"name":"gorlab","steam_id":76561198025089694,"connected_time":5716000000000,"state":"active","ping":66},{"user_id":759,"name":"cracky","steam_id":76561197971365444,"connected_time":3537000000000,"state":"active","ping":50},{"user_id":785,"name":"NeverAcedIt (Pinnacle -\u003e Pit)","steam_id":76561198406671743,"connected_time":656000000000,"state":"active","ping":166},{"user_id":708,"name":"Thexx ❤","steam_id":76561198113823050,"connected_time":8765000000000,"state":"active","ping":52},{"user_id":786,"name":"Dreamy Sweat from 2hu","steam_id":76561198094602446,"connected_time":90000000000,"state":"active","ping":59},{"user_id":766,"name":"alaska","steam_id":76561198017030029,"connected_time":3146000000000,"state":"active","ping":69},{"user_id":783,"name":"RURU","steam_id":76561198039758987,"connected_time":836000000000,"state":"active","ping":47},{"user_id":773,"name":"Auggy","steam_id":76561198041816037,"connected_time":1913000000000,"state":"active","ping":85},{"user_id":770,"name":"Keamy","steam_id":76561199471434875,"connected_time":1996000000000,"state":"active","ping":45},{"user_id":767,"name":"Chronicbackpain","steam_id":76561199082256572,"connected_time":3141000000000,"state":"active","ping":67},{"user_id":740,"name":"Mikey Decoy","steam_id":76561198070496601,"connected_time":4711000000000,"state":"active","ping":55},{"user_id":640,"name":"smeasly","steam_id":76561198028718812,"connected_time":14467000000000,"state":"active","ping":45},{"user_id":739,"name":"KitofKats","steam_id":76561198137242573,"connected_time":4923000000000,"state":"active","ping":42},{"user_id":724,"name":"SanitysEdge","steam_id":76561198130732813,"connected_time":7473000000000,"state":"active","ping":76},{"user_id":747,"name":"ITSPICE","steam_id":76561198173274042,"connected_time":4293000000000,"state":"active","ping":67}]},{"server_id":119,"name":"Uncletopia | Seattle | 2 | All Maps","name_short":"sea-2","host":"sea-1.us.uncletopia.com","port":27025,"enabled":true,"region":"us-west","cc":"us","latitude":47.608013,"longitude":-122.33517,"reserved":0,"last_update":"0001-01-01T00:00:00Z","name_a2s":"Uncletopia | Seattle | 2 | All Maps","protocol":17,"map":"pl_badwater","folder":"tf","game":"Team Fortress","app_id":440,"player_count":24,"max_players":24,"Bots":0,"server_type":"Dedicated","server_os":"Linux","password":true,"vac":true,"version":"7757534","steam_id":85568392924469998,"keywords":["nocrits","nodmgspread","payload","uncletopia"],"game_id":440,"stv_port":27026,"stv_name":"Uncletopia | Seattle | 2 | All Maps | STV","players":[{"user_id":723,"name":"kenZino","steam_id":76561197967971192,"connected_time":1693000000000,"state":"active","ping":48},{"user_id":701,"name":"PoonaniTsunami","steam_id":76561197965367308,"connected_time":2736000000000,"state":"active","ping":38},{"user_id":695,"name":"Juuichi11","steam_id":76561198141955085,"connected_time":3030000000000,"state":"active","ping":53},{"user_id":737,"name":"McTriggered69","steam_id":76561198854334889,"connected_time":687000000000,"state":"active","ping":93},{"user_id":738,"name":"mango cafe","steam_id":76561198142328193,"connected_time":576000000000,"state":"active","ping":48},{"user_id":708,"name":"alN","steam_id":76561198329171346,"connected_time":2354000000000,"state":"active","ping":101},{"user_id":679,"name":"SvicidalBug","steam_id":76561198221390504,"connected_time":3848000000000,"state":"active","ping":62},{"user_id":707,"name":"Bryguy","steam_id":76561198092096120,"connected_time":2370000000000,"state":"active","ping":92},{"user_id":725,"name":"wmjledger","steam_id":76561198443046861,"connected_time":1657000000000,"state":"active","ping":59},{"user_id":740,"name":"louie, engineer main","steam_id":76561198168084763,"connected_time":515000000000,"state":"active","ping":45},{"user_id":751,"name":"the forbidden one","steam_id":76561198844273999,"connected_time":99000000000,"state":"active","ping":43},{"user_id":747,"name":"Olly","steam_id":76561198054273611,"connected_time":326000000000,"state":"active","ping":105},{"user_id":710,"name":"Quillz","steam_id":76561197996567754,"connected_time":2066000000000,"state":"active","ping":110},{"user_id":733,"name":"OldManHenderson1976","steam_id":76561198148713751,"connected_time":1367000000000,"state":"active","ping":110},{"user_id":750,"name":"'93","steam_id":76561198069979962,"connected_time":236000000000,"state":"active","ping":101},{"user_id":712,"name":"Big Mac","steam_id":76561198091040441,"connected_time":2060000000000,"state":"active","ping":129},{"user_id":734,"name":"porksoda","steam_id":76561198021451377,"connected_time":1349000000000,"state":"active","ping":55},{"user_id":720,"name":"percyjackoff69","steam_id":76561198298005217,"connected_time":1802000000000,"state":"active","ping":48},{"user_id":752,"name":"The IT Guy","steam_id":76561198071790583,"connected_time":76000000000,"state":"active","ping":108},{"user_id":744,"name":"MEDICINAL CRACK ENJOYER","steam_id":76561198113427343,"connected_time":426000000000,"state":"active","ping":84},{"user_id":753,"name":"level 7 firemancer","steam_id":76561198209571677,"connected_time":42000000000,"state":"active","ping":120},{"user_id":732,"name":"Worm God","steam_id":76561198087339875,"connected_time":1478000000000,"state":"active","ping":85},{"user_id":745,"name":"XxSquidwardxX","steam_id":76561198294455367,"connected_time":406000000000,"state":"active","ping":94},{"user_id":746,"name":"cozy","steam_id":76561198068345102,"connected_time":394000000000,"state":"active","ping":48}]},{"server_id":406,"name":"Uncletopia | Seattle | 3 | Stopwatch Beta","name_short":"sea-3","host":"sea-1.us.uncletopia.com","port":27035,"enabled":true,"region":"us-west","cc":"us","latitude":47.608013,"longitude":-122.33517,"reserved":0,"last_update":"0001-01-01T00:00:00Z","name_a2s":"Uncletopia | Seattle | 3 | Stopwatch Beta","protocol":17,"map":"koth_lakeside_final","folder":"tf","game":"Team Fortress","app_id":440,"player_count":0,"max_players":24,"Bots":0,"server_type":"Dedicated","server_os":"Linux","password":true,"vac":true,"version":"7757534","steam_id":85568392924515217,"keywords":["cp","nocrits","nodmgspread","uncletopia"],"game_id":440,"stv_port":27036,"stv_name":"Uncletopia | Seattle | 3 | Stopwatch Beta | STV","players":null},{"server_id":17,"name":"Uncletopia | San Francisco | 1 | All Maps","name_short":"sfo-1","host":"sfo-1.us.uncletopia.com","port":27015,"enabled":true,"region":"us-west","cc":"us","latitude":37.77397,"longitude":-122.4313,"reserved":0,"last_update":"0001-01-01T00:00:00Z","name_a2s":"Uncletopia | San Francisco | 1 | All Maps","protocol":17,"map":"pl_barnblitz","folder":"tf","game":"Team Fortress","app_id":440,"player_count":24,"max_players":24,"Bots":0,"server_type":"Dedicated","server_os":"Linux","password":true,"vac":true,"version":"7757534","steam_id":85568392924469999,"keywords":["nocrits","nodmgspread","payload","uncletopia"],"game_id":440,"stv_port":27016,"stv_name":"Uncletopia | San Francisco | 1 | All Maps | STV","players":[{"user_id":675,"name":"nfseskimo","steam_id":76561198078745666,"connected_time":1419000000000,"state":"active","ping":60},{"user_id":698,"name":"SleezeBaggerMcSwagger","steam_id":76561198397836238,"connected_time":266000000000,"state":"active","ping":49},{"user_id":633,"name":"Maid 'n' China","steam_id":76561198423392976,"connected_time":5137000000000,"state":"active","ping":50},{"user_id":687,"name":"Deathmagus","steam_id":76561198004626117,"connected_time":945000000000,"state":"active","ping":67},{"user_id":693,"name":"An Alien Mango","steam_id":76561198864823970,"connected_time":334000000000,"state":"active","ping":80},{"user_id":694,"name":"Tomatm0_","steam_id":76561198369658842,"connected_time":326000000000,"state":"active","ping":74},{"user_id":676,"name":"SketchyStreet","steam_id":76561199003194680,"connected_time":1404000000000,"state":"active","ping":101},{"user_id":634,"name":"Jazz Hands","steam_id":76561199225708271,"connected_time":5131000000000,"state":"active","ping":81},{"user_id":682,"name":"Ethan","steam_id":76561198073208185,"connected_time":1195000000000,"state":"active","ping":59},{"user_id":659,"name":"Aircraft Carrier Princess","steam_id":76561198348354629,"connected_time":2734000000000,"state":"active","ping":54},{"user_id":679,"name":"RocksteadEZ","steam_id":76561198294955546,"connected_time":1285000000000,"state":"active","ping":119},{"user_id":701,"name":"lychee","steam_id":76561198332698451,"connected_time":76000000000,"state":"active","ping":114},{"user_id":671,"name":"sora","steam_id":76561198094256973,"connected_time":1719000000000,"state":"active","ping":47},{"user_id":680,"name":"nom","steam_id":76561198105374054,"connected_time":1282000000000,"state":"active","ping":82},{"user_id":669,"name":"perc 10","steam_id":76561198116471653,"connected_time":1818000000000,"state":"active","ping":70},{"user_id":670,"name":"Compassionate727","steam_id":76561198106303951,"connected_time":1769000000000,"state":"active","ping":114},{"user_id":673,"name":"Goymer","steam_id":76561198095445183,"connected_time":1662000000000,"state":"active","ping":64},{"user_id":674,"name":"beeble!","steam_id":76561198219538525,"connected_time":1635000000000,"state":"active","ping":92},{"user_id":681,"name":"pip","steam_id":76561198095431471,"connected_time":1274000000000,"state":"active","ping":97},{"user_id":683,"name":"JICK¶","steam_id":76561198134218403,"connected_time":1168000000000,"state":"active","ping":46},{"user_id":689,"name":"✰⋆❤ Nomayy_ ❤⋆✰","steam_id":76561198201364639,"connected_time":770000000000,"state":"active","ping":114},{"user_id":695,"name":"(TPT) Ghost","steam_id":76561198123262873,"connected_time":317000000000,"state":"active","ping":69},{"user_id":696,"name":"cryingbaby23","steam_id":76561198130413260,"connected_time":312000000000,"state":"active","ping":111},{"user_id":697,"name":"A force to be reckoned with","steam_id":76561198025898570,"connected_time":312000000000,"state":"active","ping":118}]},{"server_id":18,"name":"Uncletopia | San Francisco | 2 | All Maps","name_short":"sfo-2","host":"sfo-1.us.uncletopia.com","port":27025,"enabled":true,"region":"us-west","cc":"us","latitude":37.77397,"longitude":-122.4313,"reserved":0,"last_update":"0001-01-01T00:00:00Z","name_a2s":"Uncletopia | San Francisco | 2 | All Maps","protocol":17,"map":"koth_cascade","folder":"tf","game":"Team Fortress","app_id":440,"player_count":3,"max_players":24,"Bots":0,"server_type":"Dedicated","server_os":"Linux","password":true,"vac":true,"version":"7757534","steam_id":85568392924470000,"keywords":["cp","nocrits","nodmgspread","uncletopia"],"game_id":440,"stv_port":27026,"stv_name":"Uncletopia | San Francisco | 2 | All Maps | STV","players":[{"user_id":417,"name":"Big Ridley","steam_id":76561198129963910,"connected_time":675000000000,"state":"active","ping":103},{"user_id":418,"name":"Cameroonian","steam_id":76561198159609798,"connected_time":643000000000,"state":"active","ping":80},{"user_id":419,"name":"Big Fat Stinkword","steam_id":76561198094695484,"connected_time":641000000000,"state":"active","ping":70}]},{"server_id":19,"name":"Uncletopia | San Francisco | 3 | Stopwatch Beta","name_short":"sfo-3","host":"sfo-1.us.uncletopia.com","port":27035,"enabled":true,"region":"us-west","cc":"us","latitude":37.77397,"longitude":-122.4313,"reserved":0,"last_update":"0001-01-01T00:00:00Z","name_a2s":"Uncletopia | San Francisco | 3 | Stopwatch Beta","protocol":17,"map":"pl_swiftwater_final1","folder":"tf","game":"Team Fortress","app_id":440,"player_count":0,"max_players":24,"Bots":0,"server_type":"Dedicated","server_os":"Linux","password":true,"vac":true,"version":"7757534","steam_id":85568392924742824,"keywords":["nocrits","nodmgspread","payload","uncletopia"],"game_id":440,"stv_port":27036,"stv_name":"Uncletopia | San Francisco | 3 | Stopwatch Beta | STV","players":null},{"server_id":20,"name":"Uncletopia | San Francisco | 4 | Community","name_short":"sfo-4","host":"sfo-1.us.uncletopia.com","port":27045,"enabled":true,"region":"us-west","cc":"us","latitude":37.77397,"longitude":-122.4313,"reserved":0,"last_update":"0001-01-01T00:00:00Z","name_a2s":"Uncletopia | San Francisco | 4 | Community","protocol":17,"map":"workshop/rd_asteroid_redux_b1.ugc2154902912","folder":"tf","game":"Team Fortress","app_id":440,"player_count":0,"max_players":24,"Bots":0,"server_type":"Dedicated","server_os":"Linux","password":true,"vac":true,"version":"7757534","steam_id":85568392924742826,"keywords":["beta","nocrits","nodmgspread","rd","uncletopia"],"game_id":440,"stv_port":27046,"stv_name":"Uncletopia | San Francisco | 4 | Community | STV","players":null},{"server_id":141,"name":"Uncletopia | Sydney | 1 | All Maps","name_short":"syd-1","host":"syd-1.au.uncletopia.com","port":27015,"enabled":true,"region":"au","cc":"au","latitude":-33.865143,"longitude":151.2099,"reserved":0,"last_update":"0001-01-01T00:00:00Z","name_a2s":"Uncletopia | Sydney | 1 | All Maps","protocol":17,"map":"cp_altitude","folder":"tf","game":"Team Fortress","app_id":440,"player_count":0,"max_players":24,"Bots":0,"server_type":"Dedicated","server_os":"Linux","password":true,"vac":true,"version":"7757534","steam_id":85568392924470001,"keywords":["cp","nocrits","nodmgspread","uncletopia"],"game_id":440,"stv_port":27016,"stv_name":"Uncletopia | Sydney | 1 | All Maps | STV","players":null},{"server_id":123,"name":"Uncletopia | Sydney | 2 | All Maps","name_short":"syd-2","host":"syd-1.au.uncletopia.com","port":27025,"enabled":true,"region":"au","cc":"au","latitude":-33.865143,"longitude":151.2099,"reserved":0,"last_update":"0001-01-01T00:00:00Z","name_a2s":"Uncletopia | Sydney | 2 | All Maps","protocol":17,"map":"pl_swiftwater_final1","folder":"tf","game":"Team Fortress","app_id":440,"player_count":24,"max_players":24,"Bots":0,"server_type":"Dedicated","server_os":"Linux","password":true,"vac":true,"version":"7757534","steam_id":85568392924470002,"keywords":["nocrits","nodmgspread","payload","uncletopia"],"game_id":440,"stv_port":27026,"stv_name":"Uncletopia | Sydney | 2 | All Maps | STV","players":[{"user_id":93,"name":"Jodelkönig Franzl Lang","steam_id":76561198007667830,"connected_time":14379000000000,"state":"active","ping":45},{"user_id":223,"name":"FyreFeat","steam_id":76561198068428930,"connected_time":1616000000000,"state":"active","ping":53},{"user_id":207,"name":"horrid creature ᘛ⁐̤ᕐᐷ","steam_id":76561198061998379,"connected_time":2484000000000,"state":"active","ping":47},{"user_id":214,"name":"MR Martian","steam_id":76561198157854561,"connected_time":1879000000000,"state":"active","ping":90},{"user_id":224,"name":"Abraham Lincoln","steam_id":76561198095292515,"connected_time":1595000000000,"state":"active","ping":60},{"user_id":251,"name":"juusha","steam_id":76561198911542330,"connected_time":599000000000,"state":"active","ping":71},{"user_id":217,"name":"L.ion","steam_id":76561198261172910,"connected_time":1806000000000,"state":"active","ping":52},{"user_id":218,"name":"Tofu","steam_id":76561198025637573,"connected_time":1745000000000,"state":"active","ping":37},{"user_id":86,"name":"Atner","steam_id":76561198442934454,"connected_time":14595000000000,"state":"active","ping":89},{"user_id":252,"name":"alex","steam_id":76561198053382248,"connected_time":459000000000,"state":"active","ping":44},{"user_id":215,"name":"CypressFluff (She/Her)","steam_id":76561198174667818,"connected_time":1873000000000,"state":"active","ping":62},{"user_id":242,"name":"Sexy Turtle","steam_id":76561198256865969,"connected_time":786000000000,"state":"active","ping":44},{"user_id":204,"name":"eekynetwo(F2P Piss Sniper)","steam_id":76561198990017441,"connected_time":2540000000000,"state":"active","ping":139},{"user_id":225,"name":"monnickev","steam_id":76561198252587162,"connected_time":1230000000000,"state":"active","ping":44},{"user_id":227,"name":"HopCat","steam_id":76561198050828608,"connected_time":1147000000000,"state":"active","ping":108},{"user_id":213,"name":"Marzell","steam_id":76561198151276153,"connected_time":2250000000000,"state":"active","ping":91},{"user_id":220,"name":"Sherpa","steam_id":76561198018913829,"connected_time":1711000000000,"state":"active","ping":51},{"user_id":212,"name":"you have been deemed, Gilbert","steam_id":76561198301282416,"connected_time":2270000000000,"state":"active","ping":49},{"user_id":229,"name":"honkybus thruttlebop","steam_id":76561198063481761,"connected_time":970000000000,"state":"active","ping":44},{"user_id":222,"name":"bathtub","steam_id":76561198967804087,"connected_time":1649000000000,"state":"active","ping":153},{"user_id":230,"name":"michael","steam_id":76561198052848358,"connected_time":954000000000,"state":"active","ping":56},{"user_id":245,"name":"BackyardBonanza19943214","steam_id":76561198383642609,"connected_time":737000000000,"state":"active","ping":60},{"user_id":128,"name":"AzureFox","steam_id":76561198108179408,"connected_time":10796000000000,"state":"active","ping":82},{"user_id":234,"name":"Drakeo","steam_id":76561198268859184,"connected_time":912000000000,"state":"active","ping":99}]},{"server_id":395,"name":"Uncletopia | Sydney | 3 | All Maps","name_short":"syd-3","host":"syd-1.au.uncletopia.com","port":27035,"enabled":true,"region":"au","cc":"au","latitude":-33.865143,"longitude":151.2099,"reserved":0,"last_update":"0001-01-01T00:00:00Z","name_a2s":"Uncletopia | Sydney | 3 | All Maps","protocol":17,"map":"koth_viaduct","folder":"tf","game":"Team Fortress","app_id":440,"player_count":0,"max_players":24,"Bots":0,"server_type":"Dedicated","server_os":"Linux","password":true,"vac":true,"version":"7757534","steam_id":85568392925194467,"keywords":["cp","nocrits","nodmgspread","uncletopia"],"game_id":440,"stv_port":27036,"stv_name":"Uncletopia | Sydney | 3 | All Maps | STV","players":null},{"server_id":396,"name":"Uncletopia | Sydney | 4 | All Maps","name_short":"syd-4","host":"syd-1.au.uncletopia.com","port":27045,"enabled":true,"region":"au","cc":"au","latitude":-33.865143,"longitude":151.2099,"reserved":0,"last_update":"0001-01-01T00:00:00Z","name_a2s":"Uncletopia | Sydney | 4 | All Maps","protocol":17,"map":"koth_highpass","folder":"tf","game":"Team Fortress","app_id":440,"player_count":0,"max_players":24,"Bots":0,"server_type":"Dedicated","server_os":"Linux","password":true,"vac":true,"version":"7757534","steam_id":85568392925397958,"keywords":["cp","nocrits","nodmgspread","uncletopia"],"game_id":440,"stv_port":27046,"stv_name":"Uncletopia | Sydney | 4 | All Maps | STV","players":null},{"server_id":58,"name":"Uncletopia | Sydney | 5 | Stopwatch Beta","name_short":"syd-5","host":"syd-1.au.uncletopia.com","port":27055,"enabled":true,"region":"au","cc":"au","latitude":-33.865143,"longitude":151.2099,"reserved":0,"last_update":"0001-01-01T00:00:00Z","name_a2s":"Uncletopia | Sydney | 5 | Stopwatch Beta","protocol":17,"map":"koth_cascade","folder":"tf","game":"Team Fortress","app_id":440,"player_count":0,"max_players":24,"Bots":0,"server_type":"Dedicated","server_os":"Linux","password":true,"vac":true,"version":"7757534","steam_id":85568392925397959,"keywords":["cp","nocrits","nodmgspread","uncletopia"],"game_id":440,"stv_port":27056,"stv_name":"Uncletopia | Sydney | 5 | Stopwatch Beta | STV","players":null},{"server_id":59,"name":"Uncletopia | Sydney | 6 | Community","name_short":"syd-6","host":"syd-1.au.uncletopia.com","port":27065,"enabled":true,"region":"au","cc":"au","latitude":-33.865143,"longitude":151.2099,"reserved":0,"last_update":"0001-01-01T00:00:00Z","name_a2s":"Uncletopia | Sydney | 6 | Community","protocol":17,"map":"workshop/pl_vigil_rc9.ugc1266210012","folder":"tf","game":"Team Fortress","app_id":440,"player_count":0,"max_players":24,"Bots":0,"server_type":"Dedicated","server_os":"Linux","password":true,"vac":true,"version":"7757534","steam_id":85568392925397960,"keywords":["nocrits","nodmgspread","payload","uncletopia"],"game_id":440,"stv_port":27066,"stv_name":"Uncletopia | Sydney | 6 | Community | STV","players":null},{"server_id":49,"name":"Uncletopia | Warsaw | 1 | All Maps","name_short":"waw-1","host":"waw-1.pl.uncletopia.com","port":27015,"enabled":true,"region":"eu","cc":"pl","latitude":52.2297,"longitude":21.017532,"reserved":0,"last_update":"0001-01-01T00:00:00Z","name_a2s":"","protocol":0,"map":"","folder":"","game":"","app_id":0,"player_count":0,"max_players":0,"Bots":0,"server_type":"","server_os":"","password":false,"vac":false,"version":"","steam_id":0,"keywords":null,"game_id":0,"stv_port":0,"stv_name":"","players":null},{"server_id":50,"name":"Uncletopia | Warsaw | 2 | All Maps","name_short":"waw-2","host":"waw-1.pl.uncletopia.com","port":27025,"enabled":true,"region":"eu","cc":"pl","latitude":52.2297,"longitude":21.017532,"reserved":0,"last_update":"0001-01-01T00:00:00Z","name_a2s":"Uncletopia | Warsaw | 2 | All Maps","protocol":17,"map":"koth_viaduct","folder":"tf","game":"Team Fortress","app_id":440,"player_count":0,"max_players":24,"Bots":0,"server_type":"Dedicated","server_os":"Linux","password":true,"vac":true,"version":"7757534","steam_id":85568392925397851,"keywords":["cp","nocrits","nodmgspread","uncletopia"],"game_id":440,"stv_port":27026,"stv_name":"Uncletopia | Warsaw | 2 | All Maps | STV","players":null},{"server_id":51,"name":"Uncletopia | Warsaw | 3 | All Maps","name_short":"waw-3","host":"waw-1.pl.uncletopia.com","port":27035,"enabled":true,"region":"eu","cc":"pl","latitude":52.2297,"longitude":21.017532,"reserved":0,"last_update":"0001-01-01T00:00:00Z","name_a2s":"Uncletopia | Warsaw | 3 | All Maps","protocol":17,"map":"pl_badwater","folder":"tf","game":"Team Fortress","app_id":440,"player_count":0,"max_players":24,"Bots":0,"server_type":"Dedicated","server_os":"Linux","password":true,"vac":true,"version":"7757534","steam_id":85568392925397852,"keywords":["nocrits","nodmgspread","payload","uncletopia"],"game_id":440,"stv_port":27036,"stv_name":"Uncletopia | Warsaw | 3 | All Maps | STV","players":null},{"server_id":52,"name":"Uncletopia | Warsaw | 4 | All Maps","name_short":"waw-4","host":"waw-1.pl.uncletopia.com","port":27045,"enabled":true,"region":"eu","cc":"pl","latitude":52.2297,"longitude":21.017532,"reserved":0,"last_update":"0001-01-01T00:00:00Z","name_a2s":"Uncletopia | Warsaw | 4 | All Maps","protocol":17,"map":"koth_lakeside_final","folder":"tf","game":"Team Fortress","app_id":440,"player_count":0,"max_players":24,"Bots":0,"server_type":"Dedicated","server_os":"Linux","password":true,"vac":true,"version":"7757534","steam_id":85568392925397853,"keywords":["cp","nocrits","nodmgspread","uncletopia"],"game_id":440,"stv_port":27046,"stv_name":"Uncletopia | Warsaw | 4 | All Maps | STV","players":null},{"server_id":53,"name":"Uncletopia | Warsaw | 5 | Stopwatch Beta","name_short":"waw-5","host":"waw-1.pl.uncletopia.com","port":27055,"enabled":true,"region":"eu","cc":"pl","latitude":52.2297,"longitude":21.017532,"reserved":0,"last_update":"0001-01-01T00:00:00Z","name_a2s":"Uncletopia | Warsaw | 5 | Stopwatch Beta","protocol":17,"map":"pl_borneo","folder":"tf","game":"Team Fortress","app_id":440,"player_count":0,"max_players":24,"Bots":0,"server_type":"Dedicated","server_os":"Linux","password":true,"vac":true,"version":"7757534","steam_id":85568392925397854,"keywords":["nocrits","nodmgspread","payload","uncletopia"],"game_id":440,"stv_port":27056,"stv_name":"Uncletopia | Warsaw | 5 | Stopwatch Beta | STV","players":null},{"server_id":54,"name":"Uncletopia | Warsaw | 6 | Community","name_short":"waw-6","host":"waw-1.pl.uncletopia.com","port":27065,"enabled":true,"region":"eu","cc":"pl","latitude":52.2297,"longitude":21.017532,"reserved":0,"last_update":"0001-01-01T00:00:00Z","name_a2s":"Uncletopia | Warsaw | 6 | Community","protocol":17,"map":"koth_lakeside_final","folder":"tf","game":"Team Fortress","app_id":440,"player_count":0,"max_players":24,"Bots":0,"server_type":"Dedicated","server_os":"Linux","password":true,"vac":true,"version":"7757534","steam_id":85568392925397856,"keywords":["cp","nocrits","nodmgspread","uncletopia"],"game_id":440,"stv_port":27066,"stv_name":"Uncletopia | Warsaw | 6 | Community | STV","players":null}]}