{"status":true,"message":"","result":[{"server_id":9,"name":"Uncletopia | Atlanta | 1 | All Maps","name_short":"atl-1","host":"atl-1.us.uncletopia.com","port":27015,"enabled":true,"region":"us-east","cc":"us","latitude":33.753746,"longitude":-84.38633,"reserved":0,"last_update":"0001-01-01T00:00:00Z","name_a2s":"Uncletopia | Atlanta | 1 | All Maps","protocol":17,"map":"cp_dustbowl","folder":"tf","game":"Team Fortress","app_id":440,"player_count":24,"max_players":24,"Bots":0,"server_type":"Dedicated","server_os":"Linux","password":true,"vac":true,"version":"7961495","steam_id":85568392924469982,"keywords":["cp","nocrits","nodmgspread","uncletopia"],"game_id":440,"stv_port":27016,"stv_name":"Uncletopia | Atlanta | 1 | All Maps | STV","players":null},{"server_id":104,"name":"Uncletopia | Atlanta | 2 | All Maps","name_short":"atl-2","host":"atl-1.us.uncletopia.com","port":27025,"enabled":true,"region":"us-east","cc":"us","latitude":33.753746,"longitude":-84.38633,"reserved":0,"last_update":"0001-01-01T00:00:00Z","name_a2s":"Uncletopia | Atlanta | 2 | All Maps","protocol":17,"map":"ctf_landfall","folder":"tf","game":"Team Fortress","app_id":440,"player_count":24,"max_players":24,"Bots":0,"server_type":"Dedicated","server_os":"Linux","password":true,"vac":true,"version":"7961495","steam_id":85568392924469983,"keywords":["ctf","nocrits","nodmgspread","uncletopia"],"game_id":440,"stv_port":27026,"stv_name":"Uncletopia | Atlanta | 2 | All Maps | STV","players":null},{"server_id":400,"name":"Uncletopia | Atlanta | 3 | All Maps","name_short":"atl-3","host":"atl-1.us.uncletopia.com","port":27035,"enabled":true,"region":"us-east","cc":"us","latitude":33.753746,"longitude":-84.38633,"reserved":0,"last_update":"0001-01-01T00:00:00Z","name_a2s":"Uncletopia | Atlanta | 3 | All Maps","protocol":17,"map":"pl_upward","folder":"tf","game":"Team Fortress","app_id":440,"player_count":22,"max_players":24,"Bots":0,"server_type":"Dedicated","server_os":"Linux","password":true,"vac":true,"version":"7961495","steam_id":85568392924515187,"keywords":["nocrits","nodmgspread","payload","uncletopia"],"game_id":440,"stv_port":27036,"stv_name":"Uncletopia | Atlanta | 3 | All Maps | STV","players":null},{"server_id":401,"name":"Uncletopia | Atlanta | 4 | Community","name_short":"atl-4","host":"atl-1.us.uncletopia.com","port":27045,"enabled":true,"region":"us-east","cc":"us","latitude":33.753746,"longitude":-84.38633,"reserved":0,"last_update":"0001-01-01T00:00:00Z","name_a2s":"Uncletopia | Atlanta | 4 | Community","protocol":17,"map":"koth_trenchfoot_b1a","folder":"tf","game":"Team Fortress","app_id":440,"player_count":0,"max_players":24,"Bots":0,"server_type":"Dedicated","server_os":"Linux","password":true,"vac":true,"version":"7961495","steam_id":85568392924515188,"keywords":["cp","nocrits","nodmgspread","uncletopia"],"game_id":440,"stv_port":27046,"stv_name":"Uncletopia | Atlanta | 4 | Community | STV","players":null},{"server_id":2,"name":"Uncletopia | Chicago | 1 | All Maps","name_short":"chi-1","host":"chi-1.us.uncletopia.com","port":27015,"enabled":true,"region":"us-central","cc":"us","latitude":41.881832,"longitude":-87.62318,"reserved":0,"last_update":"0001-01-01T00:00:00Z","name_a2s":"Uncletopia | Chicago | 1 | All Maps","protocol":17,"map":"koth_viaduct","folder":"tf","game":"Team Fortress","app_id":440,"player_count":21,"max_players":24,"Bots":0,"server_type":"Dedicated","server_os":"Linux","password":true,"vac":true,"version":"7961495","steam_id":85568392924469984,"keywords":["cp","nocrits","nodmgspread","uncletopia"],"game_id":440,"stv_port":27016,"stv_name":"Uncletopia | Chicago | 1 | All Maps | STV","players":[{"user_id":245,"name":"hammy","steam_id":76561198035751911,"connected_time":4704000000000,"state":"active","ping":58},{"user_id":316,"name":"kibsta","steam_id":76561198991982630,"connected_time":3264000000000,"state":"active","ping":54},{"user_id":304,"name":"Astoriae!","steam_id":76561199090168858,"connected_time":3654000000000,"state":"active","ping":59},{"user_id":262,"name":"ROGUE-PLANET","steam_id":76561198116023052,"connected_time":4395000000000,"state":"active","ping":78},{"user_id":351,"name":"Doctor Emerald(real)","steam_id":76561199123003872,"connected_time":1175000000000,"state":"active","ping":88},{"user_id":320,"name":"berserker_tf2 yt","steam_id":76561198303464488,"connected_time":3146000000000,"state":"active","ping":61},{"user_id":362,"name":"That1Dude15","steam_id":76561198155024684,"connected_time":106000000000,"state":"active","ping":64},{"user_id":356,"name":"sea wizard","steam_id":76561199018321159,"connected_time":802000000000,"state":"active","ping":84},{"user_id":365,"name":"nonagon infinity","steam_id":76561198397662124,"connected_time":16000000000,"state":"active","ping":90},{"user_id":364,"name":"Wormy","steam_id":76561198356847890,"connected_time":41000000000,"state":"active","ping":72},{"user_id":348,"name":"Cosmic Torgue","steam_id":76561198828724945,"connected_time":1479000000000,"state":"active","ping":79},{"user_id":359,"name":"Fireblade425","steam_id":76561199278401592,"connected_time":444000000000,"state":"active","ping":88},{"user_id":331,"name":"summerlis","steam_id":76561198165324438,"connected_time":2254000000000,"state":"active","ping":88},{"user_id":366,"name":"leumas","steam_id":76561198240408540,"connected_time":15000000000,"state":"active","ping":57},{"user_id":328,"name":"pinky","steam_id":76561199109784776,"connected_time":2439000000000,"state":"active","ping":58},{"user_id":318,"name":"Ros","steam_id":76561199055963822,"connected_time":3261000000000,"state":"active","ping":74},{"user_id":344,"name":"sniper is perfectly balanced","steam_id":76561199381954163,"connected_time":1590000000000,"state":"active","ping":110},{"user_id":234,"name":"Punsequence64","steam_id":76561199201885917,"connected_time":4899000000000,"state":"active","ping":60},{"user_id":345,"name":"sheep man shaun","steam_id":76561198994349483,"connected_time":1561000000000,"state":"active","ping":139},{"user_id":349,"name":"Your Local Queer Librarian","steam_id":76561198013077080,"connected_time":1464000000000,"state":"active","ping":53},{"user_id":337,"name":"Milkmur","steam_id":76561198210043821,"connected_time":1801000000000,"state":"active","ping":61}]},{"server_id":106,"name":"Uncletopia | Chicago | 2 | All Maps","name_short":"chi-2","host":"chi-1.us.uncletopia.com","port":27025,"enabled":true,"region":"us-central","cc":"us","latitude":41.881832,"longitude":-87.62318,"reserved":0,"last_update":"0001-01-01T00:00:00Z","name_a2s":"Uncletopia | Chicago | 2 | All Maps","protocol":17,"map":"pl_upward","folder":"tf","game":"Team Fortress","app_id":440,"player_count":23,"max_players":24,"Bots":0,"server_type":"Dedicated","server_os":"Linux","password":true,"vac":true,"version":"7961495","steam_id":85568392924469985,"keywords":["nocrits","nodmgspread","payload","uncletopia"],"game_id":440,"stv_port":27026,"stv_name":"Uncletopia | Chicago | 2 | All Maps | STV","players":[{"user_id":502,"name":"Sergeant Joker #savetf2","steam_id":76561198854616604,"connected_time":862000000000,"state":"active","ping":61},{"user_id":518,"name":"bloodyboorp","steam_id":76561199177105829,"connected_time":44000000000,"state":"active","ping":152},{"user_id":503,"name":"thecal","steam_id":76561198307893384,"connected_time":861000000000,"state":"active","ping":59},{"user_id":473,"name":"sailor","steam_id":76561198091015050,"connected_time":2790000000000,"state":"active","ping":45},{"user_id":498,"name":"Jobert","steam_id":76561198062044544,"connected_time":1034000000000,"state":"active","ping":74},{"user_id":445,"name":"Cyclops_672","steam_id":76561198080169497,"connected_time":4652000000000,"state":"active","ping":46},{"user_id":490,"name":"40K","steam_id":76561198070599668,"connected_time":1475000000000,"state":"active","ping":78},{"user_id":438,"name":"0100101101100001011100100110110","steam_id":76561198034028769,"connected_time":5271000000000,"state":"active","ping":64},{"user_id":467,"name":"Queen Frau the Round","steam_id":76561197999942134,"connected_time":3102000000000,"state":"active","ping":42},{"user_id":514,"name":"GooniOoni","steam_id":76561198102154561,"connected_time":59000000000,"state":"active","ping":31},{"user_id":515,"name":"Chucklin","steam_id":76561198010823579,"connected_time":56000000000,"state":"active","ping":83},{"user_id":505,"name":"amberenix","steam_id":76561198805110908,"connected_time":816000000000,"state":"active","ping":80},{"user_id":520,"name":"wile","steam_id":76561198125261443,"connected_time":25000000000,"state":"active","ping":110},{"user_id":506,"name":"unicornCatLiliOwO","steam_id":76561199391478575,"connected_time":778000000000,"state":"active","ping":101},{"user_id":519,"name":"Raphael","steam_id":76561198101425586,"connected_time":44000000000,"state":"active","ping":92},{"user_id":470,"name":"Netter","steam_id":76561198086309544,"connected_time":3082000000000,"state":"active","ping":82},{"user_id":507,"name":"..!","steam_id":76561198882483441,"connected_time":776000000000,"state":"active","ping":83},{"user_id":487,"name":"chikin.sauce","steam_id":76561198042464635,"connected_time":1642000000000,"state":"active","ping":75},{"user_id":516,"name":"kite","steam_id":76561198346516392,"connected_time":56000000000,"state":"active","ping":66},{"user_id":448,"name":"define ok","steam_id":76561198068190834,"connected_time":4641000000000,"state":"active","ping":92},{"user_id":521,"name":"Sucker for Rice Krispies","steam_id":76561199127423378,"connected_time":25000000000,"state":"active","ping":106},{"user_id":522,"name":"The Entire Population of Canada","steam_id":76561198090187112,"connected_time":21000000000,"state":"spawning","ping":64},{"user_id":496,"name":"Smiles","steam_id":76561198107197973,"connected_time":1261000000000,"state":"active","ping":60}]},{"server_id":402,"name":"Uncletopia | Chicago | 3 | All Maps","name_short":"chi-3","host":"chi-1.us.uncletopia.com","port":27035,"enabled":true,"region":"us-central","cc":"us","latitude":41.881832,"longitude":-87.62318,"reserved":0,"last_update":"0001-01-01T00:00:00Z","name_a2s":"Uncletopia | Chicago | 3 | All Maps","protocol":17,"map":"pl_snowycoast","folder":"tf","game":"Team Fortress","app_id":440,"player_count":0,"max_players":24,"Bots":0,"server_type":"Dedicated","server_os":"Linux","password":true,"vac":true,"version":"7961495","steam_id":85568392924515191,"keywords":["nocrits","nodmgspread","payload","uncletopia"],"game_id":440,"stv_port":27036,"stv_name":"Uncletopia | Chicago | 3 | All Maps | STV","players":null},{"server_id":403,"name":"Uncletopia | Chicago | 4 | All Maps","name_short":"chi-4","host":"chi-1.us.uncletopia.com","port":27045,"enabled":true,"region":"us-central","cc":"us","latitude":41.881832,"longitude":-87.62318,"reserved":0,"last_update":"0001-01-01T00:00:00Z","name_a2s":"Uncletopia | Chicago | 4 | All Maps","protocol":17,"map":"cp_sunshine","folder":"tf","game":"Team Fortress","app_id":440,"player_count":0,"max_players":24,"Bots":0,"server_type":"Dedicated","server_os":"Linux","password":true,"vac":true,"version":"7961495","steam_id":85568392924515193,"keywords":["cp","nocrits","nodmgspread","uncletopia"],"game_id":440,"stv_port":27046,"stv_name":"Uncletopia | Chicago | 4 | All Maps | STV","players":null},{"server_id":36,"name":"Uncletopia | Chicago | 5 | All Maps","name_short":"chi-5","host":"chi-2.us.uncletopia.com","port":27015,"enabled":true,"region":"us-central","cc":"us","latitude":41.881832,"longitude":-87.62318,"reserved":0,"last_update":"0001-01-01T00:00:00Z","name_a2s":"Uncletopia | Chicago | 5 | All Maps","protocol":17,"map":"cp_dustbowl","folder":"tf","game":"Team Fortress","app_id":440,"player_count":15,"max_players":24,"Bots":0,"server_type":"Dedicated","server_os":"Linux","password":true,"vac":true,"version":"7961495","steam_id":85568392924866362,"keywords":["cp","nocrits","nodmgspread","uncletopia"],"game_id":440,"stv_port":27016,"stv_name":"Uncletopia | Chicago | 5 | All Maps | STV","players":[{"user_id":258,"name":"1-800-GHOST-DANCE","steam_id":76561198835430429,"connected_time":6000000000,"state":"spawning","ping":176},{"user_id":244,"name":"corntent","steam_id":76561198824847948,"connected_time":627000000000,"state":"active","ping":57},{"user_id":254,"name":"Mangoue","steam_id":76561198844686784,"connected_time":252000000000,"state":"active","ping":61},{"user_id":255,"name":"None of that $9.99 bullshit","steam_id":76561198116169903,"connected_time":248000000000,"state":"active","ping":45},{"user_id":256,"name":"Cinnabar","steam_id":76561198964903969,"connected_time":207000000000,"state":"active","ping":64},{"user_id":257,"name":"evilclownattack","steam_id":76561198001627114,"connected_time":115000000000,"state":"active","ping":126},{"user_id":235,"name":"CoffeeZombee","steam_id":76561198172708053,"connected_time":1513000000000,"state":"active","ping":85},{"user_id":240,"name":"Non Golden Pan user","steam_id":76561198084154306,"connected_time":751000000000,"state":"active","ping":71},{"user_id":224,"name":"Snazzy Salamander","steam_id":76561198144534560,"connected_time":2424000000000,"state":"active","ping":44},{"user_id":230,"name":"The rat","steam_id":76561198050432341,"connected_time":1915000000000,"state":"active","ping":151},{"user_id":189,"name":"An Erect Penis :)","steam_id":76561198086477485,"connected_time":4759000000000,"state":"active","ping":43},{"user_id":229,"name":"Drew P. Sack","steam_id":76561198036201738,"connected_time":2048000000000,"state":"active","ping":52},{"user_id":249,"name":"Jabs","steam_id":76561198004411240,"connected_time":363000000000,"state":"active","ping":72},{"user_id":250,"name":"Onyxmanticore","steam_id":76561198827481986,"connected_time":341000000000,"state":"active","ping":85},{"user_id":214,"name":"Mehman","steam_id":76561199020244051,"connected_time":2771000000000,"state":"active","ping":86}]},{"server_id":37,"name":"Uncletopia | Chicago | 6 | All Maps","name_short":"chi-6","host":"chi-2.us.uncletopia.com","port":27025,"enabled":true,"region":"us-central","cc":"us","latitude":41.881832,"longitude":-87.62318,"reserved":0,"last_update":"0001-01-01T00:00:00Z","name_a2s":"Uncletopia | Chicago | 6 | All Maps","protocol":17,"map":"pl_swiftwater_final1","folder":"tf","game":"Team Fortress","app_id":440,"player_count":19,"max_players":24,"Bots":0,"server_type":"Dedicated","server_os":"Linux","password":true,"vac":true,"version":"7961495","steam_id":85568392924866363,"keywords":["nocrits","nodmgspread","payload","uncletopia"],"game_id":440,"stv_port":27026,"stv_name":"Uncletopia | Chicago | 6 | All Maps | STV","players":[{"user_id":282,"name":"bakkhertz","steam_id":76561198046745579,"connected_time":4910000000000,"state":"active","ping":94},{"user_id":366,"name":"Rec","steam_id":76561198022813906,"connected_time":37000000000,"state":"active","ping":45},{"user_id":334,"name":"「Daws_Dudeguy」","steam_id":76561198205838645,"connected_time":1662000000000,"state":"active","ping":70},{"user_id":343,"name":"Keymaster","steam_id":76561198881514228,"connected_time":1215000000000,"state":"active","ping":79},{"user_id":341,"name":"starwarstg4","steam_id":76561198819508237,"connected_time":1267000000000,"state":"active","ping":120},{"user_id":364,"name":"Apple Zoo","steam_id":76561198013732450,"connected_time":162000000000,"state":"active","ping":50},{"user_id":350,"name":"Karl_Marx_Onlyfans","steam_id":76561198212389613,"connected_time":1031000000000,"state":"active","ping":90},{"user_id":363,"name":"100FootTallGoose","steam_id":76561198056611082,"connected_time":231000000000,"state":"active","ping":37},{"user_id":349,"name":"A_NegativeDan","steam_id":76561198078993041,"connected_time":1036000000000,"state":"active","ping":51},{"user_id":365,"name":"jolo","steam_id":76561198042831480,"connected_time":93000000000,"state":"active","ping":61},{"user_id":336,"name":"heck","steam_id":76561198308547958,"connected_time":1616000000000,"state":"active","ping":58},{"user_id":330,"name":"Tankless Water Heater","steam_id":76561198014574925,"connected_time":1764000000000,"state":"active","ping":79},{"user_id":367,"name":"[Heavenly] Princess","steam_id":76561198321929487,"connected_time":29000000000,"state":"active","ping":114},{"user_id":339,"name":"Roz257","steam_id":76561198842844532,"connected_time":1489000000000,"state":"active","ping":52},{"user_id":285,"name":"glankinator","steam_id":76561198354077256,"connected_time":4793000000000,"state":"active","ping":50},{"user_id":331,"name":"mothra","steam_id":76561198028444359,"connected_time":1758000000000,"state":"active","ping":122},{"user_id":351,"name":"Danmar33","steam_id":76561198056453091,"connected_time":984000000000,"state":"active","ping":47},{"user_id":344,"name":"BarrowBaron","steam_id":76561198013633236,"connected_time":1207000000000,"state":"active","ping":57},{"user_id":354,"name":"Jak(i)","steam_id":76561198076823144,"connected_time":868000000000,"state":"active","ping":65}]},{"server_id":38,"name":"Uncletopia | Chicago | 7 | Stopwatch Beta","name_short":"chi-7","host":"chi-2.us.uncletopia.com","port":27035,"enabled":true,"region":"us-central","cc":"us","latitude":41.881832,"longitude":-87.62318,"reserved":0,"last_update":"0001-01-01T00:00:00Z","name_a2s":"Uncletopia | Chicago | 7 | Stopwatch Beta","protocol":17,"map":"pl_badwater","folder":"tf","game":"Team Fortress","app_id":440,"player_count":0,"max_players":24,"Bots":0,"server_type":"Dedicated","server_os":"Linux","password":true,"vac":true,"version":"7961495","steam_id":85568392924866364,"keywords":["nocrits","nodmgspread","payload","uncletopia"],"game_id":440,"stv_port":27036,"stv_name":"Uncletopia | Chicago | 7 | Stopwatch Beta | STV","players":null},{"server_id":39,"name":"Uncletopia | Chicago | 8 | Community","name_short":"chi-8","host":"chi-2.us.uncletopia.com","port":27045,"enabled":true,"region":"us-central","cc":"us","latitude":41.881832,"longitude":-87.62318,"reserved":0,"last_update":"0001-01-01T00:00:00Z","name_a2s":"Uncletopia | Chicago | 8 | Community","protocol":17,"map":"workshop/koth_kemptown_rc1.ugc767410655","folder":"tf","game":"Team Fortress","app_id":440,"player_count":17,"max_players":24,"Bots":0,"server_type":"Dedicated","server_os":"Linux","password":true,"vac":true,"version":"7961495","steam_id":85568392924866365,"keywords":["cp","nocrits","nodmgspread","uncletopia"],"game_id":440,"stv_port":27046,"stv_name":"Uncletopia | Chicago | 8 | Community | STV","players":[{"user_id":300,"name":"White_Wizard_Named_Corona","steam_id":76561198055652735,"connected_time":74000000000,"state":"active","ping":84},{"user_id":297,"name":"JC","steam_id":76561198135307995,"connected_time":180000000000,"state":"active","ping":68},{"user_id":261,"name":"Retrowave","steam_id":76561198061921346,"connected_time":4517000000000,"state":"active","ping":75},{"user_id":298,"name":"coffee bagel","steam_id":76561198141198352,"connected_time":109000000000,"state":"active","ping":43},{"user_id":299,"name":"TechnoBear2099","steam_id":76561198238863596,"connected_time":103000000000,"state":"active","ping":70},{"user_id":301,"name":"top10skater","steam_id":76561199471507997,"connected_time":62000000000,"state":"active","ping":121},{"user_id":270,"name":"Peri","steam_id":76561198255311543,"connected_time":3699000000000,"state":"active","ping":74},{"user_id":291,"name":"Spy achungus","steam_id":76561198135651070,"connected_time":964000000000,"state":"active","ping":75},{"user_id":302,"name":"merlin","steam_id":76561198334511480,"connected_time":49000000000,"state":"active","ping":71},{"user_id":278,"name":"Keroro","steam_id":76561198075106705,"connected_time":1956000000000,"state":"active","ping":71},{"user_id":274,"name":"Captain S. Forrest","steam_id":76561198062463029,"connected_time":3449000000000,"state":"active","ping":81},{"user_id":277,"name":"this","steam_id":76561198170195505,"connected_time":2455000000000,"state":"active","ping":86},{"user_id":292,"name":"big chalupa gaming","steam_id":76561198153504932,"connected_time":949000000000,"state":"active","ping":67},{"user_id":293,"name":"koh ✧","steam_id":76561198831996918,"connected_time":889000000000,"state":"active","ping":59},{"user_id":268,"name":"WLpeanut","steam_id":76561197981006264,"connected_time":3804000000000,"state":"active","ping":87},{"user_id":254,"name":"Cheese4Everyone","steam_id":76561198022333985,"connected_time":4971000000000,"state":"active","ping":73},{"user_id":239,"name":"Neophyte","steam_id":76561198027183394,"connected_time":5737000000000,"state":"active","ping":87}]},{"server_id":8,"name":"Uncletopia | Dallas | 1 | All Maps","name_short":"dal-1","host":"dal-1.us.uncletopia.com","port":27015,"enabled":true,"region":"us-central","cc":"us","latitude":32.779167,"longitude":-96.80889,"reserved":0,"last_update":"0001-01-01T00:00:00Z","name_a2s":"Uncletopia | Dallas | 1 | All Maps","protocol":17,"map":"pl_swiftwater_final1","folder":"tf","game":"Team Fortress","app_id":440,"player_count":24,"max_players":24,"Bots":0,"server_type":"Dedicated","server_os":"Linux","password":true,"vac":true,"version":"7961495","steam_id":85568392924469986,"keywords":["nocrits","nodmgspread","payload","uncletopia"],"game_id":440,"stv_port":27016,"stv_name":"Uncletopia | Dallas | 1 | All Maps | STV","players":[{"user_id":397,"name":"iamboomie","steam_id":76561198080462836,"connected_time":2700000000000,"state":"active","ping":69},{"user_id":384,"name":"king of eblock","steam_id":76561198800324957,"connected_time":2950000000000,"state":"active","ping":64},{"user_id":386,"name":"Sup m8","steam_id":76561198081659121,"connected_time":2898000000000,"state":"active","ping":37},{"user_id":426,"name":"Gelliterate","steam_id":76561198107233070,"connected_time":534000000000,"state":"active","ping":57},{"user_id":408,"name":"Rob","steam_id":76561199187786660,"connected_time":2093000000000,"state":"active","ping":52},{"user_id":398,"name":"Panfried","steam_id":76561198009882074,"connected_time":2683000000000,"state":"active","ping":101},{"user_id":421,"name":"loop zoop","steam_id":76561198003306097,"connected_time":727000000000,"state":"active","ping":99},{"user_id":389,"name":"imng","steam_id":76561198014988031,"connected_time":2852000000000,"state":"active","ping":71},{"user_id":428,"name":"thug warrior","steam_id":76561199004451589,"connected_time":382000000000,"state":"active","ping":45},{"user_id":429,"name":"Misserette","steam_id":76561198357652902,"connected_time":248000000000,"state":"active","ping":119},{"user_id":422,"name":"VaL-ASROC","steam_id":76561198886493635,"connected_time":726000000000,"state":"active","ping":74},{"user_id":427,"name":"dudes5972","steam_id":76561199179432114,"connected_time":514000000000,"state":"active","ping":90},{"user_id":425,"name":"Gamerfan64","steam_id":76561198801410962,"connected_time":592000000000,"state":"active","ping":50},{"user_id":393,"name":"Faerun_F","steam_id":76561198443906094,"connected_time":2791000000000,"state":"active","ping":62},{"user_id":378,"name":"Zetta","steam_id":76561198045710113,"connected_time":3720000000000,"state":"active","ping":86},{"user_id":415,"name":"m1 garand gaming","steam_id":76561199026721822,"connected_time":1454000000000,"state":"active","ping":83},{"user_id":414,"name":"FanaticSalt","steam_id":76561199380123059,"connected_time":1669000000000,"state":"active","ping":49},{"user_id":396,"name":"BestAvgGamer","steam_id":76561198209871075,"connected_time":2754000000000,"state":"active","ping":83},{"user_id":399,"name":"4OH2 Jack","steam_id":76561198240702298,"connected_time":2662000000000,"state":"active","ping":97},{"user_id":409,"name":"Billy Mays","steam_id":76561197998876324,"connected_time":1986000000000,"state":"active","ping":101},{"user_id":416,"name":"Rafl","steam_id":76561198055222756,"connected_time":1018000000000,"state":"active","ping":47},{"user_id":400,"name":"wolf_71","steam_id":76561198963570945,"connected_time":2649000000000,"state":"active","ping":46},{"user_id":406,"name":"Sax","steam_id":76561198055425123,"connected_time":2143000000000,"state":"active","ping":116},{"user_id":420,"name":"Alexgo","steam_id":76561198044430542,"connected_time":744000000000,"state":"active","ping":120}]},{"server_id":108,"name":"Uncletopia | Dallas | 2 | All Maps","name_short":"dal-2","host":"dal-1.us.uncletopia.com","port":27025,"enabled":true,"region":"us-central","cc":"us","latitude":32.779167,"longitude":-96.80889,"reserved":0,"last_update":"0001-01-01T00:00:00Z","name_a2s":"Uncletopia | Dallas | 2 | All Maps","protocol":17,"map":"pl_pier","folder":"tf","game":"Team Fortress","app_id":440,"player_count":24,"max_players":24,"Bots":0,"server_type":"Dedicated","server_os":"Linux","password":true,"vac":true,"version":"7961495","steam_id":85568392924469988,"keywords":["nocrits","nodmgspread","payload","uncletopia"],"game_id":440,"stv_port":27026,"stv_name":"Uncletopia | Dallas | 2 | All Maps | STV","players":[{"user_id":71,"name":"plink","steam_id":76561198057829889,"connected_time":2636000000000,"state":"active","ping":51},{"user_id":55,"name":"webaline :3","steam_id":76561199052450127,"connected_time":3659000000000,"state":"active","ping":77},{"user_id":51,"name":"SmokeyGalaxy","steam_id":76561198118780516,"connected_time":3928000000000,"state":"active","ping":62},{"user_id":91,"name":"Five","steam_id":76561198026640473,"connected_time":70000000000,"state":"active","ping":60},{"user_id":86,"name":"D","steam_id":76561198292908619,"connected_time":773000000000,"state":"active","ping":102},{"user_id":48,"name":"angry loser","steam_id":76561198128363064,"connected_time":4125000000000,"state":"active","ping":85},{"user_id":36,"name":"hforce11","steam_id":76561198087647130,"connected_time":4855000000000,"state":"active","ping":60},{"user_id":92,"name":"Vem","steam_id":76561198117273112,"connected_time":69000000000,"state":"active","ping":97},{"user_id":38,"name":"Smug","steam_id":76561198448205229,"connected_time":4763000000000,"state":"active","ping":74},{"user_id":56,"name":"The Griddy","steam_id":76561198062763756,"connected_time":3650000000000,"state":"active","ping":73},{"user_id":43,"name":"Courtney Dickinson","steam_id":76561198061528590,"connected_time":4301000000000,"state":"active","ping":96},{"user_id":42,"name":"souVern","steam_id":76561198046940771,"connected_time":4339000000000,"state":"active","ping":71},{"user_id":80,"name":"Lo-Pan","steam_id":76561198085670133,"connected_time":1235000000000,"state":"active","ping":63},{"user_id":89,"name":"Mephistopheles","steam_id":76561198253731826,"connected_time":377000000000,"state":"active","ping":99},{"user_id":85,"name":"Maki Oze","steam_id":76561198060186519,"connected_time":885000000000,"state":"active","ping":96},{"user_id":57,"name":"Beantama","steam_id":76561198986811476,"connected_time":3611000000000,"state":"active","ping":68},{"user_id":67,"name":"Rubus Beer","steam_id":76561198065041957,"connected_time":3192000000000,"state":"active","ping":95},{"user_id":59,"name":"motherfucker 2.0","steam_id":76561198141189209,"connected_time":3490000000000,"state":"active","ping":40},{"user_id":60,"name":"Zombiehunter11","steam_id":76561198237517830,"connected_time":3486000000000,"state":"active","ping":90},{"user_id":81,"name":"Rhutebeer","steam_id":76561198018302761,"connected_time":1210000000000,"state":"active","ping":85},{"user_id":93,"name":"Dr Oshawott","steam_id":76561198042021629,"connected_time":68000000000,"state":"active","ping":85},{"user_id":94,"name":"Nephi","steam_id":76561198031525122,"connected_time":63000000000,"state":"active","ping":100},{"user_id":64,"name":"A Can of AriZona Green Tea","steam_id":76561198062481133,"connected_time":3417000000000,"state":"active","ping":81},{"user_id":87,"name":"Max","steam_id":76561199033599445,"connected_time":754000000000,"state":"active","ping":124}]},{"server_id":404,"name":"Uncletopia | Dallas | 3 | All Maps","name_short":"dal-3","host":"dal-1.us.uncletopia.com","port":27035,"enabled":true,"region":"us-central","cc":"us","latitude":32.779167,"longitude":-96.80889,"reserved":0,"last_update":"0001-01-01T00:00:00Z","name_a2s":"Uncletopia | Dallas | 3 | All Maps","protocol":17,"map":"pl_frontier_final","folder":"tf","game":"Team Fortress","app_id":440,"player_count":0,"max_players":24,"Bots":0,"server_type":"Dedicated","server_os":"Linux","password":true,"vac":true,"version":"7961495","steam_id":85568392924515219,"keywords":["nocrits","nodmgspread","payload","uncletopia"],"game_id":440,"stv_port":27036,"stv_name":"Uncletopia | Dallas | 3 | All Maps | STV","players":null},{"server_id":405,"name":"Uncletopia | Dallas | 4 | Community","name_short":"dal-4","host":"dal-1.us.uncletopia.com","port":27045,"enabled":true,"region":"us-central","cc":"us","latitude":32.779167,"longitude":-96.80889,"reserved":0,"last_update":"0001-01-01T00:00:00Z","name_a2s":"Uncletopia | Dallas | 4 | Community","protocol":17,"map":"workshop/pl_badwater_pro_v12.ugc2142942074","folder":"tf","game":"Team Fortress","app_id":440,"player_count":0,"max_players":24,"Bots":0,"server_type":"Dedicated","server_os":"Linux","password":true,"vac":true,"version":"7961495","steam_id":85568392924515220,"keywords":["nocrits","nodmgspread","payload","uncletopia"],"game_id":440,"stv_port":27046,"stv_name":"Uncletopia | Dallas | 4 | Community | STV","players":null},{"server_id":5,"name":"Uncletopia | Frankfurt | 1 | All Maps","name_short":"frk-1","host":"frk-1.de.uncletopia.com","port":27015,"enabled":true,"region":"eu","cc":"de","latitude":50.110924,"longitude":8.682127,"reserved":0,"last_update":"0001-01-01T00:00:00Z","name_a2s":"Uncletopia | Frankfurt | 1 | All Maps","protocol":17,"map":"cp_dustbowl","folder":"tf","game":"Team Fortress","app_id":440,"player_count":24,"max_players":24,"Bots":0,"server_type":"Dedicated","server_os":"Linux","password":true,"vac":true,"version":"7961495","steam_id":85568392924469989,"keywords":["cp","nocrits","nodmgspread","uncletopia"],"game_id":440,"stv_port":27016,"stv_name":"Uncletopia | Frankfurt | 1 | All Maps | STV","players":[{"user_id":513,"name":"Kanny","steam_id":76561198058810184,"connected_time":1071000000000,"state":"active","ping":60},{"user_id":529,"name":"Ash","steam_id":76561198148738525,"connected_time":663000000000,"state":"active","ping":112},{"user_id":491,"name":"Pyrolander","steam_id":76561198050785450,"connected_time":3425000000000,"state":"active","ping":47},{"user_id":463,"name":"the one who grips","steam_id":76561198381106289,"connected_time":5874000000000,"state":"active","ping":78},{"user_id":492,"name":"Sheen (Khang)","steam_id":76561198371062974,"connected_time":3411000000000,"state":"active","ping":82},{"user_id":364,"name":"Engie's best friend","steam_id":76561197961707932,"connected_time":13608000000000,"state":"active","ping":45},{"user_id":532,"name":"avanaR","steam_id":76561198132062124,"connected_time":516000000000,"state":"active","ping":57},{"user_id":533,"name":"Tryborya","steam_id":76561199009620947,"connected_time":441000000000,"state":"active","ping":75},{"user_id":528,"name":"Hussain_144","steam_id":76561198346029208,"connected_time":760000000000,"state":"active","ping":169},{"user_id":512,"name":"Francium Swallower","steam_id":76561199480414924,"connected_time":1160000000000,"state":"active","ping":74},{"user_id":503,"name":"Ewelinka Zniszczenia","steam_id":76561198307374456,"connected_time":2212000000000,"state":"active","ping":62},{"user_id":498,"name":"mlemdic","steam_id":76561198090001673,"connected_time":2727000000000,"state":"active","ping":129},{"user_id":531,"name":"festive","steam_id":76561197993892057,"connected_time":639000000000,"state":"active","ping":89},{"user_id":534,"name":"Finn","steam_id":76561198179960193,"connected_time":418000000000,"state":"active","ping":49},{"user_id":494,"name":"gerber local brewery","steam_id":76561198183623117,"connected_time":3350000000000,"state":"active","ping":59},{"user_id":476,"name":"vMatyn","steam_id":76561198438929275,"connected_time":4818000000000,"state":"active","ping":68},{"user_id":501,"name":"N","steam_id":76561198176593895,"connected_time":2414000000000,"state":"active","ping":69},{"user_id":509,"name":"BLACKBIRD CLOSE [she/her]","steam_id":76561198262910410,"connected_time":1652000000000,"state":"active","ping":90},{"user_id":538,"name":"kana","steam_id":76561198002343512,"connected_time":40000000000,"state":"active","ping":82},{"user_id":525,"name":"Alfred Schroom","steam_id":76561198117990411,"connected_time":788000000000,"state":"active","ping":240},{"user_id":535,"name":"sarii ☆","steam_id":76561199155102111,"connected_time":405000000000,"state":"active","ping":81},{"user_id":493,"name":"GuyWithoutAPie","steam_id":76561198054512149,"connected_time":3400000000000,"state":"active","ping":55},{"user_id":536,"name":"milkywai","steam_id":76561198316861438,"connected_time":381000000000,"state":"active","ping":106},{"user_id":537,"name":"pharmacist","steam_id":76561198274424248,"connected_time":342000000000,"state":"active","ping":98}]},{"server_id":110,"name":"Uncletopia | Frankfurt | 2 | All Maps","name_short":"frk-2","host":"frk-1.de.uncletopia.com","port":27025,"enabled":true,"region":"eu","cc":"de","latitude":50.110924,"longitude":8.682127,"reserved":0,"last_update":"0001-01-01T00:00:00Z","name_a2s":"Uncletopia | Frankfurt | 2 | All Maps","protocol":17,"map":"cp_gullywash_final1","folder":"tf","game":"Team Fortress","app_id":440,"player_count":23,"max_players":24,"Bots":0,"server_type":"Dedicated","server_os":"Linux","password":true,"vac":true,"version":"7961495","steam_id":85568392924469990,"keywords":["cp","nocrits","nodmgspread","uncletopia"],"game_id":440,"stv_port":27026,"stv_name":"Uncletopia | Frankfurt | 2 | All Maps | STV","players":[{"user_id":379,"name":"squib","steam_id":76561198049170360,"connected_time":5693000000000,"state":"active","ping":50},{"user_id":436,"name":"Ecton","steam_id":76561198025103720,"connected_time":170000000000,"state":"active","ping":61},{"user_id":415,"name":"htraB","steam_id":76561198043122677,"connected_time":2090000000000,"state":"active","ping":61},{"user_id":432,"name":"Janner","steam_id":76561198127045282,"connected_time":249000000000,"state":"active","ping":55},{"user_id":388,"name":"Varsk","steam_id":76561198061398890,"connected_time":5150000000000,"state":"active","ping":50},{"user_id":392,"name":"Rarky","steam_id":76561198054398642,"connected_time":5023000000000,"state":"active","ping":51},{"user_id":437,"name":"Shousaky","steam_id":76561197982180582,"connected_time":117000000000,"state":"active","ping":109},{"user_id":435,"name":"balanced diet","steam_id":76561198240320806,"connected_time":215000000000,"state":"active","ping":60},{"user_id":430,"name":"bee","steam_id":76561199013145014,"connected_time":599000000000,"state":"active","ping":65},{"user_id":431,"name":"cez","steam_id":76561198361380956,"connected_time":450000000000,"state":"active","ping":72},{"user_id":418,"name":"a freakin' knight","steam_id":76561198371341044,"connected_time":1943000000000,"state":"active","ping":139},{"user_id":425,"name":"Toni Pepperoni","steam_id":76561198814211030,"connected_time":1647000000000,"state":"active","ping":178},{"user_id":419,"name":"Lorenzo Lovers","steam_id":76561198073973581,"connected_time":1881000000000,"state":"active","ping":79},{"user_id":253,"name":"Just Navlis","steam_id":76561198090479609,"connected_time":14930000000000,"state":"active","ping":46},{"user_id":434,"name":"glyph","steam_id":76561197980736364,"connected_time":240000000000,"state":"active","ping":75},{"user_id":429,"name":"󠁳⁧⁧ Kruthal","steam_id":76561198245726582,"connected_time":1340000000000,"state":"active","ping":75},{"user_id":387,"name":"xavier","steam_id":76561198076494034,"connected_time":5414000000000,"state":"active","ping":61},{"user_id":413,"name":"Jon","steam_id":76561198148858397,"connected_time":2163000000000,"state":"active","ping":70},{"user_id":369,"name":"hananamanna","steam_id":76561198006570285,"connected_time":6835000000000,"state":"active","ping":113},{"user_id":220,"name":"hyvakii705","steam_id":76561198086630552,"connected_time":17405000000000,"state":"active","ping":90},{"user_id":390,"name":"Vershal Smershal","steam_id":76561198116223995,"connected_time":5139000000000,"state":"active","ping":60},{"user_id":428,"name":"sBLOCKER  85","steam_id":76561198939078994,"connected_time":1477000000000,"state":"active","ping":141},{"user_id":393,"name":"\u003e\u003c\u003e","steam_id":76561198190225954,"connected_time":5022000000000,"state":"active","ping":85}]},{"server_id":308,"name":"Uncletopia | Frankfurt | 3 | All Maps","name_short":"frk-3","host":"frk-1.de.uncletopia.com","port":27035,"enabled":true,"region":"eu","cc":"de","latitude":50.110924,"longitude":8.682127,"reserved":0,"last_update":"0001-01-01T00:00:00Z","name_a2s":"Uncletopia | Frankfurt | 3 | All Maps","protocol":17,"map":"koth_lakeside_final","folder":"tf","game":"Team Fortress","app_id":440,"player_count":24,"max_players":24,"Bots":0,"server_type":"Dedicated","server_os":"Linux","password":true,"vac":true,"version":"7961495","steam_id":85568392924504274,"keywords":["cp","nocrits","nodmgspread","uncletopia"],"game_id":440,"stv_port":27036,"stv_name":"Uncletopia | Frankfurt | 3 | All Maps | STV","players":[{"user_id":465,"name":"Vince","steam_id":76561199103000131,"connected_time":21000000000,"state":"active","ping":61},{"user_id":427,"name":"Finnish Farmer","steam_id":76561198205366043,"connected_time":2119000000000,"state":"active","ping":84},{"user_id":462,"name":"tealoverr.190","steam_id":76561199028497703,"connected_time":320000000000,"state":"active","ping":105},{"user_id":450,"name":"Igneel","steam_id":76561198108492627,"connected_time":789000000000,"state":"active","ping":65},{"user_id":451,"name":"mohemmedmokhter2005","steam_id":76561199197650506,"connected_time":784000000000,"state":"active","ping":109},{"user_id":431,"name":"yuck","steam_id":76561197987249568,"connected_time":1982000000000,"state":"active","ping":103},{"user_id":464,"name":"that fat croc from donkey kong","steam_id":76561198159172495,"connected_time":148000000000,"state":"active","ping":76},{"user_id":418,"name":"badrobot","steam_id":76561198322878356,"connected_time":2830000000000,"state":"active","ping":91},{"user_id":439,"name":"Matteo Il Biondo","steam_id":76561198315389475,"connected_time":1461000000000,"state":"active","ping":79},{"user_id":415,"name":"tf2 snake","steam_id":76561198193971167,"connected_time":3339000000000,"state":"active","ping":48},{"user_id":452,"name":"quava","steam_id":76561199004043064,"connected_time":782000000000,"state":"active","ping":103},{"user_id":453,"name":"cansado","steam_id":76561198003898089,"connected_time":780000000000,"state":"active","ping":76},{"user_id":463,"name":"combine","steam_id":76561198007909007,"connected_time":286000000000,"state":"active","ping":56},{"user_id":454,"name":"toe sucking freak","steam_id":76561198411069806,"connected_time":779000000000,"state":"active","ping":67},{"user_id":324,"name":"♂ Animan ♂ Studios ♂","steam_id":76561198308302932,"connected_time":10872000000000,"state":"active","ping":94},{"user_id":387,"name":"Archive","steam_id":76561198071255385,"connected_time":5886000000000,"state":"active","ping":86},{"user_id":447,"name":"aabracadabra","steam_id":76561198061248329,"connected_time":935000000000,"state":"active","ping":65},{"user_id":420,"name":"Dandroid7","steam_id":76561198947673092,"connected_time":2466000000000,"state":"active","ping":47},{"user_id":433,"name":"Sinyxs","steam_id":76561198053726401,"connected_time":1958000000000,"state":"active","ping":53},{"user_id":436,"name":"Rask","steam_id":76561198052934944,"connected_time":1731000000000,"state":"active","ping":92},{"user_id":455,"name":"det","steam_id":76561198261505536,"connected_time":777000000000,"state":"active","ping":61},{"user_id":460,"name":"60hz laptop","steam_id":76561198111229919,"connected_time":604000000000,"state":"active","ping":67},{"user_id":441,"name":"mr.resetti","steam_id":76561198974520642,"connected_time":1438000000000,"state":"active","ping":69},{"user_id":459,"name":"paradise ✨","steam_id":76561198966057450,"connected_time":663000000000,"state":"active","ping":82}]},{"server_id":309,"name":"Uncletopia | Frankfurt | 4 | All Maps","name_short":"frk-4","host":"frk-1.de.uncletopia.com","port":27045,"enabled":true,"region":"eu","cc":"de","latitude":50.110924,"longitude":8.682127,"reserved":0,"last_update":"0001-01-01T00:00:00Z","name_a2s":"Uncletopia | Frankfurt | 4 | All Maps","protocol":17,"map":"pl_frontier_final","folder":"tf","game":"Team Fortress","app_id":440,"player_count":24,"max_players":24,"Bots":0,"server_type":"Dedicated","server_os":"Linux","password":true,"vac":true,"version":"7961495","steam_id":85568392924504275,"keywords":["nocrits","nodmgspread","payload","uncletopia"],"game_id":440,"stv_port":27046,"stv_name":"Uncletopia | Frankfurt | 4 | All Maps | STV","players":[{"user_id":442,"name":"Guy :)","steam_id":76561199095049662,"connected_time":5499000000000,"state":"active","ping":57},{"user_id":483,"name":"Biały","steam_id":76561197996016988,"connected_time":1696000000000,"state":"active","ping":67},{"user_id":484,"name":"Mata_FM","steam_id":76561198044824504,"connected_time":1695000000000,"state":"active","ping":60},{"user_id":385,"name":"G/3","steam_id":76561198234844188,"connected_time":9851000000000,"state":"active","ping":57},{"user_id":495,"name":"Sand","steam_id":76561198103761268,"connected_time":514000000000,"state":"active","ping":49},{"user_id":509,"name":"chrząszcz","steam_id":76561198358887237,"connected_time":223000000000,"state":"active","ping":68},{"user_id":497,"name":"Confused1221","steam_id":76561199061802741,"connected_time":388000000000,"state":"active","ping":66},{"user_id":507,"name":"balto","steam_id":76561199003243168,"connected_time":285000000000,"state":"active","ping":52},{"user_id":498,"name":"spinning on uncletopia","steam_id":76561199233979726,"connected_time":388000000000,"state":"active","ping":77},{"user_id":500,"name":"Qwerty","steam_id":76561198023525894,"connected_time":361000000000,"state":"active","ping":94},{"user_id":493,"name":"socaramel","steam_id":76561197984480336,"connected_time":800000000000,"state":"active","ping":78},{"user_id":461,"name":"highest noon","steam_id":76561199103959197,"connected_time":3264000000000,"state":"active","ping":88},{"user_id":513,"name":"please do not the cat","steam_id":76561198089003514,"connected_time":135000000000,"state":"active","ping":45},{"user_id":514,"name":"Fran","steam_id":76561199070516960,"connected_time":108000000000,"state":"active","ping":59},{"user_id":446,"name":"Qwertuss","steam_id":76561198026305366,"connected_time":4793000000000,"state":"active","ping":55},{"user_id":506,"name":"Carl Gustav Jung","steam_id":76561198284558039,"connected_time":302000000000,"state":"active","ping":103},{"user_id":508,"name":"Tea","steam_id":76561198799243030,"connected_time":238000000000,"state":"active","ping":79},{"user_id":510,"name":"Mr.Schnittlauch","steam_id":76561198295868113,"connected_time":219000000000,"state":"active","ping":56},{"user_id":479,"name":"ducks","steam_id":76561198166148685,"connected_time":1944000000000,"state":"active","ping":47},{"user_id":511,"name":"MARKO","steam_id":76561198065127504,"connected_time":206000000000,"state":"active","ping":60},{"user_id":487,"name":"Aimy","steam_id":76561198798548854,"connected_time":1603000000000,"state":"active","ping":47},{"user_id":489,"name":"Condemned B3 Expert","steam_id":76561198248411522,"connected_time":1468000000000,"state":"active","ping":67},{"user_id":492,"name":"Zerfesh","steam_id":76561198117534358,"connected_time":996000000000,"state":"active","ping":80},{"user_id":512,"name":"JujuBalu","steam_id":76561198207253071,"connected_time":202000000000,"state":"active","ping":46}]},{"server_id":310,"name":"Uncletopia | Frankfurt | 5 | All Maps","name_short":"frk-5","host":"frk-1.de.uncletopia.com","port":27055,"enabled":true,"region":"eu","cc":"de","latitude":50.110924,"longitude":8.682127,"reserved":0,"last_update":"0001-01-01T00:00:00Z","name_a2s":"Uncletopia | Frankfurt | 5 | All Maps","protocol":17,"map":"pl_snowycoast","folder":"tf","game":"Team Fortress","app_id":440,"player_count":24,"max_players":24,"Bots":0,"server_type":"Dedicated","server_os":"Linux","password":true,"vac":true,"version":"7961495","steam_id":85568392924504277,"keywords":["nocrits","nodmgspread","payload","uncletopia"],"game_id":440,"stv_port":27056,"stv_name":"Uncletopia | Frankfurt | 5 | All Maps | STV","players":[{"user_id":417,"name":"Urfangonultasadana","steam_id":76561199389286151,"connected_time":5345000000000,"state":"active","ping":94},{"user_id":464,"name":"someone","steam_id":76561199471582243,"connected_time":1674000000000,"state":"active","ping":79},{"user_id":470,"name":"giclure :;","steam_id":76561197986362828,"connected_time":745000000000,"state":"active","ping":59},{"user_id":442,"name":"joachym","steam_id":76561198428579761,"connected_time":2900000000000,"state":"active","ping":59},{"user_id":462,"name":"Crusader","steam_id":76561198239172686,"connected_time":1872000000000,"state":"active","ping":70},{"user_id":433,"name":"당신은 보노보입니다","steam_id":76561198017114970,"connected_time":3610000000000,"state":"active","ping":59},{"user_id":475,"name":"_420_StopItDudeCmon","steam_id":76561197997146481,"connected_time":402000000000,"state":"active","ping":49},{"user_id":451,"name":"Lesu","steam_id":76561198064130397,"connected_time":2600000000000,"state":"active","ping":70},{"user_id":425,"name":"n-ski","steam_id":76561198020550849,"connected_time":5112000000000,"state":"active","ping":75},{"user_id":466,"name":"Lemon","steam_id":76561198093765664,"connected_time":1309000000000,"state":"active","ping":71},{"user_id":421,"name":"Ixsus\u003c3","steam_id":76561198094756869,"connected_time":5295000000000,"state":"active","ping":49},{"user_id":471,"name":"gothmoth","steam_id":76561198386910896,"connected_time":731000000000,"state":"active","ping":110},{"user_id":454,"name":"Быдла вой","steam_id":76561198041371314,"connected_time":2586000000000,"state":"active","ping":120},{"user_id":469,"name":"resu","steam_id":76561198992026574,"connected_time":800000000000,"state":"active","ping":59},{"user_id":456,"name":"ozz-man","steam_id":76561198084676522,"connected_time":2507000000000,"state":"active","ping":97},{"user_id":468,"name":"topiesie","steam_id":76561198338099207,"connected_time":809000000000,"state":"active","ping":99},{"user_id":435,"name":"Alibi","steam_id":76561198061845595,"connected_time":3530000000000,"state":"active","ping":122},{"user_id":459,"name":"Intimatt","steam_id":76561198066393546,"connected_time":2361000000000,"state":"active","ping":69},{"user_id":280,"name":"realness","steam_id":76561199129226935,"connected_time":13594000000000,"state":"active","ping":89},{"user_id":467,"name":"Hyppy ja liipasin pohjaan :D","steam_id":76561198080669698,"connected_time":1110000000000,"state":"active","ping":105},{"user_id":476,"name":"R@DIO","steam_id":76561197995533046,"connected_time":379000000000,"state":"active","ping":74},{"user_id":478,"name":"VATNIK | RAMA","steam_id":76561198040423618,"connected_time":19000000000,"state":"active","ping":162},{"user_id":479,"name":"Uncle Moomin","steam_id":76561198011628656,"connected_time":19000000000,"state":"active","ping":82},{"user_id":474,"name":"Aynas Slayerow","steam_id":76561198122300668,"connected_time":680000000000,"state":"active","ping":93}]},{"server_id":311,"name":"Uncletopia | Frankfurt | 6 | All Maps","name_short":"frk-6","host":"frk-1.de.uncletopia.com","port":27065,"enabled":true,"region":"eu","cc":"de","latitude":50.110924,"longitude":8.682127,"reserved":0,"last_update":"0001-01-01T00:00:00Z","name_a2s":"Uncletopia | Frankfurt | 6 | All Maps","protocol":17,"map":"pl_borneo","folder":"tf","game":"Team Fortress","app_id":440,"player_count":24,"max_players":24,"Bots":0,"server_type":"Dedicated","server_os":"Linux","password":true,"vac":true,"version":"7961495","steam_id":85568392924504278,"keywords":["nocrits","nodmgspread","payload","uncletopia"],"game_id":440,"stv_port":27066,"stv_name":"Uncletopia | Frankfurt | 6 | All Maps | STV","players":[{"user_id":88,"name":"robsan","steam_id":76561198137375391,"connected_time":1568000000000,"state":"active","ping":83},{"user_id":89,"name":"Barneeyy","steam_id":76561198252413532,"connected_time":1489000000000,"state":"active","ping":54},{"user_id":46,"name":"Deckard","steam_id":76561198004704647,"connected_time":4121000000000,"state":"active","ping":76},{"user_id":99,"name":"aisu","steam_id":76561198043768507,"connected_time":1037000000000,"state":"active","ping":173},{"user_id":48,"name":"stefanbejenari","steam_id":76561199466718294,"connected_time":3878000000000,"state":"active","ping":76},{"user_id":119,"name":"vurtun","steam_id":76561198857395274,"connected_time":431000000000,"state":"active","ping":55},{"user_id":121,"name":"JK_Kosta","steam_id":76561198435632368,"connected_time":187000000000,"state":"active","ping":65},{"user_id":122,"name":"NightOmega","steam_id":76561198323608522,"connected_time":186000000000,"state":"active","ping":59},{"user_id":100,"name":"Trench","steam_id":76561198948351242,"connected_time":984000000000,"state":"active","ping":66},{"user_id":86,"name":"Eltonius","steam_id":76561198157560715,"connected_time":1655000000000,"state":"active","ping":84},{"user_id":91,"name":"Smoking problem","steam_id":76561198361351449,"connected_time":1416000000000,"state":"active","ping":55},{"user_id":63,"name":"Flying skyhigh","steam_id":76561198372971096,"connected_time":2532000000000,"state":"active","ping":66},{"user_id":117,"name":"Milosz52","steam_id":76561199060940204,"connected_time":491000000000,"state":"active","ping":85},{"user_id":113,"name":"Mr.MemeMaker","steam_id":76561198909088766,"connected_time":623000000000,"state":"active","ping":47},{"user_id":104,"name":"Drinking Problem","steam_id":76561198319162953,"connected_time":884000000000,"state":"active","ping":65},{"user_id":97,"name":"アダム","steam_id":76561198874883764,"connected_time":1272000000000,"state":"active","ping":74},{"user_id":67,"name":"Koziorożek","steam_id":76561198149816511,"connected_time":2460000000000,"state":"active","ping":78},{"user_id":73,"name":"clean carp","steam_id":76561198127053294,"connected_time":2183000000000,"state":"active","ping":74},{"user_id":80,"name":"Firiak","steam_id":76561198050216930,"connected_time":1899000000000,"state":"active","ping":62},{"user_id":111,"name":"Acanda","steam_id":76561198123246537,"connected_time":730000000000,"state":"active","ping":53},{"user_id":108,"name":"ｄｅｓｋｒａｙ","steam_id":76561198805536170,"connected_time":835000000000,"state":"active","ping":75},{"user_id":105,"name":"Clitorina","steam_id":76561198077570815,"connected_time":879000000000,"state":"active","ping":54},{"user_id":114,"name":"[SQ UA] MartianDill","steam_id":76561198405382822,"connected_time":616000000000,"state":"active","ping":75},{"user_id":120,"name":"KierUK |","steam_id":76561198119447994,"connected_time":407000000000,"state":"active","ping":61}]},{"server_id":23,"name":"Uncletopia | Frankfurt | 7 | Stopwatch Beta","name_short":"frk-7","host":"frk-1.de.uncletopia.com","port":27075,"enabled":true,"region":"eu","cc":"de","latitude":50.110924,"longitude":8.682127,"reserved":0,"last_update":"0001-01-01T00:00:00Z","name_a2s":"Uncletopia | Frankfurt | 7 | Stopwatch Beta","protocol":17,"map":"workshop/koth_ashville_final.ugc2130459942","folder":"tf","game":"Team Fortress","app_id":440,"player_count":0,"max_players":24,"Bots":0,"server_type":"Dedicated","server_os":"Linux","password":true,"vac":true,"version":"7961495","steam_id":85568392924742827,"keywords":["cp","nocrits","nodmgspread","uncletopia"],"game_id":440,"stv_port":27076,"stv_name":"Uncletopia | Frankfurt | 7 | Stopwatch Beta | STV","players":null},{"server_id":24,"name":"Uncletopia | Frankfurt | 8 | Community","name_short":"frk-8","host":"frk-1.de.uncletopia.com","port":27085,"enabled":true,"region":"eu","cc":"de","latitude":50.110924,"longitude":8.682127,"reserved":0,"last_update":"0001-01-01T00:00:00Z","name_a2s":"Uncletopia | Frankfurt | 8 | Community","protocol":17,"map":"workshop/koth_synthetic_rc6a.ugc1549817316","folder":"tf","game":"Team Fortress","app_id":440,"player_count":0,"max_players":24,"Bots":0,"server_type":"Dedicated","server_os":"Linux","password":true,"vac":true,"version":"7961495","steam_id":85568392924742828,"keywords":["cp","nocrits","nodmgspread","uncletopia"],"game_id":440,"stv_port":27086,"stv_name":"Uncletopia | Frankfurt | 8 | Community | STV","players":null},{"server_id":202,"name":"Uncletopia | Hong Kong | 1 | All Maps","name_short":"hgk-1","host":"hgk-1.hk.uncletopia.com","port":27015,"enabled":true,"region":"asia","cc":"hk","latitude":22.302711,"longitude":114.177216,"reserved":0,"last_update":"0001-01-01T00:00:00Z","name_a2s":"Uncletopia | Hong Kong | 1 | All Maps","protocol":17,"map":"pl_badwater","folder":"tf","game":"Team Fortress","app_id":440,"player_count":0,"max_players":24,"Bots":0,"server_type":"Dedicated","server_os":"Linux","password":true,"vac":true,"version":"7961495","steam_id":85568392924494504,"keywords":["nocrits","nodmgspread","payload","uncletopia"],"game_id":440,"stv_port":27016,"stv_name":"Uncletopia | Hong Kong | 1 | All Maps | STV","players":null},{"server_id":1,"name":"Uncletopia | Los Angeles | 1 | All Maps","name_short":"lax-1","host":"lax-1.us.uncletopia.com","port":27015,"enabled":true,"region":"us-west","cc":"us","latitude":33.94279,"longitude":-118.41004,"reserved":0,"last_update":"0001-01-01T00:00:00Z","name_a2s":"Uncletopia | Los Angeles | 1 | All Maps","protocol":17,"map":"pl_pier","folder":"tf","game":"Team Fortress","app_id":440,"player_count":24,"max_players":24,"Bots":0,"server_type":"Dedicated","server_os":"Linux","password":true,"vac":true,"version":"7961495","steam_id":85568392924469991,"keywords":["nocrits","nodmgspread","payload","uncletopia"],"game_id":440,"stv_port":27016,"stv_name":"Uncletopia | Los Angeles | 1 | All Maps | STV","players":[{"user_id":146,"name":"NFL.com","steam_id":76561198113405376,"connected_time":5179000000000,"state":"active","ping":49},{"user_id":220,"name":"janitor","steam_id":76561198149788863,"connected_time":469000000000,"state":"active","ping":52},{"user_id":219,"name":"Flexo","steam_id":76561198111618506,"connected_time":511000000000,"state":"active","ping":114},{"user_id":203,"name":"Schnitz","steam_id":76561198265484253,"connected_time":1746000000000,"state":"active","ping":57},{"user_id":223,"name":"Maxmind24","steam_id":76561198859888778,"connected_time":110000000000,"state":"active","ping":82},{"user_id":207,"name":"Cael Thavain","steam_id":76561198136789464,"connected_time":1599000000000,"state":"active","ping":59},{"user_id":205,"name":"dreamy bull","steam_id":76561198881144114,"connected_time":1695000000000,"state":"active","ping":78},{"user_id":206,"name":"shakoiwa","steam_id":76561199059441773,"connected_time":1661000000000,"state":"active","ping":89},{"user_id":212,"name":"flo rida","steam_id":76561198226169704,"connected_time":1065000000000,"state":"active","ping":70},{"user_id":216,"name":"BlazedBunny","steam_id":76561198243610560,"connected_time":782000000000,"state":"active","ping":106},{"user_id":217,"name":"tom","steam_id":76561199406261605,"connected_time":764000000000,"state":"active","ping":85},{"user_id":222,"name":"TheMtnDewback","steam_id":76561199468606424,"connected_time":357000000000,"state":"active","ping":88},{"user_id":187,"name":"Beepleton The 3rd","steam_id":76561198081466207,"connected_time":2393000000000,"state":"active","ping":93},{"user_id":209,"name":"a wretch and fiend","steam_id":76561198131567365,"connected_time":1313000000000,"state":"active","ping":65},{"user_id":199,"name":"Sozuki","steam_id":76561198961150367,"connected_time":1942000000000,"state":"active","ping":51},{"user_id":221,"name":"A_Toaster","steam_id":76561198946997549,"connected_time":397000000000,"state":"active","ping":102},{"user_id":183,"name":"Pal","steam_id":76561198079657093,"connected_time":2581000000000,"state":"active","ping":73},{"user_id":201,"name":"Mr. Pockets","steam_id":76561198053657771,"connected_time":1757000000000,"state":"active","ping":57},{"user_id":179,"name":"weed.fucker.2000","steam_id":76561198338739253,"connected_time":3249000000000,"state":"active","ping":53},{"user_id":194,"name":"mr poop","steam_id":76561199195196632,"connected_time":2226000000000,"state":"active","ping":83},{"user_id":214,"name":"zinnk","steam_id":76561198092081825,"connected_time":874000000000,"state":"active","ping":55},{"user_id":218,"name":"Defeat","steam_id":76561198065203818,"connected_time":716000000000,"state":"active","ping":73},{"user_id":195,"name":"PS2","steam_id":76561198108799902,"connected_time":2170000000000,"state":"active","ping":108},{"user_id":202,"name":"Yoozer","steam_id":76561198420257694,"connected_time":1756000000000,"state":"active","ping":54}]},{"server_id":112,"name":"Uncletopia | Los Angeles | 2 | All Maps","name_short":"lax-2","host":"lax-1.us.uncletopia.com","port":27025,"enabled":true,"region":"us-west","cc":"us","latitude":33.94279,"longitude":-118.41004,"reserved":0,"last_update":"0001-01-01T00:00:00Z","name_a2s":"Uncletopia | Los Angeles | 2 | All Maps","protocol":17,"map":"pl_swiftwater_final1","folder":"tf","game":"Team Fortress","app_id":440,"player_count":0,"max_players":24,"Bots":0,"server_type":"Dedicated","server_os":"Linux","password":true,"vac":true,"version":"7961495","steam_id":85568392924469992,"keywords":["nocrits","nodmgspread","payload","uncletopia"],"game_id":440,"stv_port":27026,"stv_name":"Uncletopia | Los Angeles | 2 | All Maps | STV","players":null},{"server_id":324,"name":"Uncletopia | Los Angeles | 3 | All Maps","name_short":"lax-3","host":"lax-1.us.uncletopia.com","port":27035,"enabled":true,"region":"us-west","cc":"us","latitude":33.94279,"longitude":-118.41004,"reserved":0,"last_update":"0001-01-01T00:00:00Z","name_a2s":"Uncletopia | Los Angeles | 3 | All Maps","protocol":17,"map":"cp_gorge","folder":"tf","game":"Team Fortress","app_id":440,"player_count":18,"max_players":24,"Bots":0,"server_type":"Dedicated","server_os":"Linux","password":true,"vac":true,"version":"7961495","steam_id":85568392924510198,"keywords":["cp","nocrits","nodmgspread","uncletopia"],"game_id":440,"stv_port":27036,"stv_name":"Uncletopia | Los Angeles | 3 | All Maps | STV","players":[{"user_id":396,"name":"wahoo","steam_id":76561198049258493,"connected_time":71000000000,"state":"active","ping":75},{"user_id":4,"name":"Biden Blast","steam_id":76561198366729030,"connected_time":27544000000000,"state":"active","ping":45},{"user_id":395,"name":"Joe Biden (Deceased)","steam_id":76561198170427507,"connected_time":89000000000,"state":"active","ping":48},{"user_id":391,"name":"FI LO","steam_id":76561198976530881,"connected_time":336000000000,"state":"active","ping":44},{"user_id":381,"name":"Local Skeleton Pirate Captain","steam_id":76561199387783793,"connected_time":1302000000000,"state":"active","ping":100},{"user_id":366,"name":"yellow ᗜˬᗜ","steam_id":76561198366474647,"connected_time":2193000000000,"state":"active","ping":41},{"user_id":397,"name":"MayKaye","steam_id":76561199016092265,"connected_time":41000000000,"state":"active","ping":59},{"user_id":389,"name":"My name is greg and I love you","steam_id":76561199005023878,"connected_time":564000000000,"state":"active","ping":99},{"user_id":357,"name":"BREAD MANN","steam_id":76561198949379945,"connected_time":2794000000000,"state":"active","ping":105},{"user_id":359,"name":"Adam Wixord","steam_id":76561198077881405,"connected_time":2567000000000,"state":"active","ping":44},{"user_id":383,"name":"Jazpy","steam_id":76561198036872545,"connected_time":1246000000000,"state":"active","ping":65},{"user_id":384,"name":"Gull","steam_id":76561198161560332,"connected_time":1197000000000,"state":"active","ping":71},{"user_id":387,"name":"Jokezonyu","steam_id":76561198213167893,"connected_time":797000000000,"state":"active","ping":56},{"user_id":369,"name":"Jebby","steam_id":76561198300150276,"connected_time":2086000000000,"state":"active","ping":102},{"user_id":394,"name":"⤣RASCAL","steam_id":76561198269038647,"connected_time":121000000000,"state":"active","ping":59},{"user_id":351,"name":"GH578","steam_id":76561199493262585,"connected_time":3073000000000,"state":"active","ping":85},{"user_id":368,"name":"Velgrauder","steam_id":76561198848526938,"connected_time":2157000000000,"state":"active","ping":100},{"user_id":375,"name":"dankmemer9999","steam_id":76561199088438884,"connected_time":1891000000000,"state":"active","ping":92}]},{"server_id":25,"name":"Uncletopia | Los Angeles | 4 | Stopwatch Beta","name_short":"lax-4","host":"lax-1.us.uncletopia.com","port":27045,"enabled":true,"region":"us-west","cc":"us","latitude":33.94279,"longitude":-118.41004,"reserved":0,"last_update":"0001-01-01T00:00:00Z","name_a2s":"Uncletopia | Los Angeles | 4 | Stopwatch Beta","protocol":17,"map":"pl_upward","folder":"tf","game":"Team Fortress","app_id":440,"player_count":0,"max_players":24,"Bots":0,"server_type":"Dedicated","server_os":"Linux","password":true,"vac":true,"version":"7961495","steam_id":85568392924510199,"keywords":["nocrits","nodmgspread","payload","uncletopia"],"game_id":440,"stv_port":27046,"stv_name":"Uncletopia | Los Angeles | 4 | Stopwatch Beta | STV","players":null},{"server_id":11,"name":"Uncletopia | London | 1 | All Maps","name_short":"lon-1","host":"lon-1.uk.uncletopia.com","port":27015,"enabled":true,"region":"eu","cc":"gb","latitude":51.509865,"longitude":-0.118092,"reserved":0,"last_update":"0001-01-01T00:00:00Z","name_a2s":"Uncletopia | London | 1 | All Maps","protocol":17,"map":"pl_snowycoast","folder":"tf","game":"Team Fortress","app_id":440,"player_count":20,"max_players":24,"Bots":0,"server_type":"Dedicated","server_os":"Linux","password":true,"vac":true,"version":"7961495","steam_id":85568392924367362,"keywords":["nocrits","nodmgspread","payload","uncletopia"],"game_id":440,"stv_port":27016,"stv_name":"Uncletopia | London | 1 | All Maps | STV","players":[{"user_id":531,"name":"Chiburila","steam_id":76561198999865145,"connected_time":123000000000,"state":"active","ping":74},{"user_id":529,"name":"OceanMan","steam_id":76561198391833371,"connected_time":217000000000,"state":"active","ping":39},{"user_id":532,"name":"krayy (she/her)","steam_id":76561198035037830,"connected_time":123000000000,"state":"spawning","ping":82},{"user_id":533,"name":"Lorents","steam_id":76561198796919618,"connected_time":81000000000,"state":"active","ping":59},{"user_id":423,"name":"Lyra","steam_id":76561198043601838,"connected_time":10074000000000,"state":"active","ping":60},{"user_id":534,"name":"mista white","steam_id":76561199387233667,"connected_time":58000000000,"state":"active","ping":65},{"user_id":535,"name":"Sneezy Anus","steam_id":76561198044081333,"connected_time":26000000000,"state":"active","ping":77},{"user_id":436,"name":"Trapezoid","steam_id":76561198059369295,"connected_time":8729000000000,"state":"active","ping":71},{"user_id":523,"name":"Kachigga","steam_id":76561198273112995,"connected_time":1265000000000,"state":"active","ping":59},{"user_id":285,"name":"Snake-chan","steam_id":76561199044755854,"connected_time":19855000000000,"state":"active","ping":80},{"user_id":536,"name":"PapaMaxy","steam_id":76561198256362726,"connected_time":11000000000,"state":"active","ping":264},{"user_id":512,"name":"Slifer the Sky Dragon","steam_id":76561198062255803,"connected_time":2392000000000,"state":"active","ping":69},{"user_id":343,"name":"Tails8521","steam_id":76561198051747164,"connected_time":16058000000000,"state":"active","ping":60},{"user_id":515,"name":"here widdle wabbit… come here","steam_id":76561198190583242,"connected_time":1808000000000,"state":"active","ping":90},{"user_id":530,"name":"yup that extream78711","steam_id":76561198106049954,"connected_time":145000000000,"state":"active","ping":151},{"user_id":500,"name":"beda","steam_id":76561198277943630,"connected_time":2696000000000,"state":"active","ping":69},{"user_id":492,"name":"hmscole09","steam_id":76561198811362788,"connected_time":3439000000000,"state":"active","ping":58},{"user_id":517,"name":"Remenos","steam_id":76561198029337778,"connected_time":1789000000000,"state":"active","ping":105},{"user_id":454,"name":"fence_","steam_id":76561198150386379,"connected_time":6823000000000,"state":"active","ping":45},{"user_id":525,"name":"Beh","steam_id":76561198251208926,"connected_time":1247000000000,"state":"active","ping":50}]},{"server_id":114,"name":"Uncletopia | London | 2 | All Maps","name_short":"lon-2","host":"lon-1.uk.uncletopia.com","port":27025,"enabled":true,"region":"eu","cc":"gb","latitude":51.509865,"longitude":-0.118092,"reserved":0,"last_update":"0001-01-01T00:00:00Z","name_a2s":"Uncletopia | London | 2 | All Maps","protocol":17,"map":"cp_dustbowl","folder":"tf","game":"Team Fortress","app_id":440,"player_count":21,"max_players":24,"Bots":0,"server_type":"Dedicated","server_os":"Linux","password":true,"vac":true,"version":"7961495","steam_id":85568392924470941,"keywords":["cp","nocrits","nodmgspread","uncletopia"],"game_id":440,"stv_port":27026,"stv_name":"Uncletopia | London | 2 | All Maps | STV","players":[{"user_id":634,"name":"ʲᶠᵍ ♛","steam_id":76561199062437546,"connected_time":131000000000,"state":"active","ping":56},{"user_id":626,"name":"ne0n","steam_id":76561198032101031,"connected_time":644000000000,"state":"active","ping":108},{"user_id":624,"name":"kee.wun","steam_id":76561198025293098,"connected_time":947000000000,"state":"active","ping":55},{"user_id":623,"name":"ildiobestia","steam_id":76561198108240544,"connected_time":1333000000000,"state":"active","ping":106},{"user_id":611,"name":"my mom","steam_id":76561199225201569,"connected_time":2056000000000,"state":"active","ping":122},{"user_id":490,"name":"MaeMae","steam_id":76561198252524452,"connected_time":7684000000000,"state":"active","ping":49},{"user_id":632,"name":"BigChunk","steam_id":76561198215962313,"connected_time":164000000000,"state":"active","ping":36},{"user_id":589,"name":"GEP Gun","steam_id":76561197981821003,"connected_time":2654000000000,"state":"active","ping":53},{"user_id":633,"name":"pełus","steam_id":76561198959207421,"connected_time":158000000000,"state":"active","ping":91},{"user_id":630,"name":"Ja Yeti","steam_id":76561199203212796,"connected_time":213000000000,"state":"active","ping":115},{"user_id":628,"name":"Tekky☻","steam_id":76561197990987315,"connected_time":388000000000,"state":"active","ping":34},{"user_id":635,"name":"Bartツ","steam_id":76561198164718893,"connected_time":127000000000,"state":"active","ping":44},{"user_id":617,"name":"Artemis","steam_id":76561198199091801,"connected_time":1861000000000,"state":"active","ping":51},{"user_id":625,"name":"Kamina","steam_id":76561198079299570,"connected_time":693000000000,"state":"active","ping":57},{"user_id":553,"name":"tomo","steam_id":76561199015097595,"connected_time":4178000000000,"state":"active","ping":45},{"user_id":636,"name":"mikA_molchA♥","steam_id":76561198134497032,"connected_time":42000000000,"state":"active","ping":75},{"user_id":637,"name":"Tengen","steam_id":76561199356990346,"connected_time":22000000000,"state":"active","ping":107},{"user_id":639,"name":"Chillyroom","steam_id":76561198861912968,"connected_time":13000000000,"state":"spawning","ping":366},{"user_id":640,"name":"ender45","steam_id":76561198840955715,"connected_time":13000000000,"state":"spawning","ping":1763},{"user_id":567,"name":"Luk3","steam_id":76561198340519063,"connected_time":3420000000000,"state":"active","ping":60},{"user_id":592,"name":"sloppy transgirl toppy","steam_id":76561198057092208,"connected_time":2614000000000,"state":"active","ping":67}]},{"server_id":320,"name":"Uncletopia | London | 3 | All Maps","name_short":"lon-3","host":"lon-1.uk.uncletopia.com","port":27035,"enabled":true,"region":"eu","cc":"gb","latitude":51.509865,"longitude":-0.118092,"reserved":0,"last_update":"0001-01-01T00:00:00Z","name_a2s":"Uncletopia | London | 3 | All Maps","protocol":17,"map":"pl_upward","folder":"tf","game":"Team Fortress","app_id":440,"player_count":24,"max_players":24,"Bots":0,"server_type":"Dedicated","server_os":"Linux","password":true,"vac":true,"version":"7961495","steam_id":85568392924510192,"keywords":["nocrits","nodmgspread","payload","uncletopia"],"game_id":440,"stv_port":27036,"stv_name":"Uncletopia | London | 3 | All Maps | STV","players":[{"user_id":237,"name":"Max Power","steam_id":76561198019269089,"connected_time":531000000000,"state":"active","ping":60},{"user_id":202,"name":"ROX","steam_id":76561198272289320,"connected_time":3360000000000,"state":"active","ping":67},{"user_id":186,"name":"FlukeY","steam_id":76561198026137327,"connected_time":4336000000000,"state":"active","ping":64},{"user_id":233,"name":"Krzty","steam_id":76561198306160711,"connected_time":1207000000000,"state":"active","ping":99},{"user_id":238,"name":"The Lady","steam_id":76561198029895809,"connected_time":244000000000,"state":"active","ping":86},{"user_id":222,"name":"Omyskull","steam_id":76561198131711758,"connected_time":1986000000000,"state":"active","ping":64},{"user_id":223,"name":"CharVarPiracy","steam_id":76561198841600694,"connected_time":1967000000000,"state":"active","ping":57},{"user_id":118,"name":"tjeeena gubbbnnn","steam_id":76561199163884827,"connected_time":8750000000000,"state":"active","ping":94},{"user_id":229,"name":"Garth Marenghi","steam_id":76561198009830164,"connected_time":1650000000000,"state":"active","ping":45},{"user_id":236,"name":"Soloman","steam_id":76561199212054667,"connected_time":1016000000000,"state":"active","ping":47},{"user_id":158,"name":"Literal Bread","steam_id":76561199188332023,"connected_time":5891000000000,"state":"active","ping":53},{"user_id":212,"name":"Racco","steam_id":76561198198855238,"connected_time":2763000000000,"state":"active","ping":66},{"user_id":120,"name":"Baiterz","steam_id":76561198030815786,"connected_time":8665000000000,"state":"active","ping":74},{"user_id":232,"name":"Fizz","steam_id":76561197994814990,"connected_time":1544000000000,"state":"active","ping":77},{"user_id":185,"name":"kilo","steam_id":76561198015641339,"connected_time":4378000000000,"state":"active","ping":75},{"user_id":231,"name":"Pelaxisツ","steam_id":76561198180030121,"connected_time":1603000000000,"state":"active","ping":83},{"user_id":228,"name":"narlee","steam_id":76561198058084646,"connected_time":1804000000000,"state":"active","ping":80},{"user_id":221,"name":"Nathan","steam_id":76561198394485387,"connected_time":2032000000000,"state":"active","ping":67},{"user_id":214,"name":"DelaNo","steam_id":76561199125086655,"connected_time":2732000000000,"state":"active","ping":58},{"user_id":227,"name":"Bobo","steam_id":76561198052308399,"connected_time":1833000000000,"state":"active","ping":69},{"user_id":234,"name":"Paper","steam_id":76561199037749675,"connected_time":1149000000000,"state":"active","ping":42},{"user_id":167,"name":"BackDoorExit","steam_id":76561199136645382,"connected_time":4999000000000,"state":"active","ping":54},{"user_id":206,"name":"Elon Musk's Last Braincell","steam_id":76561198846784757,"connected_time":3266000000000,"state":"active","ping":57},{"user_id":235,"name":"aimer","steam_id":76561198324357479,"connected_time":1107000000000,"state":"active","ping":86}]},{"server_id":321,"name":"Uncletopia | London | 4 | All Maps","name_short":"lon-4","host":"lon-1.uk.uncletopia.com","port":27045,"enabled":true,"region":"eu","cc":"gb","latitude":51.509865,"longitude":-0.118092,"reserved":0,"last_update":"0001-01-01T00:00:00Z","name_a2s":"Uncletopia | London | 4 | All Maps","protocol":17,"map":"pl_borneo","folder":"tf","game":"Team Fortress","app_id":440,"player_count":23,"max_players":24,"Bots":0,"server_type":"Dedicated","server_os":"Linux","password":true,"vac":true,"version":"7961495","steam_id":85568392924510193,"keywords":["nocrits","nodmgspread","payload","uncletopia"],"game_id":440,"stv_port":27046,"stv_name":"Uncletopia | London | 4 | All Maps | STV","players":[{"user_id":410,"name":"W42P","steam_id":76561198451290410,"connected_time":6852000000000,"state":"active","ping":86},{"user_id":484,"name":"KAKTyC","steam_id":76561198019296536,"connected_time":1208000000000,"state":"active","ping":100},{"user_id":447,"name":"Podge","steam_id":76561199077425079,"connected_time":4535000000000,"state":"active","ping":60},{"user_id":312,"name":"Kiogeki","steam_id":76561197996707843,"connected_time":13910000000000,"state":"active","ping":42},{"user_id":498,"name":"msh","steam_id":76561198367669395,"connected_time":106000000000,"state":"active","ping":43},{"user_id":481,"name":"gabagool","steam_id":76561198307111838,"connected_time":1472000000000,"state":"active","ping":30},{"user_id":493,"name":"insane, deranged possibly menta","steam_id":76561198139729249,"connected_time":601000000000,"state":"active","ping":95},{"user_id":419,"name":"Punker","steam_id":76561198255964089,"connected_time":6318000000000,"state":"active","ping":121},{"user_id":483,"name":"revolver ocelot","steam_id":76561198866358613,"connected_time":1411000000000,"state":"active","ping":159},{"user_id":359,"name":"apetor rip","steam_id":76561198140517762,"connected_time":10645000000000,"state":"active","ping":69},{"user_id":476,"name":"akakez","steam_id":76561198095432821,"connected_time":2376000000000,"state":"active","ping":117},{"user_id":497,"name":"MagusCubed","steam_id":76561198083973944,"connected_time":136000000000,"state":"active","ping":45},{"user_id":458,"name":"TheEmeraldStar","steam_id":76561198072942529,"connected_time":4238000000000,"state":"active","ping":74},{"user_id":486,"name":"ROM","steam_id":76561199097604633,"connected_time":1202000000000,"state":"active","ping":54},{"user_id":487,"name":"LilCoon","steam_id":76561198374065054,"connected_time":1176000000000,"state":"active","ping":107},{"user_id":361,"name":"finbar","steam_id":76561198056812396,"connected_time":10308000000000,"state":"active","ping":76},{"user_id":469,"name":"Alpaca","steam_id":76561198029839079,"connected_time":2906000000000,"state":"active","ping":55},{"user_id":490,"name":"I am speed","steam_id":76561199141290973,"connected_time":1047000000000,"state":"active","ping":90},{"user_id":496,"name":"Smuggs","steam_id":76561197999456003,"connected_time":514000000000,"state":"active","ping":30},{"user_id":477,"name":"Rock..","steam_id":76561198004641963,"connected_time":2368000000000,"state":"active","ping":88},{"user_id":466,"name":"Silverdarlin","steam_id":76561198118540970,"connected_time":3182000000000,"state":"active","ping":48},{"user_id":460,"name":"dumb idiot moron","steam_id":76561198053929269,"connected_time":4203000000000,"state":"active","ping":94},{"user_id":467,"name":"Grogon","steam_id":76561198203300218,"connected_time":3164000000000,"state":"active","ping":67}]},{"server_id":21,"name":"Uncletopia | London | 5 | All Maps","name_short":"lon-5","host":"lon-1.uk.uncletopia.com","port":27055,"enabled":true,"region":"eu","cc":"gb","latitude":51.509865,"longitude":-0.118092,"reserved":0,"last_update":"0001-01-01T00:00:00Z","name_a2s":"Uncletopia | London | 5 | All Maps","protocol":17,"map":"cp_mountainlab","folder":"tf","game":"Team Fortress","app_id":440,"player_count":10,"max_players":24,"Bots":0,"server_type":"Dedicated","server_os":"Linux","password":true,"vac":true,"version":"7961495","steam_id":85568392924742829,"keywords":["cp","nocrits","nodmgspread","uncletopia"],"game_id":440,"stv_port":27056,"stv_name":"Uncletopia | London | 5 | All Maps | STV","players":[{"user_id":476,"name":"Gaslight Gaming","steam_id":76561198012300440,"connected_time":1346000000000,"state":"active","ping":49},{"user_id":461,"name":"Kolanciasty ♥","steam_id":76561198020042179,"connected_time":2453000000000,"state":"active","ping":86},{"user_id":482,"name":"Fokzo Kat","steam_id":76561197988015261,"connected_time":840000000000,"state":"active","ping":46},{"user_id":490,"name":"Le châtissier","steam_id":76561198073883468,"connected_time":688000000000,"state":"active","ping":63},{"user_id":494,"name":"guildyfan2001","steam_id":76561198038827937,"connected_time":350000000000,"state":"active","ping":48},{"user_id":486,"name":"basher","steam_id":76561198008795422,"connected_time":819000000000,"state":"active","ping":66},{"user_id":495,"name":"DeterminedXD[HUN]","steam_id":76561199469006453,"connected_time":199000000000,"state":"active","ping":98},{"user_id":496,"name":"prophits","steam_id":76561198011854314,"connected_time":174000000000,"state":"active","ping":59},{"user_id":498,"name":"rada❤","steam_id":76561198062362168,"connected_time":143000000000,"state":"active","ping":60},{"user_id":454,"name":"Ritmic Mortal","steam_id":76561198352862033,"connected_time":3693000000000,"state":"active","ping":108}]},{"server_id":22,"name":"Uncletopia | London | 6 | All Maps","name_short":"lon-6","host":"lon-1.uk.uncletopia.com","port":27065,"enabled":true,"region":"eu","cc":"gb","latitude":51.509865,"longitude":-0.118092,"reserved":0,"last_update":"0001-01-01T00:00:00Z","name_a2s":"Uncletopia | London | 6 | All Maps","protocol":17,"map":"pl_barnblitz","folder":"tf","game":"Team Fortress","app_id":440,"player_count":24,"max_players":24,"Bots":0,"server_type":"Dedicated","server_os":"Linux","password":true,"vac":true,"version":"7961495","steam_id":85568392924742830,"keywords":["nocrits","nodmgspread","payload","uncletopia"],"game_id":440,"stv_port":27066,"stv_name":"Uncletopia | London | 6 | All Maps | STV","players":[{"user_id":188,"name":"WaffleCat","steam_id":76561198300396822,"connected_time":6212000000000,"state":"active","ping":114},{"user_id":254,"name":"Dangerous Man","steam_id":76561198986834496,"connected_time":1912000000000,"state":"active","ping":123},{"user_id":280,"name":"Jon","steam_id":76561199380849468,"connected_time":684000000000,"state":"active","ping":62},{"user_id":251,"name":"Vector","steam_id":76561198061444488,"connected_time":1942000000000,"state":"active","ping":59},{"user_id":252,"name":"frosty","steam_id":76561198094560834,"connected_time":1927000000000,"state":"active","ping":51},{"user_id":187,"name":"ANGELFISH","steam_id":76561198027536466,"connected_time":6223000000000,"state":"active","ping":97},{"user_id":275,"name":"Dirty Dave","steam_id":76561198036930727,"connected_time":1131000000000,"state":"active","ping":49},{"user_id":255,"name":"Jack_26","steam_id":76561198034566531,"connected_time":1891000000000,"state":"active","ping":99},{"user_id":281,"name":"The Sun in Rags","steam_id":76561198169990975,"connected_time":659000000000,"state":"active","ping":41},{"user_id":282,"name":"VictoriaFae (She/Her)","steam_id":76561198093221218,"connected_time":650000000000,"state":"active","ping":73},{"user_id":256,"name":"onuralp_tf2","steam_id":76561198133321967,"connected_time":1883000000000,"state":"active","ping":96},{"user_id":289,"name":"¿Dónde está el sanguche?","steam_id":76561198119622375,"connected_time":82000000000,"state":"active","ping":85},{"user_id":270,"name":"Joes","steam_id":76561198068293330,"connected_time":1496000000000,"state":"active","ping":57},{"user_id":288,"name":"Icaras","steam_id":76561198416724843,"connected_time":143000000000,"state":"active","ping":33},{"user_id":232,"name":"Alpharo","steam_id":76561199121971759,"connected_time":3648000000000,"state":"active","ping":46},{"user_id":260,"name":"NANI?!?!?!","steam_id":76561198172078559,"connected_time":1825000000000,"state":"active","ping":75},{"user_id":286,"name":"Chitovka","steam_id":76561198253508638,"connected_time":315000000000,"state":"active","ping":106},{"user_id":279,"name":"Borat","steam_id":76561198122226417,"connected_time":817000000000,"state":"active","ping":45},{"user_id":273,"name":"ThatTFguy","steam_id":76561198056794321,"connected_time":1394000000000,"state":"active","ping":60},{"user_id":284,"name":"Bill Carr","steam_id":76561198110033943,"connected_time":614000000000,"state":"active","ping":39},{"user_id":264,"name":"TEMZ","steam_id":76561198799288322,"connected_time":1777000000000,"state":"active","ping":58},{"user_id":285,"name":"Sylvanas","steam_id":76561198154904165,"connected_time":498000000000,"state":"active","ping":112},{"user_id":250,"name":"Puss in Boots","steam_id":76561198211599767,"connected_time":1985000000000,"state":"active","ping":54},{"user_id":278,"name":"StingyLettuce","steam_id":76561199010337406,"connected_time":985000000000,"state":"active","ping":118}]},{"server_id":40,"name":"Uncletopia | London | 7 | No Payload","name_short":"lon-7","host":"lon-1.uk.uncletopia.com","port":27075,"enabled":true,"region":"eu","cc":"gb","latitude":51.509865,"longitude":-0.118092,"reserved":0,"last_update":"0001-01-01T00:00:00Z","name_a2s":"Uncletopia | London | 7 | No Payload","protocol":17,"map":"koth_harvest_final","folder":"tf","game":"Team Fortress","app_id":440,"player_count":4,"max_players":24,"Bots":0,"server_type":"Dedicated","server_os":"Linux","password":true,"vac":true,"version":"7961495","steam_id":85568392924964314,"keywords":["cp","nocrits","nodmgspread","uncletopia"],"game_id":440,"stv_port":27076,"stv_name":"Uncletopia | London | 7 | No Payload | STV","players":[{"user_id":16,"name":"EEEEEH","steam_id":76561198126717413,"connected_time":2000000000000,"state":"active","ping":83},{"user_id":17,"name":"Donutella","steam_id":76561198193972491,"connected_time":1840000000000,"state":"active","ping":40},{"user_id":21,"name":"armadillo","steam_id":76561198324656652,"connected_time":161000000000,"state":"active","ping":45},{"user_id":19,"name":"NABER","steam_id":76561198831465151,"connected_time":1222000000000,"state":"active","ping":90}]},{"server_id":41,"name":"Uncletopia | London | 8 | Community","name_short":"lon-8","host":"lon-1.uk.uncletopia.com","port":27085,"enabled":true,"region":"eu","cc":"gb","latitude":51.509865,"longitude":-0.118092,"reserved":0,"last_update":"0001-01-01T00:00:00Z","name_a2s":"Uncletopia | London | 8 | Community","protocol":17,"map":"workshop/pl_highwood_b13.ugc1769496557","folder":"tf","game":"Team Fortress","app_id":440,"player_count":0,"max_players":24,"Bots":0,"server_type":"Dedicated","server_os":"Linux","password":true,"vac":true,"version":"7961495","steam_id":85568392924964315,"keywords":["nocrits","nodmgspread","payload","uncletopia"],"game_id":440,"stv_port":27086,"stv_name":"Uncletopia | London | 8 | Community | STV","players":null},{"server_id":300,"name":"Uncletopia | Montréal | 1 | All Maps","name_short":"mtl-1","host":"mtl-1.ca.uncletopia.com","port":27015,"enabled":true,"region":"us-east","cc":"ca","latitude":45.50889,"longitude":-73.56167,"reserved":0,"last_update":"0001-01-01T00:00:00Z","name_a2s":"","protocol":0,"map":"","folder":"","game":"","app_id":0,"player_count":23,"max_players":0,"Bots":0,"server_type":"","server_os":"","password":false,"vac":false,"version":"","steam_id":0,"keywords":null,"game_id":0,"stv_port":0,"stv_name":"","players":[{"user_id":118,"name":"Venk","steam_id":76561198251131422,"connected_time":510000000000,"state":"active","ping":73},{"user_id":113,"name":"ATL69 | weewa","steam_id":76561198064876090,"connected_time":920000000000,"state":"active","ping":59},{"user_id":119,"name":"tweliever","steam_id":76561199016438320,"connected_time":496000000000,"state":"active","ping":75},{"user_id":100,"name":"HOOPLA","steam_id":76561198993451858,"connected_time":1940000000000,"state":"active","ping":55},{"user_id":94,"name":"Captain Bug","steam_id":76561198137763878,"connected_time":2171000000000,"state":"active","ping":69},{"user_id":84,"name":"Sigma-Bonds","steam_id":76561198176229951,"connected_time":2776000000000,"state":"active","ping":69},{"user_id":120,"name":"Pyro Takes Skill","steam_id":76561198148353860,"connected_time":488000000000,"state":"active","ping":77},{"user_id":121,"name":"Omegacat69","steam_id":76561199224022636,"connected_time":470000000000,"state":"active","ping":87},{"user_id":38,"name":"Pom","steam_id":76561198043235509,"connected_time":6200000000000,"state":"active","ping":45},{"user_id":122,"name":"oof aim small brain","steam_id":76561198079925551,"connected_time":271000000000,"state":"active","ping":49},{"user_id":111,"name":"Devoid","steam_id":76561198254039012,"connected_time":1157000000000,"state":"active","ping":47},{"user_id":124,"name":"beefsquatchthenub","steam_id":76561197990059948,"connected_time":190000000000,"state":"active","ping":91},{"user_id":117,"name":"crayonnipple","steam_id":76561198070253331,"connected_time":754000000000,"state":"active","ping":60},{"user_id":99,"name":"Spiral Mountain","steam_id":76561198058683715,"connected_time":2104000000000,"state":"active","ping":62},{"user_id":123,"name":"tuna","steam_id":76561198034955422,"connected_time":253000000000,"state":"active","ping":123},{"user_id":101,"name":"Cat in Your Backyard","steam_id":76561197979078330,"connected_time":1912000000000,"state":"active","ping":49},{"user_id":127,"name":"(TPT) Ghost","steam_id":76561198123262873,"connected_time":72000000000,"state":"active","ping":130},{"user_id":112,"name":"fred durst (real)","steam_id":76561198202436474,"connected_time":1047000000000,"state":"active","ping":65},{"user_id":106,"name":"Hindmost","steam_id":76561199081837220,"connected_time":1689000000000,"state":"active","ping":113},{"user_id":107,"name":"leland0620","steam_id":76561199081790741,"connected_time":1551000000000,"state":"active","ping":59},{"user_id":55,"name":"Slob and Sup","steam_id":76561198123441203,"connected_time":5285000000000,"state":"active","ping":58},{"user_id":57,"name":"Mrs.Frizzle","steam_id":76561198117157085,"connected_time":5228000000000,"state":"active","ping":57},{"user_id":126,"name":"rad killl raccoon","steam_id":76561198980975595,"connected_time":136000000000,"state":"active","ping":136}]},{"server_id":301,"name":"Uncletopia | Montréal | 2 | All Maps","name_short":"mtl-2","host":"mtl-1.ca.uncletopia.com","port":27025,"enabled":true,"region":"us-east","cc":"ca","latitude":45.50889,"longitude":-73.56167,"reserved":0,"last_update":"0001-01-01T00:00:00Z","name_a2s":"","protocol":0,"map":"","folder":"","game":"","app_id":0,"player_count":3,"max_players":0,"Bots":0,"server_type":"","server_os":"","password":false,"vac":false,"version":"","steam_id":0,"keywords":null,"game_id":0,"stv_port":0,"stv_name":"","players":[{"user_id":13,"name":"Crogun","steam_id":76561198056163737,"connected_time":3749000000000,"state":"active","ping":62},{"user_id":14,"name":"Minefield Mike","steam_id":76561198111042556,"connected_time":3749000000000,"state":"active","ping":63},{"user_id":15,"name":"MagicCraftMaster","steam_id":76561198179156615,"connected_time":2154000000000,"state":"active","ping":81}]},{"server_id":302,"name":"Uncletopia | Montréal | 3 | All Maps","name_short":"mtl-3","host":"mtl-1.ca.uncletopia.com","port":27035,"enabled":true,"region":"us-east","cc":"ca","latitude":45.50889,"longitude":-73.56167,"reserved":0,"last_update":"0001-01-01T00:00:00Z","name_a2s":"","protocol":0,"map":"","folder":"","game":"","app_id":0,"player_count":0,"max_players":0,"Bots":0,"server_type":"","server_os":"","password":false,"vac":false,"version":"","steam_id":0,"keywords":null,"game_id":0,"stv_port":0,"stv_name":"","players":null},{"server_id":303,"name":"Uncletopia | Montréal | 4 | No Payload","name_short":"mtl-4","host":"mtl-1.ca.uncletopia.com","port":27045,"enabled":true,"region":"us-east","cc":"ca","latitude":45.50889,"longitude":-73.56167,"reserved":0,"last_update":"0001-01-01T00:00:00Z","name_a2s":"","protocol":0,"map":"","folder":"","game":"","app_id":0,"player_count":0,"max_players":0,"Bots":0,"server_type":"","server_os":"","password":false,"vac":false,"version":"","steam_id":0,"keywords":null,"game_id":0,"stv_port":0,"stv_name":"","players":null},{"server_id":13,"name":"Uncletopia | New York City | 1 | All Maps","name_short":"nyc-1","host":"nyc-1.us.uncletopia.com","port":27015,"enabled":true,"region":"us-east","cc":"us","latitude":40.73061,"longitude":-73.93524,"reserved":0,"last_update":"0001-01-01T00:00:00Z","name_a2s":"Uncletopia | New York City | 1 | All Maps","protocol":17,"map":"koth_highpass","folder":"tf","game":"Team Fortress","app_id":440,"player_count":24,"max_players":24,"Bots":0,"server_type":"Dedicated","server_os":"Linux","password":true,"vac":true,"version":"7961495","steam_id":85568392924469993,"keywords":["cp","nocrits","nodmgspread","uncletopia"],"game_id":440,"stv_port":27016,"stv_name":"Uncletopia | New York City | 1 | All Maps | STV","players":[{"user_id":312,"name":"Hornet","steam_id":76561199184759575,"connected_time":892000000000,"state":"active","ping":150},{"user_id":257,"name":"Andale","steam_id":76561198326236983,"connected_time":4908000000000,"state":"active","ping":125},{"user_id":313,"name":"tntexplosion","steam_id":76561199090152308,"connected_time":812000000000,"state":"active","ping":103},{"user_id":295,"name":"The Sinister Potion","steam_id":76561198131280715,"connected_time":2320000000000,"state":"active","ping":54},{"user_id":324,"name":"Magik","steam_id":76561198200169706,"connected_time":96000000000,"state":"active","ping":47},{"user_id":293,"name":"StarLy","steam_id":76561198174428289,"connected_time":2347000000000,"state":"active","ping":77},{"user_id":320,"name":"Snowy 79","steam_id":76561198944639546,"connected_time":274000000000,"state":"active","ping":77},{"user_id":298,"name":"malarkeyman","steam_id":76561198844473584,"connected_time":2072000000000,"state":"active","ping":54},{"user_id":302,"name":"dr peppah chug!","steam_id":76561198068835693,"connected_time":1466000000000,"state":"active","ping":85},{"user_id":281,"name":"kicking","steam_id":76561198337783795,"connected_time":2940000000000,"state":"active","ping":51},{"user_id":289,"name":"King Ass Ripper","steam_id":76561198407602830,"connected_time":2430000000000,"state":"active","ping":75},{"user_id":275,"name":"Broadway Rose","steam_id":76561198046083342,"connected_time":3318000000000,"state":"active","ping":61},{"user_id":315,"name":"Hiryuu","steam_id":76561198025267260,"connected_time":650000000000,"state":"active","ping":75},{"user_id":304,"name":"dcqwerty","steam_id":76561198964101426,"connected_time":1390000000000,"state":"active","ping":38},{"user_id":277,"name":"froge","steam_id":76561198304959766,"connected_time":3247000000000,"state":"active","ping":136},{"user_id":297,"name":"Not_Douglas","steam_id":76561199024184136,"connected_time":2275000000000,"state":"active","ping":69},{"user_id":300,"name":"Jamendithas","steam_id":76561198119537716,"connected_time":1489000000000,"state":"active","ping":69},{"user_id":322,"name":"Laft","steam_id":76561198364501558,"connected_time":180000000000,"state":"active","ping":61},{"user_id":318,"name":"BeerPowder","steam_id":76561198058129400,"connected_time":321000000000,"state":"active","ping":51},{"user_id":299,"name":"screaming","steam_id":76561198050523315,"connected_time":1610000000000,"state":"active","ping":125},{"user_id":284,"name":"Duchess","steam_id":76561198042490743,"connected_time":2752000000000,"state":"active","ping":52},{"user_id":317,"name":"cowboy","steam_id":76561199079124758,"connected_time":322000000000,"state":"active","ping":78},{"user_id":321,"name":"Franklin M. Hooverville","steam_id":76561198245109084,"connected_time":243000000000,"state":"active","ping":64},{"user_id":323,"name":"Lawnmower","steam_id":76561198186680197,"connected_time":173000000000,"state":"active","ping":99}]},{"server_id":14,"name":"Uncletopia | New York City | 2 | All Maps","name_short":"nyc-2","host":"nyc-1.us.uncletopia.com","port":27025,"enabled":true,"region":"us-east","cc":"us","latitude":40.73061,"longitude":-73.93524,"reserved":0,"last_update":"0001-01-01T00:00:00Z","name_a2s":"Uncletopia | New York City | 2 | All Maps","protocol":17,"map":"cp_sunshine","folder":"tf","game":"Team Fortress","app_id":440,"player_count":24,"max_players":24,"Bots":0,"server_type":"Dedicated","server_os":"Linux","password":true,"vac":true,"version":"7961495","steam_id":85568392924469994,"keywords":["cp","nocrits","nodmgspread","uncletopia"],"game_id":440,"stv_port":27026,"stv_name":"Uncletopia | New York City | 2 | All Maps | STV","players":[{"user_id":217,"name":"DeepDive","steam_id":76561198140542184,"connected_time":5000000000,"state":"spawning","ping":49},{"user_id":205,"name":"hoos","steam_id":76561198045985910,"connected_time":346000000000,"state":"active","ping":59},{"user_id":99,"name":"My Form Empties","steam_id":76561197993777553,"connected_time":7418000000000,"state":"active","ping":111},{"user_id":179,"name":"watt554","steam_id":76561198970073173,"connected_time":2013000000000,"state":"active","ping":76},{"user_id":212,"name":"Windup Monkey in a Human Suit","steam_id":76561198119501444,"connected_time":229000000000,"state":"active","ping":80},{"user_id":181,"name":"PyroEagle","steam_id":76561198296434231,"connected_time":1703000000000,"state":"active","ping":86},{"user_id":200,"name":"vapid","steam_id":76561198077643349,"connected_time":517000000000,"state":"active","ping":51},{"user_id":202,"name":"Great","steam_id":76561198895516433,"connected_time":474000000000,"state":"active","ping":224},{"user_id":216,"name":"my name jeff","steam_id":76561198179816898,"connected_time":65000000000,"state":"active","ping":83},{"user_id":194,"name":"stink","steam_id":76561198099318923,"connected_time":999000000000,"state":"active","ping":67},{"user_id":204,"name":"Extro","steam_id":76561198178908694,"connected_time":408000000000,"state":"active","ping":74},{"user_id":186,"name":"Virtual Zorua","steam_id":76561198196180302,"connected_time":1479000000000,"state":"active","ping":136},{"user_id":207,"name":"lost in spaaaaace","steam_id":76561199085974120,"connected_time":326000000000,"state":"active","ping":65},{"user_id":98,"name":"Schizophrenic Hallucination","steam_id":76561199489855499,"connected_time":7420000000000,"state":"active","ping":120},{"user_id":208,"name":"Pyromainiac","steam_id":76561199259867180,"connected_time":287000000000,"state":"active","ping":105},{"user_id":177,"name":"TheSnowGhost","steam_id":76561198271967286,"connected_time":2331000000000,"state":"active","ping":57},{"user_id":187,"name":"mountainkug","steam_id":76561199491802535,"connected_time":1465000000000,"state":"active","ping":65},{"user_id":175,"name":"Spike Bones","steam_id":76561198234926120,"connected_time":2538000000000,"state":"active","ping":90},{"user_id":209,"name":"Drew575","steam_id":76561199198736233,"connected_time":287000000000,"state":"active","ping":114},{"user_id":213,"name":"bony","steam_id":76561198241893988,"connected_time":225000000000,"state":"active","ping":54},{"user_id":211,"name":"wolfgrey139","steam_id":76561199206554751,"connected_time":259000000000,"state":"active","ping":58},{"user_id":193,"name":"Fraglin","steam_id":76561198124964000,"connected_time":1182000000000,"state":"active","ping":79},{"user_id":214,"name":"Broadsword #LGM","steam_id":76561198011160411,"connected_time":180000000000,"state":"active","ping":85},{"user_id":215,"name":"pabbott123110","steam_id":76561199231739796,"connected_time":145000000000,"state":"active","ping":112}]},{"server_id":15,"name":"Uncletopia | New York City | 3 | Stopwatch Beta","name_short":"nyc-3","host":"nyc-1.us.uncletopia.com","port":27035,"enabled":true,"region":"us-east","cc":"us","latitude":40.73061,"longitude":-73.93524,"reserved":0,"last_update":"0001-01-01T00:00:00Z","name_a2s":"Uncletopia | New York City | 3 | Stopwatch Beta","protocol":17,"map":"cp_sunshine","folder":"tf","game":"Team Fortress","app_id":440,"player_count":0,"max_players":24,"Bots":0,"server_type":"Dedicated","server_os":"Linux","password":true,"vac":true,"version":"7961495","steam_id":85568392924742820,"keywords":["cp","nocrits","nodmgspread","uncletopia"],"game_id":440,"stv_port":27036,"stv_name":"Uncletopia | New York City | 3 | Stopwatch Beta | STV","players":null},{"server_id":16,"name":"Uncletopia | New York City | 4 | Community","name_short":"nyc-4","host":"nyc-1.us.uncletopia.com","port":27045,"enabled":true,"region":"us-east","cc":"us","latitude":40.73061,"longitude":-73.93524,"reserved":0,"last_update":"0001-01-01T00:00:00Z","name_a2s":"Uncletopia | New York City | 4 | Community","protocol":17,"map":"workshop/koth_product_final.ugc454272353","folder":"tf","game":"Team Fortress","app_id":440,"player_count":15,"max_players":24,"Bots":0,"server_type":"Dedicated","server_os":"Linux","password":true,"vac":true,"version":"7961495","steam_id":85568392924742821,"keywords":["cp","nocrits","nodmgspread","uncletopia"],"game_id":440,"stv_port":27046,"stv_name":"Uncletopia | New York City | 4 | Community | STV","players":[{"user_id":10,"name":"Jimmy Jr","steam_id":76561198961051367,"connected_time":5884000000000,"state":"active","ping":67},{"user_id":11,"name":"DigitLuck","steam_id":76561199222376379,"connected_time":5844000000000,"state":"active","ping":66},{"user_id":76,"name":"Ginger Jesus","steam_id":76561198052386458,"connected_time":76000000000,"state":"active","ping":150},{"user_id":62,"name":"Sliam Diam","steam_id":76561199091493572,"connected_time":809000000000,"state":"active","ping":57},{"user_id":39,"name":"iightning","steam_id":76561199067138887,"connected_time":3468000000000,"state":"active","ping":67},{"user_id":44,"name":"marshmellowguy","steam_id":76561199008710694,"connected_time":2429000000000,"state":"active","ping":77},{"user_id":54,"name":"klover","steam_id":76561198072254781,"connected_time":1418000000000,"state":"active","ping":105},{"user_id":19,"name":"Finn","steam_id":76561199038429679,"connected_time":4677000000000,"state":"active","ping":62},{"user_id":59,"name":"ExtraSoap","steam_id":76561198008712409,"connected_time":930000000000,"state":"active","ping":45},{"user_id":66,"name":"Sussin'","steam_id":76561198059813696,"connected_time":670000000000,"state":"active","ping":60},{"user_id":55,"name":"alhaul01","steam_id":76561198976414436,"connected_time":1225000000000,"state":"active","ping":95},{"user_id":70,"name":"Hugo Boss","steam_id":76561198114070436,"connected_time":473000000000,"state":"active","ping":139},{"user_id":71,"name":"dishes456","steam_id":76561199106285591,"connected_time":406000000000,"state":"active","ping":81},{"user_id":73,"name":"feenman","steam_id":76561199383834799,"connected_time":371000000000,"state":"active","ping":110},{"user_id":75,"name":"milfred louver","steam_id":76561198882713406,"connected_time":330000000000,"state":"active","ping":170}]},{"server_id":142,"name":"Uncletopia | São Paulo | 1 | All Maps","name_short":"sao-1","host":"sao-1.br.uncletopia.com","port":27015,"enabled":true,"region":"sa","cc":"br","latitude":-23.533773,"longitude":-46.62529,"reserved":0,"last_update":"0001-01-01T00:00:00Z","name_a2s":"Uncletopia | São Paulo | 1 | All Maps","protocol":17,"map":"cp_mountainlab","folder":"tf","game":"Team Fortress","app_id":440,"player_count":18,"max_players":24,"Bots":0,"server_type":"Dedicated","server_os":"Linux","password":true,"vac":true,"version":"7961495","steam_id":85568392924469996,"keywords":["cp","nocrits","nodmgspread","uncletopia"],"game_id":440,"stv_port":27016,"stv_name":"Uncletopia | São Paulo | 1 | All Maps | STV","players":[{"user_id":60,"name":"matheus whatsapp","steam_id":76561199359501901,"connected_time":3688000000000,"state":"active","ping":39},{"user_id":90,"name":"edipo.vitaliano.1988","steam_id":76561199246464825,"connected_time":41000000000,"state":"spawning","ping":63},{"user_id":18,"name":"Evaldo","steam_id":76561198127614670,"connected_time":8193000000000,"state":"active","ping":45},{"user_id":67,"name":"vacaloca25","steam_id":76561198082683352,"connected_time":3211000000000,"state":"active","ping":60},{"user_id":62,"name":"Tati","steam_id":76561198097756059,"connected_time":3599000000000,"state":"active","ping":80},{"user_id":79,"name":"Phalanx","steam_id":76561198043563282,"connected_time":1999000000000,"state":"active","ping":39},{"user_id":81,"name":"Fe^","steam_id":76561198067610246,"connected_time":1213000000000,"state":"active","ping":48},{"user_id":45,"name":"hadinode","steam_id":76561198191475573,"connected_time":6501000000000,"state":"active","ping":47},{"user_id":82,"name":"MyNameIsAyle","steam_id":76561199083200785,"connected_time":1166000000000,"state":"active","ping":58},{"user_id":21,"name":"G0LD3N","steam_id":76561198125139387,"connected_time":8080000000000,"state":"active","ping":43},{"user_id":91,"name":"CATS","steam_id":76561198103172108,"connected_time":29000000000,"state":"spawning","ping":60},{"user_id":23,"name":"anaheisenberg","steam_id":76561198304847307,"connected_time":8056000000000,"state":"active","ping":59},{"user_id":26,"name":"Aust","steam_id":76561198067966650,"connected_time":7907000000000,"state":"active","ping":44},{"user_id":87,"name":"Cuutc","steam_id":76561199117093999,"connected_time":746000000000,"state":"active","ping":62},{"user_id":89,"name":"Player","steam_id":76561198166586863,"connected_time":248000000000,"state":"active","ping":85},{"user_id":39,"name":"pablogamer.120","steam_id":76561199001995992,"connected_time":6831000000000,"state":"active","ping":89},{"user_id":52,"name":"Copas","steam_id":76561198131478483,"connected_time":5682000000000,"state":"active","ping":53},{"user_id":42,"name":"YellowEyePatch Guy","steam_id":76561199108111310,"connected_time":6705000000000,"state":"active","ping":56}]},{"server_id":143,"name":"Uncletopia | São Paulo | 2 | Community","name_short":"sao-2","host":"sao-2.br.uncletopia.com","port":27015,"enabled":true,"region":"sa","cc":"br","latitude":-23.533773,"longitude":-46.62529,"reserved":0,"last_update":"0001-01-01T00:00:00Z","name_a2s":"Uncletopia | São Paulo | 2 | Community","protocol":17,"map":"workshop/pl_vigil_rc9.ugc1266210012","folder":"tf","game":"Team Fortress","app_id":440,"player_count":0,"max_players":24,"Bots":0,"server_type":"Dedicated","server_os":"Linux","password":true,"vac":true,"version":"7961495","steam_id":85568392924485349,"keywords":["nocrits","nodmgspread","payload","uncletopia"],"game_id":440,"stv_port":27016,"stv_name":"Uncletopia | São Paulo | 2 | Community | STV","players":null},{"server_id":7,"name":"Uncletopia | Seattle | 1 | All Maps","name_short":"sea-1","host":"sea-1.us.uncletopia.com","port":27015,"enabled":true,"region":"us-west","cc":"us","latitude":47.608013,"longitude":-122.33517,"reserved":0,"last_update":"0001-01-01T00:00:00Z","name_a2s":"Uncletopia | Seattle | 1 | All Maps","protocol":17,"map":"cp_steel","folder":"tf","game":"Team Fortress","app_id":440,"player_count":16,"max_players":24,"Bots":0,"server_type":"Dedicated","server_os":"Linux","password":true,"vac":true,"version":"7961495","steam_id":85568392924469997,"keywords":["cp","nocrits","nodmgspread","uncletopia"],"game_id":440,"stv_port":27016,"stv_name":"Uncletopia | Seattle | 1 | All Maps | STV","players":[{"user_id":254,"name":"Greskrendtregk","steam_id":76561197969553142,"connected_time":371000000000,"state":"active","ping":53},{"user_id":243,"name":"Petrivus","steam_id":76561198202152453,"connected_time":731000000000,"state":"active","ping":56},{"user_id":248,"name":"boffo","steam_id":76561198096978718,"connected_time":591000000000,"state":"active","ping":74},{"user_id":242,"name":"EatSomeBEES","steam_id":76561198047334307,"connected_time":861000000000,"state":"active","ping":86},{"user_id":229,"name":"Impressley Snipes","steam_id":76561197988329891,"connected_time":1699000000000,"state":"active","ping":60},{"user_id":249,"name":"Sailor","steam_id":76561199081983517,"connected_time":529000000000,"state":"active","ping":103},{"user_id":252,"name":"jayeskae","steam_id":76561198144220801,"connected_time":418000000000,"state":"active","ping":44},{"user_id":259,"name":"dust | she/it","steam_id":76561198045218909,"connected_time":186000000000,"state":"active","ping":44},{"user_id":236,"name":"Honeybunch","steam_id":76561198014850580,"connected_time":1131000000000,"state":"active","ping":38},{"user_id":238,"name":"Ice cream sandwich","steam_id":76561198172748357,"connected_time":1003000000000,"state":"active","ping":62},{"user_id":239,"name":"juan.png","steam_id":76561199276894516,"connected_time":1001000000000,"state":"active","ping":57},{"user_id":212,"name":"CashGordon","steam_id":76561197975594096,"connected_time":3404000000000,"state":"active","ping":34},{"user_id":245,"name":"pirte","steam_id":76561198974258097,"connected_time":710000000000,"state":"active","ping":84},{"user_id":260,"name":"knatspray","steam_id":76561198832507482,"connected_time":152000000000,"state":"active","ping":92},{"user_id":261,"name":"human (real)","steam_id":76561199001855562,"connected_time":129000000000,"state":"active","ping":53},{"user_id":257,"name":"kingmrharvey","steam_id":76561198093909870,"connected_time":268000000000,"state":"active","ping":97}]},{"server_id":119,"name":"Uncletopia | Seattle | 2 | All Maps","name_short":"sea-2","host":"sea-1.us.uncletopia.com","port":27025,"enabled":true,"region":"us-west","cc":"us","latitude":47.608013,"longitude":-122.33517,"reserved":0,"last_update":"0001-01-01T00:00:00Z","name_a2s":"Uncletopia | Seattle | 2 | All Maps","protocol":17,"map":"ctf_2fort","folder":"tf","game":"Team Fortress","app_id":440,"player_count":4,"max_players":24,"Bots":0,"server_type":"Dedicated","server_os":"Linux","password":true,"vac":true,"version":"7961495","steam_id":85568392924469998,"keywords":["ctf","nocrits","nodmgspread","uncletopia"],"game_id":440,"stv_port":27026,"stv_name":"Uncletopia | Seattle | 2 | All Maps | STV","players":[{"user_id":20,"name":"laggy mcstab","steam_id":76561198106379962,"connected_time":3242000000000,"state":"active","ping":58},{"user_id":28,"name":"KaiDuck4348","steam_id":76561199060186538,"connected_time":299000000000,"state":"active","ping":130},{"user_id":25,"name":"BoyKisser","steam_id":76561199200969139,"connected_time":1952000000000,"state":"active","ping":129},{"user_id":26,"name":"nzippy","steam_id":76561199048618678,"connected_time":1723000000000,"state":"active","ping":50}]},{"server_id":406,"name":"Uncletopia | Seattle | 3 | Stopwatch Beta","name_short":"sea-3","host":"sea-1.us.uncletopia.com","port":27035,"enabled":true,"region":"us-west","cc":"us","latitude":47.608013,"longitude":-122.33517,"reserved":0,"last_update":"0001-01-01T00:00:00Z","name_a2s":"Uncletopia | Seattle | 3 | Stopwatch Beta","protocol":17,"map":"koth_lakeside_final","folder":"tf","game":"Team Fortress","app_id":440,"player_count":0,"max_players":24,"Bots":0,"server_type":"Dedicated","server_os":"Linux","password":true,"vac":true,"version":"7961495","steam_id":85568392924515217,"keywords":["cp","nocrits","nodmgspread","uncletopia"],"game_id":440,"stv_port":27036,"stv_name":"Uncletopia | Seattle | 3 | Stopwatch Beta | STV","players":null},{"server_id":17,"name":"Uncletopia | San Francisco | 1 | All Maps","name_short":"sfo-1","host":"sfo-1.us.uncletopia.com","port":27015,"enabled":true,"region":"us-west","cc":"us","latitude":37.77397,"longitude":-122.4313,"reserved":0,"last_update":"0001-01-01T00:00:00Z","name_a2s":"Uncletopia | San Francisco | 1 | All Maps","protocol":17,"map":"cp_process_final","folder":"tf","game":"Team Fortress","app_id":440,"player_count":13,"max_players":24,"Bots":0,"server_type":"Dedicated","server_os":"Linux","password":true,"vac":true,"version":"7961495","steam_id":85568392924469999,"keywords":["cp","nocrits","nodmgspread","uncletopia"],"game_id":440,"stv_port":27016,"stv_name":"Uncletopia | San Francisco | 1 | All Maps | STV","players":[{"user_id":92,"name":"spacetoven","steam_id":76561198115821131,"connected_time":4066000000000,"state":"active","ping":45},{"user_id":137,"name":"PizzaMuncher89","steam_id":76561199121856753,"connected_time":268000000000,"state":"active","ping":77},{"user_id":138,"name":"TrueGodOfBread","steam_id":76561198127577215,"connected_time":230000000000,"state":"active","ping":48},{"user_id":139,"name":"Frank Accardi","steam_id":76561198017275707,"connected_time":156000000000,"state":"active","ping":69},{"user_id":125,"name":"Higuma","steam_id":76561198375229012,"connected_time":1512000000000,"state":"active","ping":56},{"user_id":142,"name":"no vc no c","steam_id":76561197989503095,"connected_time":101000000000,"state":"active","ping":144},{"user_id":140,"name":"toon","steam_id":76561198087422193,"connected_time":155000000000,"state":"active","ping":57},{"user_id":141,"name":"turnip","steam_id":76561197999375941,"connected_time":150000000000,"state":"active","ping":88},{"user_id":127,"name":"dare","steam_id":76561197960977496,"connected_time":1495000000000,"state":"active","ping":53},{"user_id":128,"name":"AntonioCarlosJobim","steam_id":76561199012731309,"connected_time":1490000000000,"state":"active","ping":104},{"user_id":118,"name":"TheMagicMrWaffle","steam_id":76561198104357256,"connected_time":2101000000000,"state":"active","ping":50},{"user_id":120,"name":"Limp Pumpo Discography Fan Club","steam_id":76561198145748479,"connected_time":1943000000000,"state":"active","ping":74},{"user_id":131,"name":"*The* Wardoug41","steam_id":76561198255780869,"connected_time":1405000000000,"state":"active","ping":86}]},{"server_id":18,"name":"Uncletopia | San Francisco | 2 | All Maps","name_short":"sfo-2","host":"sfo-1.us.uncletopia.com","port":27025,"enabled":true,"region":"us-west","cc":"us","latitude":37.77397,"longitude":-122.4313,"reserved":0,"last_update":"0001-01-01T00:00:00Z","name_a2s":"Uncletopia | San Francisco | 2 | All Maps","protocol":17,"map":"koth_highpass","folder":"tf","game":"Team Fortress","app_id":440,"player_count":0,"max_players":24,"Bots":0,"server_type":"Dedicated","server_os":"Linux","password":true,"vac":true,"version":"7961495","steam_id":85568392924470000,"keywords":["cp","nocrits","nodmgspread","uncletopia"],"game_id":440,"stv_port":27026,"stv_name":"Uncletopia | San Francisco | 2 | All Maps | STV","players":null},{"server_id":19,"name":"Uncletopia | San Francisco | 3 | Stopwatch Beta","name_short":"sfo-3","host":"sfo-1.us.uncletopia.com","port":27035,"enabled":true,"region":"us-west","cc":"us","latitude":37.77397,"longitude":-122.4313,"reserved":0,"last_update":"0001-01-01T00:00:00Z","name_a2s":"Uncletopia | San Francisco | 3 | Stopwatch Beta","protocol":17,"map":"pl_borneo","folder":"tf","game":"Team Fortress","app_id":440,"player_count":0,"max_players":24,"Bots":0,"server_type":"Dedicated","server_os":"Linux","password":true,"vac":true,"version":"7961495","steam_id":85568392924742824,"keywords":["nocrits","nodmgspread","payload","uncletopia"],"game_id":440,"stv_port":27036,"stv_name":"Uncletopia | San Francisco | 3 | Stopwatch Beta | STV","players":null},{"server_id":20,"name":"Uncletopia | San Francisco | 4 | Community","name_short":"sfo-4","host":"sfo-1.us.uncletopia.com","port":27045,"enabled":true,"region":"us-west","cc":"us","latitude":37.77397,"longitude":-122.4313,"reserved":0,"last_update":"0001-01-01T00:00:00Z","name_a2s":"Uncletopia | San Francisco | 4 | Community","protocol":17,"map":"koth_viaduct","folder":"tf","game":"Team Fortress","app_id":440,"player_count":0,"max_players":24,"Bots":0,"server_type":"Dedicated","server_os":"Linux","password":true,"vac":true,"version":"7961495","steam_id":85568392924742826,"keywords":["cp","nocrits","nodmgspread","uncletopia"],"game_id":440,"stv_port":27046,"stv_name":"Uncletopia | San Francisco | 4 | Community | STV","players":null},{"server_id":141,"name":"Uncletopia | Sydney | 1 | All Maps","name_short":"syd-1","host":"syd-1.au.uncletopia.com","port":27015,"enabled":true,"region":"au","cc":"au","latitude":-33.865143,"longitude":151.2099,"reserved":0,"last_update":"0001-01-01T00:00:00Z","name_a2s":"Uncletopia | Sydney | 1 | All Maps","protocol":17,"map":"cp_snakewater_final1","folder":"tf","game":"Team Fortress","app_id":440,"player_count":0,"max_players":24,"Bots":0,"server_type":"Dedicated","server_os":"Linux","password":true,"vac":true,"version":"7961495","steam_id":85568392924470001,"keywords":["cp","nocrits","nodmgspread","uncletopia"],"game_id":440,"stv_port":27016,"stv_name":"Uncletopia | Sydney | 1 | All Maps | STV","players":null},{"server_id":123,"name":"Uncletopia | Sydney | 2 | All Maps","name_short":"syd-2","host":"syd-1.au.uncletopia.com","port":27025,"enabled":true,"region":"au","cc":"au","latitude":-33.865143,"longitude":151.2099,"reserved":0,"last_update":"0001-01-01T00:00:00Z","name_a2s":"Uncletopia | Sydney | 2 | All Maps","protocol":17,"map":"pl_snowycoast","folder":"tf","game":"Team Fortress","app_id":440,"player_count":0,"max_players":24,"Bots":0,"server_type":"Dedicated","server_os":"Linux","password":true,"vac":true,"version":"7961495","steam_id":85568392924470002,"keywords":["nocrits","nodmgspread","payload","uncletopia"],"game_id":440,"stv_port":27026,"stv_name":"Uncletopia | Sydney | 2 | All Maps | STV","players":null},{"server_id":395,"name":"Uncletopia | Sydney | 3 | All Maps","name_short":"syd-3","host":"syd-1.au.uncletopia.com","port":27035,"enabled":true,"region":"au","cc":"au","latitude":-33.865143,"longitude":151.2099,"reserved":0,"last_update":"0001-01-01T00:00:00Z","name_a2s":"Uncletopia | Sydney | 3 | All Maps","protocol":17,"map":"cp_dustbowl","folder":"tf","game":"Team Fortress","app_id":440,"player_count":0,"max_players":24,"Bots":0,"server_type":"Dedicated","server_os":"Linux","password":true,"vac":true,"version":"7961495","steam_id":85568392925194467,"keywords":["cp","nocrits","nodmgspread","uncletopia"],"game_id":440,"stv_port":27036,"stv_name":"Uncletopia | Sydney | 3 | All Maps | STV","players":null},{"server_id":396,"name":"Uncletopia | Sydney | 4 | All Maps","name_short":"syd-4","host":"syd-1.au.uncletopia.com","port":27045,"enabled":true,"region":"au","cc":"au","latitude":-33.865143,"longitude":151.2099,"reserved":0,"last_update":"0001-01-01T00:00:00Z","name_a2s":"Uncletopia | Sydney | 4 | All Maps","protocol":17,"map":"cp_dustbowl","folder":"tf","game":"Team Fortress","app_id":440,"player_count":1,"max_players":24,"Bots":0,"server_type":"Dedicated","server_os":"Linux","password":true,"vac":true,"version":"7961495","steam_id":85568392925397958,"keywords":["cp","nocrits","nodmgspread","uncletopia"],"game_id":440,"stv_port":27046,"stv_name":"Uncletopia | Sydney | 4 | All Maps | STV","players":[{"user_id":3,"name":"sneakyflamingo","steam_id":76561199093026056,"connected_time":108000000000,"state":"active","ping":257}]},{"server_id":58,"name":"Uncletopia | Sydney | 5 | Stopwatch Beta","name_short":"syd-5","host":"syd-1.au.uncletopia.com","port":27055,"enabled":true,"region":"au","cc":"au","latitude":-33.865143,"longitude":151.2099,"reserved":0,"last_update":"0001-01-01T00:00:00Z","name_a2s":"Uncletopia | Sydney | 5 | Stopwatch Beta","protocol":17,"map":"koth_viaduct","folder":"tf","game":"Team Fortress","app_id":440,"player_count":0,"max_players":24,"Bots":0,"server_type":"Dedicated","server_os":"Linux","password":true,"vac":true,"version":"7961495","steam_id":85568392925397959,"keywords":["cp","nocrits","nodmgspread","uncletopia"],"game_id":440,"stv_port":27056,"stv_name":"Uncletopia | Sydney | 5 | Stopwatch Beta | STV","players":null},{"server_id":59,"name":"Uncletopia | Sydney | 6 | Community","name_short":"syd-6","host":"syd-1.au.uncletopia.com","port":27065,"enabled":true,"region":"au","cc":"au","latitude":-33.865143,"longitude":151.2099,"reserved":0,"last_update":"0001-01-01T00:00:00Z","name_a2s":"Uncletopia | Sydney | 6 | Community","protocol":17,"map":"koth_cascade","folder":"tf","game":"Team Fortress","app_id":440,"player_count":0,"max_players":24,"Bots":0,"server_type":"Dedicated","server_os":"Linux","password":true,"vac":true,"version":"7961495","steam_id":85568392925397960,"keywords":["cp","nocrits","nodmgspread","uncletopia"],"game_id":440,"stv_port":27066,"stv_name":"Uncletopia | Sydney | 6 | Community | STV","players":null},{"server_id":49,"name":"Uncletopia | Warsaw | 1 | All Maps","name_short":"waw-1","host":"waw-1.pl.uncletopia.com","port":27015,"enabled":true,"region":"eu","cc":"pl","latitude":52.2297,"longitude":21.017532,"reserved":0,"last_update":"0001-01-01T00:00:00Z","name_a2s":"Uncletopia | Warsaw | 1 | All Maps","protocol":17,"map":"koth_highpass","folder":"tf","game":"Team Fortress","app_id":440,"player_count":0,"max_players":24,"Bots":0,"server_type":"Dedicated","server_os":"Linux","password":true,"vac":true,"version":"7961495","steam_id":85568392925397850,"keywords":["cp","nocrits","nodmgspread","uncletopia"],"game_id":440,"stv_port":27016,"stv_name":"Uncletopia | Warsaw | 1 | All Maps | STV","players":null},{"server_id":50,"name":"Uncletopia | Warsaw | 2 | All Maps","name_short":"waw-2","host":"waw-1.pl.uncletopia.com","port":27025,"enabled":true,"region":"eu","cc":"pl","latitude":52.2297,"longitude":21.017532,"reserved":0,"last_update":"0001-01-01T00:00:00Z","name_a2s":"Uncletopia | Warsaw | 2 | All Maps","protocol":17,"map":"koth_viaduct","folder":"tf","game":"Team Fortress","app_id":440,"player_count":0,"max_players":24,"Bots":0,"server_type":"Dedicated","server_os":"Linux","password":true,"vac":true,"version":"7961495","steam_id":85568392925397851,"keywords":["cp","nocrits","nodmgspread","uncletopia"],"game_id":440,"stv_port":27026,"stv_name":"Uncletopia | Warsaw | 2 | All Maps | STV","players":null},{"server_id":51,"name":"Uncletopia | Warsaw | 3 | All Maps","name_short":"waw-3","host":"waw-1.pl.uncletopia.com","port":27035,"enabled":true,"region":"eu","cc":"pl","latitude":52.2297,"longitude":21.017532,"reserved":0,"last_update":"0001-01-01T00:00:00Z","name_a2s":"Uncletopia | Warsaw | 3 | All Maps","protocol":17,"map":"pl_snowycoast","folder":"tf","game":"Team Fortress","app_id":440,"player_count":0,"max_players":24,"Bots":0,"server_type":"Dedicated","server_os":"Linux","password":true,"vac":true,"version":"7961495","steam_id":85568392925397852,"keywords":["nocrits","nodmgspread","payload","uncletopia"],"game_id":440,"stv_port":27036,"stv_name":"Uncletopia | Warsaw | 3 | All Maps | STV","players":null},{"server_id":52,"name":"Uncletopia | Warsaw | 4 | All Maps","name_short":"waw-4","host":"waw-1.pl.uncletopia.com","port":27045,"enabled":true,"region":"eu","cc":"pl","latitude":52.2297,"longitude":21.017532,"reserved":0,"last_update":"0001-01-01T00:00:00Z","name_a2s":"Uncletopia | Warsaw | 4 | All Maps","protocol":17,"map":"pl_swiftwater_final1","folder":"tf","game":"Team Fortress","app_id":440,"player_count":0,"max_players":24,"Bots":0,"server_type":"Dedicated","server_os":"Linux","password":true,"vac":true,"version":"7961495","steam_id":85568392925397853,"keywords":["nocrits","nodmgspread","payload","uncletopia"],"game_id":440,"stv_port":27046,"stv_name":"Uncletopia | Warsaw | 4 | All Maps | STV","players":null},{"server_id":53,"name":"Uncletopia | Warsaw | 5 | Stopwatch Beta","name_short":"waw-5","host":"waw-1.pl.uncletopia.com","port":27055,"enabled":true,"region":"eu","cc":"pl","latitude":52.2297,"longitude":21.017532,"reserved":0,"last_update":"0001-01-01T00:00:00Z","name_a2s":"Uncletopia | Warsaw | 5 | Stopwatch Beta","protocol":17,"map":"workshop/koth_ramjam_rc1.ugc459778887","folder":"tf","game":"Team Fortress","app_id":440,"player_count":0,"max_players":24,"Bots":0,"server_type":"Dedicated","server_os":"Linux","password":true,"vac":true,"version":"7961495","steam_id":85568392925397854,"keywords":["cp","nocrits","nodmgspread","uncletopia"],"game_id":440,"stv_port":27056,"stv_name":"Uncletopia | Warsaw | 5 | Stopwatch Beta | STV","players":null},{"server_id":54,"name":"Uncletopia | Warsaw | 6 | Community","name_short":"waw-6","host":"waw-1.pl.uncletopia.com","port":27065,"enabled":true,"region":"eu","cc":"pl","latitude":52.2297,"longitude":21.017532,"reserved":0,"last_update":"0001-01-01T00:00:00Z","name_a2s":"Uncletopia | Warsaw | 6 | Community","protocol":17,"map":"workshop/pl_vigil_rc9.ugc1266210012","folder":"tf","game":"Team Fortress","app_id":440,"player_count":0,"max_players":24,"Bots":0,"server_type":"Dedicated","server_os":"Linux","password":true,"vac":true,"version":"7961495","steam_id":85568392925397856,"keywords":["nocrits","nodmgspread","payload","uncletopia"],"game_id":440,"stv_port":27066,"stv_name":"Uncletopia | Warsaw | 6 | Community | STV","players":null}]}