{"status":true,"message":"","result":[{"server_id":9,"name":"Uncletopia | Atlanta | 1 | All Maps","name_short":"atl-1","host":"atl-1.us.uncletopia.com","port":27015,"enabled":true,"region":"us-east","cc":"us","latitude":33.753746,"longitude":-84.38633,"reserved":0,"last_update":"0001-01-01T00:00:00Z","name_a2s":"Uncletopia | Atlanta | 1 | All Maps","protocol":17,"map":"cp_process_final","folder":"tf","game":"Team Fortress","app_id":440,"player_count":24,"max_players":24,"Bots":0,"server_type":"Dedicated","server_os":"Linux","password":true,"vac":true,"version":"7757534","steam_id":85568392924469982,"keywords":["cp","nocrits","nodmgspread","uncletopia"],"game_id":440,"stv_port":27016,"stv_name":"Uncletopia | Atlanta | 1 | All Maps | STV","players":[{"user_id":716,"name":"ae","steam_id":76561198185490827,"connected_time":1855000000000,"state":"active","ping":89},{"user_id":726,"name":"ATL1 | Vee (very cool)","steam_id":76561198330432889,"connected_time":1150000000000,"state":"active","ping":60},{"user_id":686,"name":"paetho YT","steam_id":76561198152690003,"connected_time":4393000000000,"state":"active","ping":44},{"user_id":717,"name":"Weezer","steam_id":76561198097966876,"connected_time":1676000000000,"state":"active","ping":75},{"user_id":720,"name":"Admiral Catradora","steam_id":76561198017271944,"connected_time":1322000000000,"state":"active","ping":88},{"user_id":555,"name":"ATL 1 | Save your wifi","steam_id":76561198286147372,"connected_time":13888000000000,"state":"active","ping":47},{"user_id":714,"name":"Jabawakai","steam_id":76561198088881254,"connected_time":1941000000000,"state":"active","ping":71},{"user_id":695,"name":"xiii","steam_id":76561198079416036,"connected_time":3550000000000,"state":"active","ping":75},{"user_id":710,"name":"Wendy's 4 for 4","steam_id":76561198277163301,"connected_time":2708000000000,"state":"active","ping":79},{"user_id":661,"name":"oakaokokakaokoa","steam_id":76561198092135570,"connected_time":6108000000000,"state":"active","ping":60},{"user_id":739,"name":"trappy (soggy)","steam_id":76561198402801140,"connected_time":361000000000,"state":"active","ping":87},{"user_id":712,"name":"Epifiny","steam_id":76561198027958086,"connected_time":2235000000000,"state":"active","ping":80},{"user_id":738,"name":"Tyfonic","steam_id":76561198179282774,"connected_time":413000000000,"state":"active","ping":78},{"user_id":618,"name":"krabby","steam_id":76561199072773402,"connected_time":8032000000000,"state":"active","ping":58},{"user_id":685,"name":"JimmyNeutron","steam_id":76561197993353322,"connected_time":4420000000000,"state":"active","ping":88},{"user_id":722,"name":"Flint","steam_id":76561198066547582,"connected_time":1294000000000,"state":"active","ping":110},{"user_id":615,"name":"ATL1 | on my hunting trip","steam_id":76561198315341646,"connected_time":8267000000000,"state":"active","ping":70},{"user_id":711,"name":"C papi","steam_id":76561198027779564,"connected_time":2422000000000,"state":"active","ping":46},{"user_id":727,"name":"P.Caniche","steam_id":76561198873907851,"connected_time":777000000000,"state":"active","ping":74},{"user_id":721,"name":"GAMBU","steam_id":76561198320866421,"connected_time":1307000000000,"state":"active","ping":52},{"user_id":725,"name":"SparkStorm","steam_id":76561198095817025,"connected_time":1245000000000,"state":"active","ping":28},{"user_id":647,"name":"freyja #LetsEat","steam_id":76561198249206656,"connected_time":7066000000000,"state":"active","ping":76},{"user_id":540,"name":"Bag","steam_id":76561198012395490,"connected_time":15438000000000,"state":"active","ping":59},{"user_id":672,"name":"jandajanda","steam_id":76561198235722476,"connected_time":5312000000000,"state":"active","ping":59}]},{"server_id":104,"name":"Uncletopia | Atlanta | 2 | All Maps","name_short":"atl-2","host":"atl-1.us.uncletopia.com","port":27025,"enabled":true,"region":"us-east","cc":"us","latitude":33.753746,"longitude":-84.38633,"reserved":0,"last_update":"0001-01-01T00:00:00Z","name_a2s":"Uncletopia | Atlanta | 2 | All Maps","protocol":17,"map":"pl_upward","folder":"tf","game":"Team Fortress","app_id":440,"player_count":20,"max_players":24,"Bots":0,"server_type":"Dedicated","server_os":"Linux","password":true,"vac":true,"version":"7757534","steam_id":85568392924469983,"keywords":["nocrits","nodmgspread","payload","uncletopia"],"game_id":440,"stv_port":27026,"stv_name":"Uncletopia | Atlanta | 2 | All Maps | STV","players":[{"user_id":697,"name":"Karma's Camera","steam_id":76561198059385185,"connected_time":624000000000,"state":"spawning","ping":197},{"user_id":690,"name":"Snezzy","steam_id":76561199236465377,"connected_time":817000000000,"state":"spawning","ping":111},{"user_id":691,"name":"‚í∑‚ì™‚ì™‚ì£‚ì®‚ìí‚ìê‚ìö‚ìî‚ì¢","steam_id":76561198088776421,"connected_time":794000000000,"state":"spawning","ping":213},{"user_id":679,"name":"a jungle ride cool","steam_id":76561198068543939,"connected_time":1625000000000,"state":"spawning","ping":283},{"user_id":579,"name":"drdoofus123","steam_id":76561198016826181,"connected_time":7133000000000,"state":"spawning","ping":181},{"user_id":684,"name":"10 years in the joint man","steam_id":76561199007540371,"connected_time":1335000000000,"state":"spawning","ping":218},{"user_id":704,"name":"VioletSpecs","steam_id":76561198089366466,"connected_time":286000000000,"state":"spawning","ping":146},{"user_id":613,"name":"Kobicha","steam_id":76561198144970720,"connected_time":5756000000000,"state":"spawning","ping":125},{"user_id":692,"name":"Professor Shaggy","steam_id":76561198276926724,"connected_time":780000000000,"state":"spawning","ping":129},{"user_id":693,"name":"Grand Wizard Autismo","steam_id":76561198069834979,"connected_time":760000000000,"state":"spawning","ping":181},{"user_id":701,"name":"General Jimbo","steam_id":76561198075426735,"connected_time":487000000000,"state":"spawning","ping":134},{"user_id":611,"name":"Hindmost","steam_id":76561199081837220,"connected_time":5848000000000,"state":"spawning","ping":100},{"user_id":699,"name":"dog","steam_id":76561198263873491,"connected_time":585000000000,"state":"spawning","ping":143},{"user_id":687,"name":"Horsey Surprise","steam_id":76561198176920433,"connected_time":982000000000,"state":"spawning","ping":136},{"user_id":708,"name":"hoowigan","steam_id":76561198004481006,"connected_time":14000000000,"state":"spawning","ping":277},{"user_id":666,"name":"troll","steam_id":76561198040890252,"connected_time":2262000000000,"state":"spawning","ping":137},{"user_id":688,"name":"Jonah Hill's Fat Nuts","steam_id":76561198318525860,"connected_time":906000000000,"state":"spawning","ping":192},{"user_id":706,"name":"Periergos","steam_id":76561198062030412,"connected_time":182000000000,"state":"spawning","ping":157},{"user_id":686,"name":"stungoperation","steam_id":76561199162409918,"connected_time":1078000000000,"state":"spawning","ping":172},{"user_id":682,"name":"Bold and Brash","steam_id":76561198014206954,"connected_time":1441000000000,"state":"spawning","ping":145}]},{"server_id":400,"name":"Uncletopia | Atlanta | 3 | Community","name_short":"atl-3","host":"atl-1.us.uncletopia.com","port":27035,"enabled":true,"region":"us-east","cc":"us","latitude":33.753746,"longitude":-84.38633,"reserved":0,"last_update":"0001-01-01T00:00:00Z","name_a2s":"Uncletopia | Atlanta | 3 | Community","protocol":17,"map":"workshop/cp_kalinka_rc6a.ugc1272700588","folder":"tf","game":"Team Fortress","app_id":440,"player_count":0,"max_players":24,"Bots":0,"server_type":"Dedicated","server_os":"Linux","password":true,"vac":true,"version":"7757534","steam_id":85568392924515187,"keywords":["cp","nocrits","nodmgspread","uncletopia"],"game_id":440,"stv_port":27036,"stv_name":"Uncletopia | Atlanta | 3 | Community | STV","players":null},{"server_id":401,"name":"Uncletopia | Atlanta | 4 | No Payload","name_short":"atl-4","host":"atl-1.us.uncletopia.com","port":27045,"enabled":true,"region":"us-east","cc":"us","latitude":33.753746,"longitude":-84.38633,"reserved":0,"last_update":"0001-01-01T00:00:00Z","name_a2s":"","protocol":0,"map":"","folder":"","game":"","app_id":0,"player_count":0,"max_players":0,"Bots":0,"server_type":"","server_os":"","password":false,"vac":false,"version":"","steam_id":0,"keywords":null,"game_id":0,"stv_port":0,"stv_name":"","players":null},{"server_id":2,"name":"Uncletopia | Chicago | 1 | All Maps","name_short":"chi-1","host":"chi-1.us.uncletopia.com","port":27015,"enabled":true,"region":"us-central","cc":"us","latitude":41.881832,"longitude":-87.62318,"reserved":0,"last_update":"0001-01-01T00:00:00Z","name_a2s":"Uncletopia | Chicago | 1 | All Maps","protocol":17,"map":"pl_barnblitz","folder":"tf","game":"Team Fortress","app_id":440,"player_count":24,"max_players":24,"Bots":0,"server_type":"Dedicated","server_os":"Linux","password":true,"vac":true,"version":"7757534","steam_id":85568392924469984,"keywords":["nocrits","nodmgspread","payload","uncletopia"],"game_id":440,"stv_port":27016,"stv_name":"Uncletopia | Chicago | 1 | All Maps | STV","players":[{"user_id":647,"name":"Pig","steam_id":76561198066564910,"connected_time":1740000000000,"state":"active","ping":92},{"user_id":618,"name":"B(","steam_id":76561198093921290,"connected_time":4881000000000,"state":"active","ping":48},{"user_id":644,"name":"Wardin","steam_id":76561198096881855,"connected_time":1775000000000,"state":"active","ping":67},{"user_id":622,"name":"orcluvr69","steam_id":76561198068712028,"connected_time":4318000000000,"state":"active","ping":78},{"user_id":654,"name":"PKBEAST_7","steam_id":76561198177136537,"connected_time":776000000000,"state":"active","ping":88},{"user_id":626,"name":"Capt.Swag","steam_id":76561198088340994,"connected_time":3621000000000,"state":"active","ping":80},{"user_id":658,"name":"LEGALIZE NUCLEAR BOMBS","steam_id":76561198031675881,"connected_time":615000000000,"state":"active","ping":66},{"user_id":659,"name":"MankTKO","steam_id":76561198189421005,"connected_time":581000000000,"state":"active","ping":48},{"user_id":624,"name":"Kazoo spruce","steam_id":76561198075028015,"connected_time":4110000000000,"state":"active","ping":78},{"user_id":575,"name":"SuperFresh","steam_id":76561198200723198,"connected_time":8819000000000,"state":"active","ping":44},{"user_id":633,"name":"StonedGiant","steam_id":76561197984386932,"connected_time":3200000000000,"state":"active","ping":59},{"user_id":612,"name":"J O S H¬≥¬≤","steam_id":76561198122603779,"connected_time":5248000000000,"state":"active","ping":100},{"user_id":584,"name":"Thundermonkey (SMOKE)","steam_id":76561198017631728,"connected_time":7401000000000,"state":"active","ping":62},{"user_id":536,"name":"blob","steam_id":76561198122375328,"connected_time":11000000000000,"state":"active","ping":60},{"user_id":648,"name":"MEGATRON","steam_id":76561198820480684,"connected_time":1739000000000,"state":"active","ping":57},{"user_id":639,"name":"Dexidus","steam_id":76561198021840495,"connected_time":2736000000000,"state":"active","ping":58},{"user_id":628,"name":"Ziath","steam_id":76561198094009164,"connected_time":3612000000000,"state":"active","ping":66},{"user_id":657,"name":"Person","steam_id":76561198093244204,"connected_time":725000000000,"state":"active","ping":74},{"user_id":641,"name":"vv","steam_id":76561198134813102,"connected_time":1800000000000,"state":"active","ping":59},{"user_id":568,"name":"Side egg? Unnecessary.","steam_id":76561198091172158,"connected_time":9364000000000,"state":"active","ping":45},{"user_id":635,"name":"tim-","steam_id":76561199119101315,"connected_time":2917000000000,"state":"active","ping":71},{"user_id":651,"name":"Milkius","steam_id":76561198401392472,"connected_time":1496000000000,"state":"active","ping":75},{"user_id":630,"name":"Aegis","steam_id":76561198272052750,"connected_time":3595000000000,"state":"active","ping":81},{"user_id":638,"name":"Aunt Kat","steam_id":76561198204641019,"connected_time":2817000000000,"state":"active","ping":76}]},{"server_id":106,"name":"Uncletopia | Chicago | 2 | All Maps","name_short":"chi-2","host":"chi-1.us.uncletopia.com","port":27025,"enabled":true,"region":"us-central","cc":"us","latitude":41.881832,"longitude":-87.62318,"reserved":0,"last_update":"0001-01-01T00:00:00Z","name_a2s":"Uncletopia | Chicago | 2 | All Maps","protocol":17,"map":"koth_cascade","folder":"tf","game":"Team Fortress","app_id":440,"player_count":24,"max_players":24,"Bots":0,"server_type":"Dedicated","server_os":"Linux","password":true,"vac":true,"version":"7757534","steam_id":85568392924469985,"keywords":["cp","nocrits","nodmgspread","uncletopia"],"game_id":440,"stv_port":27026,"stv_name":"Uncletopia | Chicago | 2 | All Maps | STV","players":[{"user_id":717,"name":"worlds biggest train fan","steam_id":76561198008332777,"connected_time":484000000000,"state":"active","ping":73},{"user_id":680,"name":"Daz","steam_id":76561198041431938,"connected_time":2454000000000,"state":"active","ping":73},{"user_id":728,"name":"maplesyrup","steam_id":76561198083504935,"connected_time":37000000000,"state":"active","ping":92},{"user_id":695,"name":"aversa","steam_id":76561198840460101,"connected_time":2341000000000,"state":"active","ping":70},{"user_id":730,"name":"Rari","steam_id":76561198128537564,"connected_time":19000000000,"state":"spawning","ping":44},{"user_id":720,"name":"BackToSchoolAds","steam_id":76561198870281128,"connected_time":454000000000,"state":"active","ping":89},{"user_id":714,"name":"Sudiak","steam_id":76561198119246214,"connected_time":497000000000,"state":"active","ping":64},{"user_id":729,"name":"Trash Man","steam_id":76561198874518834,"connected_time":35000000000,"state":"active","ping":82},{"user_id":702,"name":"Cooki","steam_id":76561198051705314,"connected_time":1805000000000,"state":"active","ping":75},{"user_id":696,"name":"bash","steam_id":76561199161649534,"connected_time":2124000000000,"state":"active","ping":106},{"user_id":725,"name":"Whapper","steam_id":76561198044029606,"connected_time":291000000000,"state":"active","ping":101},{"user_id":697,"name":"pro gamer with a giant mousepad","steam_id":76561197999187629,"connected_time":2120000000000,"state":"active","ping":64},{"user_id":573,"name":"Baoshan Iron \u0026 Steel Co., Ltd.","steam_id":76561198095313463,"connected_time":7638000000000,"state":"active","ping":61},{"user_id":681,"name":"Achtan","steam_id":76561198078189844,"connected_time":2443000000000,"state":"active","ping":62},{"user_id":724,"name":"terrapieseven","steam_id":76561198072062415,"connected_time":300000000000,"state":"active","ping":75},{"user_id":685,"name":"Wooby Bear","steam_id":76561198014737582,"connected_time":2391000000000,"state":"active","ping":73},{"user_id":657,"name":"oomper","steam_id":76561199189982701,"connected_time":3596000000000,"state":"active","ping":62},{"user_id":675,"name":"last_apoc","steam_id":76561197974910911,"connected_time":2646000000000,"state":"active","ping":60},{"user_id":716,"name":"üÖúüÖîüÖîüÖöüÖ¢üÖ£üÖî\ufffd\ufffd\ufffd","steam_id":76561197999748343,"connected_time":490000000000,"state":"active","ping":62},{"user_id":727,"name":"Raine","steam_id":76561199081937889,"connected_time":242000000000,"state":"active","ping":73},{"user_id":707,"name":"quint","steam_id":76561198046797995,"connected_time":1460000000000,"state":"active","ping":75},{"user_id":698,"name":"Rock Collector","steam_id":76561198131467867,"connected_time":2113000000000,"state":"active","ping":83},{"user_id":722,"name":"NoodlePup :D","steam_id":76561198184510919,"connected_time":379000000000,"state":"active","ping":71},{"user_id":679,"name":"Peter Popoff","steam_id":76561198027171160,"connected_time":2556000000000,"state":"active","ping":53}]},{"server_id":402,"name":"Uncletopia | Chicago | 3 | All Maps","name_short":"chi-3","host":"chi-1.us.uncletopia.com","port":27035,"enabled":true,"region":"us-central","cc":"us","latitude":41.881832,"longitude":-87.62318,"reserved":0,"last_update":"0001-01-01T00:00:00Z","name_a2s":"Uncletopia | Chicago | 3 | All Maps","protocol":17,"map":"pl_borneo","folder":"tf","game":"Team Fortress","app_id":440,"player_count":24,"max_players":24,"Bots":0,"server_type":"Dedicated","server_os":"Linux","password":true,"vac":true,"version":"7757534","steam_id":85568392924515191,"keywords":["nocrits","nodmgspread","payload","uncletopia"],"game_id":440,"stv_port":27036,"stv_name":"Uncletopia | Chicago | 3 | All Maps | STV","players":[{"user_id":554,"name":"silly little feller","steam_id":76561198041975003,"connected_time":1769000000000,"state":"active","ping":72},{"user_id":507,"name":"Flowers","steam_id":76561198031669899,"connected_time":5462000000000,"state":"active","ping":85},{"user_id":552,"name":"Underwear Monster","steam_id":76561198175742775,"connected_time":1781000000000,"state":"active","ping":100},{"user_id":562,"name":"drinking water (extra sulfur)","steam_id":76561198066566813,"connected_time":558000000000,"state":"active","ping":138},{"user_id":524,"name":"squeebo","steam_id":76561198061775121,"connected_time":4589000000000,"state":"active","ping":44},{"user_id":573,"name":"raw chicken enjoyer","steam_id":76561198986943063,"connected_time":93000000000,"state":"active","ping":59},{"user_id":572,"name":"Ghostly Slacker","steam_id":76561198846116303,"connected_time":250000000000,"state":"active","ping":73},{"user_id":561,"name":"level 3","steam_id":76561198053046161,"connected_time":612000000000,"state":"active","ping":60},{"user_id":510,"name":"AJTarcza","steam_id":76561198070800190,"connected_time":5142000000000,"state":"active","ping":87},{"user_id":574,"name":"Tempest","steam_id":76561198044125968,"connected_time":9000000000,"state":"active","ping":139},{"user_id":563,"name":"coolkid","steam_id":76561198072600034,"connected_time":557000000000,"state":"active","ping":161},{"user_id":564,"name":"chug jug","steam_id":76561198155631250,"connected_time":557000000000,"state":"active","ping":60},{"user_id":556,"name":"Dr.Barber","steam_id":76561198053164815,"connected_time":1739000000000,"state":"active","ping":67},{"user_id":565,"name":"Rose","steam_id":76561198955581861,"connected_time":553000000000,"state":"active","ping":101},{"user_id":526,"name":"Dante","steam_id":76561198798234838,"connected_time":4515000000000,"state":"active","ping":115},{"user_id":527,"name":"Vapeinhand","steam_id":76561198134439943,"connected_time":4493000000000,"state":"active","ping":70},{"user_id":570,"name":"Midterm tmr, yet gaming","steam_id":76561198207987376,"connected_time":458000000000,"state":"active","ping":66},{"user_id":557,"name":"Goldfire","steam_id":76561198061999410,"connected_time":1725000000000,"state":"active","ping":100},{"user_id":538,"name":"Fishman_200","steam_id":76561198152455167,"connected_time":3385000000000,"state":"active","ping":80},{"user_id":571,"name":"Boznyan","steam_id":76561198129164016,"connected_time":346000000000,"state":"active","ping":55},{"user_id":542,"name":"ZofoJackson","steam_id":76561197998366861,"connected_time":3183000000000,"state":"active","ping":60},{"user_id":568,"name":"sailaser","steam_id":76561198035752229,"connected_time":526000000000,"state":"active","ping":69},{"user_id":569,"name":"Wang of Wall St","steam_id":76561198047460598,"connected_time":524000000000,"state":"active","ping":83},{"user_id":545,"name":"MasterGeek.MX","steam_id":76561198063355220,"connected_time":2917000000000,"state":"active","ping":132}]},{"server_id":403,"name":"Uncletopia | Chicago | 4 | All Maps","name_short":"chi-4","host":"chi-1.us.uncletopia.com","port":27045,"enabled":true,"region":"us-central","cc":"us","latitude":41.881832,"longitude":-87.62318,"reserved":0,"last_update":"0001-01-01T00:00:00Z","name_a2s":"Uncletopia | Chicago | 4 | All Maps","protocol":17,"map":"pl_badwater","folder":"tf","game":"Team Fortress","app_id":440,"player_count":24,"max_players":24,"Bots":0,"server_type":"Dedicated","server_os":"Linux","password":true,"vac":true,"version":"7757534","steam_id":85568392924515193,"keywords":["nocrits","nodmgspread","payload","uncletopia"],"game_id":440,"stv_port":27046,"stv_name":"Uncletopia | Chicago | 4 | All Maps | STV","players":[{"user_id":586,"name":"Joe Swanson","steam_id":76561199089907740,"connected_time":4675000000000,"state":"active","ping":97},{"user_id":575,"name":"looloopaa","steam_id":76561198048179242,"connected_time":5898000000000,"state":"active","ping":56},{"user_id":618,"name":"WatchWill","steam_id":76561198157237945,"connected_time":2599000000000,"state":"active","ping":71},{"user_id":602,"name":"m yfrogs","steam_id":76561198371149432,"connected_time":3142000000000,"state":"active","ping":47},{"user_id":631,"name":"Rudy","steam_id":76561198013456828,"connected_time":536000000000,"state":"active","ping":52},{"user_id":574,"name":"Lord TriM","steam_id":76561198048332533,"connected_time":5985000000000,"state":"active","ping":57},{"user_id":621,"name":"Nobody","steam_id":76561198160544586,"connected_time":1858000000000,"state":"active","ping":68},{"user_id":617,"name":"Brother Pudge","steam_id":76561198247815090,"connected_time":2667000000000,"state":"active","ping":50},{"user_id":625,"name":"dahperson","steam_id":76561198067207467,"connected_time":1361000000000,"state":"active","ping":54},{"user_id":615,"name":"Korota","steam_id":76561198095891641,"connected_time":2730000000000,"state":"active","ping":50},{"user_id":510,"name":"Battery Acid Addict","steam_id":76561198439793697,"connected_time":9351000000000,"state":"active","ping":73},{"user_id":629,"name":"Nathan","steam_id":76561199132214008,"connected_time":1102000000000,"state":"active","ping":105},{"user_id":605,"name":"Ringo x Seiran","steam_id":76561198357437908,"connected_time":3021000000000,"state":"active","ping":60},{"user_id":626,"name":"Coke","steam_id":76561199350870177,"connected_time":1341000000000,"state":"active","ping":58},{"user_id":600,"name":"Iron","steam_id":76561198247918478,"connected_time":3249000000000,"state":"active","ping":66},{"user_id":630,"name":"ki","steam_id":76561198277979851,"connected_time":969000000000,"state":"active","ping":83},{"user_id":627,"name":"‚ù§RAW STEAK ENJOYER","steam_id":76561198095600494,"connected_time":1329000000000,"state":"active","ping":59},{"user_id":595,"name":"UncleHawk","steam_id":76561199380329001,"connected_time":3644000000000,"state":"active","ping":83},{"user_id":579,"name":"PeopleOrderOurPatties","steam_id":76561198323144922,"connected_time":5589000000000,"state":"active","ping":60},{"user_id":624,"name":"Sussin'","steam_id":76561198059813696,"connected_time":1406000000000,"state":"active","ping":79},{"user_id":632,"name":"Spytron 3000","steam_id":76561198067791086,"connected_time":362000000000,"state":"active","ping":90},{"user_id":633,"name":":3","steam_id":76561198008599033,"connected_time":1000000000,"state":"spawning","ping":95},{"user_id":628,"name":"Reals","steam_id":76561198826005248,"connected_time":1203000000000,"state":"active","ping":157},{"user_id":610,"name":"Long of Neck","steam_id":76561198038997485,"connected_time":2941000000000,"state":"active","ping":70}]},{"server_id":36,"name":"Uncletopia | Chicago | 5 | All Maps","name_short":"chi-5","host":"chi-2.us.uncletopia.com","port":27015,"enabled":true,"region":"us-central","cc":"us","latitude":41.881832,"longitude":-87.62318,"reserved":0,"last_update":"0001-01-01T00:00:00Z","name_a2s":"Uncletopia | Chicago | 5 | All Maps","protocol":17,"map":"pl_barnblitz","folder":"tf","game":"Team Fortress","app_id":440,"player_count":24,"max_players":24,"Bots":0,"server_type":"Dedicated","server_os":"Linux","password":true,"vac":true,"version":"7757534","steam_id":85568392924866362,"keywords":["nocrits","nodmgspread","payload","uncletopia"],"game_id":440,"stv_port":27016,"stv_name":"Uncletopia | Chicago | 5 | All Maps | STV","players":[{"user_id":574,"name":"I Am the True Meatwad","steam_id":76561198010019214,"connected_time":944000000000,"state":"active","ping":45},{"user_id":572,"name":"Piccadilly Willy","steam_id":76561198000312126,"connected_time":989000000000,"state":"active","ping":56},{"user_id":573,"name":"steggy","steam_id":76561198000564263,"connected_time":975000000000,"state":"active","ping":69},{"user_id":587,"name":"blunderly","steam_id":76561198131915334,"connected_time":331000000000,"state":"active","ping":70},{"user_id":568,"name":"Pan The Sheep","steam_id":76561198817515534,"connected_time":1162000000000,"state":"active","ping":93},{"user_id":575,"name":"Dededoo","steam_id":76561198279033471,"connected_time":939000000000,"state":"active","ping":132},{"user_id":546,"name":"ED","steam_id":76561198043316859,"connected_time":2772000000000,"state":"active","ping":64},{"user_id":553,"name":"_cza","steam_id":76561198079793576,"connected_time":2353000000000,"state":"active","ping":109},{"user_id":576,"name":"Mengle","steam_id":76561198001953684,"connected_time":929000000000,"state":"active","ping":61},{"user_id":577,"name":"TransWomanGaming","steam_id":76561198809645656,"connected_time":901000000000,"state":"active","ping":80},{"user_id":551,"name":"Aeonspassed","steam_id":76561198014016451,"connected_time":2368000000000,"state":"active","ping":60},{"user_id":578,"name":"Crasson","steam_id":76561198034967708,"connected_time":889000000000,"state":"active","ping":91},{"user_id":582,"name":"dnkrs^ blaine_","steam_id":76561198042444734,"connected_time":854000000000,"state":"active","ping":76},{"user_id":550,"name":"1-800-GHOST-DANCE","steam_id":76561198835430429,"connected_time":2373000000000,"state":"active","ping":90},{"user_id":584,"name":"Aristotle Voulton","steam_id":76561198100174923,"connected_time":680000000000,"state":"active","ping":100},{"user_id":563,"name":"chiswola","steam_id":76561198046920142,"connected_time":1498000000000,"state":"active","ping":88},{"user_id":580,"name":"STEVE","steam_id":76561198063475894,"connected_time":875000000000,"state":"active","ping":68},{"user_id":567,"name":"Shorts","steam_id":76561198025009692,"connected_time":1224000000000,"state":"active","ping":83},{"user_id":559,"name":"Cassini","steam_id":76561198318526294,"connected_time":2113000000000,"state":"active","ping":60},{"user_id":545,"name":"lanoc","steam_id":76561198055415367,"connected_time":2789000000000,"state":"active","ping":74},{"user_id":586,"name":"Grundle Thunder","steam_id":76561197960790338,"connected_time":528000000000,"state":"active","ping":92},{"user_id":569,"name":"Brahan","steam_id":76561198024629210,"connected_time":1154000000000,"state":"active","ping":71},{"user_id":585,"name":"when the:","steam_id":76561198145784505,"connected_time":637000000000,"state":"active","ping":104},{"user_id":583,"name":"JohnnyGitGud","steam_id":76561198401455467,"connected_time":825000000000,"state":"active","ping":112}]},{"server_id":37,"name":"Uncletopia | Chicago | 6 | All Maps","name_short":"chi-6","host":"chi-2.us.uncletopia.com","port":27025,"enabled":true,"region":"us-central","cc":"us","latitude":41.881832,"longitude":-87.62318,"reserved":0,"last_update":"0001-01-01T00:00:00Z","name_a2s":"Uncletopia | Chicago | 6 | All Maps","protocol":17,"map":"pl_frontier_final","folder":"tf","game":"Team Fortress","app_id":440,"player_count":24,"max_players":24,"Bots":0,"server_type":"Dedicated","server_os":"Linux","password":true,"vac":true,"version":"7757534","steam_id":85568392924866363,"keywords":["nocrits","nodmgspread","payload","uncletopia"],"game_id":440,"stv_port":27026,"stv_name":"Uncletopia | Chicago | 6 | All Maps | STV","players":[{"user_id":272,"name":"‚ù§ Ashley ‚ù§","steam_id":76561198056428303,"connected_time":13198000000000,"state":"active","ping":105},{"user_id":308,"name":"self sufficient kitten","steam_id":76561197960592612,"connected_time":11663000000000,"state":"active","ping":91},{"user_id":477,"name":"mohamy_19","steam_id":76561198075833698,"connected_time":1500000000000,"state":"active","ping":75},{"user_id":483,"name":"Wengatang","steam_id":76561198021747059,"connected_time":1045000000000,"state":"active","ping":55},{"user_id":475,"name":"!! BRO IS FLABBERGASTED !!","steam_id":76561198135036396,"connected_time":1571000000000,"state":"active","ping":81},{"user_id":484,"name":"uhooter","steam_id":76561198007829078,"connected_time":1014000000000,"state":"active","ping":55},{"user_id":451,"name":"reis","steam_id":76561199232952016,"connected_time":3455000000000,"state":"active","ping":194},{"user_id":468,"name":"gonk","steam_id":76561198061206732,"connected_time":2231000000000,"state":"active","ping":83},{"user_id":485,"name":"Taze","steam_id":76561198000708462,"connected_time":1013000000000,"state":"active","ping":62},{"user_id":479,"name":"corncakecoolcat","steam_id":76561198090716968,"connected_time":1425000000000,"state":"active","ping":68},{"user_id":438,"name":"Zigadox","steam_id":76561198079813479,"connected_time":4145000000000,"state":"active","ping":86},{"user_id":486,"name":"Dr. Pleasant","steam_id":76561198111945101,"connected_time":989000000000,"state":"active","ping":71},{"user_id":459,"name":"sauce","steam_id":76561198180408835,"connected_time":2957000000000,"state":"active","ping":77},{"user_id":491,"name":"Larry51","steam_id":76561198150794598,"connected_time":847000000000,"state":"active","ping":148},{"user_id":430,"name":"Dr. Dick","steam_id":76561198138011922,"connected_time":4303000000000,"state":"active","ping":82},{"user_id":410,"name":"Piyono","steam_id":76561197962188504,"connected_time":5725000000000,"state":"active","ping":83},{"user_id":492,"name":"exov","steam_id":76561198064513362,"connected_time":651000000000,"state":"active","ping":88},{"user_id":450,"name":"go touch keyboard","steam_id":76561198197388678,"connected_time":3504000000000,"state":"active","ping":99},{"user_id":489,"name":"Fuse","steam_id":76561198047018079,"connected_time":915000000000,"state":"active","ping":78},{"user_id":433,"name":"wakeupbdot","steam_id":76561198160786631,"connected_time":4249000000000,"state":"active","ping":102},{"user_id":493,"name":"LilJTime","steam_id":76561198140290652,"connected_time":517000000000,"state":"active","ping":74},{"user_id":463,"name":"ZeFizzyPop‚Ñ¢","steam_id":76561198258104981,"connected_time":2688000000000,"state":"active","ping":54},{"user_id":478,"name":"Jaguar","steam_id":76561197971152439,"connected_time":1484000000000,"state":"active","ping":84},{"user_id":490,"name":"Bottom Ramen","steam_id":76561197970450546,"connected_time":915000000000,"state":"active","ping":113}]},{"server_id":38,"name":"Uncletopia | Chicago | 7 | Stopwatch Beta","name_short":"chi-7","host":"chi-2.us.uncletopia.com","port":27035,"enabled":true,"region":"us-central","cc":"us","latitude":41.881832,"longitude":-87.62318,"reserved":0,"last_update":"0001-01-01T00:00:00Z","name_a2s":"Uncletopia | Chicago | 7 | Stopwatch Beta","protocol":17,"map":"workshop/pl_vigil_rc9.ugc1266210012","folder":"tf","game":"Team Fortress","app_id":440,"player_count":0,"max_players":24,"Bots":0,"server_type":"Dedicated","server_os":"Linux","password":true,"vac":true,"version":"7757534","steam_id":85568392924866364,"keywords":["nocrits","nodmgspread","payload","uncletopia"],"game_id":440,"stv_port":27036,"stv_name":"Uncletopia | Chicago | 7 | Stopwatch Beta | STV","players":null},{"server_id":39,"name":"Uncletopia | Chicago | 8 | Community","name_short":"chi-8","host":"chi-2.us.uncletopia.com","port":27045,"enabled":true,"region":"us-central","cc":"us","latitude":41.881832,"longitude":-87.62318,"reserved":0,"last_update":"0001-01-01T00:00:00Z","name_a2s":"Uncletopia | Chicago | 8 | Community","protocol":17,"map":"workshop/pl_barnblitz_pro7.ugc582280235","folder":"tf","game":"Team Fortress","app_id":440,"player_count":6,"max_players":24,"Bots":0,"server_type":"Dedicated","server_os":"Linux","password":true,"vac":true,"version":"7757534","steam_id":85568392924866365,"keywords":["nocrits","nodmgspread","payload","uncletopia"],"game_id":440,"stv_port":27046,"stv_name":"Uncletopia | Chicago | 8 | Community | STV","players":[{"user_id":96,"name":"x_^","steam_id":76561198355068405,"connected_time":1232000000000,"state":"active","ping":58},{"user_id":89,"name":"stigma (Battle Medic)","steam_id":76561197960315263,"connected_time":2342000000000,"state":"active","ping":69},{"user_id":90,"name":"Chillin Turt","steam_id":76561198025796849,"connected_time":2139000000000,"state":"active","ping":74},{"user_id":91,"name":"name420","steam_id":76561198129374525,"connected_time":2121000000000,"state":"active","ping":60},{"user_id":95,"name":"Drewey","steam_id":76561199258609863,"connected_time":1363000000000,"state":"active","ping":55},{"user_id":97,"name":"[DEEP] Danmar33","steam_id":76561198056453091,"connected_time":1127000000000,"state":"active","ping":47}]},{"server_id":8,"name":"Uncletopia | Dallas | 1 | All Maps","name_short":"dal-1","host":"dal-1.us.uncletopia.com","port":27015,"enabled":true,"region":"us-central","cc":"us","latitude":32.779167,"longitude":-96.80889,"reserved":0,"last_update":"0001-01-01T00:00:00Z","name_a2s":"Uncletopia | Dallas | 1 | All Maps","protocol":17,"map":"cp_foundry","folder":"tf","game":"Team Fortress","app_id":440,"player_count":25,"max_players":24,"Bots":0,"server_type":"Dedicated","server_os":"Linux","password":true,"vac":true,"version":"7757534","steam_id":85568392924469986,"keywords":["cp","nocrits","nodmgspread","uncletopia"],"game_id":440,"stv_port":27016,"stv_name":"Uncletopia | Dallas | 1 | All Maps | STV","players":[{"user_id":773,"name":"0x01FE","steam_id":76561198838881917,"connected_time":262000000000,"state":"active","ping":63},{"user_id":744,"name":"Not A Rapper","steam_id":76561198077523537,"connected_time":3197000000000,"state":"active","ping":96},{"user_id":767,"name":"IZISOO","steam_id":76561198970380577,"connected_time":1092000000000,"state":"active","ping":88},{"user_id":681,"name":"Space_Cowboy","steam_id":76561198202240772,"connected_time":7775000000000,"state":"active","ping":56},{"user_id":714,"name":"G. Howard Dee","steam_id":76561198058382812,"connected_time":5291000000000,"state":"active","ping":64},{"user_id":764,"name":"Imrgrim","steam_id":76561198135866481,"connected_time":1442000000000,"state":"active","ping":72},{"user_id":774,"name":"berserker_tf2 yt","steam_id":76561198303464488,"connected_time":213000000000,"state":"connecting","ping":0},{"user_id":698,"name":"iaPK","steam_id":76561198056618642,"connected_time":7021000000000,"state":"active","ping":49},{"user_id":741,"name":"Bottom Text","steam_id":76561198075447301,"connected_time":3380000000000,"state":"active","ping":89},{"user_id":772,"name":"DrD","steam_id":76561198067266383,"connected_time":850000000000,"state":"active","ping":76},{"user_id":728,"name":"MFShroom","steam_id":76561198305836153,"connected_time":4058000000000,"state":"active","ping":70},{"user_id":756,"name":"Miss Pauling Gaming","steam_id":76561198078479083,"connected_time":1620000000000,"state":"active","ping":58},{"user_id":753,"name":"Pleiades, the Sorceror","steam_id":76561198079590693,"connected_time":1850000000000,"state":"active","ping":65},{"user_id":760,"name":"CSharp","steam_id":76561199185191710,"connected_time":1569000000000,"state":"active","ping":145},{"user_id":765,"name":"A Straw","steam_id":76561199367935846,"connected_time":1366000000000,"state":"active","ping":120},{"user_id":730,"name":"GLG MUTT","steam_id":76561198147785541,"connected_time":3587000000000,"state":"active","ping":57},{"user_id":484,"name":"brock","steam_id":76561199015537819,"connected_time":23888000000000,"state":"active","ping":65},{"user_id":676,"name":"{ST} Oxythemoron","steam_id":76561198060089965,"connected_time":9360000000000,"state":"active","ping":52},{"user_id":761,"name":"m","steam_id":76561198069456508,"connected_time":1559000000000,"state":"active","ping":83},{"user_id":771,"name":"BLANKE","steam_id":76561198129610485,"connected_time":947000000000,"state":"active","ping":54},{"user_id":763,"name":"Noisgamer02","steam_id":76561198129665722,"connected_time":1512000000000,"state":"active","ping":60},{"user_id":750,"name":"tonyforshyr","steam_id":76561198846474978,"connected_time":2212000000000,"state":"active","ping":71},{"user_id":775,"name":"Edder","steam_id":76561198011088393,"connected_time":192000000000,"state":"active","ping":93},{"user_id":751,"name":"BatJet","steam_id":76561198147738441,"connected_time":2211000000000,"state":"active","ping":92},{"user_id":727,"name":"GLG.Liz","steam_id":76561198021957956,"connected_time":4481000000000,"state":"active","ping":46}]},{"server_id":108,"name":"Uncletopia | Dallas | 2 | All Maps","name_short":"dal-2","host":"dal-1.us.uncletopia.com","port":27025,"enabled":true,"region":"us-central","cc":"us","latitude":32.779167,"longitude":-96.80889,"reserved":0,"last_update":"0001-01-01T00:00:00Z","name_a2s":"Uncletopia | Dallas | 2 | All Maps","protocol":17,"map":"cp_process_final","folder":"tf","game":"Team Fortress","app_id":440,"player_count":23,"max_players":24,"Bots":0,"server_type":"Dedicated","server_os":"Linux","password":true,"vac":true,"version":"7757534","steam_id":85568392924469988,"keywords":["cp","nocrits","nodmgspread","uncletopia"],"game_id":440,"stv_port":27026,"stv_name":"Uncletopia | Dallas | 2 | All Maps | STV","players":[{"user_id":533,"name":"sunny","steam_id":76561198069380992,"connected_time":986000000000,"state":"active","ping":55},{"user_id":541,"name":"The Pope","steam_id":76561198313560302,"connected_time":103000000000,"state":"active","ping":60},{"user_id":467,"name":"Will drop for money","steam_id":76561199047187302,"connected_time":5037000000000,"state":"active","ping":71},{"user_id":519,"name":"DoctorDrew","steam_id":76561197962400538,"connected_time":2248000000000,"state":"active","ping":90},{"user_id":510,"name":"Treeckogeek","steam_id":76561198453328078,"connected_time":2829000000000,"state":"active","ping":73},{"user_id":538,"name":"bolainassr0","steam_id":76561199079078845,"connected_time":506000000000,"state":"active","ping":113},{"user_id":544,"name":"Thingy","steam_id":76561198140161202,"connected_time":64000000000,"state":"active","ping":85},{"user_id":536,"name":"bo scrungulus","steam_id":76561198038036122,"connected_time":687000000000,"state":"active","ping":64},{"user_id":535,"name":"Ghaeril","steam_id":76561198047880019,"connected_time":746000000000,"state":"active","ping":57},{"user_id":545,"name":"Granlet","steam_id":76561199244312225,"connected_time":46000000000,"state":"active","ping":94},{"user_id":479,"name":"Recursive Gamer","steam_id":76561198042102952,"connected_time":4586000000000,"state":"active","ping":88},{"user_id":461,"name":"HOLD ME crow","steam_id":76561198046802071,"connected_time":5420000000000,"state":"active","ping":54},{"user_id":468,"name":"for the king","steam_id":76561197973488858,"connected_time":5034000000000,"state":"active","ping":73},{"user_id":546,"name":"Jam Jams","steam_id":76561198128811267,"connected_time":37000000000,"state":"active","ping":118},{"user_id":547,"name":"Jin Mu-Won","steam_id":76561198414122318,"connected_time":31000000000,"state":"active","ping":81},{"user_id":500,"name":"DededeMain | trade.tf","steam_id":76561198310951632,"connected_time":3523000000000,"state":"active","ping":110},{"user_id":521,"name":"Bob Sapp","steam_id":76561197980254440,"connected_time":2233000000000,"state":"active","ping":84},{"user_id":548,"name":"BigBubble42","steam_id":76561198136286123,"connected_time":15000000000,"state":"spawning","ping":132},{"user_id":434,"name":"plink","steam_id":76561198057829889,"connected_time":7555000000000,"state":"active","ping":77},{"user_id":401,"name":"mkl","steam_id":76561197986401685,"connected_time":11854000000000,"state":"active","ping":58},{"user_id":540,"name":"Yakul","steam_id":76561198100040013,"connected_time":305000000000,"state":"active","ping":104},{"user_id":532,"name":"iluvtoust","steam_id":76561198869269207,"connected_time":1032000000000,"state":"active","ping":55},{"user_id":509,"name":"Beantama","steam_id":76561198986811476,"connected_time":2938000000000,"state":"active","ping":59}]},{"server_id":5,"name":"Uncletopia | Frankfurt | 1 | All Maps","name_short":"frk-1","host":"frk-1.de.uncletopia.com","port":27015,"enabled":true,"region":"eu","cc":"de","latitude":50.110924,"longitude":8.682127,"reserved":0,"last_update":"0001-01-01T00:00:00Z","name_a2s":"Uncletopia | Frankfurt | 1 | All Maps","protocol":17,"map":"pl_borneo","folder":"tf","game":"Team Fortress","app_id":440,"player_count":0,"max_players":24,"Bots":0,"server_type":"Dedicated","server_os":"Linux","password":true,"vac":true,"version":"7757534","steam_id":85568392924469989,"keywords":["nocrits","nodmgspread","payload","uncletopia"],"game_id":440,"stv_port":27016,"stv_name":"Uncletopia | Frankfurt | 1 | All Maps | STV","players":null},{"server_id":110,"name":"Uncletopia | Frankfurt | 2 | All Maps","name_short":"frk-2","host":"frk-1.de.uncletopia.com","port":27025,"enabled":true,"region":"eu","cc":"de","latitude":50.110924,"longitude":8.682127,"reserved":0,"last_update":"0001-01-01T00:00:00Z","name_a2s":"Uncletopia | Frankfurt | 2 | All Maps","protocol":17,"map":"pl_frontier_final","folder":"tf","game":"Team Fortress","app_id":440,"player_count":0,"max_players":24,"Bots":0,"server_type":"Dedicated","server_os":"Linux","password":true,"vac":true,"version":"7757534","steam_id":85568392924469990,"keywords":["nocrits","nodmgspread","payload","uncletopia"],"game_id":440,"stv_port":27026,"stv_name":"Uncletopia | Frankfurt | 2 | All Maps | STV","players":null},{"server_id":308,"name":"Uncletopia | Frankfurt | 3 | All Maps","name_short":"frk-3","host":"frk-1.de.uncletopia.com","port":27035,"enabled":true,"region":"eu","cc":"de","latitude":50.110924,"longitude":8.682127,"reserved":0,"last_update":"0001-01-01T00:00:00Z","name_a2s":"Uncletopia | Frankfurt | 3 | All Maps","protocol":17,"map":"pl_barnblitz","folder":"tf","game":"Team Fortress","app_id":440,"player_count":0,"max_players":24,"Bots":0,"server_type":"Dedicated","server_os":"Linux","password":true,"vac":true,"version":"7757534","steam_id":85568392924504274,"keywords":["nocrits","nodmgspread","payload","uncletopia"],"game_id":440,"stv_port":27036,"stv_name":"Uncletopia | Frankfurt | 3 | All Maps | STV","players":null},{"server_id":309,"name":"Uncletopia | Frankfurt | 4 | All Maps","name_short":"frk-4","host":"frk-1.de.uncletopia.com","port":27045,"enabled":true,"region":"eu","cc":"de","latitude":50.110924,"longitude":8.682127,"reserved":0,"last_update":"0001-01-01T00:00:00Z","name_a2s":"Uncletopia | Frankfurt | 4 | All Maps","protocol":17,"map":"cp_altitude","folder":"tf","game":"Team Fortress","app_id":440,"player_count":0,"max_players":24,"Bots":0,"server_type":"Dedicated","server_os":"Linux","password":true,"vac":true,"version":"7757534","steam_id":85568392924504275,"keywords":["cp","nocrits","nodmgspread","uncletopia"],"game_id":440,"stv_port":27046,"stv_name":"Uncletopia | Frankfurt | 4 | All Maps | STV","players":null},{"server_id":310,"name":"Uncletopia | Frankfurt | 5 | All Maps","name_short":"frk-5","host":"frk-1.de.uncletopia.com","port":27055,"enabled":true,"region":"eu","cc":"de","latitude":50.110924,"longitude":8.682127,"reserved":0,"last_update":"0001-01-01T00:00:00Z","name_a2s":"Uncletopia | Frankfurt | 5 | All Maps","protocol":17,"map":"koth_cascade","folder":"tf","game":"Team Fortress","app_id":440,"player_count":0,"max_players":24,"Bots":0,"server_type":"Dedicated","server_os":"Linux","password":true,"vac":true,"version":"7757534","steam_id":85568392924504277,"keywords":["cp","nocrits","nodmgspread","uncletopia"],"game_id":440,"stv_port":27056,"stv_name":"Uncletopia | Frankfurt | 5 | All Maps | STV","players":null},{"server_id":311,"name":"Uncletopia | Frankfurt | 6 | All Maps","name_short":"frk-6","host":"frk-1.de.uncletopia.com","port":27065,"enabled":true,"region":"eu","cc":"de","latitude":50.110924,"longitude":8.682127,"reserved":0,"last_update":"0001-01-01T00:00:00Z","name_a2s":"Uncletopia | Frankfurt | 6 | All Maps","protocol":17,"map":"koth_highpass","folder":"tf","game":"Team Fortress","app_id":440,"player_count":0,"max_players":24,"Bots":0,"server_type":"Dedicated","server_os":"Linux","password":true,"vac":true,"version":"7757534","steam_id":85568392924504278,"keywords":["cp","nocrits","nodmgspread","uncletopia"],"game_id":440,"stv_port":27066,"stv_name":"Uncletopia | Frankfurt | 6 | All Maps | STV","players":null},{"server_id":23,"name":"Uncletopia | Frankfurt | 7 | Stopwatch Beta","name_short":"frk-7","host":"frk-1.de.uncletopia.com","port":27075,"enabled":true,"region":"eu","cc":"de","latitude":50.110924,"longitude":8.682127,"reserved":0,"last_update":"0001-01-01T00:00:00Z","name_a2s":"Uncletopia | Frankfurt | 7 | Stopwatch Beta","protocol":17,"map":"workshop/cp_process_f12.ugc2302948105","folder":"tf","game":"Team Fortress","app_id":440,"player_count":0,"max_players":24,"Bots":0,"server_type":"Dedicated","server_os":"Linux","password":true,"vac":true,"version":"7757534","steam_id":85568392924742827,"keywords":["cp","nocrits","nodmgspread","uncletopia"],"game_id":440,"stv_port":27076,"stv_name":"Uncletopia | Frankfurt | 7 | Stopwatch Beta | STV","players":null},{"server_id":24,"name":"Uncletopia | Frankfurt | 8 | Community","name_short":"frk-8","host":"frk-1.de.uncletopia.com","port":27085,"enabled":true,"region":"eu","cc":"de","latitude":50.110924,"longitude":8.682127,"reserved":0,"last_update":"0001-01-01T00:00:00Z","name_a2s":"Uncletopia | Frankfurt | 8 | Community","protocol":17,"map":"workshop/pl_fifthcurve_rc1.ugc648227046","folder":"tf","game":"Team Fortress","app_id":440,"player_count":0,"max_players":24,"Bots":0,"server_type":"Dedicated","server_os":"Linux","password":true,"vac":true,"version":"7757534","steam_id":85568392924742828,"keywords":["nocrits","nodmgspread","payload","uncletopia"],"game_id":440,"stv_port":27086,"stv_name":"Uncletopia | Frankfurt | 8 | Community | STV","players":null},{"server_id":202,"name":"Uncletopia | Hong Kong | 1 | All Maps","name_short":"hgk-1","host":"hgk-1.hk.uncletopia.com","port":27015,"enabled":true,"region":"asia","cc":"hk","latitude":22.302711,"longitude":114.177216,"reserved":0,"last_update":"0001-01-01T00:00:00Z","name_a2s":"Uncletopia | Hong Kong | 1 | All Maps","protocol":17,"map":"pl_borneo","folder":"tf","game":"Team Fortress","app_id":440,"player_count":0,"max_players":24,"Bots":0,"server_type":"Dedicated","server_os":"Linux","password":true,"vac":true,"version":"7757534","steam_id":85568392924494504,"keywords":["nocrits","nodmgspread","payload","uncletopia"],"game_id":440,"stv_port":27016,"stv_name":"Uncletopia | Hong Kong | 1 | All Maps | STV","players":null},{"server_id":1,"name":"Uncletopia | Los Angeles | 1 | All Maps","name_short":"lax-1","host":"lax-1.us.uncletopia.com","port":27015,"enabled":true,"region":"us-west","cc":"us","latitude":33.94279,"longitude":-118.41004,"reserved":0,"last_update":"0001-01-01T00:00:00Z","name_a2s":"Uncletopia | Los Angeles | 1 | All Maps","protocol":17,"map":"pl_frontier_final","folder":"tf","game":"Team Fortress","app_id":440,"player_count":24,"max_players":24,"Bots":0,"server_type":"Dedicated","server_os":"Linux","password":true,"vac":true,"version":"7757534","steam_id":85568392924469991,"keywords":["nocrits","nodmgspread","payload","uncletopia"],"game_id":440,"stv_port":27016,"stv_name":"Uncletopia | Los Angeles | 1 | All Maps | STV","players":[{"user_id":328,"name":"i cant aim","steam_id":76561198065873462,"connected_time":3610000000000,"state":"active","ping":47},{"user_id":339,"name":"gretchling","steam_id":76561198046111695,"connected_time":2537000000000,"state":"active","ping":74},{"user_id":276,"name":"Apprentice Pybro","steam_id":76561197996353534,"connected_time":8013000000000,"state":"active","ping":53},{"user_id":347,"name":"MeltedToast","steam_id":76561198831148092,"connected_time":1061000000000,"state":"active","ping":69},{"user_id":349,"name":"Bobby Ray","steam_id":76561198044131188,"connected_time":998000000000,"state":"active","ping":82},{"user_id":360,"name":"dr.sex","steam_id":76561198218497904,"connected_time":672000000000,"state":"active","ping":97},{"user_id":350,"name":"BananaFana","steam_id":76561198008891875,"connected_time":932000000000,"state":"active","ping":52},{"user_id":341,"name":"Rage Pyro","steam_id":76561197998285726,"connected_time":2490000000000,"state":"active","ping":124},{"user_id":266,"name":"cunt","steam_id":76561198118644686,"connected_time":8553000000000,"state":"active","ping":56},{"user_id":351,"name":"vera","steam_id":76561198318851246,"connected_time":868000000000,"state":"active","ping":55},{"user_id":352,"name":"thunderous prophet","steam_id":76561198131166135,"connected_time":856000000000,"state":"active","ping":60},{"user_id":362,"name":"free the comish","steam_id":76561198169755734,"connected_time":303000000000,"state":"active","ping":52},{"user_id":359,"name":"The Dumptruck of Notre-Dame","steam_id":76561198004815026,"connected_time":765000000000,"state":"active","ping":48},{"user_id":353,"name":"||:‚ô©‚ô©‚ô©‚ô™:|| Opplydead","steam_id":76561198028630334,"connected_time":854000000000,"state":"active","ping":51},{"user_id":354,"name":"Finder","steam_id":76561198056256571,"connected_time":853000000000,"state":"active","ping":75},{"user_id":330,"name":"charley","steam_id":76561198828238339,"connected_time":3587000000000,"state":"active","ping":79},{"user_id":355,"name":"NEBULA","steam_id":76561198086878595,"connected_time":851000000000,"state":"active","ping":66},{"user_id":356,"name":"the hunchback of gay paris","steam_id":76561197987056308,"connected_time":848000000000,"state":"active","ping":57},{"user_id":357,"name":"SwordBreaker","steam_id":76561199135564076,"connected_time":817000000000,"state":"active","ping":55},{"user_id":363,"name":"Teh Pug","steam_id":76561198085810161,"connected_time":245000000000,"state":"active","ping":49},{"user_id":364,"name":"Florist","steam_id":76561198009121060,"connected_time":36000000000,"state":"active","ping":82},{"user_id":344,"name":"Col Ngohk","steam_id":76561198241643372,"connected_time":2104000000000,"state":"active","ping":64},{"user_id":346,"name":"kaix","steam_id":76561198352768542,"connected_time":1072000000000,"state":"active","ping":56},{"user_id":304,"name":"Saggle","steam_id":76561198056075147,"connected_time":5560000000000,"state":"active","ping":186}]},{"server_id":112,"name":"Uncletopia | Los Angeles | 2 | All Maps","name_short":"lax-2","host":"lax-1.us.uncletopia.com","port":27025,"enabled":true,"region":"us-west","cc":"us","latitude":33.94279,"longitude":-118.41004,"reserved":0,"last_update":"0001-01-01T00:00:00Z","name_a2s":"Uncletopia | Los Angeles | 2 | All Maps","protocol":17,"map":"cp_dustbowl","folder":"tf","game":"Team Fortress","app_id":440,"player_count":24,"max_players":24,"Bots":0,"server_type":"Dedicated","server_os":"Linux","password":true,"vac":true,"version":"7757534","steam_id":85568392924469992,"keywords":["cp","nocrits","nodmgspread","uncletopia"],"game_id":440,"stv_port":27026,"stv_name":"Uncletopia | Los Angeles | 2 | All Maps | STV","players":[{"user_id":547,"name":"EduardoLopez2005","steam_id":76561198188481309,"connected_time":1932000000000,"state":"active","ping":56},{"user_id":550,"name":"TeriyakiDynamite","steam_id":76561198050049346,"connected_time":1450000000000,"state":"active","ping":59},{"user_id":557,"name":"dooooooooooooooooooooooood","steam_id":76561198319442494,"connected_time":1294000000000,"state":"active","ping":55},{"user_id":529,"name":"it's peanut time","steam_id":76561198236028020,"connected_time":3412000000000,"state":"active","ping":139},{"user_id":538,"name":"GJDon","steam_id":76561199026755019,"connected_time":2586000000000,"state":"active","ping":98},{"user_id":515,"name":"eau:","steam_id":76561198110020262,"connected_time":3911000000000,"state":"active","ping":34},{"user_id":571,"name":"anal","steam_id":76561199367398829,"connected_time":166000000000,"state":"active","ping":166},{"user_id":570,"name":"lazybones21","steam_id":76561198994854327,"connected_time":180000000000,"state":"active","ping":75},{"user_id":561,"name":"ordinaryJoe","steam_id":76561198139822390,"connected_time":794000000000,"state":"active","ping":54},{"user_id":546,"name":"cass","steam_id":76561198074502046,"connected_time":1955000000000,"state":"active","ping":103},{"user_id":562,"name":"Sgt. Satire","steam_id":76561198104193483,"connected_time":778000000000,"state":"active","ping":66},{"user_id":563,"name":"epicgameslauncherplaer878","steam_id":76561198360279519,"connected_time":772000000000,"state":"active","ping":74},{"user_id":496,"name":"Acto","steam_id":76561198043025164,"connected_time":4422000000000,"state":"active","ping":87},{"user_id":572,"name":"pizzasam","steam_id":76561197972511201,"connected_time":161000000000,"state":"active","ping":89},{"user_id":497,"name":"Floaty","steam_id":76561198100029503,"connected_time":4414000000000,"state":"active","ping":85},{"user_id":564,"name":"Mike Bean Burritos","steam_id":76561198173430607,"connected_time":756000000000,"state":"active","ping":79},{"user_id":559,"name":"DOPEam1ne","steam_id":76561198112204774,"connected_time":995000000000,"state":"active","ping":58},{"user_id":569,"name":"Slim Charles","steam_id":76561197981687895,"connected_time":305000000000,"state":"active","ping":60},{"user_id":535,"name":"AmpeRSams","steam_id":76561198858822986,"connected_time":2755000000000,"state":"active","ping":59},{"user_id":565,"name":"ChocoCrispChunks","steam_id":76561198881926539,"connected_time":698000000000,"state":"active","ping":55},{"user_id":555,"name":"jadesouledout","steam_id":76561198866936507,"connected_time":1417000000000,"state":"active","ping":51},{"user_id":549,"name":"Squatter1","steam_id":76561198078987734,"connected_time":1507000000000,"state":"active","ping":71},{"user_id":542,"name":"Jack Horner in a F-16","steam_id":76561198062438923,"connected_time":2438000000000,"state":"active","ping":88},{"user_id":543,"name":"GlistenCrab","steam_id":76561198096910817,"connected_time":2416000000000,"state":"active","ping":54}]},{"server_id":324,"name":"Uncletopia | Los Angeles | 3 | All Maps","name_short":"lax-3","host":"lax-1.us.uncletopia.com","port":27035,"enabled":true,"region":"us-west","cc":"us","latitude":33.94279,"longitude":-118.41004,"reserved":0,"last_update":"0001-01-01T00:00:00Z","name_a2s":"Uncletopia | Los Angeles | 3 | All Maps","protocol":17,"map":"koth_lakeside_final","folder":"tf","game":"Team Fortress","app_id":440,"player_count":24,"max_players":24,"Bots":0,"server_type":"Dedicated","server_os":"Linux","password":true,"vac":true,"version":"7757534","steam_id":85568392924510198,"keywords":["cp","nocrits","nodmgspread","uncletopia"],"game_id":440,"stv_port":27036,"stv_name":"Uncletopia | Los Angeles | 3 | All Maps | STV","players":[{"user_id":501,"name":"DonoC","steam_id":76561198274473338,"connected_time":245000000000,"state":"active","ping":89},{"user_id":496,"name":"roach","steam_id":76561198354811369,"connected_time":612000000000,"state":"active","ping":47},{"user_id":498,"name":"shadowbunz","steam_id":76561198064484797,"connected_time":392000000000,"state":"active","ping":88},{"user_id":485,"name":"Jankyo","steam_id":76561198083339492,"connected_time":1278000000000,"state":"active","ping":110},{"user_id":483,"name":"Crazy Hungarian","steam_id":76561198025498172,"connected_time":1399000000000,"state":"active","ping":75},{"user_id":469,"name":"Dynamo","steam_id":76561198057875639,"connected_time":2699000000000,"state":"active","ping":60},{"user_id":477,"name":"M9 Shyamalan","steam_id":76561198149425560,"connected_time":1727000000000,"state":"active","ping":88},{"user_id":491,"name":"armpit fetishist","steam_id":76561199008452637,"connected_time":1165000000000,"state":"active","ping":60},{"user_id":499,"name":"Scoperaider","steam_id":76561199068449848,"connected_time":339000000000,"state":"active","ping":50},{"user_id":461,"name":"Atrix","steam_id":76561198084930312,"connected_time":2827000000000,"state":"active","ping":53},{"user_id":343,"name":"momus","steam_id":76561198966979196,"connected_time":9853000000000,"state":"active","ping":51},{"user_id":452,"name":"ANIME-GOD","steam_id":76561198815077196,"connected_time":3147000000000,"state":"active","ping":131},{"user_id":502,"name":"John Wick's puppy","steam_id":76561198064662875,"connected_time":230000000000,"state":"active","ping":53},{"user_id":486,"name":"samantha","steam_id":76561198299290069,"connected_time":1264000000000,"state":"active","ping":67},{"user_id":479,"name":"FI LO","steam_id":76561198976530881,"connected_time":1663000000000,"state":"active","ping":44},{"user_id":424,"name":"meth","steam_id":76561198118715586,"connected_time":5864000000000,"state":"active","ping":105},{"user_id":426,"name":"Landlord","steam_id":76561198987913057,"connected_time":5654000000000,"state":"active","ping":85},{"user_id":453,"name":"ROGUE-PLANET","steam_id":76561198116023052,"connected_time":3138000000000,"state":"active","ping":86},{"user_id":489,"name":"Dumgum","steam_id":76561198044960992,"connected_time":1235000000000,"state":"active","ping":100},{"user_id":500,"name":"Snailbarf","steam_id":76561197993545268,"connected_time":330000000000,"state":"active","ping":61},{"user_id":481,"name":"Raphael","steam_id":76561198101425586,"connected_time":1657000000000,"state":"active","ping":85},{"user_id":497,"name":"nothowon","steam_id":76561198937601452,"connected_time":610000000000,"state":"active","ping":106},{"user_id":503,"name":"‚ú™ Y V E S","steam_id":76561198299479796,"connected_time":194000000000,"state":"active","ping":45},{"user_id":504,"name":"weed","steam_id":76561199128192017,"connected_time":96000000000,"state":"active","ping":85}]},{"server_id":25,"name":"Uncletopia | Los Angeles | 4 | Stopwatch Beta","name_short":"lax-4","host":"lax-1.us.uncletopia.com","port":27045,"enabled":true,"region":"us-west","cc":"us","latitude":33.94279,"longitude":-118.41004,"reserved":0,"last_update":"0001-01-01T00:00:00Z","name_a2s":"Uncletopia | Los Angeles | 4 | Stopwatch Beta","protocol":17,"map":"workshop/cp_reckoner_rc6.ugc674719999","folder":"tf","game":"Team Fortress","app_id":440,"player_count":4,"max_players":24,"Bots":0,"server_type":"Dedicated","server_os":"Linux","password":true,"vac":true,"version":"7757534","steam_id":85568392924510199,"keywords":["cp","nocrits","nodmgspread","uncletopia"],"game_id":440,"stv_port":27046,"stv_name":"Uncletopia | Los Angeles | 4 | Stopwatch Beta | STV","players":[{"user_id":54,"name":"berserker_tf2 yt","steam_id":76561198303464488,"connected_time":112000000000,"state":"active","ping":67},{"user_id":21,"name":"Clifford Banes","steam_id":76561198145921847,"connected_time":2471000000000,"state":"active","ping":74},{"user_id":22,"name":"Bassman","steam_id":76561198061335030,"connected_time":2456000000000,"state":"active","ping":78},{"user_id":25,"name":"Bryant Moreland banditcamp.com","steam_id":76561198927045155,"connected_time":2191000000000,"state":"active","ping":66}]},{"server_id":11,"name":"Uncletopia | London | 1 | All Maps","name_short":"lon-1","host":"lon-1.uk.uncletopia.com","port":27015,"enabled":true,"region":"eu","cc":"gb","latitude":51.509865,"longitude":-0.118092,"reserved":0,"last_update":"0001-01-01T00:00:00Z","name_a2s":"Uncletopia | London | 1 | All Maps","protocol":17,"map":"koth_highpass","folder":"tf","game":"Team Fortress","app_id":440,"player_count":0,"max_players":24,"Bots":0,"server_type":"Dedicated","server_os":"Linux","password":true,"vac":true,"version":"7757534","steam_id":85568392924367362,"keywords":["cp","nocrits","nodmgspread","uncletopia"],"game_id":440,"stv_port":27016,"stv_name":"Uncletopia | London | 1 | All Maps | STV","players":null},{"server_id":114,"name":"Uncletopia | London | 2 | All Maps","name_short":"lon-2","host":"lon-1.uk.uncletopia.com","port":27025,"enabled":true,"region":"eu","cc":"gb","latitude":51.509865,"longitude":-0.118092,"reserved":0,"last_update":"0001-01-01T00:00:00Z","name_a2s":"Uncletopia | London | 2 | All Maps","protocol":17,"map":"koth_cascade","folder":"tf","game":"Team Fortress","app_id":440,"player_count":0,"max_players":24,"Bots":0,"server_type":"Dedicated","server_os":"Linux","password":true,"vac":true,"version":"7757534","steam_id":85568392924470941,"keywords":["cp","nocrits","nodmgspread","uncletopia"],"game_id":440,"stv_port":27026,"stv_name":"Uncletopia | London | 2 | All Maps | STV","players":null},{"server_id":320,"name":"Uncletopia | London | 3 | All Maps","name_short":"lon-3","host":"lon-1.uk.uncletopia.com","port":27035,"enabled":true,"region":"eu","cc":"gb","latitude":51.509865,"longitude":-0.118092,"reserved":0,"last_update":"0001-01-01T00:00:00Z","name_a2s":"Uncletopia | London | 3 | All Maps","protocol":17,"map":"cp_dustbowl","folder":"tf","game":"Team Fortress","app_id":440,"player_count":21,"max_players":24,"Bots":0,"server_type":"Dedicated","server_os":"Linux","password":true,"vac":true,"version":"7757534","steam_id":85568392924510192,"keywords":["cp","nocrits","nodmgspread","uncletopia"],"game_id":440,"stv_port":27036,"stv_name":"Uncletopia | London | 3 | All Maps | STV","players":[{"user_id":1046,"name":"OweMeOneCannoli","steam_id":76561198040946676,"connected_time":1028000000000,"state":"active","ping":71},{"user_id":1062,"name":"A Shiny Meat Bicycle","steam_id":76561198358757709,"connected_time":58000000000,"state":"active","ping":166},{"user_id":1015,"name":"Psyche","steam_id":76561198091662001,"connected_time":3924000000000,"state":"active","ping":119},{"user_id":1063,"name":"lawn","steam_id":76561198001243486,"connected_time":50000000000,"state":"active","ping":45},{"user_id":1060,"name":"Acbh","steam_id":76561198158271672,"connected_time":176000000000,"state":"active","ping":66},{"user_id":1048,"name":"SeanBrut","steam_id":76561198189997883,"connected_time":978000000000,"state":"active","ping":149},{"user_id":1042,"name":"prosto crabic","steam_id":76561198294473783,"connected_time":1320000000000,"state":"active","ping":121},{"user_id":1044,"name":"t√Øger","steam_id":76561198260483157,"connected_time":1081000000000,"state":"active","ping":81},{"user_id":1049,"name":"ZTa","steam_id":76561198398367831,"connected_time":969000000000,"state":"active","ping":149},{"user_id":946,"name":"m√∂","steam_id":76561198061197114,"connected_time":8419000000000,"state":"active","ping":80},{"user_id":964,"name":"rozen","steam_id":76561198119167317,"connected_time":7295000000000,"state":"active","ping":50},{"user_id":1045,"name":"Aillo Tusk","steam_id":76561198091945895,"connected_time":1055000000000,"state":"active","ping":81},{"user_id":1028,"name":"s .-word","steam_id":76561198060849026,"connected_time":2528000000000,"state":"active","ping":79},{"user_id":1050,"name":"Krinkus","steam_id":76561198861579279,"connected_time":923000000000,"state":"active","ping":113},{"user_id":1051,"name":"Souris Marine","steam_id":76561199143334415,"connected_time":870000000000,"state":"active","ping":59},{"user_id":1052,"name":"Scrooge Mc Clunk","steam_id":76561198885945084,"connected_time":855000000000,"state":"active","ping":65},{"user_id":1061,"name":"Bayo","steam_id":76561198098419588,"connected_time":149000000000,"state":"active","ping":52},{"user_id":1025,"name":":D","steam_id":76561198062075870,"connected_time":2941000000000,"state":"active","ping":73},{"user_id":1002,"name":"Killing","steam_id":76561198107392931,"connected_time":5030000000000,"state":"active","ping":34},{"user_id":1014,"name":"0000000000000","steam_id":76561198321455274,"connected_time":4101000000000,"state":"active","ping":126},{"user_id":1024,"name":"cooler bones","steam_id":76561199480942903,"connected_time":3093000000000,"state":"active","ping":76}]},{"server_id":321,"name":"Uncletopia | London | 4 | All Maps","name_short":"lon-4","host":"lon-1.uk.uncletopia.com","port":27045,"enabled":true,"region":"eu","cc":"gb","latitude":51.509865,"longitude":-0.118092,"reserved":0,"last_update":"0001-01-01T00:00:00Z","name_a2s":"Uncletopia | London | 4 | All Maps","protocol":17,"map":"koth_cascade","folder":"tf","game":"Team Fortress","app_id":440,"player_count":0,"max_players":24,"Bots":0,"server_type":"Dedicated","server_os":"Linux","password":true,"vac":true,"version":"7757534","steam_id":85568392924510193,"keywords":["cp","nocrits","nodmgspread","uncletopia"],"game_id":440,"stv_port":27046,"stv_name":"Uncletopia | London | 4 | All Maps | STV","players":null},{"server_id":21,"name":"Uncletopia | London | 5 | All Maps","name_short":"lon-5","host":"lon-1.uk.uncletopia.com","port":27055,"enabled":true,"region":"eu","cc":"gb","latitude":51.509865,"longitude":-0.118092,"reserved":0,"last_update":"0001-01-01T00:00:00Z","name_a2s":"Uncletopia | London | 5 | All Maps","protocol":17,"map":"pl_badwater","folder":"tf","game":"Team Fortress","app_id":440,"player_count":0,"max_players":24,"Bots":0,"server_type":"Dedicated","server_os":"Linux","password":true,"vac":true,"version":"7757534","steam_id":85568392924742829,"keywords":["nocrits","nodmgspread","payload","uncletopia"],"game_id":440,"stv_port":27056,"stv_name":"Uncletopia | London | 5 | All Maps | STV","players":null},{"server_id":22,"name":"Uncletopia | London | 6 | All Maps","name_short":"lon-6","host":"lon-1.uk.uncletopia.com","port":27065,"enabled":true,"region":"eu","cc":"gb","latitude":51.509865,"longitude":-0.118092,"reserved":0,"last_update":"0001-01-01T00:00:00Z","name_a2s":"Uncletopia | London | 6 | All Maps","protocol":17,"map":"koth_cascade","folder":"tf","game":"Team Fortress","app_id":440,"player_count":0,"max_players":24,"Bots":0,"server_type":"Dedicated","server_os":"Linux","password":true,"vac":true,"version":"7757534","steam_id":85568392924742830,"keywords":["cp","nocrits","nodmgspread","uncletopia"],"game_id":440,"stv_port":27066,"stv_name":"Uncletopia | London | 6 | All Maps | STV","players":null},{"server_id":40,"name":"Uncletopia | London | 7 | No Payload","name_short":"lon-7","host":"lon-1.uk.uncletopia.com","port":27075,"enabled":true,"region":"eu","cc":"gb","latitude":51.509865,"longitude":-0.118092,"reserved":0,"last_update":"0001-01-01T00:00:00Z","name_a2s":"Uncletopia | London | 7 | No Payload","protocol":17,"map":"koth_lazarus","folder":"tf","game":"Team Fortress","app_id":440,"player_count":0,"max_players":24,"Bots":0,"server_type":"Dedicated","server_os":"Linux","password":true,"vac":true,"version":"7757534","steam_id":85568392924964314,"keywords":["cp","nocrits","nodmgspread","uncletopia"],"game_id":440,"stv_port":27076,"stv_name":"Uncletopia | London | 7 | No Payload | STV","players":null},{"server_id":41,"name":"Uncletopia | London | 8 | Community","name_short":"lon-8","host":"lon-1.uk.uncletopia.com","port":27085,"enabled":true,"region":"eu","cc":"gb","latitude":51.509865,"longitude":-0.118092,"reserved":0,"last_update":"0001-01-01T00:00:00Z","name_a2s":"Uncletopia | London | 8 | Community","protocol":17,"map":"workshop/koth_ashville_final.ugc2130459942","folder":"tf","game":"Team Fortress","app_id":440,"player_count":0,"max_players":24,"Bots":0,"server_type":"Dedicated","server_os":"Linux","password":true,"vac":true,"version":"7757534","steam_id":85568392924964315,"keywords":["cp","nocrits","nodmgspread","uncletopia"],"game_id":440,"stv_port":27086,"stv_name":"Uncletopia | London | 8 | Community | STV","players":null},{"server_id":300,"name":"Uncletopia | Montr√©al | 1 | All Maps","name_short":"mtl-1","host":"mtl-1.ca.uncletopia.com","port":27015,"enabled":true,"region":"us-east","cc":"ca","latitude":45.50889,"longitude":-73.56167,"reserved":0,"last_update":"0001-01-01T00:00:00Z","name_a2s":"Uncletopia | Montr√©al | 1 | All Maps","protocol":17,"map":"koth_cascade","folder":"tf","game":"Team Fortress","app_id":440,"player_count":0,"max_players":24,"Bots":0,"server_type":"Dedicated","server_os":"Linux","password":true,"vac":true,"version":"7757534","steam_id":85568392924500087,"keywords":["cp","nocrits","nodmgspread","uncletopia"],"game_id":440,"stv_port":27016,"stv_name":"Uncletopia | Montr√©al | 1 | All Maps | STV","players":null},{"server_id":301,"name":"Uncletopia | Montr√©al | 2 | All Maps","name_short":"mtl-2","host":"mtl-1.ca.uncletopia.com","port":27025,"enabled":true,"region":"us-east","cc":"ca","latitude":45.50889,"longitude":-73.56167,"reserved":0,"last_update":"0001-01-01T00:00:00Z","name_a2s":"Uncletopia | Montr√©al | 2 | All Maps","protocol":17,"map":"cp_dustbowl","folder":"tf","game":"Team Fortress","app_id":440,"player_count":1,"max_players":24,"Bots":0,"server_type":"Dedicated","server_os":"Linux","password":true,"vac":true,"version":"7757534","steam_id":85568392924500088,"keywords":["cp","nocrits","nodmgspread","uncletopia"],"game_id":440,"stv_port":27026,"stv_name":"Uncletopia | Montr√©al | 2 | All Maps | STV","players":[{"user_id":27,"name":"Sandvichgames","steam_id":76561199106118824,"connected_time":355000000000,"state":"active","ping":132}]},{"server_id":302,"name":"Uncletopia | Montr√©al | 3 | All Maps","name_short":"mtl-3","host":"mtl-1.ca.uncletopia.com","port":27035,"enabled":true,"region":"us-east","cc":"ca","latitude":45.50889,"longitude":-73.56167,"reserved":0,"last_update":"0001-01-01T00:00:00Z","name_a2s":"Uncletopia | Montr√©al | 3 | All Maps","protocol":17,"map":"koth_cascade","folder":"tf","game":"Team Fortress","app_id":440,"player_count":0,"max_players":24,"Bots":0,"server_type":"Dedicated","server_os":"Linux","password":true,"vac":true,"version":"7757534","steam_id":85568392924500089,"keywords":["cp","nocrits","nodmgspread","uncletopia"],"game_id":440,"stv_port":27036,"stv_name":"Uncletopia | Montr√©al | 3 | All Maps | STV","players":null},{"server_id":303,"name":"Uncletopia | Montr√©al | 4 | No Payload","name_short":"mtl-4","host":"mtl-1.ca.uncletopia.com","port":27045,"enabled":true,"region":"us-east","cc":"ca","latitude":45.50889,"longitude":-73.56167,"reserved":0,"last_update":"0001-01-01T00:00:00Z","name_a2s":"Uncletopia | Montr√©al | 4 | No Payload","protocol":17,"map":"cp_mountainlab","folder":"tf","game":"Team Fortress","app_id":440,"player_count":0,"max_players":24,"Bots":0,"server_type":"Dedicated","server_os":"Linux","password":true,"vac":true,"version":"7757534","steam_id":85568392924500090,"keywords":["cp","nocrits","nodmgspread","uncletopia"],"game_id":440,"stv_port":27046,"stv_name":"Uncletopia | Montr√©al | 4 | No Payload | STV","players":null},{"server_id":13,"name":"Uncletopia | New York City | 1 | All Maps","name_short":"nyc-1","host":"nyc-1.us.uncletopia.com","port":27015,"enabled":true,"region":"us-east","cc":"us","latitude":40.73061,"longitude":-73.93524,"reserved":0,"last_update":"0001-01-01T00:00:00Z","name_a2s":"Uncletopia | New York City | 1 | All Maps","protocol":17,"map":"plr_nightfall_final","folder":"tf","game":"Team Fortress","app_id":440,"player_count":24,"max_players":24,"Bots":0,"server_type":"Dedicated","server_os":"Linux","password":true,"vac":true,"version":"7757534","steam_id":85568392924469993,"keywords":["nocrits","nodmgspread","payload","uncletopia"],"game_id":440,"stv_port":27016,"stv_name":"Uncletopia | New York City | 1 | All Maps | STV","players":[{"user_id":728,"name":"mEch114","steam_id":76561198236936060,"connected_time":436000000000,"state":"active","ping":78},{"user_id":729,"name":"Inadequate","steam_id":76561198108263810,"connected_time":385000000000,"state":"active","ping":133},{"user_id":663,"name":"Oh no","steam_id":76561198123441203,"connected_time":6672000000000,"state":"active","ping":61},{"user_id":730,"name":"Golden","steam_id":76561199128320581,"connected_time":335000000000,"state":"active","ping":116},{"user_id":717,"name":"XXSOMEDONKUSXX","steam_id":76561198377012733,"connected_time":2769000000000,"state":"active","ping":60},{"user_id":731,"name":"iceetee","steam_id":76561198156275931,"connected_time":321000000000,"state":"active","ping":59},{"user_id":719,"name":"King Sans","steam_id":76561198294198517,"connected_time":2610000000000,"state":"active","ping":40},{"user_id":732,"name":"A_NegativeDan","steam_id":76561198078993041,"connected_time":235000000000,"state":"active","ping":41},{"user_id":733,"name":"Cam","steam_id":76561198285054047,"connected_time":185000000000,"state":"active","ping":96},{"user_id":710,"name":"SippinTeaInYoHood","steam_id":76561198310944756,"connected_time":2980000000000,"state":"active","ping":45},{"user_id":713,"name":"picnic blanket","steam_id":76561198308186037,"connected_time":2927000000000,"state":"active","ping":74},{"user_id":714,"name":"RelativeTitan1 ŒªC","steam_id":76561198073717608,"connected_time":2924000000000,"state":"active","ping":95},{"user_id":718,"name":"retinz","steam_id":76561198135563495,"connected_time":2763000000000,"state":"active","ping":53},{"user_id":597,"name":"loldewdz","steam_id":76561198067562811,"connected_time":10936000000000,"state":"active","ping":61},{"user_id":734,"name":"Idiotden","steam_id":76561199340950135,"connected_time":171000000000,"state":"active","ping":115},{"user_id":723,"name":"Mr. Toontastic","steam_id":76561198092184278,"connected_time":1544000000000,"state":"active","ping":44},{"user_id":699,"name":"BACK TO THAT GUY ‚¨á","steam_id":76561198192752793,"connected_time":3429000000000,"state":"active","ping":50},{"user_id":678,"name":"Gocel","steam_id":76561198071467515,"connected_time":5791000000000,"state":"active","ping":46},{"user_id":735,"name":"Eoka Gaming","steam_id":76561198315596929,"connected_time":152000000000,"state":"active","ping":92},{"user_id":726,"name":"Thot Police","steam_id":76561198084299100,"connected_time":816000000000,"state":"active","ping":61},{"user_id":736,"name":"Monejha","steam_id":76561198023079465,"connected_time":150000000000,"state":"active","ping":100},{"user_id":706,"name":"Dr.Holiday","steam_id":76561198353465692,"connected_time":3102000000000,"state":"active","ping":63},{"user_id":737,"name":"JoCaleb02","steam_id":76561198272389829,"connected_time":149000000000,"state":"active","ping":59},{"user_id":721,"name":"Broadway Rose","steam_id":76561198046083342,"connected_time":2471000000000,"state":"active","ping":45}]},{"server_id":14,"name":"Uncletopia | New York City | 2 | All Maps","name_short":"nyc-2","host":"nyc-1.us.uncletopia.com","port":27025,"enabled":true,"region":"us-east","cc":"us","latitude":40.73061,"longitude":-73.93524,"reserved":0,"last_update":"0001-01-01T00:00:00Z","name_a2s":"Uncletopia | New York City | 2 | All Maps","protocol":17,"map":"cp_dustbowl","folder":"tf","game":"Team Fortress","app_id":440,"player_count":24,"max_players":24,"Bots":0,"server_type":"Dedicated","server_os":"Linux","password":true,"vac":true,"version":"7757534","steam_id":85568392924469994,"keywords":["cp","nocrits","nodmgspread","uncletopia"],"game_id":440,"stv_port":27026,"stv_name":"Uncletopia | New York City | 2 | All Maps | STV","players":[{"user_id":663,"name":"Roma","steam_id":76561198445634626,"connected_time":3406000000000,"state":"active","ping":91},{"user_id":677,"name":"Xpiredd","steam_id":76561198449525437,"connected_time":2543000000000,"state":"active","ping":57},{"user_id":697,"name":"^_x","steam_id":76561198986849199,"connected_time":766000000000,"state":"active","ping":134},{"user_id":658,"name":"Speedy","steam_id":76561198080761661,"connected_time":3583000000000,"state":"active","ping":61},{"user_id":692,"name":"‚ôú","steam_id":76561198232617936,"connected_time":825000000000,"state":"active","ping":75},{"user_id":694,"name":"Kirbs","steam_id":76561198970654800,"connected_time":800000000000,"state":"active","ping":46},{"user_id":665,"name":"It's FoolMoon","steam_id":76561198153344375,"connected_time":3314000000000,"state":"active","ping":46},{"user_id":703,"name":"evdoke","steam_id":76561198044555219,"connected_time":569000000000,"state":"active","ping":49},{"user_id":699,"name":"Spare(8)Ball","steam_id":76561197982432995,"connected_time":679000000000,"state":"active","ping":120},{"user_id":670,"name":"goldgardian","steam_id":76561198319471339,"connected_time":3237000000000,"state":"active","ping":93},{"user_id":634,"name":"ft. Mitk","steam_id":76561199109203558,"connected_time":6298000000000,"state":"active","ping":73},{"user_id":683,"name":"Aurro (achievement hunting)","steam_id":76561198315692300,"connected_time":2295000000000,"state":"active","ping":55},{"user_id":706,"name":"DarkThuggerOnline","steam_id":76561198040741271,"connected_time":150000000000,"state":"active","ping":45},{"user_id":705,"name":"monsterkill4567","steam_id":76561198272986367,"connected_time":427000000000,"state":"active","ping":120},{"user_id":691,"name":"Your Wurst Nightmare","steam_id":76561198874531590,"connected_time":1018000000000,"state":"active","ping":63},{"user_id":669,"name":"Bl4ckDmon","steam_id":76561198099591549,"connected_time":3275000000000,"state":"active","ping":59},{"user_id":675,"name":"Wique","steam_id":76561198071217597,"connected_time":2639000000000,"state":"active","ping":73},{"user_id":622,"name":"Bear bird","steam_id":76561198166769479,"connected_time":6843000000000,"state":"active","ping":68},{"user_id":661,"name":"Shotgun Shine","steam_id":76561199006388533,"connected_time":3510000000000,"state":"active","ping":70},{"user_id":709,"name":"elso","steam_id":76561198058209902,"connected_time":47000000000,"state":"active","ping":87},{"user_id":674,"name":"Fiendish Frog","steam_id":76561198029478821,"connected_time":2789000000000,"state":"active","ping":54},{"user_id":685,"name":"hashmap","steam_id":76561198043794014,"connected_time":2282000000000,"state":"active","ping":62},{"user_id":704,"name":"self-cannibalizing customer. \ufffd\ufffd","steam_id":76561198294013916,"connected_time":494000000000,"state":"active","ping":48},{"user_id":708,"name":"Neophyte","steam_id":76561198027183394,"connected_time":68000000000,"state":"active","ping":113}]},{"server_id":15,"name":"Uncletopia | New York City | 3 | Stopwatch Beta","name_short":"nyc-3","host":"nyc-1.us.uncletopia.com","port":27035,"enabled":true,"region":"us-east","cc":"us","latitude":40.73061,"longitude":-73.93524,"reserved":0,"last_update":"0001-01-01T00:00:00Z","name_a2s":"Uncletopia | New York City | 3 | Stopwatch Beta","protocol":17,"map":"cp_sunshine","folder":"tf","game":"Team Fortress","app_id":440,"player_count":0,"max_players":24,"Bots":0,"server_type":"Dedicated","server_os":"Linux","password":true,"vac":true,"version":"7757534","steam_id":85568392924742820,"keywords":["cp","nocrits","nodmgspread","uncletopia"],"game_id":440,"stv_port":27036,"stv_name":"Uncletopia | New York City | 3 | Stopwatch Beta | STV","players":null},{"server_id":16,"name":"Uncletopia | New York City | 4 | Community","name_short":"nyc-4","host":"nyc-1.us.uncletopia.com","port":27045,"enabled":true,"region":"us-east","cc":"us","latitude":40.73061,"longitude":-73.93524,"reserved":0,"last_update":"0001-01-01T00:00:00Z","name_a2s":"Uncletopia | New York City | 4 | Community","protocol":17,"map":"workshop/pl_cactuscanyon_redux_final2.ugc2579644293","folder":"tf","game":"Team Fortress","app_id":440,"player_count":0,"max_players":24,"Bots":0,"server_type":"Dedicated","server_os":"Linux","password":true,"vac":true,"version":"7757534","steam_id":85568392924742821,"keywords":["nocrits","nodmgspread","payload","uncletopia"],"game_id":440,"stv_port":27046,"stv_name":"Uncletopia | New York City | 4 | Community | STV","players":null},{"server_id":142,"name":"Uncletopia | S√£o Paulo | 1 | All Maps","name_short":"sao-1","host":"sao-1.br.uncletopia.com","port":27015,"enabled":true,"region":"sa","cc":"br","latitude":-23.533773,"longitude":-46.62529,"reserved":0,"last_update":"0001-01-01T00:00:00Z","name_a2s":"Uncletopia | S√£o Paulo | 1 | All Maps","protocol":17,"map":"pl_upward","folder":"tf","game":"Team Fortress","app_id":440,"player_count":0,"max_players":24,"Bots":0,"server_type":"Dedicated","server_os":"Linux","password":true,"vac":true,"version":"7757534","steam_id":85568392924469996,"keywords":["nocrits","nodmgspread","payload","uncletopia"],"game_id":440,"stv_port":27016,"stv_name":"Uncletopia | S√£o Paulo | 1 | All Maps | STV","players":null},{"server_id":143,"name":"Uncletopia | S√£o Paulo | 2 | All Maps","name_short":"sao-2","host":"sao-2.br.uncletopia.com","port":27015,"enabled":true,"region":"sa","cc":"br","latitude":-23.533773,"longitude":-46.62529,"reserved":0,"last_update":"0001-01-01T00:00:00Z","name_a2s":"Uncletopia | S√£o Paulo | 2 | All Maps","protocol":17,"map":"pl_frontier_final","folder":"tf","game":"Team Fortress","app_id":440,"player_count":0,"max_players":24,"Bots":0,"server_type":"Dedicated","server_os":"Linux","password":true,"vac":true,"version":"7757534","steam_id":85568392924485349,"keywords":["nocrits","nodmgspread","payload","uncletopia"],"game_id":440,"stv_port":27016,"stv_name":"Uncletopia | S√£o Paulo | 2 | All Maps | STV","players":null},{"server_id":7,"name":"Uncletopia | Seattle | 1 | All Maps","name_short":"sea-1","host":"sea-1.us.uncletopia.com","port":27015,"enabled":true,"region":"us-west","cc":"us","latitude":47.608013,"longitude":-122.33517,"reserved":0,"last_update":"0001-01-01T00:00:00Z","name_a2s":"Uncletopia | Seattle | 1 | All Maps","protocol":17,"map":"pl_barnblitz","folder":"tf","game":"Team Fortress","app_id":440,"player_count":24,"max_players":24,"Bots":0,"server_type":"Dedicated","server_os":"Linux","password":true,"vac":true,"version":"7757534","steam_id":85568392924469997,"keywords":["nocrits","nodmgspread","payload","uncletopia"],"game_id":440,"stv_port":27016,"stv_name":"Uncletopia | Seattle | 1 | All Maps | STV","players":[{"user_id":564,"name":"Username","steam_id":76561198855586261,"connected_time":4883000000000,"state":"active","ping":63},{"user_id":555,"name":"General Fisticuffs","steam_id":76561198255721392,"connected_time":5211000000000,"state":"active","ping":114},{"user_id":576,"name":"doopsies","steam_id":76561198083000867,"connected_time":3513000000000,"state":"active","ping":49},{"user_id":589,"name":"Crake","steam_id":76561198001959071,"connected_time":1661000000000,"state":"active","ping":57},{"user_id":560,"name":"kiviviviviviviviviviviviviviviv","steam_id":76561198838223023,"connected_time":4968000000000,"state":"active","ping":97},{"user_id":579,"name":"retard","steam_id":76561199126229651,"connected_time":3213000000000,"state":"active","ping":39},{"user_id":595,"name":"Sailor","steam_id":76561199081983517,"connected_time":867000000000,"state":"active","ping":103},{"user_id":590,"name":"dusted","steam_id":76561198045218909,"connected_time":1660000000000,"state":"active","ping":41},{"user_id":569,"name":"rat gets the cheese","steam_id":76561198031234032,"connected_time":4688000000000,"state":"active","ping":106},{"user_id":559,"name":"veryscaryreaper","steam_id":76561198380018244,"connected_time":5010000000000,"state":"active","ping":67},{"user_id":594,"name":"Mr. Hands","steam_id":76561198441100820,"connected_time":1050000000000,"state":"active","ping":50},{"user_id":578,"name":"DoctorHa","steam_id":76561198044026008,"connected_time":3401000000000,"state":"active","ping":93},{"user_id":600,"name":"Rocket Drifter","steam_id":76561198046952513,"connected_time":456000000000,"state":"active","ping":52},{"user_id":536,"name":"Agent86","steam_id":76561198046794593,"connected_time":6768000000000,"state":"active","ping":115},{"user_id":596,"name":"Erk-Kirk","steam_id":76561198288954914,"connected_time":782000000000,"state":"active","ping":97},{"user_id":593,"name":"toes","steam_id":76561198221151676,"connected_time":1468000000000,"state":"active","ping":60},{"user_id":602,"name":"Skoad","steam_id":76561198104650528,"connected_time":410000000000,"state":"active","ping":67},{"user_id":586,"name":"Lord Hater","steam_id":76561199158148782,"connected_time":1845000000000,"state":"active","ping":56},{"user_id":581,"name":"liliLovesUnicorns83","steam_id":76561199391478575,"connected_time":2671000000000,"state":"active","ping":75},{"user_id":582,"name":"Gary, 40, soul sucking 9-5","steam_id":76561198073812888,"connected_time":2671000000000,"state":"active","ping":40},{"user_id":577,"name":"5392vin","steam_id":76561198880493511,"connected_time":3404000000000,"state":"active","ping":65},{"user_id":588,"name":"SibilantSerpent","steam_id":76561198154488754,"connected_time":1714000000000,"state":"active","ping":57},{"user_id":599,"name":"supcupman","steam_id":76561198051513866,"connected_time":466000000000,"state":"active","ping":84},{"user_id":601,"name":"mega","steam_id":76561198089520959,"connected_time":442000000000,"state":"active","ping":104}]},{"server_id":119,"name":"Uncletopia | Seattle | 2 | All Maps","name_short":"sea-2","host":"sea-1.us.uncletopia.com","port":27025,"enabled":true,"region":"us-west","cc":"us","latitude":47.608013,"longitude":-122.33517,"reserved":0,"last_update":"0001-01-01T00:00:00Z","name_a2s":"Uncletopia | Seattle | 2 | All Maps","protocol":17,"map":"koth_viaduct","folder":"tf","game":"Team Fortress","app_id":440,"player_count":24,"max_players":24,"Bots":0,"server_type":"Dedicated","server_os":"Linux","password":true,"vac":true,"version":"7757534","steam_id":85568392924469998,"keywords":["cp","nocrits","nodmgspread","uncletopia"],"game_id":440,"stv_port":27026,"stv_name":"Uncletopia | Seattle | 2 | All Maps | STV","players":[{"user_id":461,"name":"A Little Guy","steam_id":76561198142464684,"connected_time":1474000000000,"state":"active","ping":85},{"user_id":486,"name":"Monketron","steam_id":76561198014225523,"connected_time":32000000000,"state":"active","ping":86},{"user_id":460,"name":"mumbles","steam_id":76561197994528974,"connected_time":1608000000000,"state":"active","ping":77},{"user_id":317,"name":"Dosario","steam_id":76561198298095535,"connected_time":12773000000000,"state":"active","ping":50},{"user_id":372,"name":"Corpe","steam_id":76561198054490549,"connected_time":9216000000000,"state":"active","ping":57},{"user_id":482,"name":"SausageMan","steam_id":76561198211717195,"connected_time":326000000000,"state":"active","ping":70},{"user_id":422,"name":"The dreaded jar","steam_id":76561199087010656,"connected_time":4324000000000,"state":"active","ping":59},{"user_id":481,"name":"Salazar9","steam_id":76561198049903973,"connected_time":377000000000,"state":"active","ping":57},{"user_id":467,"name":"Soda Popinski","steam_id":76561198045209288,"connected_time":1361000000000,"state":"active","ping":73},{"user_id":394,"name":"I UBER SPIES #SAVETF2","steam_id":76561199118711243,"connected_time":6509000000000,"state":"active","ping":88},{"user_id":468,"name":"uthyo","steam_id":76561198941633653,"connected_time":1310000000000,"state":"active","ping":117},{"user_id":469,"name":"alyuna","steam_id":76561198797149077,"connected_time":1308000000000,"state":"active","ping":117},{"user_id":470,"name":"la cucaracha","steam_id":76561198138353568,"connected_time":1292000000000,"state":"active","ping":168},{"user_id":393,"name":"Flyingcat9000","steam_id":76561198179561797,"connected_time":6542000000000,"state":"active","ping":59},{"user_id":471,"name":"Carvernon","steam_id":76561198011356505,"connected_time":1283000000000,"state":"active","ping":97},{"user_id":440,"name":"vertical orientation correction","steam_id":76561198007464245,"connected_time":3070000000000,"state":"active","ping":122},{"user_id":463,"name":"Willy Wonker","steam_id":76561198082944789,"connected_time":1468000000000,"state":"active","ping":76},{"user_id":484,"name":"ArmoredSpaceOwl","steam_id":76561198009895343,"connected_time":102000000000,"state":"active","ping":63},{"user_id":480,"name":"Sun Praising","steam_id":76561198819780616,"connected_time":419000000000,"state":"active","ping":74},{"user_id":475,"name":"Glazed","steam_id":76561198043020404,"connected_time":1119000000000,"state":"active","ping":70},{"user_id":419,"name":"oo","steam_id":76561198119626492,"connected_time":4519000000000,"state":"active","ping":80},{"user_id":474,"name":"Nivdy","steam_id":76561198119536246,"connected_time":1198000000000,"state":"active","ping":115},{"user_id":439,"name":"veemdya yaymign :)","steam_id":76561199175434022,"connected_time":3079000000000,"state":"active","ping":81},{"user_id":479,"name":"Vin","steam_id":76561198137057777,"connected_time":483000000000,"state":"active","ping":61}]},{"server_id":406,"name":"Uncletopia | Seattle | 3 | Stopwatch Beta","name_short":"sea-3","host":"sea-1.us.uncletopia.com","port":27035,"enabled":true,"region":"us-west","cc":"us","latitude":47.608013,"longitude":-122.33517,"reserved":0,"last_update":"0001-01-01T00:00:00Z","name_a2s":"Uncletopia | Seattle | 3 | Stopwatch Beta","protocol":17,"map":"workshop/pl_vigil_rc9.ugc1266210012","folder":"tf","game":"Team Fortress","app_id":440,"player_count":0,"max_players":24,"Bots":0,"server_type":"Dedicated","server_os":"Linux","password":true,"vac":true,"version":"7757534","steam_id":85568392924515217,"keywords":["nocrits","nodmgspread","payload","uncletopia"],"game_id":440,"stv_port":27036,"stv_name":"Uncletopia | Seattle | 3 | Stopwatch Beta | STV","players":null},{"server_id":17,"name":"Uncletopia | San Francisco | 1 | All Maps","name_short":"sfo-1","host":"sfo-1.us.uncletopia.com","port":27015,"enabled":true,"region":"us-west","cc":"us","latitude":37.77397,"longitude":-122.4313,"reserved":0,"last_update":"0001-01-01T00:00:00Z","name_a2s":"Uncletopia | San Francisco | 1 | All Maps","protocol":17,"map":"pl_swiftwater_final1","folder":"tf","game":"Team Fortress","app_id":440,"player_count":24,"max_players":24,"Bots":0,"server_type":"Dedicated","server_os":"Linux","password":true,"vac":true,"version":"7757534","steam_id":85568392924469999,"keywords":["nocrits","nodmgspread","payload","uncletopia"],"game_id":440,"stv_port":27016,"stv_name":"Uncletopia | San Francisco | 1 | All Maps | STV","players":[{"user_id":396,"name":"CollDragon","steam_id":76561198067534450,"connected_time":1073000000000,"state":"active","ping":111},{"user_id":391,"name":"Mapachito Lindo","steam_id":76561198031359995,"connected_time":1374000000000,"state":"active","ping":61},{"user_id":389,"name":"SN0W","steam_id":76561198153665468,"connected_time":1485000000000,"state":"active","ping":88},{"user_id":363,"name":"SolarusD","steam_id":76561198029279861,"connected_time":3042000000000,"state":"active","ping":46},{"user_id":386,"name":"rock under the sun","steam_id":76561198881093314,"connected_time":1702000000000,"state":"active","ping":85},{"user_id":392,"name":"Scorp Saltman","steam_id":76561198011052028,"connected_time":1351000000000,"state":"active","ping":96},{"user_id":360,"name":"punished med","steam_id":76561198315674238,"connected_time":3320000000000,"state":"active","ping":48},{"user_id":370,"name":"Lambchop","steam_id":76561198043900363,"connected_time":2834000000000,"state":"active","ping":60},{"user_id":393,"name":"blazen","steam_id":76561198921007863,"connected_time":1249000000000,"state":"active","ping":65},{"user_id":394,"name":"AtomSQRRL","steam_id":76561199151951364,"connected_time":1162000000000,"state":"active","ping":46},{"user_id":378,"name":"MaximumG9","steam_id":76561198938083993,"connected_time":2108000000000,"state":"active","ping":50},{"user_id":343,"name":"SuperViolence","steam_id":76561198973670368,"connected_time":4947000000000,"state":"active","ping":98},{"user_id":387,"name":"VicLoL","steam_id":76561198045580784,"connected_time":1696000000000,"state":"active","ping":67},{"user_id":354,"name":"Frank (#ripJimmyCarter)","steam_id":76561198126681511,"connected_time":4341000000000,"state":"active","ping":60},{"user_id":367,"name":"Celia [ +/- ] ‚úî","steam_id":76561198067164431,"connected_time":2988000000000,"state":"active","ping":53},{"user_id":397,"name":"cringy","steam_id":76561198323000455,"connected_time":423000000000,"state":"active","ping":85},{"user_id":361,"name":"Mr defrost","steam_id":76561198322125657,"connected_time":3222000000000,"state":"active","ping":83},{"user_id":385,"name":"mela ‚ô°","steam_id":76561198301598124,"connected_time":1735000000000,"state":"active","ping":83},{"user_id":395,"name":"astaat28","steam_id":76561199080832319,"connected_time":1142000000000,"state":"active","ping":70},{"user_id":253,"name":"Jimmy","steam_id":76561198857959855,"connected_time":10751000000000,"state":"active","ping":54},{"user_id":375,"name":"Master Of Whales","steam_id":76561198349104889,"connected_time":2518000000000,"state":"active","ping":64},{"user_id":388,"name":"SCP-17XX","steam_id":76561198219209367,"connected_time":1641000000000,"state":"active","ping":67},{"user_id":369,"name":"FiddyFoMike","steam_id":76561198057072581,"connected_time":2978000000000,"state":"active","ping":52},{"user_id":383,"name":"Feasent","steam_id":76561198987316504,"connected_time":1944000000000,"state":"active","ping":82}]},{"server_id":18,"name":"Uncletopia | San Francisco | 2 | All Maps","name_short":"sfo-2","host":"sfo-1.us.uncletopia.com","port":27025,"enabled":true,"region":"us-west","cc":"us","latitude":37.77397,"longitude":-122.4313,"reserved":0,"last_update":"0001-01-01T00:00:00Z","name_a2s":"Uncletopia | San Francisco | 2 | All Maps","protocol":17,"map":"koth_lakeside_final","folder":"tf","game":"Team Fortress","app_id":440,"player_count":18,"max_players":24,"Bots":0,"server_type":"Dedicated","server_os":"Linux","password":true,"vac":true,"version":"7757534","steam_id":85568392924470000,"keywords":["cp","nocrits","nodmgspread","uncletopia"],"game_id":440,"stv_port":27026,"stv_name":"Uncletopia | San Francisco | 2 | All Maps | STV","players":[{"user_id":212,"name":"Otis","steam_id":76561198170925422,"connected_time":4663000000000,"state":"active","ping":122},{"user_id":248,"name":"hiko3.aug","steam_id":76561198379650478,"connected_time":949000000000,"state":"active","ping":158},{"user_id":153,"name":"Pyrotek‚Å¥","steam_id":76561198072747672,"connected_time":8797000000000,"state":"active","ping":53},{"user_id":205,"name":"pikminmaster128","steam_id":76561198958620086,"connected_time":5074000000000,"state":"active","ping":66},{"user_id":249,"name":":\u003c","steam_id":76561198072789439,"connected_time":940000000000,"state":"active","ping":48},{"user_id":235,"name":"Big Yoshi #savetf2","steam_id":76561198009916036,"connected_time":2675000000000,"state":"active","ping":84},{"user_id":250,"name":":3","steam_id":76561198058890821,"connected_time":934000000000,"state":"active","ping":100},{"user_id":245,"name":"ŒõLPHŒõ-71","steam_id":76561198117342640,"connected_time":1557000000000,"state":"active","ping":66},{"user_id":256,"name":"Quesusdilla","steam_id":76561198125712564,"connected_time":29000000000,"state":"active","ping":132},{"user_id":252,"name":"The Moon","steam_id":76561198082926682,"connected_time":894000000000,"state":"active","ping":45},{"user_id":255,"name":"Blucifer","steam_id":76561198138773981,"connected_time":48000000000,"state":"active","ping":56},{"user_id":251,"name":"Sax","steam_id":76561198055425123,"connected_time":930000000000,"state":"active","ping":83},{"user_id":253,"name":"Ediot","steam_id":76561199349494096,"connected_time":753000000000,"state":"active","ping":135},{"user_id":244,"name":"ForAPessimistImPrettyOptimistic","steam_id":76561198170128009,"connected_time":1581000000000,"state":"active","ping":56},{"user_id":211,"name":"SchmitySchmit","steam_id":76561198127024448,"connected_time":4821000000000,"state":"active","ping":106},{"user_id":234,"name":"MCman","steam_id":76561198412110305,"connected_time":3286000000000,"state":"active","ping":67},{"user_id":247,"name":"ferby","steam_id":76561198028229594,"connected_time":1163000000000,"state":"active","ping":48},{"user_id":223,"name":"Maid 'n' China","steam_id":76561198423392976,"connected_time":4357000000000,"state":"active","ping":43}]},{"server_id":19,"name":"Uncletopia | San Francisco | 3 | Stopwatch Beta","name_short":"sfo-3","host":"sfo-1.us.uncletopia.com","port":27035,"enabled":true,"region":"us-west","cc":"us","latitude":37.77397,"longitude":-122.4313,"reserved":0,"last_update":"0001-01-01T00:00:00Z","name_a2s":"Uncletopia | San Francisco | 3 | Stopwatch Beta","protocol":17,"map":"workshop/koth_clearcut_b15.ugc2107050255","folder":"tf","game":"Team Fortress","app_id":440,"player_count":0,"max_players":24,"Bots":0,"server_type":"Dedicated","server_os":"Linux","password":true,"vac":true,"version":"7757534","steam_id":85568392924742824,"keywords":["cp","nocrits","nodmgspread","uncletopia"],"game_id":440,"stv_port":27036,"stv_name":"Uncletopia | San Francisco | 3 | Stopwatch Beta | STV","players":null},{"server_id":20,"name":"Uncletopia | San Francisco | 4 | Community","name_short":"sfo-4","host":"sfo-1.us.uncletopia.com","port":27045,"enabled":true,"region":"us-west","cc":"us","latitude":37.77397,"longitude":-122.4313,"reserved":0,"last_update":"0001-01-01T00:00:00Z","name_a2s":"Uncletopia | San Francisco | 4 | Community","protocol":17,"map":"workshop/pl_cactuscanyon_redux_final2.ugc2579644293","folder":"tf","game":"Team Fortress","app_id":440,"player_count":0,"max_players":24,"Bots":0,"server_type":"Dedicated","server_os":"Linux","password":true,"vac":true,"version":"7757534","steam_id":85568392924742826,"keywords":["nocrits","nodmgspread","payload","uncletopia"],"game_id":440,"stv_port":27046,"stv_name":"Uncletopia | San Francisco | 4 | Community | STV","players":null},{"server_id":141,"name":"Uncletopia | Sydney | 1 | All Maps","name_short":"syd-1","host":"syd-1.au.uncletopia.com","port":27015,"enabled":true,"region":"au","cc":"au","latitude":-33.865143,"longitude":151.2099,"reserved":0,"last_update":"0001-01-01T00:00:00Z","name_a2s":"Uncletopia | Sydney | 1 | All Maps","protocol":17,"map":"cp_dustbowl","folder":"tf","game":"Team Fortress","app_id":440,"player_count":0,"max_players":24,"Bots":0,"server_type":"Dedicated","server_os":"Linux","password":true,"vac":true,"version":"7757534","steam_id":85568392924470001,"keywords":["cp","nocrits","nodmgspread","uncletopia"],"game_id":440,"stv_port":27016,"stv_name":"Uncletopia | Sydney | 1 | All Maps | STV","players":null},{"server_id":123,"name":"Uncletopia | Sydney | 2 | All Maps","name_short":"syd-2","host":"syd-1.au.uncletopia.com","port":27025,"enabled":true,"region":"au","cc":"au","latitude":-33.865143,"longitude":151.2099,"reserved":0,"last_update":"0001-01-01T00:00:00Z","name_a2s":"Uncletopia | Sydney | 2 | All Maps","protocol":17,"map":"koth_lakeside_final","folder":"tf","game":"Team Fortress","app_id":440,"player_count":0,"max_players":24,"Bots":0,"server_type":"Dedicated","server_os":"Linux","password":true,"vac":true,"version":"7757534","steam_id":85568392924470002,"keywords":["cp","nocrits","nodmgspread","uncletopia"],"game_id":440,"stv_port":27026,"stv_name":"Uncletopia | Sydney | 2 | All Maps | STV","players":null},{"server_id":395,"name":"Uncletopia | Sydney | 3 | All Maps","name_short":"syd-3","host":"syd-1.au.uncletopia.com","port":27035,"enabled":true,"region":"au","cc":"au","latitude":-33.865143,"longitude":151.2099,"reserved":0,"last_update":"0001-01-01T00:00:00Z","name_a2s":"Uncletopia | Sydney | 3 | All Maps","protocol":17,"map":"pl_swiftwater_final1","folder":"tf","game":"Team Fortress","app_id":440,"player_count":0,"max_players":24,"Bots":0,"server_type":"Dedicated","server_os":"Linux","password":true,"vac":true,"version":"7757534","steam_id":85568392925194467,"keywords":["nocrits","nodmgspread","payload","uncletopia"],"game_id":440,"stv_port":27036,"stv_name":"Uncletopia | Sydney | 3 | All Maps | STV","players":null},{"server_id":396,"name":"Uncletopia | Sydney | 4 | All Maps","name_short":"syd-4","host":"syd-1.au.uncletopia.com","port":27045,"enabled":true,"region":"au","cc":"au","latitude":-33.865143,"longitude":151.2099,"reserved":0,"last_update":"0001-01-01T00:00:00Z","name_a2s":"Uncletopia | Sydney | 4 | All Maps","protocol":17,"map":"koth_highpass","folder":"tf","game":"Team Fortress","app_id":440,"player_count":0,"max_players":24,"Bots":0,"server_type":"Dedicated","server_os":"Linux","password":true,"vac":true,"version":"7757534","steam_id":85568392925397958,"keywords":["cp","nocrits","nodmgspread","uncletopia"],"game_id":440,"stv_port":27046,"stv_name":"Uncletopia | Sydney | 4 | All Maps | STV","players":null},{"server_id":58,"name":"Uncletopia | Sydney | 5 | Stopwatch Beta","name_short":"syd-5","host":"syd-1.au.uncletopia.com","port":27055,"enabled":true,"region":"au","cc":"au","latitude":-33.865143,"longitude":151.2099,"reserved":0,"last_update":"0001-01-01T00:00:00Z","name_a2s":"Uncletopia | Sydney | 5 | Stopwatch Beta","protocol":17,"map":"koth_cascade","folder":"tf","game":"Team Fortress","app_id":440,"player_count":0,"max_players":24,"Bots":0,"server_type":"Dedicated","server_os":"Linux","password":true,"vac":true,"version":"7757534","steam_id":85568392925397959,"keywords":["cp","nocrits","nodmgspread","uncletopia"],"game_id":440,"stv_port":27056,"stv_name":"Uncletopia | Sydney | 5 | Stopwatch Beta | STV","players":null},{"server_id":59,"name":"Uncletopia | Sydney | 6 | Community","name_short":"syd-6","host":"syd-1.au.uncletopia.com","port":27065,"enabled":true,"region":"au","cc":"au","latitude":-33.865143,"longitude":151.2099,"reserved":0,"last_update":"0001-01-01T00:00:00Z","name_a2s":"Uncletopia | Sydney | 6 | Community","protocol":17,"map":"workshop/pl_eruption_b9a.ugc2807898013","folder":"tf","game":"Team Fortress","app_id":440,"player_count":0,"max_players":24,"Bots":0,"server_type":"Dedicated","server_os":"Linux","password":true,"vac":true,"version":"7757534","steam_id":85568392925397960,"keywords":["nocrits","nodmgspread","payload","uncletopia"],"game_id":440,"stv_port":27066,"stv_name":"Uncletopia | Sydney | 6 | Community | STV","players":null},{"server_id":49,"name":"Uncletopia | Warsaw | 1 | All Maps","name_short":"waw-1","host":"waw-1.pl.uncletopia.com","port":27015,"enabled":true,"region":"eu","cc":"pl","latitude":52.2297,"longitude":21.017532,"reserved":0,"last_update":"0001-01-01T00:00:00Z","name_a2s":"","protocol":0,"map":"","folder":"","game":"","app_id":0,"player_count":0,"max_players":0,"Bots":0,"server_type":"","server_os":"","password":false,"vac":false,"version":"","steam_id":0,"keywords":null,"game_id":0,"stv_port":0,"stv_name":"","players":null},{"server_id":50,"name":"Uncletopia | Warsaw | 2 | All Maps","name_short":"waw-2","host":"waw-1.pl.uncletopia.com","port":27025,"enabled":true,"region":"eu","cc":"pl","latitude":52.2297,"longitude":21.017532,"reserved":0,"last_update":"0001-01-01T00:00:00Z","name_a2s":"Uncletopia | Warsaw | 2 | All Maps","protocol":17,"map":"koth_highpass","folder":"tf","game":"Team Fortress","app_id":440,"player_count":0,"max_players":24,"Bots":0,"server_type":"Dedicated","server_os":"Linux","password":true,"vac":true,"version":"7757534","steam_id":85568392925397851,"keywords":["cp","nocrits","nodmgspread","uncletopia"],"game_id":440,"stv_port":27026,"stv_name":"Uncletopia | Warsaw | 2 | All Maps | STV","players":null},{"server_id":51,"name":"Uncletopia | Warsaw | 3 | All Maps","name_short":"waw-3","host":"waw-1.pl.uncletopia.com","port":27035,"enabled":true,"region":"eu","cc":"pl","latitude":52.2297,"longitude":21.017532,"reserved":0,"last_update":"0001-01-01T00:00:00Z","name_a2s":"Uncletopia | Warsaw | 3 | All Maps","protocol":17,"map":"koth_cascade","folder":"tf","game":"Team Fortress","app_id":440,"player_count":0,"max_players":24,"Bots":0,"server_type":"Dedicated","server_os":"Linux","password":true,"vac":true,"version":"7757534","steam_id":85568392925397852,"keywords":["cp","nocrits","nodmgspread","uncletopia"],"game_id":440,"stv_port":27036,"stv_name":"Uncletopia | Warsaw | 3 | All Maps | STV","players":null},{"server_id":52,"name":"Uncletopia | Warsaw | 4 | All Maps","name_short":"waw-4","host":"waw-1.pl.uncletopia.com","port":27045,"enabled":true,"region":"eu","cc":"pl","latitude":52.2297,"longitude":21.017532,"reserved":0,"last_update":"0001-01-01T00:00:00Z","name_a2s":"Uncletopia | Warsaw | 4 | All Maps","protocol":17,"map":"koth_lakeside_final","folder":"tf","game":"Team Fortress","app_id":440,"player_count":0,"max_players":24,"Bots":0,"server_type":"Dedicated","server_os":"Linux","password":true,"vac":true,"version":"7757534","steam_id":85568392925397853,"keywords":["cp","nocrits","nodmgspread","uncletopia"],"game_id":440,"stv_port":27046,"stv_name":"Uncletopia | Warsaw | 4 | All Maps | STV","players":null},{"server_id":53,"name":"Uncletopia | Warsaw | 5 | Stopwatch Beta","name_short":"waw-5","host":"waw-1.pl.uncletopia.com","port":27055,"enabled":true,"region":"eu","cc":"pl","latitude":52.2297,"longitude":21.017532,"reserved":0,"last_update":"0001-01-01T00:00:00Z","name_a2s":"Uncletopia | Warsaw | 5 | Stopwatch Beta","protocol":17,"map":"pl_borneo","folder":"tf","game":"Team Fortress","app_id":440,"player_count":0,"max_players":24,"Bots":0,"server_type":"Dedicated","server_os":"Linux","password":true,"vac":true,"version":"7757534","steam_id":85568392925397854,"keywords":["nocrits","nodmgspread","payload","uncletopia"],"game_id":440,"stv_port":27056,"stv_name":"Uncletopia | Warsaw | 5 | Stopwatch Beta | STV","players":null},{"server_id":54,"name":"Uncletopia | Warsaw | 6 | Community","name_short":"waw-6","host":"waw-1.pl.uncletopia.com","port":27065,"enabled":true,"region":"eu","cc":"pl","latitude":52.2297,"longitude":21.017532,"reserved":0,"last_update":"0001-01-01T00:00:00Z","name_a2s":"Uncletopia | Warsaw | 6 | Community","protocol":17,"map":"workshop/cp_glacier_rc6.ugc2905735376","folder":"tf","game":"Team Fortress","app_id":440,"player_count":0,"max_players":24,"Bots":0,"server_type":"Dedicated","server_os":"Linux","password":true,"vac":true,"version":"7757534","steam_id":85568392925397856,"keywords":["cp","nocrits","nodmgspread","uncletopia"],"game_id":440,"stv_port":27066,"stv_name":"Uncletopia | Warsaw | 6 | Community | STV","players":null}]}