{"status":true,"message":"","result":[{"server_id":9,"name":"Uncletopia | Atlanta | 1 | All Maps","name_short":"atl-1","host":"atl-1.us.uncletopia.com","port":27015,"enabled":true,"region":"us-east","cc":"us","latitude":33.753746,"longitude":-84.38633,"reserved":0,"last_update":"0001-01-01T00:00:00Z","name_a2s":"Uncletopia | Atlanta | 1 | All Maps","protocol":17,"map":"pl_badwater","folder":"tf","game":"Team Fortress","app_id":440,"player_count":24,"max_players":24,"Bots":0,"server_type":"Dedicated","server_os":"Linux","password":true,"vac":true,"version":"7757534","steam_id":85568392924469982,"keywords":["nocrits","nodmgspread","payload","uncletopia"],"game_id":440,"stv_port":27016,"stv_name":"Uncletopia | Atlanta | 1 | All Maps | STV","players":[{"user_id":454,"name":"melancholy","steam_id":76561198024301465,"connected_time":10513000000000,"state":"active","ping":45},{"user_id":570,"name":"uknowhatimsayin¿","steam_id":76561198397009880,"connected_time":1109000000000,"state":"active","ping":45},{"user_id":566,"name":"mrcatman","steam_id":76561198358434883,"connected_time":2013000000000,"state":"active","ping":86},{"user_id":514,"name":"Dr.Zarann","steam_id":76561198163952958,"connected_time":6421000000000,"state":"active","ping":56},{"user_id":549,"name":"vitamin","steam_id":76561198277799227,"connected_time":3256000000000,"state":"active","ping":62},{"user_id":538,"name":"Jin Gulilo","steam_id":76561198065151242,"connected_time":4282000000000,"state":"active","ping":70},{"user_id":510,"name":"lil hog","steam_id":76561199230929836,"connected_time":6644000000000,"state":"active","ping":78},{"user_id":563,"name":"Pascal","steam_id":76561198902657591,"connected_time":2450000000000,"state":"active","ping":46},{"user_id":495,"name":"Ellis","steam_id":76561198072685954,"connected_time":7633000000000,"state":"active","ping":142},{"user_id":532,"name":"Flint","steam_id":76561198066547582,"connected_time":4493000000000,"state":"active","ping":113},{"user_id":572,"name":"kohlhagen","steam_id":76561198120440587,"connected_time":1104000000000,"state":"active","ping":49},{"user_id":395,"name":"eish","steam_id":76561198089463603,"connected_time":16018000000000,"state":"active","ping":119},{"user_id":558,"name":"cheeks","steam_id":76561197993371179,"connected_time":2797000000000,"state":"active","ping":46},{"user_id":555,"name":"stink","steam_id":76561198099318923,"connected_time":2813000000000,"state":"active","ping":76},{"user_id":562,"name":"ATL1 | Psionic Box","steam_id":76561198151019322,"connected_time":2474000000000,"state":"active","ping":61},{"user_id":571,"name":"vid_","steam_id":76561198065159053,"connected_time":1106000000000,"state":"active","ping":53},{"user_id":567,"name":"CapnKris22","steam_id":76561198049010994,"connected_time":1957000000000,"state":"active","ping":77},{"user_id":471,"name":"☙ Corrupt ❧","steam_id":76561197977631915,"connected_time":9334000000000,"state":"active","ping":54},{"user_id":573,"name":"\u003cDET\u003e Zetsyuk","steam_id":76561197979474818,"connected_time":272000000000,"state":"active","ping":62},{"user_id":569,"name":"Constable","steam_id":76561198135578153,"connected_time":1284000000000,"state":"active","ping":67},{"user_id":554,"name":"THE MONARCH","steam_id":76561198144158938,"connected_time":3063000000000,"state":"active","ping":40},{"user_id":552,"name":"⇌|ϟtriKer|⇋","steam_id":76561199389089862,"connected_time":3173000000000,"state":"active","ping":141},{"user_id":537,"name":"RabidTaco","steam_id":76561198023404808,"connected_time":4468000000000,"state":"active","ping":66},{"user_id":467,"name":"ATL1 | Vee (very cool)","steam_id":76561198330432889,"connected_time":9827000000000,"state":"active","ping":72}]},{"server_id":400,"name":"Uncletopia | Atlanta | 3 | Community","name_short":"atl-3","host":"atl-1.us.uncletopia.com","port":27035,"enabled":true,"region":"us-east","cc":"us","latitude":33.753746,"longitude":-84.38633,"reserved":0,"last_update":"0001-01-01T00:00:00Z","name_a2s":"Uncletopia | Atlanta | 3 | Community","protocol":17,"map":"workshop/koth_product_final.ugc454272353","folder":"tf","game":"Team Fortress","app_id":440,"player_count":24,"max_players":24,"Bots":0,"server_type":"Dedicated","server_os":"Linux","password":true,"vac":true,"version":"7757534","steam_id":85568392924515187,"keywords":["cp","nocrits","nodmgspread","uncletopia"],"game_id":440,"stv_port":27036,"stv_name":"Uncletopia | Atlanta | 3 | Community | STV","players":[{"user_id":172,"name":"BambuBabyPackRunner","steam_id":76561198320866421,"connected_time":629000000000,"state":"active","ping":54},{"user_id":76,"name":"ribbonborn","steam_id":76561198001195423,"connected_time":7232000000000,"state":"active","ping":73},{"user_id":173,"name":"mr. jay","steam_id":76561198128283003,"connected_time":552000000000,"state":"active","ping":64},{"user_id":178,"name":"Spike","steam_id":76561198141356571,"connected_time":447000000000,"state":"active","ping":77},{"user_id":175,"name":"josh","steam_id":76561198092176972,"connected_time":538000000000,"state":"active","ping":74},{"user_id":165,"name":"autumn !","steam_id":76561199207081631,"connected_time":1282000000000,"state":"active","ping":99},{"user_id":182,"name":"Pourpel","steam_id":76561198059125470,"connected_time":289000000000,"state":"active","ping":56},{"user_id":144,"name":"magotago","steam_id":76561198013650292,"connected_time":2791000000000,"state":"active","ping":101},{"user_id":146,"name":"Voon","steam_id":76561198166843533,"connected_time":2554000000000,"state":"active","ping":76},{"user_id":177,"name":"orange porridge","steam_id":76561198044102244,"connected_time":481000000000,"state":"active","ping":72},{"user_id":159,"name":"potato pat","steam_id":76561198025489194,"connected_time":2132000000000,"state":"active","ping":74},{"user_id":160,"name":"scout tf2","steam_id":76561199031241776,"connected_time":2124000000000,"state":"active","ping":67},{"user_id":155,"name":"Jazz2T","steam_id":76561198154418867,"connected_time":2321000000000,"state":"active","ping":95},{"user_id":162,"name":"basil","steam_id":76561198075758026,"connected_time":1921000000000,"state":"active","ping":67},{"user_id":179,"name":"Maxxycat","steam_id":76561198194062681,"connected_time":441000000000,"state":"active","ping":78},{"user_id":183,"name":"A Shiny Meat Bicycle","steam_id":76561198358757709,"connected_time":288000000000,"state":"active","ping":72},{"user_id":186,"name":"wake up","steam_id":76561198072179483,"connected_time":214000000000,"state":"active","ping":104},{"user_id":156,"name":"Walmart Employee","steam_id":76561198840373909,"connected_time":2256000000000,"state":"active","ping":71},{"user_id":116,"name":"may (punished)","steam_id":76561198195828454,"connected_time":5165000000000,"state":"active","ping":52},{"user_id":133,"name":"QueenPinharam","steam_id":76561199015626409,"connected_time":3424000000000,"state":"active","ping":72},{"user_id":161,"name":"WitchyyWeasel","steam_id":76561199191273370,"connected_time":2042000000000,"state":"active","ping":51},{"user_id":164,"name":"Lord Scrubling","steam_id":76561198263744445,"connected_time":1320000000000,"state":"active","ping":71},{"user_id":185,"name":"Pink","steam_id":76561198085336875,"connected_time":244000000000,"state":"active","ping":72},{"user_id":188,"name":"[shx]","steam_id":76561198070159233,"connected_time":188000000000,"state":"active","ping":76}]},{"server_id":401,"name":"Uncletopia | Atlanta | 4 | No Payload","name_short":"atl-4","host":"atl-1.us.uncletopia.com","port":27045,"enabled":true,"region":"us-east","cc":"us","latitude":33.753746,"longitude":-84.38633,"reserved":0,"last_update":"0001-01-01T00:00:00Z","name_a2s":"","protocol":0,"map":"","folder":"","game":"","app_id":0,"player_count":0,"max_players":0,"Bots":0,"server_type":"","server_os":"","password":false,"vac":false,"version":"","steam_id":0,"keywords":null,"game_id":0,"stv_port":0,"stv_name":"","players":null},{"server_id":2,"name":"Uncletopia | Chicago | 1 | All Maps","name_short":"chi-1","host":"chi-1.us.uncletopia.com","port":27015,"enabled":true,"region":"us-central","cc":"us","latitude":41.881832,"longitude":-87.62318,"reserved":0,"last_update":"0001-01-01T00:00:00Z","name_a2s":"Uncletopia | Chicago | 1 | All Maps","protocol":17,"map":"pl_badwater","folder":"tf","game":"Team Fortress","app_id":440,"player_count":23,"max_players":24,"Bots":0,"server_type":"Dedicated","server_os":"Linux","password":true,"vac":true,"version":"7757534","steam_id":85568392924469984,"keywords":["nocrits","nodmgspread","payload","uncletopia"],"game_id":440,"stv_port":27016,"stv_name":"Uncletopia | Chicago | 1 | All Maps | STV","players":[{"user_id":787,"name":"General Girthquake","steam_id":76561198124737840,"connected_time":402000000000,"state":"active","ping":56},{"user_id":681,"name":"Ademar","steam_id":76561199391802581,"connected_time":8795000000000,"state":"active","ping":59},{"user_id":789,"name":"Sarbanes-Oxley","steam_id":76561197975898479,"connected_time":62000000000,"state":"active","ping":71},{"user_id":758,"name":"Iron Raccoon","steam_id":76561198084676159,"connected_time":3539000000000,"state":"active","ping":55},{"user_id":784,"name":"JohnnyG","steam_id":76561198078395002,"connected_time":434000000000,"state":"active","ping":62},{"user_id":707,"name":"willow","steam_id":76561198068266114,"connected_time":7624000000000,"state":"active","ping":61},{"user_id":776,"name":"katana","steam_id":76561198079488962,"connected_time":2032000000000,"state":"active","ping":103},{"user_id":773,"name":"coolguy782","steam_id":76561198165212575,"connected_time":2118000000000,"state":"active","ping":73},{"user_id":741,"name":"XLMasterBlaster","steam_id":76561198106966397,"connected_time":5419000000000,"state":"active","ping":57},{"user_id":737,"name":"Trox","steam_id":76561198263581464,"connected_time":5738000000000,"state":"active","ping":82},{"user_id":765,"name":"gps","steam_id":76561198067492304,"connected_time":2246000000000,"state":"active","ping":75},{"user_id":782,"name":"Charlie","steam_id":76561199098209171,"connected_time":766000000000,"state":"active","ping":76},{"user_id":774,"name":"Liquid Oxycodone","steam_id":76561198154162664,"connected_time":2100000000000,"state":"active","ping":73},{"user_id":763,"name":"micah","steam_id":76561197984579630,"connected_time":2778000000000,"state":"active","ping":103},{"user_id":790,"name":"wiiblob","steam_id":76561198109106242,"connected_time":34000000000,"state":"spawning","ping":140},{"user_id":767,"name":"Cutimus","steam_id":76561198029813157,"connected_time":2174000000000,"state":"active","ping":58},{"user_id":745,"name":"TheTruthOfTheCessationOfDukkha","steam_id":76561198214370515,"connected_time":5282000000000,"state":"active","ping":70},{"user_id":759,"name":"[يهودي] Bill Clinton [אל","steam_id":76561198163291190,"connected_time":3400000000000,"state":"active","ping":85},{"user_id":771,"name":"I am a mooshroom","steam_id":76561198104198295,"connected_time":2164000000000,"state":"active","ping":90},{"user_id":786,"name":"Saristan","steam_id":76561198093346048,"connected_time":417000000000,"state":"active","ping":54},{"user_id":788,"name":"Decbob","steam_id":76561198180499781,"connected_time":401000000000,"state":"active","ping":68},{"user_id":760,"name":"Ero","steam_id":76561198087863312,"connected_time":3395000000000,"state":"active","ping":57},{"user_id":779,"name":"Babyface","steam_id":76561199240579044,"connected_time":1236000000000,"state":"active","ping":77}]},{"server_id":106,"name":"Uncletopia | Chicago | 2 | All Maps","name_short":"chi-2","host":"chi-1.us.uncletopia.com","port":27025,"enabled":true,"region":"us-central","cc":"us","latitude":41.881832,"longitude":-87.62318,"reserved":0,"last_update":"0001-01-01T00:00:00Z","name_a2s":"Uncletopia | Chicago | 2 | All Maps","protocol":17,"map":"pl_badwater","folder":"tf","game":"Team Fortress","app_id":440,"player_count":24,"max_players":24,"Bots":0,"server_type":"Dedicated","server_os":"Linux","password":true,"vac":true,"version":"7757534","steam_id":85568392924469985,"keywords":["nocrits","nodmgspread","payload","uncletopia"],"game_id":440,"stv_port":27026,"stv_name":"Uncletopia | Chicago | 2 | All Maps | STV","players":[{"user_id":732,"name":"Amtyk","steam_id":76561197979130554,"connected_time":3525000000000,"state":"active","ping":63},{"user_id":729,"name":"Crombun","steam_id":76561198031559642,"connected_time":3988000000000,"state":"active","ping":72},{"user_id":739,"name":"Sobertoday","steam_id":76561198010606163,"connected_time":3120000000000,"state":"active","ping":81},{"user_id":762,"name":"Buttons :)","steam_id":76561198139478534,"connected_time":2194000000000,"state":"active","ping":105},{"user_id":779,"name":"Gammerman","steam_id":76561198046942778,"connected_time":803000000000,"state":"active","ping":75},{"user_id":725,"name":"Ragnoratsu","steam_id":76561198189688723,"connected_time":4044000000000,"state":"active","ping":46},{"user_id":726,"name":"unchi","steam_id":76561198130813230,"connected_time":4033000000000,"state":"active","ping":51},{"user_id":719,"name":"Sone","steam_id":76561198069601032,"connected_time":5001000000000,"state":"active","ping":77},{"user_id":751,"name":"kina*:・ﾟ✧","steam_id":76561198109783729,"connected_time":2826000000000,"state":"active","ping":49},{"user_id":766,"name":"LeTonzy","steam_id":76561198005806699,"connected_time":1382000000000,"state":"active","ping":114},{"user_id":777,"name":"1 Bladee Fan","steam_id":76561199135213338,"connected_time":1101000000000,"state":"active","ping":104},{"user_id":770,"name":"Willy","steam_id":76561198046508940,"connected_time":1245000000000,"state":"active","ping":61},{"user_id":771,"name":"bufello","steam_id":76561198975450630,"connected_time":1239000000000,"state":"active","ping":92},{"user_id":772,"name":"Dinoboy2009","steam_id":76561198382755652,"connected_time":1238000000000,"state":"active","ping":66},{"user_id":773,"name":"Acid-talon","steam_id":76561198039545578,"connected_time":1232000000000,"state":"active","ping":79},{"user_id":746,"name":"Banjobug","steam_id":76561198025230371,"connected_time":2981000000000,"state":"active","ping":70},{"user_id":780,"name":"Protatoe","steam_id":76561198101448283,"connected_time":296000000000,"state":"active","ping":84},{"user_id":748,"name":"Lore","steam_id":76561198098407538,"connected_time":2944000000000,"state":"active","ping":51},{"user_id":750,"name":"Kartyac","steam_id":76561197991069005,"connected_time":2925000000000,"state":"active","ping":79},{"user_id":689,"name":"Ace","steam_id":76561198309637160,"connected_time":7102000000000,"state":"active","ping":43},{"user_id":734,"name":"Eblizard","steam_id":76561198111481965,"connected_time":3206000000000,"state":"active","ping":84},{"user_id":778,"name":"Xevon","steam_id":76561198355618921,"connected_time":963000000000,"state":"active","ping":124},{"user_id":775,"name":"Masotan","steam_id":76561199047187302,"connected_time":1221000000000,"state":"active","ping":48},{"user_id":735,"name":"Fiendish Frog","steam_id":76561198029478821,"connected_time":3152000000000,"state":"active","ping":82}]},{"server_id":402,"name":"Uncletopia | Chicago | 3 | All Maps","name_short":"chi-3","host":"chi-1.us.uncletopia.com","port":27035,"enabled":true,"region":"us-central","cc":"us","latitude":41.881832,"longitude":-87.62318,"reserved":0,"last_update":"0001-01-01T00:00:00Z","name_a2s":"Uncletopia | Chicago | 3 | All Maps","protocol":17,"map":"pl_upward","folder":"tf","game":"Team Fortress","app_id":440,"player_count":24,"max_players":24,"Bots":0,"server_type":"Dedicated","server_os":"Linux","password":true,"vac":true,"version":"7757534","steam_id":85568392924515191,"keywords":["nocrits","nodmgspread","payload","uncletopia"],"game_id":440,"stv_port":27036,"stv_name":"Uncletopia | Chicago | 3 | All Maps | STV","players":[{"user_id":701,"name":"cesarleonfuentes","steam_id":76561198248461754,"connected_time":733000000000,"state":"active","ping":102},{"user_id":705,"name":"kivee","steam_id":76561198838223023,"connected_time":257000000000,"state":"active","ping":52},{"user_id":677,"name":"Iron","steam_id":76561198247918478,"connected_time":1619000000000,"state":"active","ping":64},{"user_id":596,"name":"tacofever","steam_id":76561198010966507,"connected_time":7865000000000,"state":"active","ping":102},{"user_id":689,"name":"mobe #zenmode","steam_id":76561198121633820,"connected_time":1155000000000,"state":"active","ping":105},{"user_id":690,"name":"weeb_whacker#Jenius #Hateologis","steam_id":76561198187098041,"connected_time":1141000000000,"state":"active","ping":56},{"user_id":706,"name":"heimdall","steam_id":76561198069380992,"connected_time":245000000000,"state":"active","ping":90},{"user_id":628,"name":"romopoji","steam_id":76561199475967281,"connected_time":5383000000000,"state":"active","ping":75},{"user_id":589,"name":"Razz","steam_id":76561198158027533,"connected_time":8106000000000,"state":"active","ping":44},{"user_id":629,"name":"Yarn","steam_id":76561199227148369,"connected_time":5376000000000,"state":"active","ping":86},{"user_id":707,"name":"hooley","steam_id":76561198041923067,"connected_time":241000000000,"state":"active","ping":71},{"user_id":692,"name":"SomeScuffedKid","steam_id":76561198086113234,"connected_time":1054000000000,"state":"active","ping":63},{"user_id":684,"name":"CamSoup","steam_id":76561198202483168,"connected_time":1502000000000,"state":"active","ping":69},{"user_id":708,"name":"Lost (15)","steam_id":76561198093713427,"connected_time":233000000000,"state":"active","ping":60},{"user_id":709,"name":"Tommy Pickles (Very Cool)","steam_id":76561198391261463,"connected_time":222000000000,"state":"active","ping":72},{"user_id":694,"name":"Boogie","steam_id":76561198043626626,"connected_time":895000000000,"state":"active","ping":54},{"user_id":713,"name":"A Fruit","steam_id":76561198951830050,"connected_time":186000000000,"state":"active","ping":71},{"user_id":668,"name":"vv","steam_id":76561198134813102,"connected_time":2116000000000,"state":"active","ping":60},{"user_id":696,"name":"Poppet","steam_id":76561198012301951,"connected_time":873000000000,"state":"active","ping":60},{"user_id":697,"name":"Belvidere","steam_id":76561198121336953,"connected_time":865000000000,"state":"active","ping":72},{"user_id":711,"name":"Zero","steam_id":76561199383267408,"connected_time":219000000000,"state":"active","ping":81},{"user_id":702,"name":"Ghandi","steam_id":76561198046702733,"connected_time":701000000000,"state":"active","ping":64},{"user_id":712,"name":"wokky bin laddn","steam_id":76561198265200834,"connected_time":209000000000,"state":"active","ping":73},{"user_id":700,"name":"Sir Iasis","steam_id":76561198035666760,"connected_time":793000000000,"state":"active","ping":65}]},{"server_id":403,"name":"Uncletopia | Chicago | 4 | All Maps","name_short":"chi-4","host":"chi-1.us.uncletopia.com","port":27045,"enabled":true,"region":"us-central","cc":"us","latitude":41.881832,"longitude":-87.62318,"reserved":0,"last_update":"0001-01-01T00:00:00Z","name_a2s":"Uncletopia | Chicago | 4 | All Maps","protocol":17,"map":"cp_mercenarypark","folder":"tf","game":"Team Fortress","app_id":440,"player_count":24,"max_players":24,"Bots":0,"server_type":"Dedicated","server_os":"Linux","password":true,"vac":true,"version":"7757534","steam_id":85568392924515193,"keywords":["cp","nocrits","nodmgspread","uncletopia"],"game_id":440,"stv_port":27046,"stv_name":"Uncletopia | Chicago | 4 | All Maps | STV","players":[{"user_id":587,"name":"M@verick","steam_id":76561198006363519,"connected_time":2774000000000,"state":"active","ping":70},{"user_id":599,"name":"Gian","steam_id":76561198041434512,"connected_time":2228000000000,"state":"active","ping":140},{"user_id":608,"name":"sweaterfan","steam_id":76561199389567214,"connected_time":1672000000000,"state":"active","ping":63},{"user_id":615,"name":"C4K3","steam_id":76561197996963285,"connected_time":954000000000,"state":"active","ping":73},{"user_id":589,"name":"Titar Industries","steam_id":76561198143078476,"connected_time":2746000000000,"state":"active","ping":64},{"user_id":565,"name":"Ruben","steam_id":76561198048508642,"connected_time":3769000000000,"state":"active","ping":103},{"user_id":567,"name":"Ena","steam_id":76561198046524916,"connected_time":3700000000000,"state":"active","ping":83},{"user_id":619,"name":"SilverGallium","steam_id":76561198042011972,"connected_time":734000000000,"state":"active","ping":75},{"user_id":618,"name":"Satan","steam_id":76561198207786155,"connected_time":817000000000,"state":"active","ping":76},{"user_id":605,"name":"surfer","steam_id":76561198068409067,"connected_time":1877000000000,"state":"active","ping":77},{"user_id":584,"name":"Schizophrenic Skullfox","steam_id":76561198082632923,"connected_time":2918000000000,"state":"active","ping":59},{"user_id":593,"name":"Scrumpy Main","steam_id":76561198146302597,"connected_time":2602000000000,"state":"active","ping":52},{"user_id":592,"name":"Mugman","steam_id":76561199011841575,"connected_time":2644000000000,"state":"active","ping":67},{"user_id":550,"name":"LunarrD","steam_id":76561198811220107,"connected_time":5729000000000,"state":"active","ping":81},{"user_id":583,"name":"JimboSlice","steam_id":76561199225336634,"connected_time":3258000000000,"state":"active","ping":73},{"user_id":606,"name":"deepmeta","steam_id":76561199053600691,"connected_time":1871000000000,"state":"active","ping":52},{"user_id":621,"name":"The local hobo","steam_id":76561198289650060,"connected_time":11000000000,"state":"spawning","ping":84},{"user_id":572,"name":"Brendan","steam_id":76561198041079914,"connected_time":3588000000000,"state":"active","ping":73},{"user_id":620,"name":"Onet","steam_id":76561198983484410,"connected_time":110000000000,"state":"active","ping":106},{"user_id":611,"name":"the girl gamer with IBS","steam_id":76561198029274581,"connected_time":1516000000000,"state":"active","ping":64},{"user_id":591,"name":"Cuphead","steam_id":76561198211892779,"connected_time":2730000000000,"state":"active","ping":67},{"user_id":613,"name":"Shrake","steam_id":76561198114379995,"connected_time":1289000000000,"state":"active","ping":31},{"user_id":577,"name":"luka","steam_id":76561198047891247,"connected_time":3542000000000,"state":"active","ping":70},{"user_id":610,"name":"smocc","steam_id":76561197993726746,"connected_time":1598000000000,"state":"active","ping":63}]},{"server_id":36,"name":"Uncletopia | Chicago | 5 | All Maps","name_short":"chi-5","host":"chi-2.us.uncletopia.com","port":27015,"enabled":true,"region":"us-central","cc":"us","latitude":41.881832,"longitude":-87.62318,"reserved":0,"last_update":"0001-01-01T00:00:00Z","name_a2s":"Uncletopia | Chicago | 5 | All Maps","protocol":17,"map":"pl_upward","folder":"tf","game":"Team Fortress","app_id":440,"player_count":0,"max_players":24,"Bots":0,"server_type":"Dedicated","server_os":"Linux","password":true,"vac":true,"version":"7757534","steam_id":85568392924866362,"keywords":["nocrits","nodmgspread","payload","uncletopia"],"game_id":440,"stv_port":27016,"stv_name":"Uncletopia | Chicago | 5 | All Maps | STV","players":null},{"server_id":37,"name":"Uncletopia | Chicago | 6 | All Maps","name_short":"chi-6","host":"chi-2.us.uncletopia.com","port":27025,"enabled":true,"region":"us-central","cc":"us","latitude":41.881832,"longitude":-87.62318,"reserved":0,"last_update":"0001-01-01T00:00:00Z","name_a2s":"Uncletopia | Chicago | 6 | All Maps","protocol":17,"map":"cp_junction_final","folder":"tf","game":"Team Fortress","app_id":440,"player_count":20,"max_players":24,"Bots":0,"server_type":"Dedicated","server_os":"Linux","password":true,"vac":true,"version":"7757534","steam_id":85568392924866363,"keywords":["cp","nocrits","nodmgspread","uncletopia"],"game_id":440,"stv_port":27026,"stv_name":"Uncletopia | Chicago | 6 | All Maps | STV","players":[{"user_id":673,"name":"banan team fortes","steam_id":76561199073621650,"connected_time":4134000000000,"state":"active","ping":99},{"user_id":643,"name":"saltysagan","steam_id":76561197981854067,"connected_time":7298000000000,"state":"active","ping":71},{"user_id":697,"name":"kametro4","steam_id":76561198835430429,"connected_time":2423000000000,"state":"active","ping":75},{"user_id":675,"name":"sergeant Adderall","steam_id":76561199010296481,"connected_time":4101000000000,"state":"active","ping":85},{"user_id":709,"name":"psy","steam_id":76561198013195018,"connected_time":1169000000000,"state":"active","ping":75},{"user_id":715,"name":"Bird of Paradise","steam_id":76561198891152046,"connected_time":52000000000,"state":"active","ping":96},{"user_id":702,"name":"HammerHead","steam_id":76561197975668646,"connected_time":2111000000000,"state":"active","ping":75},{"user_id":645,"name":"still bad at video games","steam_id":76561198328675913,"connected_time":7276000000000,"state":"active","ping":113},{"user_id":716,"name":"Subderhenge","steam_id":76561198090955892,"connected_time":33000000000,"state":"active","ping":88},{"user_id":717,"name":"JGatsby","steam_id":76561198023307584,"connected_time":19000000000,"state":"active","ping":121},{"user_id":671,"name":"earthbound393","steam_id":76561199444276547,"connected_time":4754000000000,"state":"active","ping":101},{"user_id":646,"name":"Broly From Dragon Ball Z","steam_id":76561198398934562,"connected_time":7266000000000,"state":"active","ping":75},{"user_id":703,"name":"gamer girl looking for a bf","steam_id":76561198279901162,"connected_time":2096000000000,"state":"active","ping":61},{"user_id":706,"name":"Psych03","steam_id":76561198061753667,"connected_time":1609000000000,"state":"active","ping":94},{"user_id":640,"name":"Kraftlos","steam_id":76561198074350350,"connected_time":7337000000000,"state":"active","ping":75},{"user_id":686,"name":"Remy the rat","steam_id":76561198080519558,"connected_time":3629000000000,"state":"active","ping":69},{"user_id":704,"name":"Forevershooting","steam_id":76561198124213574,"connected_time":1948000000000,"state":"active","ping":85},{"user_id":713,"name":"The Throngler","steam_id":76561198880576296,"connected_time":609000000000,"state":"active","ping":72},{"user_id":707,"name":"TothBrush","steam_id":76561198028254471,"connected_time":1562000000000,"state":"active","ping":61},{"user_id":701,"name":"Timber","steam_id":76561198024886009,"connected_time":2302000000000,"state":"active","ping":60}]},{"server_id":38,"name":"Uncletopia | Chicago | 7 | Stopwatch Beta","name_short":"chi-7","host":"chi-2.us.uncletopia.com","port":27035,"enabled":true,"region":"us-central","cc":"us","latitude":41.881832,"longitude":-87.62318,"reserved":0,"last_update":"0001-01-01T00:00:00Z","name_a2s":"Uncletopia | Chicago | 7 | Stopwatch Beta","protocol":17,"map":"pl_swiftwater_final1","folder":"tf","game":"Team Fortress","app_id":440,"player_count":0,"max_players":24,"Bots":0,"server_type":"Dedicated","server_os":"Linux","password":true,"vac":true,"version":"7757534","steam_id":85568392924866364,"keywords":["nocrits","nodmgspread","payload","uncletopia"],"game_id":440,"stv_port":27036,"stv_name":"Uncletopia | Chicago | 7 | Stopwatch Beta | STV","players":null},{"server_id":39,"name":"Uncletopia | Chicago | 8 | Community","name_short":"chi-8","host":"chi-2.us.uncletopia.com","port":27045,"enabled":true,"region":"us-central","cc":"us","latitude":41.881832,"longitude":-87.62318,"reserved":0,"last_update":"0001-01-01T00:00:00Z","name_a2s":"Uncletopia | Chicago | 8 | Community","protocol":17,"map":"workshop/cp_kalinka_rc6a.ugc1272700588","folder":"tf","game":"Team Fortress","app_id":440,"player_count":0,"max_players":24,"Bots":0,"server_type":"Dedicated","server_os":"Linux","password":true,"vac":true,"version":"7757534","steam_id":85568392924866365,"keywords":["cp","nocrits","nodmgspread","uncletopia"],"game_id":440,"stv_port":27046,"stv_name":"Uncletopia | Chicago | 8 | Community | STV","players":null},{"server_id":8,"name":"Uncletopia | Dallas | 1 | All Maps","name_short":"dal-1","host":"dal-1.us.uncletopia.com","port":27015,"enabled":true,"region":"us-central","cc":"us","latitude":32.779167,"longitude":-96.80889,"reserved":0,"last_update":"0001-01-01T00:00:00Z","name_a2s":"Uncletopia | Dallas | 1 | All Maps","protocol":17,"map":"pl_barnblitz","folder":"tf","game":"Team Fortress","app_id":440,"player_count":22,"max_players":24,"Bots":0,"server_type":"Dedicated","server_os":"Linux","password":true,"vac":true,"version":"7757534","steam_id":85568392924469986,"keywords":["nocrits","nodmgspread","payload","uncletopia"],"game_id":440,"stv_port":27016,"stv_name":"Uncletopia | Dallas | 1 | All Maps | STV","players":[{"user_id":607,"name":"Cursed Dog","steam_id":76561198090785078,"connected_time":4573000000000,"state":"active","ping":71},{"user_id":656,"name":"Bottom Trans Cowgirl","steam_id":76561198304239680,"connected_time":1187000000000,"state":"active","ping":87},{"user_id":668,"name":"blue","steam_id":76561198342449098,"connected_time":273000000000,"state":"active","ping":55},{"user_id":654,"name":"DennisV1","steam_id":76561198303501052,"connected_time":1328000000000,"state":"active","ping":94},{"user_id":675,"name":"Ifrit","steam_id":76561198044730782,"connected_time":169000000000,"state":"active","ping":62},{"user_id":663,"name":"Solarch","steam_id":76561198141761290,"connected_time":755000000000,"state":"active","ping":56},{"user_id":580,"name":"Dr. Dynamo","steam_id":76561198114569365,"connected_time":6726000000000,"state":"active","ping":58},{"user_id":670,"name":"Thatoneguybunchanumbers","steam_id":76561198028039160,"connected_time":256000000000,"state":"active","ping":82},{"user_id":639,"name":"Jared In Target","steam_id":76561198372449718,"connected_time":2331000000000,"state":"active","ping":54},{"user_id":671,"name":"Take the L","steam_id":76561198379223875,"connected_time":247000000000,"state":"active","ping":100},{"user_id":669,"name":"Jax_Y","steam_id":76561198436807464,"connected_time":271000000000,"state":"active","ping":64},{"user_id":673,"name":"deb","steam_id":76561198414336279,"connected_time":231000000000,"state":"active","ping":62},{"user_id":650,"name":"2003 Honda Civic","steam_id":76561198401205345,"connected_time":1586000000000,"state":"active","ping":60},{"user_id":674,"name":"MegaLeg","steam_id":76561198126521098,"connected_time":208000000000,"state":"active","ping":59},{"user_id":680,"name":"zapato","steam_id":76561198142278437,"connected_time":93000000000,"state":"active","ping":101},{"user_id":678,"name":"Hazeyboi","steam_id":76561198130687838,"connected_time":121000000000,"state":"active","ping":73},{"user_id":657,"name":"errant","steam_id":76561197961758410,"connected_time":996000000000,"state":"active","ping":41},{"user_id":664,"name":"Astro","steam_id":76561198035676106,"connected_time":329000000000,"state":"active","ping":66},{"user_id":644,"name":"iluvtoust","steam_id":76561198869269207,"connected_time":1718000000000,"state":"active","ping":59},{"user_id":677,"name":"Emperor Dankatine","steam_id":76561198044741086,"connected_time":149000000000,"state":"active","ping":85},{"user_id":641,"name":"Red","steam_id":76561198031865869,"connected_time":2264000000000,"state":"active","ping":66},{"user_id":665,"name":"RooRoo","steam_id":76561198320885124,"connected_time":329000000000,"state":"active","ping":59}]},{"server_id":108,"name":"Uncletopia | Dallas | 2 | All Maps","name_short":"dal-2","host":"dal-1.us.uncletopia.com","port":27025,"enabled":true,"region":"us-central","cc":"us","latitude":32.779167,"longitude":-96.80889,"reserved":0,"last_update":"0001-01-01T00:00:00Z","name_a2s":"Uncletopia | Dallas | 2 | All Maps","protocol":17,"map":"cp_dustbowl","folder":"tf","game":"Team Fortress","app_id":440,"player_count":19,"max_players":24,"Bots":0,"server_type":"Dedicated","server_os":"Linux","password":true,"vac":true,"version":"7757534","steam_id":85568392924469988,"keywords":["cp","nocrits","nodmgspread","uncletopia"],"game_id":440,"stv_port":27026,"stv_name":"Uncletopia | Dallas | 2 | All Maps | STV","players":[{"user_id":326,"name":"CreativeUsername","steam_id":76561198186045503,"connected_time":4206000000000,"state":"active","ping":75},{"user_id":340,"name":"alpha1zer0ready","steam_id":76561199206731331,"connected_time":2757000000000,"state":"active","ping":80},{"user_id":380,"name":"craig","steam_id":76561199162796012,"connected_time":130000000000,"state":"active","ping":74},{"user_id":381,"name":"-|Kappin'|- ExplosiveDiahrea","steam_id":76561198017045020,"connected_time":120000000000,"state":"active","ping":71},{"user_id":345,"name":"YHH face","steam_id":76561198035629877,"connected_time":2105000000000,"state":"active","ping":60},{"user_id":386,"name":"Butman902","steam_id":76561198190200054,"connected_time":22000000000,"state":"spawning","ping":44},{"user_id":347,"name":"raphaim #bb","steam_id":76561198089649422,"connected_time":2086000000000,"state":"active","ping":75},{"user_id":348,"name":"it's thicc thirty","steam_id":76561198027052378,"connected_time":2086000000000,"state":"active","ping":77},{"user_id":337,"name":"DeckofDragons","steam_id":76561198057398213,"connected_time":2879000000000,"state":"active","ping":66},{"user_id":370,"name":"The Great Karizma!","steam_id":76561198346191193,"connected_time":617000000000,"state":"active","ping":70},{"user_id":359,"name":"hump3","steam_id":76561198319815981,"connected_time":1566000000000,"state":"active","ping":76},{"user_id":384,"name":"-|Kappin'|- Kilbo Fraggins™","steam_id":76561197994725498,"connected_time":62000000000,"state":"active","ping":67},{"user_id":377,"name":"Goku","steam_id":76561198064143198,"connected_time":243000000000,"state":"active","ping":76},{"user_id":325,"name":"The Ultimate Coomer","steam_id":76561199128833757,"connected_time":4272000000000,"state":"active","ping":48},{"user_id":385,"name":"swiftyy","steam_id":76561198142939433,"connected_time":41000000000,"state":"active","ping":81},{"user_id":375,"name":"The_Pacific_gamer","steam_id":76561198089491446,"connected_time":318000000000,"state":"active","ping":91},{"user_id":330,"name":"JimmyBreeze (3)","steam_id":76561198243918128,"connected_time":3777000000000,"state":"active","ping":74},{"user_id":369,"name":"Arrythmia","steam_id":76561198093748123,"connected_time":682000000000,"state":"active","ping":105},{"user_id":358,"name":"moch","steam_id":76561198356266331,"connected_time":1672000000000,"state":"active","ping":82}]},{"server_id":5,"name":"Uncletopia | Frankfurt | 1 | All Maps","name_short":"frk-1","host":"frk-1.de.uncletopia.com","port":27015,"enabled":true,"region":"eu","cc":"de","latitude":50.110924,"longitude":8.682127,"reserved":0,"last_update":"0001-01-01T00:00:00Z","name_a2s":"Uncletopia | Frankfurt | 1 | All Maps","protocol":17,"map":"pl_badwater","folder":"tf","game":"Team Fortress","app_id":440,"player_count":0,"max_players":24,"Bots":0,"server_type":"Dedicated","server_os":"Linux","password":true,"vac":true,"version":"7757534","steam_id":85568392924469989,"keywords":["nocrits","nodmgspread","payload","uncletopia"],"game_id":440,"stv_port":27016,"stv_name":"Uncletopia | Frankfurt | 1 | All Maps | STV","players":null},{"server_id":110,"name":"Uncletopia | Frankfurt | 2 | All Maps","name_short":"frk-2","host":"frk-1.de.uncletopia.com","port":27025,"enabled":true,"region":"eu","cc":"de","latitude":50.110924,"longitude":8.682127,"reserved":0,"last_update":"0001-01-01T00:00:00Z","name_a2s":"Uncletopia | Frankfurt | 2 | All Maps","protocol":17,"map":"cp_altitude","folder":"tf","game":"Team Fortress","app_id":440,"player_count":0,"max_players":24,"Bots":0,"server_type":"Dedicated","server_os":"Linux","password":true,"vac":true,"version":"7757534","steam_id":85568392924469990,"keywords":["cp","nocrits","nodmgspread","uncletopia"],"game_id":440,"stv_port":27026,"stv_name":"Uncletopia | Frankfurt | 2 | All Maps | STV","players":null},{"server_id":308,"name":"Uncletopia | Frankfurt | 3 | All Maps","name_short":"frk-3","host":"frk-1.de.uncletopia.com","port":27035,"enabled":true,"region":"eu","cc":"de","latitude":50.110924,"longitude":8.682127,"reserved":0,"last_update":"0001-01-01T00:00:00Z","name_a2s":"Uncletopia | Frankfurt | 3 | All Maps","protocol":17,"map":"pl_borneo","folder":"tf","game":"Team Fortress","app_id":440,"player_count":0,"max_players":24,"Bots":0,"server_type":"Dedicated","server_os":"Linux","password":true,"vac":true,"version":"7757534","steam_id":85568392924504274,"keywords":["nocrits","nodmgspread","payload","uncletopia"],"game_id":440,"stv_port":27036,"stv_name":"Uncletopia | Frankfurt | 3 | All Maps | STV","players":null},{"server_id":309,"name":"Uncletopia | Frankfurt | 4 | All Maps","name_short":"frk-4","host":"frk-1.de.uncletopia.com","port":27045,"enabled":true,"region":"eu","cc":"de","latitude":50.110924,"longitude":8.682127,"reserved":0,"last_update":"0001-01-01T00:00:00Z","name_a2s":"Uncletopia | Frankfurt | 4 | All Maps","protocol":17,"map":"pl_pier","folder":"tf","game":"Team Fortress","app_id":440,"player_count":0,"max_players":24,"Bots":0,"server_type":"Dedicated","server_os":"Linux","password":true,"vac":true,"version":"7757534","steam_id":85568392924504275,"keywords":["nocrits","nodmgspread","payload","uncletopia"],"game_id":440,"stv_port":27046,"stv_name":"Uncletopia | Frankfurt | 4 | All Maps | STV","players":null},{"server_id":310,"name":"Uncletopia | Frankfurt | 5 | All Maps","name_short":"frk-5","host":"frk-1.de.uncletopia.com","port":27055,"enabled":true,"region":"eu","cc":"de","latitude":50.110924,"longitude":8.682127,"reserved":0,"last_update":"0001-01-01T00:00:00Z","name_a2s":"Uncletopia | Frankfurt | 5 | All Maps","protocol":17,"map":"cp_altitude","folder":"tf","game":"Team Fortress","app_id":440,"player_count":0,"max_players":24,"Bots":0,"server_type":"Dedicated","server_os":"Linux","password":true,"vac":true,"version":"7757534","steam_id":85568392924504277,"keywords":["cp","nocrits","nodmgspread","uncletopia"],"game_id":440,"stv_port":27056,"stv_name":"Uncletopia | Frankfurt | 5 | All Maps | STV","players":null},{"server_id":311,"name":"Uncletopia | Frankfurt | 6 | All Maps","name_short":"frk-6","host":"frk-1.de.uncletopia.com","port":27065,"enabled":true,"region":"eu","cc":"de","latitude":50.110924,"longitude":8.682127,"reserved":0,"last_update":"0001-01-01T00:00:00Z","name_a2s":"Uncletopia | Frankfurt | 6 | All Maps","protocol":17,"map":"pl_barnblitz","folder":"tf","game":"Team Fortress","app_id":440,"player_count":0,"max_players":24,"Bots":0,"server_type":"Dedicated","server_os":"Linux","password":true,"vac":true,"version":"7757534","steam_id":85568392924504278,"keywords":["nocrits","nodmgspread","payload","uncletopia"],"game_id":440,"stv_port":27066,"stv_name":"Uncletopia | Frankfurt | 6 | All Maps | STV","players":null},{"server_id":23,"name":"Uncletopia | Frankfurt | 7 | Stopwatch Beta","name_short":"frk-7","host":"frk-1.de.uncletopia.com","port":27075,"enabled":true,"region":"eu","cc":"de","latitude":50.110924,"longitude":8.682127,"reserved":0,"last_update":"0001-01-01T00:00:00Z","name_a2s":"Uncletopia | Frankfurt | 7 | Stopwatch Beta","protocol":17,"map":"pl_borneo","folder":"tf","game":"Team Fortress","app_id":440,"player_count":0,"max_players":24,"Bots":0,"server_type":"Dedicated","server_os":"Linux","password":true,"vac":true,"version":"7757534","steam_id":85568392924742827,"keywords":["nocrits","nodmgspread","payload","uncletopia"],"game_id":440,"stv_port":27076,"stv_name":"Uncletopia | Frankfurt | 7 | Stopwatch Beta | STV","players":null},{"server_id":24,"name":"Uncletopia | Frankfurt | 8 | Community","name_short":"frk-8","host":"frk-1.de.uncletopia.com","port":27085,"enabled":true,"region":"eu","cc":"de","latitude":50.110924,"longitude":8.682127,"reserved":0,"last_update":"0001-01-01T00:00:00Z","name_a2s":"Uncletopia | Frankfurt | 8 | Community","protocol":17,"map":"koth_viaduct","folder":"tf","game":"Team Fortress","app_id":440,"player_count":0,"max_players":24,"Bots":0,"server_type":"Dedicated","server_os":"Linux","password":true,"vac":true,"version":"7757534","steam_id":85568392924742828,"keywords":["cp","nocrits","nodmgspread","uncletopia"],"game_id":440,"stv_port":27086,"stv_name":"Uncletopia | Frankfurt | 8 | Community | STV","players":null},{"server_id":202,"name":"Uncletopia | Hong Kong | 1 | All Maps","name_short":"hgk-1","host":"hgk-1.hk.uncletopia.com","port":27015,"enabled":true,"region":"asia","cc":"hk","latitude":22.302711,"longitude":114.177216,"reserved":0,"last_update":"0001-01-01T00:00:00Z","name_a2s":"Uncletopia | Hong Kong | 1 | All Maps","protocol":17,"map":"pl_badwater","folder":"tf","game":"Team Fortress","app_id":440,"player_count":24,"max_players":24,"Bots":0,"server_type":"Dedicated","server_os":"Linux","password":true,"vac":true,"version":"7757534","steam_id":85568392924494504,"keywords":["nocrits","nodmgspread","payload","uncletopia"],"game_id":440,"stv_port":27016,"stv_name":"Uncletopia | Hong Kong | 1 | All Maps | STV","players":[{"user_id":148,"name":"jjjjjjjjjjjjjjjjjjjjjjjj","steam_id":76561198324008555,"connected_time":1022000000000,"state":"active","ping":50},{"user_id":147,"name":"niceguy6785","steam_id":76561199442589750,"connected_time":1360000000000,"state":"active","ping":52},{"user_id":120,"name":"corpse_cadaver","steam_id":76561199225360457,"connected_time":3508000000000,"state":"active","ping":69},{"user_id":115,"name":"jeeping jaguar!!1!!1!1","steam_id":76561199107596818,"connected_time":3928000000000,"state":"active","ping":123},{"user_id":155,"name":"☁ dink","steam_id":76561198309134502,"connected_time":93000000000,"state":"active","ping":120},{"user_id":156,"name":"Nephew Nate","steam_id":76561199137872034,"connected_time":35000000000,"state":"active","ping":189},{"user_id":141,"name":"Nasi Lemak Gaming","steam_id":76561198082921407,"connected_time":1916000000000,"state":"active","ping":101},{"user_id":30,"name":"vintage","steam_id":76561198230213828,"connected_time":10778000000000,"state":"active","ping":60},{"user_id":151,"name":"MrWaddles\u003e:/","steam_id":76561198075161995,"connected_time":281000000000,"state":"active","ping":175},{"user_id":153,"name":"マグナス","steam_id":76561198208990721,"connected_time":264000000000,"state":"active","ping":148},{"user_id":132,"name":"TomCat","steam_id":76561198133744053,"connected_time":2791000000000,"state":"active","ping":120},{"user_id":67,"name":"Grimo_1","steam_id":76561199100139135,"connected_time":6433000000000,"state":"active","ping":138},{"user_id":134,"name":"0 percep vast","steam_id":76561198320532821,"connected_time":2463000000000,"state":"active","ping":79},{"user_id":61,"name":"✧BaKa BAzooKA✧(◕▿◕ )","steam_id":76561198061628689,"connected_time":6838000000000,"state":"active","ping":53},{"user_id":125,"name":"L4MA","steam_id":76561198249200320,"connected_time":3260000000000,"state":"active","ping":44},{"user_id":133,"name":"christianoronaldofan7","steam_id":76561199468027876,"connected_time":2697000000000,"state":"active","ping":98},{"user_id":149,"name":"SkippyDurwood","steam_id":76561199226227211,"connected_time":451000000000,"state":"active","ping":138},{"user_id":100,"name":"anemoia","steam_id":76561198074339034,"connected_time":4843000000000,"state":"active","ping":75},{"user_id":139,"name":"aeross","steam_id":76561198834445483,"connected_time":2167000000000,"state":"active","ping":92},{"user_id":128,"name":"bruh","steam_id":76561199068229379,"connected_time":3115000000000,"state":"active","ping":79},{"user_id":129,"name":"Giouri","steam_id":76561199152247162,"connected_time":3071000000000,"state":"active","ping":135},{"user_id":144,"name":"x.","steam_id":76561198131951701,"connected_time":1520000000000,"state":"active","ping":109},{"user_id":152,"name":"Gamer","steam_id":76561199015268493,"connected_time":277000000000,"state":"active","ping":68},{"user_id":146,"name":"Prof Booster | trade.tf","steam_id":76561199148930929,"connected_time":1383000000000,"state":"active","ping":33}]},{"server_id":1,"name":"Uncletopia | Los Angeles | 1 | All Maps","name_short":"lax-1","host":"lax-1.us.uncletopia.com","port":27015,"enabled":true,"region":"us-west","cc":"us","latitude":33.94279,"longitude":-118.41004,"reserved":0,"last_update":"0001-01-01T00:00:00Z","name_a2s":"Uncletopia | Los Angeles | 1 | All Maps","protocol":17,"map":"pl_swiftwater_final1","folder":"tf","game":"Team Fortress","app_id":440,"player_count":21,"max_players":24,"Bots":0,"server_type":"Dedicated","server_os":"Linux","password":true,"vac":true,"version":"7757534","steam_id":85568392924469991,"keywords":["nocrits","nodmgspread","payload","uncletopia"],"game_id":440,"stv_port":27016,"stv_name":"Uncletopia | Los Angeles | 1 | All Maps | STV","players":[{"user_id":385,"name":"kab789","steam_id":76561198069842202,"connected_time":3132000000000,"state":"active","ping":110},{"user_id":406,"name":"john joe","steam_id":76561198978951141,"connected_time":1482000000000,"state":"active","ping":91},{"user_id":390,"name":"Fazer","steam_id":76561197979461186,"connected_time":2603000000000,"state":"active","ping":42},{"user_id":418,"name":"ice cream (冰淇淋)","steam_id":76561198976530881,"connected_time":68000000000,"state":"active","ping":38},{"user_id":357,"name":"Flembrane","steam_id":76561197995328898,"connected_time":5666000000000,"state":"active","ping":40},{"user_id":407,"name":"Epiknezz","steam_id":76561198040397776,"connected_time":1300000000000,"state":"active","ping":46},{"user_id":402,"name":"CherryPieRed2023","steam_id":76561198998007496,"connected_time":1922000000000,"state":"active","ping":80},{"user_id":419,"name":"ULTRACOCK","steam_id":76561198022967929,"connected_time":5000000000,"state":"spawning","ping":48},{"user_id":369,"name":"Uprightmoss7528","steam_id":76561199200138486,"connected_time":4479000000000,"state":"active","ping":58},{"user_id":391,"name":"monkey squirts","steam_id":76561197983101644,"connected_time":2598000000000,"state":"active","ping":44},{"user_id":420,"name":"Pyrotek⁴","steam_id":76561198072747672,"connected_time":3000000000,"state":"spawning","ping":43},{"user_id":417,"name":"diceroll","steam_id":76561199091191812,"connected_time":111000000000,"state":"active","ping":118},{"user_id":363,"name":"Mom","steam_id":76561198207936000,"connected_time":5268000000000,"state":"active","ping":74},{"user_id":392,"name":"Jeff The Clown","steam_id":76561198071123791,"connected_time":2580000000000,"state":"active","ping":72},{"user_id":386,"name":"Pines","steam_id":76561199024146278,"connected_time":2770000000000,"state":"active","ping":55},{"user_id":408,"name":"trashed","steam_id":76561199223514262,"connected_time":1278000000000,"state":"active","ping":106},{"user_id":409,"name":"dash23™","steam_id":76561198314951185,"connected_time":1190000000000,"state":"active","ping":87},{"user_id":416,"name":"peckerwood","steam_id":76561199072087645,"connected_time":466000000000,"state":"active","ping":32},{"user_id":378,"name":"Florida Man","steam_id":76561198418116040,"connected_time":3546000000000,"state":"active","ping":135},{"user_id":400,"name":"heisenberg","steam_id":76561198075341060,"connected_time":2302000000000,"state":"active","ping":55},{"user_id":403,"name":"squid","steam_id":76561198070236972,"connected_time":1916000000000,"state":"active","ping":60}]},{"server_id":112,"name":"Uncletopia | Los Angeles | 2 | All Maps","name_short":"lax-2","host":"lax-1.us.uncletopia.com","port":27025,"enabled":true,"region":"us-west","cc":"us","latitude":33.94279,"longitude":-118.41004,"reserved":0,"last_update":"0001-01-01T00:00:00Z","name_a2s":"Uncletopia | Los Angeles | 2 | All Maps","protocol":17,"map":"koth_highpass","folder":"tf","game":"Team Fortress","app_id":440,"player_count":24,"max_players":24,"Bots":0,"server_type":"Dedicated","server_os":"Linux","password":true,"vac":true,"version":"7757534","steam_id":85568392924469992,"keywords":["cp","nocrits","nodmgspread","uncletopia"],"game_id":440,"stv_port":27026,"stv_name":"Uncletopia | Los Angeles | 2 | All Maps | STV","players":[{"user_id":415,"name":"walrooos","steam_id":76561198024521839,"connected_time":3458000000000,"state":"active","ping":44},{"user_id":455,"name":"I regret nothing","steam_id":76561198399261089,"connected_time":626000000000,"state":"active","ping":46},{"user_id":445,"name":"Sidekick1004","steam_id":76561198071611669,"connected_time":1120000000000,"state":"active","ping":46},{"user_id":444,"name":"Vergil","steam_id":76561198133905845,"connected_time":1218000000000,"state":"active","ping":59},{"user_id":446,"name":"pyrotechnic","steam_id":76561198043558709,"connected_time":1116000000000,"state":"active","ping":75},{"user_id":391,"name":"HanakoToast","steam_id":76561198045233131,"connected_time":5423000000000,"state":"active","ping":69},{"user_id":447,"name":"PTSleepyHead","steam_id":76561198037748705,"connected_time":1017000000000,"state":"active","ping":35},{"user_id":448,"name":"\u003c`)))))\u003c fish","steam_id":76561198410078962,"connected_time":989000000000,"state":"active","ping":52},{"user_id":449,"name":"The Assistant Regional Manager","steam_id":76561199221484936,"connected_time":926000000000,"state":"active","ping":61},{"user_id":420,"name":"Ozone-Flavored Starburst","steam_id":76561199163688421,"connected_time":3299000000000,"state":"active","ping":105},{"user_id":450,"name":"Azzy","steam_id":76561198195409931,"connected_time":880000000000,"state":"active","ping":81},{"user_id":435,"name":"Typhoid","steam_id":76561198067791086,"connected_time":2630000000000,"state":"active","ping":45},{"user_id":439,"name":"Moth","steam_id":76561198170253694,"connected_time":2012000000000,"state":"active","ping":95},{"user_id":317,"name":"_normal","steam_id":76561198338505734,"connected_time":8750000000000,"state":"active","ping":82},{"user_id":442,"name":"Gimmick","steam_id":76561198065873462,"connected_time":1324000000000,"state":"active","ping":44},{"user_id":312,"name":"Leftshadows","steam_id":76561199089515791,"connected_time":8905000000000,"state":"active","ping":58},{"user_id":437,"name":"Owl_eyes","steam_id":76561198066199203,"connected_time":2590000000000,"state":"active","ping":57},{"user_id":452,"name":"OrangeGuy","steam_id":76561198240712332,"connected_time":850000000000,"state":"active","ping":107},{"user_id":453,"name":"FriskyDemon","steam_id":76561198043684646,"connected_time":772000000000,"state":"active","ping":73},{"user_id":425,"name":"amia","steam_id":76561198228125224,"connected_time":3196000000000,"state":"active","ping":46},{"user_id":454,"name":"turnip","steam_id":76561197999375941,"connected_time":723000000000,"state":"active","ping":76},{"user_id":426,"name":"Edboi","steam_id":76561198117849098,"connected_time":3189000000000,"state":"active","ping":68},{"user_id":436,"name":"worker","steam_id":76561198039608940,"connected_time":2624000000000,"state":"active","ping":91},{"user_id":438,"name":"PinguEnjoyer6","steam_id":76561199186723516,"connected_time":2235000000000,"state":"active","ping":46}]},{"server_id":324,"name":"Uncletopia | Los Angeles | 3 | All Maps","name_short":"lax-3","host":"lax-1.us.uncletopia.com","port":27035,"enabled":true,"region":"us-west","cc":"us","latitude":33.94279,"longitude":-118.41004,"reserved":0,"last_update":"0001-01-01T00:00:00Z","name_a2s":"Uncletopia | Los Angeles | 3 | All Maps","protocol":17,"map":"cp_sunshine","folder":"tf","game":"Team Fortress","app_id":440,"player_count":8,"max_players":24,"Bots":0,"server_type":"Dedicated","server_os":"Linux","password":true,"vac":true,"version":"7757534","steam_id":85568392924510198,"keywords":["cp","nocrits","nodmgspread","uncletopia"],"game_id":440,"stv_port":27036,"stv_name":"Uncletopia | Los Angeles | 3 | All Maps | STV","players":[{"user_id":160,"name":"Boing Boom Tschak","steam_id":76561198256553006,"connected_time":708000000000,"state":"active","ping":66},{"user_id":162,"name":"r u guys going trick or treatin","steam_id":76561199074585110,"connected_time":573000000000,"state":"active","ping":37},{"user_id":163,"name":"One Canadian Derg","steam_id":76561198212687343,"connected_time":334000000000,"state":"active","ping":94},{"user_id":155,"name":"AwesomenessPhD","steam_id":76561198152631718,"connected_time":1167000000000,"state":"active","ping":73},{"user_id":142,"name":"jimbo","steam_id":76561198821535846,"connected_time":2759000000000,"state":"active","ping":103},{"user_id":147,"name":"Retrolovania","steam_id":76561198970120710,"connected_time":1748000000000,"state":"active","ping":147},{"user_id":149,"name":"Ślimak","steam_id":76561198296476784,"connected_time":1516000000000,"state":"active","ping":123},{"user_id":156,"name":"shake","steam_id":76561199064204750,"connected_time":1062000000000,"state":"active","ping":115}]},{"server_id":25,"name":"Uncletopia | Los Angeles | 4 | Stopwatch Beta","name_short":"lax-4","host":"lax-1.us.uncletopia.com","port":27045,"enabled":true,"region":"us-west","cc":"us","latitude":33.94279,"longitude":-118.41004,"reserved":0,"last_update":"0001-01-01T00:00:00Z","name_a2s":"Uncletopia | Los Angeles | 4 | Stopwatch Beta","protocol":17,"map":"pl_swiftwater_final1","folder":"tf","game":"Team Fortress","app_id":440,"player_count":0,"max_players":24,"Bots":0,"server_type":"Dedicated","server_os":"Linux","password":true,"vac":true,"version":"7757534","steam_id":85568392924510199,"keywords":["nocrits","nodmgspread","payload","uncletopia"],"game_id":440,"stv_port":27046,"stv_name":"Uncletopia | Los Angeles | 4 | Stopwatch Beta | STV","players":null},{"server_id":11,"name":"Uncletopia | London | 1 | All Maps","name_short":"lon-1","host":"lon-1.uk.uncletopia.com","port":27015,"enabled":true,"region":"eu","cc":"gb","latitude":51.509865,"longitude":-0.118092,"reserved":0,"last_update":"0001-01-01T00:00:00Z","name_a2s":"Uncletopia | London | 1 | All Maps","protocol":17,"map":"koth_cascade","folder":"tf","game":"Team Fortress","app_id":440,"player_count":0,"max_players":24,"Bots":0,"server_type":"Dedicated","server_os":"Linux","password":true,"vac":true,"version":"7757534","steam_id":85568392924367362,"keywords":["cp","nocrits","nodmgspread","uncletopia"],"game_id":440,"stv_port":27016,"stv_name":"Uncletopia | London | 1 | All Maps | STV","players":null},{"server_id":114,"name":"Uncletopia | London | 2 | All Maps","name_short":"lon-2","host":"lon-1.uk.uncletopia.com","port":27025,"enabled":true,"region":"eu","cc":"gb","latitude":51.509865,"longitude":-0.118092,"reserved":0,"last_update":"0001-01-01T00:00:00Z","name_a2s":"Uncletopia | London | 2 | All Maps","protocol":17,"map":"cp_steel","folder":"tf","game":"Team Fortress","app_id":440,"player_count":21,"max_players":24,"Bots":0,"server_type":"Dedicated","server_os":"Linux","password":true,"vac":true,"version":"7757534","steam_id":85568392924470941,"keywords":["cp","nocrits","nodmgspread","uncletopia"],"game_id":440,"stv_port":27026,"stv_name":"Uncletopia | London | 2 | All Maps | STV","players":[{"user_id":584,"name":"cat","steam_id":76561198353427757,"connected_time":1670000000000,"state":"active","ping":46},{"user_id":586,"name":"Littleshawsi","steam_id":76561198080649872,"connected_time":1285000000000,"state":"active","ping":57},{"user_id":602,"name":"Melon","steam_id":76561198150893860,"connected_time":72000000000,"state":"active","ping":75},{"user_id":604,"name":"anna banana :3","steam_id":76561197962534841,"connected_time":18000000000,"state":"active","ping":75},{"user_id":605,"name":"Davy Crockett","steam_id":76561198000973506,"connected_time":0,"state":"spawning","ping":0},{"user_id":588,"name":"MIFIXZZZZ#SaveTF2","steam_id":76561198976567322,"connected_time":1193000000000,"state":"active","ping":122},{"user_id":600,"name":"vani","steam_id":76561197991778291,"connected_time":323000000000,"state":"active","ping":79},{"user_id":553,"name":"Tails8521","steam_id":76561198051747164,"connected_time":4750000000000,"state":"active","ping":45},{"user_id":601,"name":"IronHawk✨","steam_id":76561198008959448,"connected_time":88000000000,"state":"connecting","ping":76},{"user_id":578,"name":"charlotte","steam_id":76561199244029427,"connected_time":2512000000000,"state":"active","ping":85},{"user_id":574,"name":"apples","steam_id":76561198250917690,"connected_time":2962000000000,"state":"active","ping":84},{"user_id":593,"name":"Bagel","steam_id":76561198372722828,"connected_time":1025000000000,"state":"active","ping":111},{"user_id":590,"name":"SkeechBox 1.1.3","steam_id":76561198119215388,"connected_time":1068000000000,"state":"active","ping":159},{"user_id":591,"name":"Rivers Cuomo","steam_id":76561198800032551,"connected_time":1062000000000,"state":"active","ping":144},{"user_id":554,"name":"HurrpNana","steam_id":76561199102156562,"connected_time":4740000000000,"state":"active","ping":103},{"user_id":566,"name":"Gernhardt Reinlunzen #savetf2","steam_id":76561198147571688,"connected_time":3464000000000,"state":"active","ping":39},{"user_id":597,"name":"Arti","steam_id":76561197983352845,"connected_time":765000000000,"state":"active","ping":58},{"user_id":596,"name":"true","steam_id":76561198031145243,"connected_time":837000000000,"state":"active","ping":75},{"user_id":549,"name":"Hong Kong Larry","steam_id":76561198071829617,"connected_time":4938000000000,"state":"active","ping":43},{"user_id":550,"name":"CHEEKI BREEKI","steam_id":76561198023120431,"connected_time":4929000000000,"state":"active","ping":68},{"user_id":567,"name":"Couch/Luper","steam_id":76561198531978435,"connected_time":3385000000000,"state":"active","ping":66}]},{"server_id":320,"name":"Uncletopia | London | 3 | All Maps","name_short":"lon-3","host":"lon-1.uk.uncletopia.com","port":27035,"enabled":true,"region":"eu","cc":"gb","latitude":51.509865,"longitude":-0.118092,"reserved":0,"last_update":"0001-01-01T00:00:00Z","name_a2s":"Uncletopia | London | 3 | All Maps","protocol":17,"map":"koth_highpass","folder":"tf","game":"Team Fortress","app_id":440,"player_count":0,"max_players":24,"Bots":0,"server_type":"Dedicated","server_os":"Linux","password":true,"vac":true,"version":"7757534","steam_id":85568392924510192,"keywords":["cp","nocrits","nodmgspread","uncletopia"],"game_id":440,"stv_port":27036,"stv_name":"Uncletopia | London | 3 | All Maps | STV","players":null},{"server_id":321,"name":"Uncletopia | London | 4 | All Maps","name_short":"lon-4","host":"lon-1.uk.uncletopia.com","port":27045,"enabled":true,"region":"eu","cc":"gb","latitude":51.509865,"longitude":-0.118092,"reserved":0,"last_update":"0001-01-01T00:00:00Z","name_a2s":"Uncletopia | London | 4 | All Maps","protocol":17,"map":"koth_viaduct","folder":"tf","game":"Team Fortress","app_id":440,"player_count":0,"max_players":24,"Bots":0,"server_type":"Dedicated","server_os":"Linux","password":true,"vac":true,"version":"7757534","steam_id":85568392924510193,"keywords":["cp","nocrits","nodmgspread","uncletopia"],"game_id":440,"stv_port":27046,"stv_name":"Uncletopia | London | 4 | All Maps | STV","players":null},{"server_id":21,"name":"Uncletopia | London | 5 | All Maps","name_short":"lon-5","host":"lon-1.uk.uncletopia.com","port":27055,"enabled":true,"region":"eu","cc":"gb","latitude":51.509865,"longitude":-0.118092,"reserved":0,"last_update":"0001-01-01T00:00:00Z","name_a2s":"Uncletopia | London | 5 | All Maps","protocol":17,"map":"koth_nucleus","folder":"tf","game":"Team Fortress","app_id":440,"player_count":0,"max_players":24,"Bots":0,"server_type":"Dedicated","server_os":"Linux","password":true,"vac":true,"version":"7757534","steam_id":85568392924742829,"keywords":["cp","nocrits","nodmgspread","uncletopia"],"game_id":440,"stv_port":27056,"stv_name":"Uncletopia | London | 5 | All Maps | STV","players":null},{"server_id":22,"name":"Uncletopia | London | 6 | All Maps","name_short":"lon-6","host":"lon-1.uk.uncletopia.com","port":27065,"enabled":true,"region":"eu","cc":"gb","latitude":51.509865,"longitude":-0.118092,"reserved":0,"last_update":"0001-01-01T00:00:00Z","name_a2s":"Uncletopia | London | 6 | All Maps","protocol":17,"map":"koth_cascade","folder":"tf","game":"Team Fortress","app_id":440,"player_count":0,"max_players":24,"Bots":0,"server_type":"Dedicated","server_os":"Linux","password":true,"vac":true,"version":"7757534","steam_id":85568392924742830,"keywords":["cp","nocrits","nodmgspread","uncletopia"],"game_id":440,"stv_port":27066,"stv_name":"Uncletopia | London | 6 | All Maps | STV","players":null},{"server_id":40,"name":"Uncletopia | London | 7 | No Payload","name_short":"lon-7","host":"lon-1.uk.uncletopia.com","port":27075,"enabled":true,"region":"eu","cc":"gb","latitude":51.509865,"longitude":-0.118092,"reserved":0,"last_update":"0001-01-01T00:00:00Z","name_a2s":"Uncletopia | London | 7 | No Payload","protocol":17,"map":"cp_gullywash_final1","folder":"tf","game":"Team Fortress","app_id":440,"player_count":0,"max_players":24,"Bots":0,"server_type":"Dedicated","server_os":"Linux","password":true,"vac":true,"version":"7757534","steam_id":85568392924964314,"keywords":["cp","nocrits","nodmgspread","uncletopia"],"game_id":440,"stv_port":27076,"stv_name":"Uncletopia | London | 7 | No Payload | STV","players":null},{"server_id":41,"name":"Uncletopia | London | 8 | Community","name_short":"lon-8","host":"lon-1.uk.uncletopia.com","port":27085,"enabled":true,"region":"eu","cc":"gb","latitude":51.509865,"longitude":-0.118092,"reserved":0,"last_update":"0001-01-01T00:00:00Z","name_a2s":"Uncletopia | London | 8 | Community","protocol":17,"map":"workshop/koth_slaughter_rc1.ugc1712845210","folder":"tf","game":"Team Fortress","app_id":440,"player_count":0,"max_players":24,"Bots":0,"server_type":"Dedicated","server_os":"Linux","password":true,"vac":true,"version":"7757534","steam_id":85568392924964315,"keywords":["cp","nocrits","nodmgspread","uncletopia"],"game_id":440,"stv_port":27086,"stv_name":"Uncletopia | London | 8 | Community | STV","players":null},{"server_id":300,"name":"Uncletopia | Montréal | 1 | All Maps","name_short":"mtl-1","host":"mtl-1.ca.uncletopia.com","port":27015,"enabled":true,"region":"us-east","cc":"ca","latitude":45.50889,"longitude":-73.56167,"reserved":0,"last_update":"0001-01-01T00:00:00Z","name_a2s":"Uncletopia | Montréal | 1 | All Maps","protocol":17,"map":"pl_pier","folder":"tf","game":"Team Fortress","app_id":440,"player_count":0,"max_players":24,"Bots":0,"server_type":"Dedicated","server_os":"Linux","password":true,"vac":true,"version":"7757534","steam_id":85568392924500087,"keywords":["nocrits","nodmgspread","payload","uncletopia"],"game_id":440,"stv_port":27016,"stv_name":"Uncletopia | Montréal | 1 | All Maps | STV","players":null},{"server_id":301,"name":"Uncletopia | Montréal | 2 | All Maps","name_short":"mtl-2","host":"mtl-1.ca.uncletopia.com","port":27025,"enabled":true,"region":"us-east","cc":"ca","latitude":45.50889,"longitude":-73.56167,"reserved":0,"last_update":"0001-01-01T00:00:00Z","name_a2s":"Uncletopia | Montréal | 2 | All Maps","protocol":17,"map":"koth_cascade","folder":"tf","game":"Team Fortress","app_id":440,"player_count":0,"max_players":24,"Bots":0,"server_type":"Dedicated","server_os":"Linux","password":true,"vac":true,"version":"7757534","steam_id":85568392924500088,"keywords":["cp","nocrits","nodmgspread","uncletopia"],"game_id":440,"stv_port":27026,"stv_name":"Uncletopia | Montréal | 2 | All Maps | STV","players":null},{"server_id":302,"name":"Uncletopia | Montréal | 3 | All Maps","name_short":"mtl-3","host":"mtl-1.ca.uncletopia.com","port":27035,"enabled":true,"region":"us-east","cc":"ca","latitude":45.50889,"longitude":-73.56167,"reserved":0,"last_update":"0001-01-01T00:00:00Z","name_a2s":"Uncletopia | Montréal | 3 | All Maps","protocol":17,"map":"pl_snowycoast","folder":"tf","game":"Team Fortress","app_id":440,"player_count":0,"max_players":24,"Bots":0,"server_type":"Dedicated","server_os":"Linux","password":true,"vac":true,"version":"7757534","steam_id":85568392924500089,"keywords":["nocrits","nodmgspread","payload","uncletopia"],"game_id":440,"stv_port":27036,"stv_name":"Uncletopia | Montréal | 3 | All Maps | STV","players":null},{"server_id":303,"name":"Uncletopia | Montréal | 4 | No Payload","name_short":"mtl-4","host":"mtl-1.ca.uncletopia.com","port":27045,"enabled":true,"region":"us-east","cc":"ca","latitude":45.50889,"longitude":-73.56167,"reserved":0,"last_update":"0001-01-01T00:00:00Z","name_a2s":"Uncletopia | Montréal | 4 | No Payload","protocol":17,"map":"koth_sawmill","folder":"tf","game":"Team Fortress","app_id":440,"player_count":0,"max_players":24,"Bots":0,"server_type":"Dedicated","server_os":"Linux","password":true,"vac":true,"version":"7757534","steam_id":85568392924500090,"keywords":["cp","nocrits","nodmgspread","uncletopia"],"game_id":440,"stv_port":27046,"stv_name":"Uncletopia | Montréal | 4 | No Payload | STV","players":null},{"server_id":13,"name":"Uncletopia | New York City | 1 | All Maps","name_short":"nyc-1","host":"nyc-1.us.uncletopia.com","port":27015,"enabled":true,"region":"us-east","cc":"us","latitude":40.73061,"longitude":-73.93524,"reserved":0,"last_update":"0001-01-01T00:00:00Z","name_a2s":"Uncletopia | New York City | 1 | All Maps","protocol":17,"map":"koth_nucleus","folder":"tf","game":"Team Fortress","app_id":440,"player_count":24,"max_players":24,"Bots":0,"server_type":"Dedicated","server_os":"Linux","password":true,"vac":true,"version":"7757534","steam_id":85568392924469993,"keywords":["cp","nocrits","nodmgspread","uncletopia"],"game_id":440,"stv_port":27016,"stv_name":"Uncletopia | New York City | 1 | All Maps | STV","players":[{"user_id":902,"name":"feurolant","steam_id":76561198050929765,"connected_time":3280000000000,"state":"active","ping":55},{"user_id":947,"name":"AMistake","steam_id":76561199379196708,"connected_time":1405000000000,"state":"active","ping":124},{"user_id":958,"name":"Suki","steam_id":76561198139696994,"connected_time":435000000000,"state":"active","ping":122},{"user_id":924,"name":"Skateboard Pete","steam_id":76561198124069244,"connected_time":2643000000000,"state":"active","ping":79},{"user_id":904,"name":"CRAZY engineer","steam_id":76561198887937902,"connected_time":3268000000000,"state":"active","ping":41},{"user_id":929,"name":"jeremimi","steam_id":76561198818225102,"connected_time":2322000000000,"state":"active","ping":101},{"user_id":949,"name":"Not Jessie","steam_id":76561198025129721,"connected_time":1365000000000,"state":"active","ping":105},{"user_id":948,"name":"emily","steam_id":76561198051872256,"connected_time":1396000000000,"state":"active","ping":77},{"user_id":950,"name":"uh_what?","steam_id":76561198885206263,"connected_time":1306000000000,"state":"active","ping":106},{"user_id":931,"name":"『YARE』","steam_id":76561198158421145,"connected_time":2255000000000,"state":"active","ping":141},{"user_id":932,"name":"Gramps","steam_id":76561198166076216,"connected_time":2249000000000,"state":"active","ping":60},{"user_id":916,"name":"putz","steam_id":76561198100601393,"connected_time":3099000000000,"state":"active","ping":47},{"user_id":963,"name":"The Traveller","steam_id":76561197988476478,"connected_time":67000000000,"state":"active","ping":186},{"user_id":938,"name":"QwilfishFan22","steam_id":76561198078565975,"connected_time":2121000000000,"state":"active","ping":47},{"user_id":951,"name":"Syrix","steam_id":76561198017328672,"connected_time":1289000000000,"state":"active","ping":102},{"user_id":937,"name":"Pixeled","steam_id":76561198088917077,"connected_time":2138000000000,"state":"active","ping":84},{"user_id":952,"name":"Andrew","steam_id":76561198070615190,"connected_time":1227000000000,"state":"active","ping":86},{"user_id":954,"name":"4d4","steam_id":76561198402360789,"connected_time":916000000000,"state":"active","ping":68},{"user_id":885,"name":"MILF Gaming","steam_id":76561198155378170,"connected_time":4478000000000,"state":"active","ping":44},{"user_id":953,"name":"Lord Dragon","steam_id":76561198310300373,"connected_time":1140000000000,"state":"active","ping":77},{"user_id":883,"name":"the GGer","steam_id":76561198157983180,"connected_time":4558000000000,"state":"active","ping":44},{"user_id":884,"name":"Gandalf Gaming","steam_id":76561198368151490,"connected_time":4549000000000,"state":"active","ping":46},{"user_id":945,"name":"yui eating a sandvich","steam_id":76561198218193505,"connected_time":1802000000000,"state":"active","ping":109},{"user_id":960,"name":"Linus Cascade","steam_id":76561198259875476,"connected_time":421000000000,"state":"active","ping":117}]},{"server_id":14,"name":"Uncletopia | New York City | 2 | All Maps","name_short":"nyc-2","host":"nyc-1.us.uncletopia.com","port":27025,"enabled":true,"region":"us-east","cc":"us","latitude":40.73061,"longitude":-73.93524,"reserved":0,"last_update":"0001-01-01T00:00:00Z","name_a2s":"Uncletopia | New York City | 2 | All Maps","protocol":17,"map":"pl_pier","folder":"tf","game":"Team Fortress","app_id":440,"player_count":24,"max_players":24,"Bots":0,"server_type":"Dedicated","server_os":"Linux","password":true,"vac":true,"version":"7757534","steam_id":85568392924469994,"keywords":["nocrits","nodmgspread","payload","uncletopia"],"game_id":440,"stv_port":27026,"stv_name":"Uncletopia | New York City | 2 | All Maps | STV","players":[{"user_id":776,"name":"rraymondddh","steam_id":76561198006216337,"connected_time":1020000000000,"state":"active","ping":73},{"user_id":757,"name":"quinn","steam_id":76561199187747394,"connected_time":2913000000000,"state":"active","ping":59},{"user_id":762,"name":"Snugboo","steam_id":76561198147970327,"connected_time":2734000000000,"state":"active","ping":41},{"user_id":744,"name":"Aristotle Voulton","steam_id":76561198100174923,"connected_time":3896000000000,"state":"active","ping":101},{"user_id":747,"name":"redzach","steam_id":76561198444094359,"connected_time":3511000000000,"state":"active","ping":70},{"user_id":767,"name":"▲▼▲ Paul Atreideeznuts","steam_id":76561198015714075,"connected_time":1838000000000,"state":"active","ping":62},{"user_id":766,"name":"thomasdee725","steam_id":76561199189526173,"connected_time":1864000000000,"state":"active","ping":72},{"user_id":764,"name":"ConiferCarver(#SaveTF2)","steam_id":76561198195875845,"connected_time":2611000000000,"state":"active","ping":120},{"user_id":770,"name":"stockhack","steam_id":76561198050220225,"connected_time":1762000000000,"state":"active","ping":53},{"user_id":781,"name":"kursed","steam_id":76561198992371495,"connected_time":534000000000,"state":"active","ping":45},{"user_id":641,"name":"The slattiator","steam_id":76561198084422657,"connected_time":7910000000000,"state":"active","ping":101},{"user_id":760,"name":"toastman","steam_id":76561198207073088,"connected_time":2770000000000,"state":"active","ping":78},{"user_id":758,"name":"stbb","steam_id":76561198173047169,"connected_time":2831000000000,"state":"active","ping":45},{"user_id":761,"name":"Hammy","steam_id":76561198040086142,"connected_time":2740000000000,"state":"active","ping":45},{"user_id":777,"name":"shnubba","steam_id":76561198356352279,"connected_time":988000000000,"state":"active","ping":95},{"user_id":768,"name":"SanityPirate","steam_id":76561198148096352,"connected_time":1829000000000,"state":"active","ping":72},{"user_id":729,"name":"deech","steam_id":76561198066429444,"connected_time":4287000000000,"state":"active","ping":49},{"user_id":772,"name":"ThatEmoEmu","steam_id":76561198272304706,"connected_time":1655000000000,"state":"active","ping":114},{"user_id":779,"name":"Seamus Finnegan III","steam_id":76561198839962880,"connected_time":722000000000,"state":"active","ping":80},{"user_id":763,"name":"OpenDown","steam_id":76561198064132688,"connected_time":2708000000000,"state":"active","ping":86},{"user_id":782,"name":"Grand Piano Tuna","steam_id":76561198135137213,"connected_time":324000000000,"state":"active","ping":110},{"user_id":783,"name":"hashmap","steam_id":76561198043794014,"connected_time":90000000000,"state":"active","ping":64},{"user_id":775,"name":"LucDuc","steam_id":76561199084851962,"connected_time":1125000000000,"state":"active","ping":72},{"user_id":774,"name":"FUSION","steam_id":76561197972659738,"connected_time":1407000000000,"state":"active","ping":42}]},{"server_id":15,"name":"Uncletopia | New York City | 3 | Stopwatch Beta","name_short":"nyc-3","host":"nyc-1.us.uncletopia.com","port":27035,"enabled":true,"region":"us-east","cc":"us","latitude":40.73061,"longitude":-73.93524,"reserved":0,"last_update":"0001-01-01T00:00:00Z","name_a2s":"Uncletopia | New York City | 3 | Stopwatch Beta","protocol":17,"map":"pl_upward","folder":"tf","game":"Team Fortress","app_id":440,"player_count":0,"max_players":24,"Bots":0,"server_type":"Dedicated","server_os":"Linux","password":true,"vac":true,"version":"7757534","steam_id":85568392924742820,"keywords":["nocrits","nodmgspread","payload","uncletopia"],"game_id":440,"stv_port":27036,"stv_name":"Uncletopia | New York City | 3 | Stopwatch Beta | STV","players":null},{"server_id":16,"name":"Uncletopia | New York City | 4 | Community","name_short":"nyc-4","host":"nyc-1.us.uncletopia.com","port":27045,"enabled":true,"region":"us-east","cc":"us","latitude":40.73061,"longitude":-73.93524,"reserved":0,"last_update":"0001-01-01T00:00:00Z","name_a2s":"Uncletopia | New York City | 4 | Community","protocol":17,"map":"workshop/pl_badwater_pro_v12.ugc2142942074","folder":"tf","game":"Team Fortress","app_id":440,"player_count":24,"max_players":24,"Bots":0,"server_type":"Dedicated","server_os":"Linux","password":true,"vac":true,"version":"7757534","steam_id":85568392924742821,"keywords":["nocrits","nodmgspread","payload","uncletopia"],"game_id":440,"stv_port":27046,"stv_name":"Uncletopia | New York City | 4 | Community | STV","players":[{"user_id":161,"name":"space is nice","steam_id":76561198080653023,"connected_time":814000000000,"state":"active","ping":72},{"user_id":150,"name":"The Gamer Chicken","steam_id":76561198058256094,"connected_time":1924000000000,"state":"active","ping":42},{"user_id":166,"name":"ATLS 1 | Krissy","steam_id":76561197960848174,"connected_time":630000000000,"state":"active","ping":60},{"user_id":157,"name":"ʕ•ᴥ•ʔ the bear","steam_id":76561197989591976,"connected_time":1185000000000,"state":"active","ping":60},{"user_id":158,"name":"Frankie Mermaid","steam_id":76561198199074935,"connected_time":1053000000000,"state":"active","ping":58},{"user_id":141,"name":"bob27","steam_id":76561198807658771,"connected_time":2739000000000,"state":"active","ping":68},{"user_id":178,"name":"fish","steam_id":76561198054070811,"connected_time":72000000000,"state":"active","ping":107},{"user_id":117,"name":".jpg","steam_id":76561198137237377,"connected_time":3814000000000,"state":"active","ping":64},{"user_id":108,"name":"waru","steam_id":76561198044251420,"connected_time":4276000000000,"state":"active","ping":59},{"user_id":163,"name":"C Papi","steam_id":76561198027779564,"connected_time":759000000000,"state":"active","ping":61},{"user_id":152,"name":"The Muffin Man","steam_id":76561199088286427,"connected_time":1543000000000,"state":"active","ping":121},{"user_id":114,"name":"for the king","steam_id":76561197973488858,"connected_time":4117000000000,"state":"active","ping":45},{"user_id":172,"name":"John Highlander","steam_id":76561198277163301,"connected_time":524000000000,"state":"active","ping":88},{"user_id":175,"name":"swan","steam_id":76561198012569200,"connected_time":389000000000,"state":"active","ping":59},{"user_id":129,"name":"Sabaman55","steam_id":76561198212267979,"connected_time":3328000000000,"state":"active","ping":66},{"user_id":142,"name":"Lemur2016","steam_id":76561198194372906,"connected_time":2732000000000,"state":"active","ping":67},{"user_id":165,"name":"Natalie","steam_id":76561198048848289,"connected_time":698000000000,"state":"active","ping":121},{"user_id":176,"name":"Fargo","steam_id":76561198044703931,"connected_time":381000000000,"state":"active","ping":89},{"user_id":168,"name":"Don't  recall","steam_id":76561197995620232,"connected_time":619000000000,"state":"active","ping":40},{"user_id":169,"name":"pipebombrater","steam_id":76561199029030831,"connected_time":599000000000,"state":"active","ping":59},{"user_id":170,"name":"Iawen","steam_id":76561197984522405,"connected_time":595000000000,"state":"active","ping":54},{"user_id":177,"name":"hierodule","steam_id":76561198023229665,"connected_time":302000000000,"state":"active","ping":60},{"user_id":144,"name":"Moshi Man","steam_id":76561198038249762,"connected_time":2517000000000,"state":"active","ping":71},{"user_id":174,"name":"B/S/SuperBoofOG","steam_id":76561197992030936,"connected_time":462000000000,"state":"active","ping":49}]},{"server_id":142,"name":"Uncletopia | São Paulo | 1 | All Maps","name_short":"sao-1","host":"sao-1.br.uncletopia.com","port":27015,"enabled":true,"region":"sa","cc":"br","latitude":-23.533773,"longitude":-46.62529,"reserved":0,"last_update":"0001-01-01T00:00:00Z","name_a2s":"Uncletopia | São Paulo | 1 | All Maps","protocol":17,"map":"koth_highpass","folder":"tf","game":"Team Fortress","app_id":440,"player_count":0,"max_players":24,"Bots":0,"server_type":"Dedicated","server_os":"Linux","password":true,"vac":true,"version":"7757534","steam_id":85568392924469996,"keywords":["cp","nocrits","nodmgspread","uncletopia"],"game_id":440,"stv_port":27016,"stv_name":"Uncletopia | São Paulo | 1 | All Maps | STV","players":null},{"server_id":143,"name":"Uncletopia | São Paulo | 2 | All Maps","name_short":"sao-2","host":"sao-2.br.uncletopia.com","port":27015,"enabled":true,"region":"sa","cc":"br","latitude":-23.533773,"longitude":-46.62529,"reserved":0,"last_update":"0001-01-01T00:00:00Z","name_a2s":"Uncletopia | São Paulo | 2 | All Maps","protocol":17,"map":"pl_barnblitz","folder":"tf","game":"Team Fortress","app_id":440,"player_count":0,"max_players":24,"Bots":0,"server_type":"Dedicated","server_os":"Linux","password":true,"vac":true,"version":"7757534","steam_id":85568392924485349,"keywords":["nocrits","nodmgspread","payload","uncletopia"],"game_id":440,"stv_port":27016,"stv_name":"Uncletopia | São Paulo | 2 | All Maps | STV","players":null},{"server_id":7,"name":"Uncletopia | Seattle | 1 | All Maps","name_short":"sea-1","host":"sea-1.us.uncletopia.com","port":27015,"enabled":true,"region":"us-west","cc":"us","latitude":47.608013,"longitude":-122.33517,"reserved":0,"last_update":"0001-01-01T00:00:00Z","name_a2s":"Uncletopia | Seattle | 1 | All Maps","protocol":17,"map":"cp_dustbowl","folder":"tf","game":"Team Fortress","app_id":440,"player_count":24,"max_players":24,"Bots":0,"server_type":"Dedicated","server_os":"Linux","password":true,"vac":true,"version":"7757534","steam_id":85568392924469997,"keywords":["cp","nocrits","nodmgspread","uncletopia"],"game_id":440,"stv_port":27016,"stv_name":"Uncletopia | Seattle | 1 | All Maps | STV","players":[{"user_id":702,"name":"Erk-Kirk","steam_id":76561198288954914,"connected_time":1118000000000,"state":"active","ping":99},{"user_id":704,"name":"Sniff","steam_id":76561198010270922,"connected_time":477000000000,"state":"active","ping":44},{"user_id":685,"name":"WACKY JIM","steam_id":76561198961641122,"connected_time":2880000000000,"state":"active","ping":57},{"user_id":705,"name":"T.T","steam_id":76561198041907345,"connected_time":232000000000,"state":"active","ping":86},{"user_id":695,"name":"0CD.nøbu","steam_id":76561198100614981,"connected_time":1587000000000,"state":"active","ping":54},{"user_id":688,"name":"The Super Mario Bros. Movie","steam_id":76561198871692156,"connected_time":2737000000000,"state":"active","ping":56},{"user_id":699,"name":"reiidaya","steam_id":76561198325306660,"connected_time":1259000000000,"state":"active","ping":50},{"user_id":674,"name":"TheCowledWiz","steam_id":76561198016735868,"connected_time":3954000000000,"state":"active","ping":54},{"user_id":673,"name":"cable","steam_id":76561198061674484,"connected_time":3978000000000,"state":"active","ping":152},{"user_id":610,"name":"Ayayahuasca","steam_id":76561199002906056,"connected_time":10206000000000,"state":"active","ping":52},{"user_id":642,"name":"A Duck With Socks","steam_id":76561198018844227,"connected_time":7966000000000,"state":"active","ping":58},{"user_id":703,"name":"Luca","steam_id":76561198125087140,"connected_time":490000000000,"state":"active","ping":46},{"user_id":664,"name":"Tom Skirrett","steam_id":76561198014600788,"connected_time":5181000000000,"state":"active","ping":68},{"user_id":689,"name":"At0m1x","steam_id":76561198241192420,"connected_time":2282000000000,"state":"active","ping":52},{"user_id":678,"name":"ansoonii","steam_id":76561198092494136,"connected_time":3739000000000,"state":"active","ping":96},{"user_id":651,"name":"jacix3 [gay wolfgirl]{she/it}","steam_id":76561198205004165,"connected_time":6714000000000,"state":"active","ping":64},{"user_id":693,"name":"KentYardAssociate","steam_id":76561198290499758,"connected_time":2227000000000,"state":"active","ping":139},{"user_id":620,"name":"Mignyanne :3","steam_id":76561198048754056,"connected_time":9426000000000,"state":"active","ping":65},{"user_id":694,"name":"ChromeOwl","steam_id":76561198953786715,"connected_time":2217000000000,"state":"active","ping":59},{"user_id":701,"name":"Day Man","steam_id":76561198067154807,"connected_time":1201000000000,"state":"active","ping":51},{"user_id":672,"name":"Kir","steam_id":76561198057745344,"connected_time":4168000000000,"state":"active","ping":106},{"user_id":659,"name":"blinkerton city","steam_id":76561198054270410,"connected_time":5797000000000,"state":"active","ping":57},{"user_id":681,"name":"Universal","steam_id":76561198450085685,"connected_time":2949000000000,"state":"active","ping":73},{"user_id":682,"name":"SomeGuyWhoLikesPotatoes","steam_id":76561198110276797,"connected_time":2949000000000,"state":"active","ping":56}]},{"server_id":119,"name":"Uncletopia | Seattle | 2 | All Maps","name_short":"sea-2","host":"sea-1.us.uncletopia.com","port":27025,"enabled":true,"region":"us-west","cc":"us","latitude":47.608013,"longitude":-122.33517,"reserved":0,"last_update":"0001-01-01T00:00:00Z","name_a2s":"Uncletopia | Seattle | 2 | All Maps","protocol":17,"map":"pl_barnblitz","folder":"tf","game":"Team Fortress","app_id":440,"player_count":24,"max_players":24,"Bots":0,"server_type":"Dedicated","server_os":"Linux","password":true,"vac":true,"version":"7757534","steam_id":85568392924469998,"keywords":["nocrits","nodmgspread","payload","uncletopia"],"game_id":440,"stv_port":27026,"stv_name":"Uncletopia | Seattle | 2 | All Maps | STV","players":[{"user_id":577,"name":"Halcyon","steam_id":76561199103213955,"connected_time":2969000000000,"state":"active","ping":84},{"user_id":575,"name":"IntravenusDeMilo","steam_id":76561197970629020,"connected_time":3239000000000,"state":"active","ping":42},{"user_id":614,"name":"Old Man Tricks","steam_id":76561197984526216,"connected_time":150000000000,"state":"active","ping":60},{"user_id":578,"name":"MrJokester","steam_id":76561198019101367,"connected_time":2943000000000,"state":"active","ping":48},{"user_id":603,"name":"hungry kibten","steam_id":76561198184099558,"connected_time":1068000000000,"state":"active","ping":45},{"user_id":548,"name":"Dr. Banana boy","steam_id":76561199012105803,"connected_time":5057000000000,"state":"active","ping":59},{"user_id":581,"name":"Eraser cat","steam_id":76561199045570463,"connected_time":2857000000000,"state":"active","ping":46},{"user_id":568,"name":"ChuChu","steam_id":76561199443647976,"connected_time":4047000000000,"state":"active","ping":101},{"user_id":604,"name":"zone 5 (bone zone)","steam_id":76561197979056451,"connected_time":1006000000000,"state":"active","ping":47},{"user_id":522,"name":"Dilo","steam_id":76561198799078414,"connected_time":6544000000000,"state":"active","ping":86},{"user_id":605,"name":"......","steam_id":76561198067612741,"connected_time":934000000000,"state":"active","ping":46},{"user_id":606,"name":"Phoysh","steam_id":76561198137111021,"connected_time":863000000000,"state":"active","ping":55},{"user_id":609,"name":"lag","steam_id":76561198117898839,"connected_time":519000000000,"state":"active","ping":121},{"user_id":440,"name":"Grammaring","steam_id":76561198867366139,"connected_time":14133000000000,"state":"active","ping":74},{"user_id":612,"name":"SuperShyWolfFemboy","steam_id":76561199122685055,"connected_time":449000000000,"state":"active","ping":115},{"user_id":591,"name":"Huzoop","steam_id":76561199249278873,"connected_time":1925000000000,"state":"active","ping":59},{"user_id":613,"name":"Vindictive","steam_id":76561197988784070,"connected_time":186000000000,"state":"active","ping":104},{"user_id":567,"name":"litcherally in vents","steam_id":76561199169558959,"connected_time":4051000000000,"state":"active","ping":43},{"user_id":611,"name":"rice white","steam_id":76561198320732910,"connected_time":487000000000,"state":"active","ping":127},{"user_id":535,"name":"zone 6","steam_id":76561198068672882,"connected_time":5988000000000,"state":"active","ping":67},{"user_id":600,"name":"Strikerbolt","steam_id":76561199095622897,"connected_time":1535000000000,"state":"active","ping":91},{"user_id":585,"name":"D0VE","steam_id":76561198151618566,"connected_time":2637000000000,"state":"active","ping":56},{"user_id":536,"name":"self sufficient kitten","steam_id":76561197960592612,"connected_time":5977000000000,"state":"active","ping":54},{"user_id":593,"name":"Keamy","steam_id":76561199471434875,"connected_time":1599000000000,"state":"active","ping":35}]},{"server_id":406,"name":"Uncletopia | Seattle | 3 | Stopwatch Beta","name_short":"sea-3","host":"sea-1.us.uncletopia.com","port":27035,"enabled":true,"region":"us-west","cc":"us","latitude":47.608013,"longitude":-122.33517,"reserved":0,"last_update":"0001-01-01T00:00:00Z","name_a2s":"Uncletopia | Seattle | 3 | Stopwatch Beta","protocol":17,"map":"workshop/koth_ashville_final.ugc2130459942","folder":"tf","game":"Team Fortress","app_id":440,"player_count":0,"max_players":24,"Bots":0,"server_type":"Dedicated","server_os":"Linux","password":true,"vac":true,"version":"7757534","steam_id":85568392924515217,"keywords":["cp","nocrits","nodmgspread","uncletopia"],"game_id":440,"stv_port":27036,"stv_name":"Uncletopia | Seattle | 3 | Stopwatch Beta | STV","players":null},{"server_id":17,"name":"Uncletopia | San Francisco | 1 | All Maps","name_short":"sfo-1","host":"sfo-1.us.uncletopia.com","port":27015,"enabled":true,"region":"us-west","cc":"us","latitude":37.77397,"longitude":-122.4313,"reserved":0,"last_update":"0001-01-01T00:00:00Z","name_a2s":"Uncletopia | San Francisco | 1 | All Maps","protocol":17,"map":"pl_barnblitz","folder":"tf","game":"Team Fortress","app_id":440,"player_count":24,"max_players":24,"Bots":0,"server_type":"Dedicated","server_os":"Linux","password":true,"vac":true,"version":"7757534","steam_id":85568392924469999,"keywords":["nocrits","nodmgspread","payload","uncletopia"],"game_id":440,"stv_port":27016,"stv_name":"Uncletopia | San Francisco | 1 | All Maps | STV","players":[{"user_id":161,"name":"grugposter","steam_id":76561198035805348,"connected_time":5440000000000,"state":"active","ping":47},{"user_id":189,"name":"Brando","steam_id":76561198078306678,"connected_time":3864000000000,"state":"active","ping":75},{"user_id":219,"name":"Milotic(demo arc day 3)","steam_id":76561198047995713,"connected_time":1689000000000,"state":"active","ping":69},{"user_id":231,"name":"06strider","steam_id":76561198141817197,"connected_time":388000000000,"state":"active","ping":42},{"user_id":188,"name":"Marcus Annius Verus","steam_id":76561198036850392,"connected_time":3932000000000,"state":"active","ping":105},{"user_id":211,"name":"【 caden / karma 】","steam_id":76561198072276429,"connected_time":2222000000000,"state":"active","ping":120},{"user_id":230,"name":"Six Rats","steam_id":76561198007854385,"connected_time":419000000000,"state":"active","ping":54},{"user_id":184,"name":"Soap","steam_id":76561197994893383,"connected_time":4338000000000,"state":"active","ping":71},{"user_id":226,"name":"Brutus","steam_id":76561198213163211,"connected_time":714000000000,"state":"active","ping":120},{"user_id":232,"name":"dlatgirp","steam_id":76561198417137724,"connected_time":387000000000,"state":"active","ping":53},{"user_id":243,"name":"yolginmo","steam_id":76561198157985901,"connected_time":179000000000,"state":"active","ping":83},{"user_id":202,"name":"Enforcer Enthusiast","steam_id":76561199124102271,"connected_time":2719000000000,"state":"active","ping":75},{"user_id":240,"name":"Mr.Frundles","steam_id":76561198134559026,"connected_time":284000000000,"state":"active","ping":72},{"user_id":234,"name":"ryo","steam_id":76561198453203619,"connected_time":376000000000,"state":"active","ping":49},{"user_id":244,"name":"hz","steam_id":76561198841539061,"connected_time":171000000000,"state":"active","ping":62},{"user_id":235,"name":"ApplesMate","steam_id":76561198832763278,"connected_time":374000000000,"state":"active","ping":61},{"user_id":182,"name":"Yords","steam_id":76561198027925729,"connected_time":4860000000000,"state":"active","ping":86},{"user_id":236,"name":"Lil' Urban Achiever","steam_id":76561197970450546,"connected_time":349000000000,"state":"active","ping":83},{"user_id":117,"name":"Bobby Ray","steam_id":76561198044131188,"connected_time":8394000000000,"state":"active","ping":69},{"user_id":201,"name":"kr1tsurf3r","steam_id":76561198076402476,"connected_time":2749000000000,"state":"active","ping":79},{"user_id":181,"name":"Timmy Thick","steam_id":76561198031018737,"connected_time":4874000000000,"state":"active","ping":59},{"user_id":216,"name":"supcupman","steam_id":76561198051513866,"connected_time":2055000000000,"state":"active","ping":65},{"user_id":245,"name":"chaplin","steam_id":76561198009349249,"connected_time":0,"state":"connecting","ping":0},{"user_id":238,"name":"Agent Q","steam_id":76561198830829003,"connected_time":342000000000,"state":"active","ping":75}]},{"server_id":18,"name":"Uncletopia | San Francisco | 2 | All Maps","name_short":"sfo-2","host":"sfo-1.us.uncletopia.com","port":27025,"enabled":true,"region":"us-west","cc":"us","latitude":37.77397,"longitude":-122.4313,"reserved":0,"last_update":"0001-01-01T00:00:00Z","name_a2s":"Uncletopia | San Francisco | 2 | All Maps","protocol":17,"map":"pl_badwater","folder":"tf","game":"Team Fortress","app_id":440,"player_count":24,"max_players":24,"Bots":0,"server_type":"Dedicated","server_os":"Linux","password":true,"vac":true,"version":"7757534","steam_id":85568392924470000,"keywords":["nocrits","nodmgspread","payload","uncletopia"],"game_id":440,"stv_port":27026,"stv_name":"Uncletopia | San Francisco | 2 | All Maps | STV","players":[{"user_id":574,"name":"DoctorHa","steam_id":76561198044026008,"connected_time":1385000000000,"state":"active","ping":106},{"user_id":588,"name":"MasterGoop","steam_id":76561198285594777,"connected_time":323000000000,"state":"active","ping":70},{"user_id":547,"name":"Dosario","steam_id":76561198298095535,"connected_time":2280000000000,"state":"active","ping":74},{"user_id":589,"name":"Andy","steam_id":76561198043115724,"connected_time":318000000000,"state":"active","ping":90},{"user_id":597,"name":"Felipe Ramirez 2013","steam_id":76561198150497397,"connected_time":270000000000,"state":"active","ping":101},{"user_id":581,"name":"24dustin1","steam_id":76561198059506390,"connected_time":672000000000,"state":"active","ping":69},{"user_id":595,"name":"Gigo","steam_id":76561198093535014,"connected_time":276000000000,"state":"active","ping":57},{"user_id":591,"name":"turn around","steam_id":76561198046526036,"connected_time":286000000000,"state":"active","ping":59},{"user_id":584,"name":"great1photo","steam_id":76561198085481933,"connected_time":558000000000,"state":"active","ping":127},{"user_id":555,"name":"NoBeeme","steam_id":76561198277825198,"connected_time":2016000000000,"state":"active","ping":83},{"user_id":556,"name":"Zachguin","steam_id":76561198068947962,"connected_time":2008000000000,"state":"active","ping":104},{"user_id":592,"name":"Nicholas Deckolas","steam_id":76561198005301468,"connected_time":285000000000,"state":"active","ping":126},{"user_id":579,"name":"Junior_198X","steam_id":76561198158596794,"connected_time":1143000000000,"state":"active","ping":85},{"user_id":594,"name":"._.","steam_id":76561198210196856,"connected_time":282000000000,"state":"active","ping":57},{"user_id":593,"name":"vampire","steam_id":76561198125261443,"connected_time":285000000000,"state":"active","ping":82},{"user_id":447,"name":"||:♩♩♩♪:|| Opplydead","steam_id":76561198028630334,"connected_time":9845000000000,"state":"active","ping":51},{"user_id":596,"name":"wesker can hit it tbh","steam_id":76561197968351430,"connected_time":272000000000,"state":"active","ping":56},{"user_id":582,"name":"LeNoobe","steam_id":76561199092079229,"connected_time":631000000000,"state":"active","ping":59},{"user_id":587,"name":"The_Skull_boy","steam_id":76561198227692664,"connected_time":441000000000,"state":"active","ping":74},{"user_id":598,"name":"Jamie","steam_id":76561198047914888,"connected_time":268000000000,"state":"active","ping":90},{"user_id":573,"name":"British Zoner","steam_id":76561198977330214,"connected_time":1402000000000,"state":"active","ping":59},{"user_id":599,"name":"Awesome_Alec1","steam_id":76561198071026552,"connected_time":266000000000,"state":"active","ping":107},{"user_id":577,"name":"DoorhingeMan","steam_id":76561198872501684,"connected_time":1331000000000,"state":"active","ping":59},{"user_id":586,"name":"[DATA EXPUNGED]","steam_id":76561198067399686,"connected_time":523000000000,"state":"active","ping":45}]},{"server_id":19,"name":"Uncletopia | San Francisco | 3 | Stopwatch Beta","name_short":"sfo-3","host":"sfo-1.us.uncletopia.com","port":27035,"enabled":true,"region":"us-west","cc":"us","latitude":37.77397,"longitude":-122.4313,"reserved":0,"last_update":"0001-01-01T00:00:00Z","name_a2s":"Uncletopia | San Francisco | 3 | Stopwatch Beta","protocol":17,"map":"pl_borneo","folder":"tf","game":"Team Fortress","app_id":440,"player_count":0,"max_players":24,"Bots":0,"server_type":"Dedicated","server_os":"Linux","password":true,"vac":true,"version":"7757534","steam_id":85568392924742824,"keywords":["nocrits","nodmgspread","payload","uncletopia"],"game_id":440,"stv_port":27036,"stv_name":"Uncletopia | San Francisco | 3 | Stopwatch Beta | STV","players":null},{"server_id":20,"name":"Uncletopia | San Francisco | 4 | Community","name_short":"sfo-4","host":"sfo-1.us.uncletopia.com","port":27045,"enabled":true,"region":"us-west","cc":"us","latitude":37.77397,"longitude":-122.4313,"reserved":0,"last_update":"0001-01-01T00:00:00Z","name_a2s":"Uncletopia | San Francisco | 4 | Community","protocol":17,"map":"workshop/cp_sulfur_rc2.ugc619869471","folder":"tf","game":"Team Fortress","app_id":440,"player_count":16,"max_players":24,"Bots":0,"server_type":"Dedicated","server_os":"Linux","password":true,"vac":true,"version":"7757534","steam_id":85568392924742826,"keywords":["cp","nocrits","nodmgspread","uncletopia"],"game_id":440,"stv_port":27046,"stv_name":"Uncletopia | San Francisco | 4 | Community | STV","players":[{"user_id":592,"name":"Dauntless Duelist","steam_id":76561198025056018,"connected_time":67000000000,"state":"active","ping":106},{"user_id":572,"name":"I deepfried my penis","steam_id":76561198848858223,"connected_time":1002000000000,"state":"active","ping":67},{"user_id":561,"name":"rjfamily4c","steam_id":76561199068565146,"connected_time":1484000000000,"state":"active","ping":51},{"user_id":411,"name":"deadpixel","steam_id":76561198150249843,"connected_time":11681000000000,"state":"active","ping":91},{"user_id":589,"name":"WannaSeeA","steam_id":76561198097701042,"connected_time":201000000000,"state":"active","ping":83},{"user_id":563,"name":"stand-up scientist","steam_id":76561198070136627,"connected_time":1399000000000,"state":"active","ping":59},{"user_id":583,"name":"Disbicord","steam_id":76561198145228904,"connected_time":434000000000,"state":"active","ping":104},{"user_id":586,"name":"tommy","steam_id":76561198041183975,"connected_time":363000000000,"state":"active","ping":106},{"user_id":565,"name":"BoX_hEaD101","steam_id":76561198200875467,"connected_time":1326000000000,"state":"active","ping":68},{"user_id":590,"name":"Crylec","steam_id":76561198092755279,"connected_time":89000000000,"state":"active","ping":117},{"user_id":576,"name":"voidpuppy","steam_id":76561198799922000,"connected_time":770000000000,"state":"active","ping":66},{"user_id":567,"name":"superwarm07","steam_id":76561199196313157,"connected_time":1264000000000,"state":"active","ping":122},{"user_id":587,"name":"lolgamer247","steam_id":76561198974645534,"connected_time":313000000000,"state":"active","ping":87},{"user_id":588,"name":"snow","steam_id":76561198018184698,"connected_time":257000000000,"state":"active","ping":112},{"user_id":573,"name":"Grug","steam_id":76561198069031652,"connected_time":998000000000,"state":"active","ping":70},{"user_id":323,"name":"Phil Collins","steam_id":76561198068868644,"connected_time":17912000000000,"state":"active","ping":61}]},{"server_id":141,"name":"Uncletopia | Sydney | 1 | All Maps","name_short":"syd-1","host":"syd-1.au.uncletopia.com","port":27015,"enabled":true,"region":"au","cc":"au","latitude":-33.865143,"longitude":151.2099,"reserved":0,"last_update":"0001-01-01T00:00:00Z","name_a2s":"Uncletopia | Sydney | 1 | All Maps","protocol":17,"map":"pl_barnblitz","folder":"tf","game":"Team Fortress","app_id":440,"player_count":23,"max_players":24,"Bots":0,"server_type":"Dedicated","server_os":"Linux","password":true,"vac":true,"version":"7757534","steam_id":85568392924470001,"keywords":["nocrits","nodmgspread","payload","uncletopia"],"game_id":440,"stv_port":27016,"stv_name":"Uncletopia | Sydney | 1 | All Maps | STV","players":[{"user_id":219,"name":"seiran","steam_id":76561198880907232,"connected_time":5870000000000,"state":"active","ping":98},{"user_id":277,"name":"Pompadouraus","steam_id":76561198327530525,"connected_time":3035000000000,"state":"active","ping":75},{"user_id":293,"name":"Captain Canadia","steam_id":76561198167967735,"connected_time":1142000000000,"state":"active","ping":47},{"user_id":291,"name":"Ok Mate","steam_id":76561198254922035,"connected_time":1152000000000,"state":"active","ping":49},{"user_id":301,"name":"Wallahi_Legend","steam_id":76561198442691771,"connected_time":892000000000,"state":"active","ping":68},{"user_id":280,"name":"Ganome Chilled","steam_id":76561198064898965,"connected_time":2781000000000,"state":"active","ping":80},{"user_id":267,"name":"Charm","steam_id":76561198028891054,"connected_time":3840000000000,"state":"active","ping":59},{"user_id":278,"name":"floppinv2","steam_id":76561198213566569,"connected_time":3031000000000,"state":"active","ping":99},{"user_id":296,"name":"Genuline","steam_id":76561198126426787,"connected_time":1133000000000,"state":"active","ping":47},{"user_id":297,"name":"Sy 4","steam_id":76561198879862702,"connected_time":1100000000000,"state":"active","ping":68},{"user_id":302,"name":"cya!","steam_id":76561198930683342,"connected_time":54000000000,"state":"active","ping":69},{"user_id":300,"name":"las","steam_id":76561198039162155,"connected_time":946000000000,"state":"active","ping":55},{"user_id":214,"name":"bread.  🔪","steam_id":76561199102895674,"connected_time":6403000000000,"state":"active","ping":76},{"user_id":299,"name":"Enchanted Cat","steam_id":76561198866538028,"connected_time":1023000000000,"state":"active","ping":86},{"user_id":268,"name":"oldbie","steam_id":76561198053297711,"connected_time":3788000000000,"state":"active","ping":90},{"user_id":235,"name":"Gamma","steam_id":76561198281131757,"connected_time":5502000000000,"state":"active","ping":84},{"user_id":275,"name":"Chrisy","steam_id":76561198092382473,"connected_time":3118000000000,"state":"active","ping":86},{"user_id":281,"name":"SamK #AnnexTF2","steam_id":76561198149051619,"connected_time":2749000000000,"state":"active","ping":66},{"user_id":303,"name":"beth.cubitt","steam_id":76561198454733447,"connected_time":54000000000,"state":"active","ping":92},{"user_id":289,"name":"vile creature","steam_id":76561198048064049,"connected_time":1783000000000,"state":"active","ping":85},{"user_id":290,"name":"cedrick highsmith","steam_id":76561198380568764,"connected_time":1779000000000,"state":"active","ping":75},{"user_id":286,"name":"hive","steam_id":76561199099744527,"connected_time":2459000000000,"state":"active","ping":47},{"user_id":292,"name":"ToadFungus","steam_id":76561199219667039,"connected_time":1152000000000,"state":"active","ping":105}]},{"server_id":123,"name":"Uncletopia | Sydney | 2 | All Maps","name_short":"syd-2","host":"syd-1.au.uncletopia.com","port":27025,"enabled":true,"region":"au","cc":"au","latitude":-33.865143,"longitude":151.2099,"reserved":0,"last_update":"0001-01-01T00:00:00Z","name_a2s":"Uncletopia | Sydney | 2 | All Maps","protocol":17,"map":"koth_viaduct","folder":"tf","game":"Team Fortress","app_id":440,"player_count":0,"max_players":24,"Bots":0,"server_type":"Dedicated","server_os":"Linux","password":true,"vac":true,"version":"7757534","steam_id":85568392924470002,"keywords":["cp","nocrits","nodmgspread","uncletopia"],"game_id":440,"stv_port":27026,"stv_name":"Uncletopia | Sydney | 2 | All Maps | STV","players":null},{"server_id":395,"name":"Uncletopia | Sydney | 3 | All Maps","name_short":"syd-3","host":"syd-1.au.uncletopia.com","port":27035,"enabled":true,"region":"au","cc":"au","latitude":-33.865143,"longitude":151.2099,"reserved":0,"last_update":"0001-01-01T00:00:00Z","name_a2s":"Uncletopia | Sydney | 3 | All Maps","protocol":17,"map":"cp_sunshine","folder":"tf","game":"Team Fortress","app_id":440,"player_count":24,"max_players":24,"Bots":0,"server_type":"Dedicated","server_os":"Linux","password":true,"vac":true,"version":"7757534","steam_id":85568392925194467,"keywords":["cp","nocrits","nodmgspread","uncletopia"],"game_id":440,"stv_port":27036,"stv_name":"Uncletopia | Sydney | 3 | All Maps | STV","players":[{"user_id":117,"name":"syncc","steam_id":76561198167519896,"connected_time":717000000000,"state":"active","ping":60},{"user_id":115,"name":"john danaher","steam_id":76561198076912448,"connected_time":779000000000,"state":"active","ping":58},{"user_id":113,"name":"Daniel Chong","steam_id":76561199009189725,"connected_time":910000000000,"state":"active","ping":65},{"user_id":127,"name":"Monad (Trans-Girl Arc)","steam_id":76561198895999428,"connected_time":47000000000,"state":"active","ping":56},{"user_id":128,"name":"UnknownCooper","steam_id":76561199452413853,"connected_time":15000000000,"state":"active","ping":267},{"user_id":42,"name":"WONG DONG CHONG","steam_id":76561198153397177,"connected_time":5909000000000,"state":"active","ping":55},{"user_id":110,"name":"fleep","steam_id":76561198417133583,"connected_time":1147000000000,"state":"active","ping":49},{"user_id":126,"name":"2014 Volvo XC90 R-Design Wagon","steam_id":76561198815491824,"connected_time":264000000000,"state":"active","ping":46},{"user_id":119,"name":"Cyrome","steam_id":76561198049602369,"connected_time":576000000000,"state":"active","ping":61},{"user_id":76,"name":"Cv76","steam_id":76561198817942619,"connected_time":4555000000000,"state":"active","ping":36},{"user_id":120,"name":"homes inc","steam_id":76561198170188198,"connected_time":530000000000,"state":"active","ping":59},{"user_id":95,"name":"abcdef","steam_id":76561198083700749,"connected_time":2620000000000,"state":"active","ping":39},{"user_id":75,"name":"DragRiper","steam_id":76561198050917553,"connected_time":4634000000000,"state":"active","ping":50},{"user_id":103,"name":"BookStick","steam_id":76561198355308266,"connected_time":2045000000000,"state":"active","ping":78},{"user_id":77,"name":"NollReed","steam_id":76561198098501571,"connected_time":4555000000000,"state":"active","ping":73},{"user_id":102,"name":"clare","steam_id":76561199153466891,"connected_time":2290000000000,"state":"active","ping":81},{"user_id":121,"name":"Thanos Sheep","steam_id":76561199191990629,"connected_time":510000000000,"state":"active","ping":77},{"user_id":125,"name":"Doodles ♛","steam_id":76561198023807247,"connected_time":408000000000,"state":"active","ping":60},{"user_id":111,"name":"whiteshaq","steam_id":76561198131988811,"connected_time":1134000000000,"state":"active","ping":80},{"user_id":83,"name":"thrax","steam_id":76561197992385270,"connected_time":3981000000000,"state":"active","ping":51},{"user_id":123,"name":"Dragonite","steam_id":76561199185507683,"connected_time":465000000000,"state":"active","ping":54},{"user_id":64,"name":"Jdn","steam_id":76561198293079232,"connected_time":4886000000000,"state":"active","ping":66},{"user_id":104,"name":"Small Pootis","steam_id":76561199037580500,"connected_time":1928000000000,"state":"active","ping":66},{"user_id":98,"name":"ljpaters","steam_id":76561198094354484,"connected_time":2523000000000,"state":"active","ping":63}]},{"server_id":396,"name":"Uncletopia | Sydney | 4 | All Maps","name_short":"syd-4","host":"syd-1.au.uncletopia.com","port":27045,"enabled":true,"region":"au","cc":"au","latitude":-33.865143,"longitude":151.2099,"reserved":0,"last_update":"0001-01-01T00:00:00Z","name_a2s":"Uncletopia | Sydney | 4 | All Maps","protocol":17,"map":"pl_frontier_final","folder":"tf","game":"Team Fortress","app_id":440,"player_count":0,"max_players":24,"Bots":0,"server_type":"Dedicated","server_os":"Linux","password":true,"vac":true,"version":"7757534","steam_id":85568392925397958,"keywords":["nocrits","nodmgspread","payload","uncletopia"],"game_id":440,"stv_port":27046,"stv_name":"Uncletopia | Sydney | 4 | All Maps | STV","players":null},{"server_id":58,"name":"Uncletopia | Sydney | 5 | Stopwatch Beta","name_short":"syd-5","host":"syd-1.au.uncletopia.com","port":27055,"enabled":true,"region":"au","cc":"au","latitude":-33.865143,"longitude":151.2099,"reserved":0,"last_update":"0001-01-01T00:00:00Z","name_a2s":"Uncletopia | Sydney | 5 | Stopwatch Beta","protocol":17,"map":"cp_sunshine","folder":"tf","game":"Team Fortress","app_id":440,"player_count":0,"max_players":24,"Bots":0,"server_type":"Dedicated","server_os":"Linux","password":true,"vac":true,"version":"7757534","steam_id":85568392925397959,"keywords":["cp","nocrits","nodmgspread","uncletopia"],"game_id":440,"stv_port":27056,"stv_name":"Uncletopia | Sydney | 5 | Stopwatch Beta | STV","players":null},{"server_id":59,"name":"Uncletopia | Sydney | 6 | Community","name_short":"syd-6","host":"syd-1.au.uncletopia.com","port":27065,"enabled":true,"region":"au","cc":"au","latitude":-33.865143,"longitude":151.2099,"reserved":0,"last_update":"0001-01-01T00:00:00Z","name_a2s":"Uncletopia | Sydney | 6 | Community","protocol":17,"map":"workshop/pl_divulgence_b4b.ugc2884808746","folder":"tf","game":"Team Fortress","app_id":440,"player_count":0,"max_players":24,"Bots":0,"server_type":"Dedicated","server_os":"Linux","password":true,"vac":true,"version":"7757534","steam_id":85568392925397960,"keywords":["nocrits","nodmgspread","payload","uncletopia"],"game_id":440,"stv_port":27066,"stv_name":"Uncletopia | Sydney | 6 | Community | STV","players":null},{"server_id":49,"name":"Uncletopia | Warsaw | 1 | All Maps","name_short":"waw-1","host":"waw-1.pl.uncletopia.com","port":27015,"enabled":true,"region":"eu","cc":"pl","latitude":52.2297,"longitude":21.017532,"reserved":0,"last_update":"0001-01-01T00:00:00Z","name_a2s":"","protocol":0,"map":"","folder":"","game":"","app_id":0,"player_count":0,"max_players":0,"Bots":0,"server_type":"","server_os":"","password":false,"vac":false,"version":"","steam_id":0,"keywords":null,"game_id":0,"stv_port":0,"stv_name":"","players":null},{"server_id":50,"name":"Uncletopia | Warsaw | 2 | All Maps","name_short":"waw-2","host":"waw-1.pl.uncletopia.com","port":27025,"enabled":true,"region":"eu","cc":"pl","latitude":52.2297,"longitude":21.017532,"reserved":0,"last_update":"0001-01-01T00:00:00Z","name_a2s":"Uncletopia | Warsaw | 2 | All Maps","protocol":17,"map":"pl_upward","folder":"tf","game":"Team Fortress","app_id":440,"player_count":0,"max_players":24,"Bots":0,"server_type":"Dedicated","server_os":"Linux","password":true,"vac":true,"version":"7757534","steam_id":85568392925397851,"keywords":["nocrits","nodmgspread","payload","uncletopia"],"game_id":440,"stv_port":27026,"stv_name":"Uncletopia | Warsaw | 2 | All Maps | STV","players":null},{"server_id":51,"name":"Uncletopia | Warsaw | 3 | All Maps","name_short":"waw-3","host":"waw-1.pl.uncletopia.com","port":27035,"enabled":true,"region":"eu","cc":"pl","latitude":52.2297,"longitude":21.017532,"reserved":0,"last_update":"0001-01-01T00:00:00Z","name_a2s":"Uncletopia | Warsaw | 3 | All Maps","protocol":17,"map":"pl_barnblitz","folder":"tf","game":"Team Fortress","app_id":440,"player_count":0,"max_players":24,"Bots":0,"server_type":"Dedicated","server_os":"Linux","password":true,"vac":true,"version":"7757534","steam_id":85568392925397852,"keywords":["nocrits","nodmgspread","payload","uncletopia"],"game_id":440,"stv_port":27036,"stv_name":"Uncletopia | Warsaw | 3 | All Maps | STV","players":null},{"server_id":52,"name":"Uncletopia | Warsaw | 4 | All Maps","name_short":"waw-4","host":"waw-1.pl.uncletopia.com","port":27045,"enabled":true,"region":"eu","cc":"pl","latitude":52.2297,"longitude":21.017532,"reserved":0,"last_update":"0001-01-01T00:00:00Z","name_a2s":"Uncletopia | Warsaw | 4 | All Maps","protocol":17,"map":"cp_altitude","folder":"tf","game":"Team Fortress","app_id":440,"player_count":0,"max_players":24,"Bots":0,"server_type":"Dedicated","server_os":"Linux","password":true,"vac":true,"version":"7757534","steam_id":85568392925397853,"keywords":["cp","nocrits","nodmgspread","uncletopia"],"game_id":440,"stv_port":27046,"stv_name":"Uncletopia | Warsaw | 4 | All Maps | STV","players":null},{"server_id":53,"name":"Uncletopia | Warsaw | 5 | Stopwatch Beta","name_short":"waw-5","host":"waw-1.pl.uncletopia.com","port":27055,"enabled":true,"region":"eu","cc":"pl","latitude":52.2297,"longitude":21.017532,"reserved":0,"last_update":"0001-01-01T00:00:00Z","name_a2s":"Uncletopia | Warsaw | 5 | Stopwatch Beta","protocol":17,"map":"pl_pier","folder":"tf","game":"Team Fortress","app_id":440,"player_count":0,"max_players":24,"Bots":0,"server_type":"Dedicated","server_os":"Linux","password":true,"vac":true,"version":"7757534","steam_id":85568392925397854,"keywords":["nocrits","nodmgspread","payload","uncletopia"],"game_id":440,"stv_port":27056,"stv_name":"Uncletopia | Warsaw | 5 | Stopwatch Beta | STV","players":null},{"server_id":54,"name":"Uncletopia | Warsaw | 6 | Community","name_short":"waw-6","host":"waw-1.pl.uncletopia.com","port":27065,"enabled":true,"region":"eu","cc":"pl","latitude":52.2297,"longitude":21.017532,"reserved":0,"last_update":"0001-01-01T00:00:00Z","name_a2s":"Uncletopia | Warsaw | 6 | Community","protocol":17,"map":"koth_highpass","folder":"tf","game":"Team Fortress","app_id":440,"player_count":0,"max_players":24,"Bots":0,"server_type":"Dedicated","server_os":"Linux","password":true,"vac":true,"version":"7757534","steam_id":85568392925397856,"keywords":["cp","nocrits","nodmgspread","uncletopia"],"game_id":440,"stv_port":27066,"stv_name":"Uncletopia | Warsaw | 6 | Community | STV","players":null}]}