{"status":true,"message":"","result":[{"server_id":9,"name":"Uncletopia | Atlanta | 1 | All Maps","name_short":"atl-1","host":"atl-1.us.uncletopia.com","port":27015,"enabled":true,"region":"us-east","cc":"us","latitude":33.753746,"longitude":-84.38633,"reserved":0,"last_update":"0001-01-01T00:00:00Z","name_a2s":"Uncletopia | Atlanta | 1 | All Maps","protocol":17,"map":"pl_frontier_final","folder":"tf","game":"Team Fortress","app_id":440,"player_count":7,"max_players":24,"Bots":0,"server_type":"Dedicated","server_os":"Linux","password":true,"vac":true,"version":"7961495","steam_id":85568392924469982,"keywords":["nocrits","nodmgspread","payload","uncletopia"],"game_id":440,"stv_port":27016,"stv_name":"Uncletopia | Atlanta | 1 | All Maps | STV","players":null},{"server_id":104,"name":"Uncletopia | Atlanta | 2 | All Maps","name_short":"atl-2","host":"atl-1.us.uncletopia.com","port":27025,"enabled":true,"region":"us-east","cc":"us","latitude":33.753746,"longitude":-84.38633,"reserved":0,"last_update":"0001-01-01T00:00:00Z","name_a2s":"","protocol":0,"map":"","folder":"","game":"","app_id":0,"player_count":0,"max_players":0,"Bots":0,"server_type":"","server_os":"","password":false,"vac":false,"version":"","steam_id":0,"keywords":null,"game_id":0,"stv_port":0,"stv_name":"","players":null},{"server_id":400,"name":"Uncletopia | Atlanta | 3 | All Maps","name_short":"atl-3","host":"atl-1.us.uncletopia.com","port":27035,"enabled":true,"region":"us-east","cc":"us","latitude":33.753746,"longitude":-84.38633,"reserved":0,"last_update":"0001-01-01T00:00:00Z","name_a2s":"","protocol":0,"map":"","folder":"","game":"","app_id":0,"player_count":0,"max_players":0,"Bots":0,"server_type":"","server_os":"","password":false,"vac":false,"version":"","steam_id":0,"keywords":null,"game_id":0,"stv_port":0,"stv_name":"","players":null},{"server_id":401,"name":"Uncletopia | Atlanta | 4 | Community","name_short":"atl-4","host":"atl-1.us.uncletopia.com","port":27045,"enabled":true,"region":"us-east","cc":"us","latitude":33.753746,"longitude":-84.38633,"reserved":0,"last_update":"0001-01-01T00:00:00Z","name_a2s":"","protocol":0,"map":"","folder":"","game":"","app_id":0,"player_count":0,"max_players":0,"Bots":0,"server_type":"","server_os":"","password":false,"vac":false,"version":"","steam_id":0,"keywords":null,"game_id":0,"stv_port":0,"stv_name":"","players":null},{"server_id":2,"name":"Uncletopia | Chicago | 1 | All Maps","name_short":"chi-1","host":"chi-1.us.uncletopia.com","port":27015,"enabled":true,"region":"us-central","cc":"us","latitude":41.881832,"longitude":-87.62318,"reserved":0,"last_update":"0001-01-01T00:00:00Z","name_a2s":"Uncletopia | Chicago | 1 | All Maps","protocol":17,"map":"cp_sunshine","folder":"tf","game":"Team Fortress","app_id":440,"player_count":24,"max_players":24,"Bots":0,"server_type":"Dedicated","server_os":"Linux","password":true,"vac":true,"version":"7961495","steam_id":85568392924469984,"keywords":["cp","nocrits","nodmgspread","uncletopia"],"game_id":440,"stv_port":27016,"stv_name":"Uncletopia | Chicago | 1 | All Maps | STV","players":[{"user_id":361,"name":"Man with a Pan","steam_id":76561198091553872,"connected_time":1630000000000,"state":"active","ping":55},{"user_id":383,"name":"Blade Racer","steam_id":76561198155896703,"connected_time":152000000000,"state":"active","ping":71},{"user_id":360,"name":"Yam Jazzy Jim","steam_id":76561198000788950,"connected_time":1946000000000,"state":"active","ping":67},{"user_id":330,"name":"Linguine Alfredo","steam_id":76561198022045816,"connected_time":3597000000000,"state":"active","ping":71},{"user_id":316,"name":"Team Magma Grunt","steam_id":76561198341537452,"connected_time":4614000000000,"state":"active","ping":77},{"user_id":340,"name":"Quark","steam_id":76561198328155605,"connected_time":3057000000000,"state":"active","ping":48},{"user_id":371,"name":"NeonBean","steam_id":76561198088335827,"connected_time":1421000000000,"state":"active","ping":96},{"user_id":363,"name":"theflamesocker","steam_id":76561199113500743,"connected_time":1577000000000,"state":"active","ping":55},{"user_id":380,"name":"Ghost","steam_id":76561199010766490,"connected_time":489000000000,"state":"active","ping":92},{"user_id":381,"name":"crispy","steam_id":76561198971106376,"connected_time":350000000000,"state":"active","ping":45},{"user_id":372,"name":"tesagi","steam_id":76561198026664629,"connected_time":1404000000000,"state":"active","ping":58},{"user_id":382,"name":"Gluestick","steam_id":76561199013430308,"connected_time":263000000000,"state":"active","ping":90},{"user_id":367,"name":"DNYA","steam_id":76561198108762862,"connected_time":1476000000000,"state":"active","ping":73},{"user_id":333,"name":"exotic fishes","steam_id":76561199046490785,"connected_time":3549000000000,"state":"active","ping":76},{"user_id":368,"name":"cheesedoodle","steam_id":76561198040260143,"connected_time":1464000000000,"state":"active","ping":62},{"user_id":343,"name":"DiDi Food","steam_id":76561198073237928,"connected_time":3001000000000,"state":"active","ping":157},{"user_id":177,"name":"Ojen","steam_id":76561197998414482,"connected_time":15300000000000,"state":"active","ping":66},{"user_id":377,"name":"Celestial Bodies","steam_id":76561198212572955,"connected_time":1172000000000,"state":"active","ping":80},{"user_id":289,"name":"Tommy Pickles (Very Cool)","steam_id":76561198391261463,"connected_time":6074000000000,"state":"active","ping":76},{"user_id":375,"name":"nhorning1","steam_id":76561198159417118,"connected_time":1238000000000,"state":"active","ping":68},{"user_id":376,"name":"Adamantium44","steam_id":76561198266957710,"connected_time":1218000000000,"state":"active","ping":253},{"user_id":334,"name":"LerN","steam_id":76561198083463877,"connected_time":3513000000000,"state":"active","ping":46},{"user_id":374,"name":"TheAlmightyG","steam_id":76561198235946096,"connected_time":1386000000000,"state":"active","ping":97},{"user_id":379,"name":"Posture Check","steam_id":76561198998634786,"connected_time":638000000000,"state":"active","ping":97}]},{"server_id":106,"name":"Uncletopia | Chicago | 2 | All Maps","name_short":"chi-2","host":"chi-1.us.uncletopia.com","port":27025,"enabled":true,"region":"us-central","cc":"us","latitude":41.881832,"longitude":-87.62318,"reserved":0,"last_update":"0001-01-01T00:00:00Z","name_a2s":"Uncletopia | Chicago | 2 | All Maps","protocol":17,"map":"koth_viaduct","folder":"tf","game":"Team Fortress","app_id":440,"player_count":24,"max_players":24,"Bots":0,"server_type":"Dedicated","server_os":"Linux","password":true,"vac":true,"version":"7961495","steam_id":85568392924469985,"keywords":["cp","nocrits","nodmgspread","uncletopia"],"game_id":440,"stv_port":27026,"stv_name":"Uncletopia | Chicago | 2 | All Maps | STV","players":[{"user_id":391,"name":"PTR","steam_id":76561198237253772,"connected_time":1709000000000,"state":"active","ping":68},{"user_id":364,"name":"Owl Pacino","steam_id":76561197979970666,"connected_time":3246000000000,"state":"active","ping":47},{"user_id":412,"name":"MY LOVE DRIPS IN RED","steam_id":76561198072179483,"connected_time":282000000000,"state":"active","ping":91},{"user_id":405,"name":"lost in spaaaaace","steam_id":76561199085974120,"connected_time":946000000000,"state":"active","ping":74},{"user_id":399,"name":"In Soviet America","steam_id":76561197998261826,"connected_time":1471000000000,"state":"active","ping":60},{"user_id":374,"name":"pele","steam_id":76561198021224745,"connected_time":2385000000000,"state":"active","ping":55},{"user_id":409,"name":"Fox","steam_id":76561198191887141,"connected_time":521000000000,"state":"active","ping":74},{"user_id":398,"name":"Robin","steam_id":76561198121165149,"connected_time":1525000000000,"state":"active","ping":43},{"user_id":366,"name":"Obelisk","steam_id":76561198049416866,"connected_time":3200000000000,"state":"active","ping":92},{"user_id":387,"name":"Walkiing","steam_id":76561198074473413,"connected_time":2033000000000,"state":"active","ping":45},{"user_id":415,"name":"SpunkNugget","steam_id":76561198046401833,"connected_time":261000000000,"state":"active","ping":112},{"user_id":388,"name":"AutoCon17","steam_id":76561198209977473,"connected_time":1937000000000,"state":"active","ping":44},{"user_id":380,"name":"grady","steam_id":76561198424954118,"connected_time":2153000000000,"state":"active","ping":83},{"user_id":407,"name":"[extremely tiny guy] bog","steam_id":76561198070975491,"connected_time":692000000000,"state":"active","ping":70},{"user_id":410,"name":"DuragGod69","steam_id":76561198067814426,"connected_time":491000000000,"state":"active","ping":79},{"user_id":413,"name":"toastman","steam_id":76561198207073088,"connected_time":269000000000,"state":"active","ping":81},{"user_id":393,"name":"vevetables","steam_id":76561198404178400,"connected_time":1685000000000,"state":"active","ping":57},{"user_id":402,"name":"Lemon","steam_id":76561198119362095,"connected_time":1284000000000,"state":"active","ping":53},{"user_id":411,"name":"Engideer","steam_id":76561198145733164,"connected_time":405000000000,"state":"active","ping":72},{"user_id":372,"name":"cat","steam_id":76561198096347625,"connected_time":2460000000000,"state":"active","ping":85},{"user_id":414,"name":"Scout Player (Derogatory)","steam_id":76561198046526036,"connected_time":264000000000,"state":"active","ping":103},{"user_id":390,"name":"L0b5terlick","steam_id":76561198134990930,"connected_time":1813000000000,"state":"active","ping":62},{"user_id":403,"name":"Terium","steam_id":76561198331234327,"connected_time":997000000000,"state":"active","ping":60},{"user_id":416,"name":"Detective Pyro","steam_id":76561199039805435,"connected_time":198000000000,"state":"active","ping":111}]},{"server_id":402,"name":"Uncletopia | Chicago | 3 | All Maps","name_short":"chi-3","host":"chi-1.us.uncletopia.com","port":27035,"enabled":true,"region":"us-central","cc":"us","latitude":41.881832,"longitude":-87.62318,"reserved":0,"last_update":"0001-01-01T00:00:00Z","name_a2s":"Uncletopia | Chicago | 3 | All Maps","protocol":17,"map":"cp_steel","folder":"tf","game":"Team Fortress","app_id":440,"player_count":24,"max_players":24,"Bots":0,"server_type":"Dedicated","server_os":"Linux","password":true,"vac":true,"version":"7961495","steam_id":85568392924515191,"keywords":["cp","nocrits","nodmgspread","uncletopia"],"game_id":440,"stv_port":27036,"stv_name":"Uncletopia | Chicago | 3 | All Maps | STV","players":[{"user_id":517,"name":"SentPie","steam_id":76561198796459932,"connected_time":177000000000,"state":"active","ping":80},{"user_id":512,"name":"tntexplosion","steam_id":76561199090152308,"connected_time":350000000000,"state":"active","ping":87},{"user_id":489,"name":"Apetometrist","steam_id":76561198045391635,"connected_time":2120000000000,"state":"active","ping":63},{"user_id":479,"name":"MancalaMadMan","steam_id":76561198347324053,"connected_time":2768000000000,"state":"active","ping":118},{"user_id":507,"name":"ChebJeb","steam_id":76561198981377081,"connected_time":483000000000,"state":"active","ping":83},{"user_id":508,"name":"BoyKisser","steam_id":76561199200969139,"connected_time":456000000000,"state":"active","ping":122},{"user_id":502,"name":"Satyrn","steam_id":76561198034100942,"connected_time":1004000000000,"state":"active","ping":76},{"user_id":497,"name":"StraySheep","steam_id":76561198256003811,"connected_time":1578000000000,"state":"active","ping":66},{"user_id":515,"name":"Damn. That a pickle.","steam_id":76561198096221632,"connected_time":247000000000,"state":"active","ping":63},{"user_id":510,"name":"vv","steam_id":76561198134813102,"connected_time":375000000000,"state":"active","ping":52},{"user_id":511,"name":"joe","steam_id":76561199389283507,"connected_time":374000000000,"state":"active","ping":72},{"user_id":500,"name":"rat 2","steam_id":76561198197297414,"connected_time":1250000000000,"state":"active","ping":40},{"user_id":514,"name":"TheScootGuy","steam_id":76561198847107866,"connected_time":257000000000,"state":"active","ping":59},{"user_id":522,"name":"Rhea","steam_id":76561198066626240,"connected_time":72000000000,"state":"active","ping":76},{"user_id":518,"name":"Blake...","steam_id":76561198064090974,"connected_time":171000000000,"state":"active","ping":86},{"user_id":494,"name":"yes daddy","steam_id":76561198166100997,"connected_time":1912000000000,"state":"active","ping":74},{"user_id":519,"name":"LemonDogSmooth","steam_id":76561198035022723,"connected_time":147000000000,"state":"active","ping":91},{"user_id":503,"name":"H C N","steam_id":76561198106290021,"connected_time":917000000000,"state":"active","ping":76},{"user_id":523,"name":"floppy muppet","steam_id":76561198003076261,"connected_time":66000000000,"state":"active","ping":80},{"user_id":521,"name":"HatCrafter27","steam_id":76561198043110064,"connected_time":96000000000,"state":"active","ping":71},{"user_id":524,"name":"Monkey Mode","steam_id":76561197961267543,"connected_time":54000000000,"state":"active","ping":86},{"user_id":525,"name":"big steve","steam_id":76561199037050183,"connected_time":45000000000,"state":"active","ping":97},{"user_id":482,"name":"CrazyKermitRubes","steam_id":76561198009065204,"connected_time":2629000000000,"state":"active","ping":78},{"user_id":399,"name":"Cider Lia","steam_id":76561198151569597,"connected_time":7969000000000,"state":"active","ping":158}]},{"server_id":403,"name":"Uncletopia | Chicago | 4 | All Maps","name_short":"chi-4","host":"chi-1.us.uncletopia.com","port":27045,"enabled":true,"region":"us-central","cc":"us","latitude":41.881832,"longitude":-87.62318,"reserved":0,"last_update":"0001-01-01T00:00:00Z","name_a2s":"Uncletopia | Chicago | 4 | All Maps","protocol":17,"map":"pl_frontier_final","folder":"tf","game":"Team Fortress","app_id":440,"player_count":22,"max_players":24,"Bots":0,"server_type":"Dedicated","server_os":"Linux","password":true,"vac":true,"version":"7961495","steam_id":85568392924515193,"keywords":["nocrits","nodmgspread","payload","uncletopia"],"game_id":440,"stv_port":27046,"stv_name":"Uncletopia | Chicago | 4 | All Maps | STV","players":[{"user_id":97,"name":"Triple-Edged","steam_id":76561198308472155,"connected_time":522000000000,"state":"active","ping":58},{"user_id":73,"name":"timestew 1","steam_id":76561198367583372,"connected_time":2105000000000,"state":"active","ping":82},{"user_id":98,"name":"!! NOT A FLYING TOY !!","steam_id":76561198069735882,"connected_time":516000000000,"state":"active","ping":73},{"user_id":84,"name":"Fiendish Frog","steam_id":76561198029478821,"connected_time":1587000000000,"state":"active","ping":69},{"user_id":44,"name":"real worm","steam_id":76561199065645094,"connected_time":3398000000000,"state":"active","ping":82},{"user_id":100,"name":"MeatwadMeatwad","steam_id":76561198202194160,"connected_time":482000000000,"state":"active","ping":46},{"user_id":99,"name":"BEES","steam_id":76561198811545874,"connected_time":511000000000,"state":"active","ping":48},{"user_id":28,"name":"Goober","steam_id":76561198988863807,"connected_time":4390000000000,"state":"active","ping":77},{"user_id":101,"name":"Sagoogoo","steam_id":76561198176061614,"connected_time":482000000000,"state":"active","ping":85},{"user_id":41,"name":"frog","steam_id":76561198013735714,"connected_time":3516000000000,"state":"active","ping":72},{"user_id":36,"name":"frank","steam_id":76561198186815298,"connected_time":4114000000000,"state":"active","ping":94},{"user_id":63,"name":"Chernov","steam_id":76561198014463424,"connected_time":2581000000000,"state":"active","ping":60},{"user_id":104,"name":"fdsarewqqqqq","steam_id":76561199216983585,"connected_time":421000000000,"state":"active","ping":90},{"user_id":102,"name":"clavin_","steam_id":76561198046398447,"connected_time":471000000000,"state":"active","ping":57},{"user_id":75,"name":"Bomb Squirtle™","steam_id":76561197998931145,"connected_time":2057000000000,"state":"active","ping":86},{"user_id":91,"name":"Lancer47","steam_id":76561198020481475,"connected_time":1023000000000,"state":"active","ping":85},{"user_id":89,"name":"Ze_Über_Nerd","steam_id":76561198091148675,"connected_time":1143000000000,"state":"active","ping":69},{"user_id":65,"name":"SneakySneak","steam_id":76561198064847921,"connected_time":2528000000000,"state":"active","ping":72},{"user_id":106,"name":"tailorturtle","steam_id":76561198107481127,"connected_time":222000000000,"state":"active","ping":69},{"user_id":105,"name":"Carthing","steam_id":76561198330833171,"connected_time":392000000000,"state":"active","ping":74},{"user_id":79,"name":"Ryan Lochte","steam_id":76561198060830441,"connected_time":2023000000000,"state":"active","ping":67},{"user_id":90,"name":"steakfarmasian","steam_id":76561198212754036,"connected_time":1086000000000,"state":"active","ping":54}]},{"server_id":36,"name":"Uncletopia | Chicago | 5 | All Maps","name_short":"chi-5","host":"chi-2.us.uncletopia.com","port":27015,"enabled":true,"region":"us-central","cc":"us","latitude":41.881832,"longitude":-87.62318,"reserved":0,"last_update":"0001-01-01T00:00:00Z","name_a2s":"Uncletopia | Chicago | 5 | All Maps","protocol":17,"map":"pl_swiftwater_final1","folder":"tf","game":"Team Fortress","app_id":440,"player_count":13,"max_players":24,"Bots":0,"server_type":"Dedicated","server_os":"Linux","password":true,"vac":true,"version":"7961495","steam_id":85568392924866362,"keywords":["nocrits","nodmgspread","payload","uncletopia"],"game_id":440,"stv_port":27016,"stv_name":"Uncletopia | Chicago | 5 | All Maps | STV","players":[{"user_id":71,"name":"RyInc","steam_id":76561198874261643,"connected_time":2922000000000,"state":"active","ping":45},{"user_id":98,"name":"ElBentz","steam_id":76561199059582221,"connected_time":727000000000,"state":"active","ping":101},{"user_id":81,"name":"dzp11177","steam_id":76561198277558030,"connected_time":1960000000000,"state":"active","ping":61},{"user_id":100,"name":"Moss","steam_id":76561199122200727,"connected_time":700000000000,"state":"active","ping":68},{"user_id":101,"name":"blobb","steam_id":76561198950448488,"connected_time":698000000000,"state":"active","ping":47},{"user_id":110,"name":"Xebbey","steam_id":76561198880415976,"connected_time":159000000000,"state":"active","ping":61},{"user_id":111,"name":"L to the OG","steam_id":76561199215811448,"connected_time":105000000000,"state":"active","ping":78},{"user_id":80,"name":"1st year at kindergarden","steam_id":76561199100342013,"connected_time":1976000000000,"state":"active","ping":91},{"user_id":104,"name":"Mystry","steam_id":76561197974110504,"connected_time":657000000000,"state":"active","ping":92},{"user_id":88,"name":"ĐïɐȐɹɦɆa","steam_id":76561198981411945,"connected_time":1889000000000,"state":"active","ping":93},{"user_id":106,"name":"Imagine being trash at Medic","steam_id":76561197986530028,"connected_time":593000000000,"state":"active","ping":94},{"user_id":91,"name":"Rodgedan","steam_id":76561198226236524,"connected_time":1845000000000,"state":"active","ping":79},{"user_id":77,"name":"technoninja395","steam_id":76561199368978007,"connected_time":2053000000000,"state":"active","ping":62}]},{"server_id":37,"name":"Uncletopia | Chicago | 6 | All Maps","name_short":"chi-6","host":"chi-2.us.uncletopia.com","port":27025,"enabled":true,"region":"us-central","cc":"us","latitude":41.881832,"longitude":-87.62318,"reserved":0,"last_update":"0001-01-01T00:00:00Z","name_a2s":"Uncletopia | Chicago | 6 | All Maps","protocol":17,"map":"koth_viaduct","folder":"tf","game":"Team Fortress","app_id":440,"player_count":24,"max_players":24,"Bots":0,"server_type":"Dedicated","server_os":"Linux","password":true,"vac":true,"version":"7961495","steam_id":85568392924866363,"keywords":["cp","nocrits","nodmgspread","uncletopia"],"game_id":440,"stv_port":27026,"stv_name":"Uncletopia | Chicago | 6 | All Maps | STV","players":[{"user_id":33,"name":"meo ♥","steam_id":76561197992719272,"connected_time":239000000000,"state":"active","ping":58},{"user_id":16,"name":"jimmyfnaf172198yay","steam_id":76561198311446636,"connected_time":784000000000,"state":"active","ping":61},{"user_id":17,"name":"Nungel","steam_id":76561198272961376,"connected_time":751000000000,"state":"active","ping":84},{"user_id":11,"name":"Jama-Lama","steam_id":76561198803782938,"connected_time":1020000000000,"state":"active","ping":65},{"user_id":12,"name":"Mr.Berserk","steam_id":76561199023993320,"connected_time":1001000000000,"state":"active","ping":72},{"user_id":29,"name":"Real (real)","steam_id":76561199059653595,"connected_time":367000000000,"state":"active","ping":101},{"user_id":30,"name":"alfredodan","steam_id":76561198025011044,"connected_time":311000000000,"state":"active","ping":79},{"user_id":22,"name":"EAG","steam_id":76561199087837632,"connected_time":574000000000,"state":"active","ping":104},{"user_id":19,"name":"Ðιяту BɄβblє","steam_id":76561198382555244,"connected_time":740000000000,"state":"active","ping":82},{"user_id":20,"name":"Shuu","steam_id":76561199199180558,"connected_time":694000000000,"state":"active","ping":48},{"user_id":37,"name":"Toripollo","steam_id":76561198251665862,"connected_time":128000000000,"state":"active","ping":103},{"user_id":26,"name":"Jean Deere","steam_id":76561198105101309,"connected_time":479000000000,"state":"active","ping":83},{"user_id":24,"name":"mr pocahontas","steam_id":76561198051881047,"connected_time":525000000000,"state":"active","ping":42},{"user_id":25,"name":"gatekeep girlboss grilledcheese","steam_id":76561198057000498,"connected_time":522000000000,"state":"active","ping":58},{"user_id":27,"name":"Quebec","steam_id":76561198865760503,"connected_time":476000000000,"state":"active","ping":64},{"user_id":28,"name":"crispylego_","steam_id":76561199453679719,"connected_time":463000000000,"state":"active","ping":150},{"user_id":31,"name":"FrostStorm","steam_id":76561198142685151,"connected_time":298000000000,"state":"active","ping":71},{"user_id":32,"name":"dribby","steam_id":76561197985925929,"connected_time":283000000000,"state":"active","ping":46},{"user_id":34,"name":"CyberZayne","steam_id":76561198002351356,"connected_time":238000000000,"state":"active","ping":84},{"user_id":39,"name":"Wizard02","steam_id":76561198178293623,"connected_time":97000000000,"state":"active","ping":74},{"user_id":36,"name":"SouperBad","steam_id":76561198116690686,"connected_time":189000000000,"state":"active","ping":49},{"user_id":38,"name":"Fascination_","steam_id":76561198823659629,"connected_time":126000000000,"state":"active","ping":156},{"user_id":40,"name":"Hawkborne","steam_id":76561198107249245,"connected_time":86000000000,"state":"active","ping":76},{"user_id":41,"name":"Deni Jems","steam_id":76561198147707286,"connected_time":82000000000,"state":"active","ping":79}]},{"server_id":38,"name":"Uncletopia | Chicago | 7 | Stopwatch Beta","name_short":"chi-7","host":"chi-2.us.uncletopia.com","port":27035,"enabled":true,"region":"us-central","cc":"us","latitude":41.881832,"longitude":-87.62318,"reserved":0,"last_update":"0001-01-01T00:00:00Z","name_a2s":"Uncletopia | Chicago | 7 | Stopwatch Beta","protocol":17,"map":"pl_badwater","folder":"tf","game":"Team Fortress","app_id":440,"player_count":0,"max_players":24,"Bots":0,"server_type":"Dedicated","server_os":"Linux","password":true,"vac":true,"version":"7961495","steam_id":85568392924866364,"keywords":["nocrits","nodmgspread","payload","uncletopia"],"game_id":440,"stv_port":27036,"stv_name":"Uncletopia | Chicago | 7 | Stopwatch Beta | STV","players":null},{"server_id":39,"name":"Uncletopia | Chicago | 8 | Community","name_short":"chi-8","host":"chi-2.us.uncletopia.com","port":27045,"enabled":true,"region":"us-central","cc":"us","latitude":41.881832,"longitude":-87.62318,"reserved":0,"last_update":"0001-01-01T00:00:00Z","name_a2s":"Uncletopia | Chicago | 8 | Community","protocol":17,"map":"koth_cascade","folder":"tf","game":"Team Fortress","app_id":440,"player_count":3,"max_players":24,"Bots":0,"server_type":"Dedicated","server_os":"Linux","password":true,"vac":true,"version":"7961495","steam_id":85568392924866365,"keywords":["cp","nocrits","nodmgspread","uncletopia"],"game_id":440,"stv_port":27046,"stv_name":"Uncletopia | Chicago | 8 | Community | STV","players":[{"user_id":27,"name":"Engineer Gaming","steam_id":76561198840761529,"connected_time":215000000000,"state":"active","ping":55},{"user_id":28,"name":"Wolfsandwich123","steam_id":76561198332742794,"connected_time":88000000000,"state":"active","ping":89},{"user_id":30,"name":"nitsua","steam_id":76561198149378796,"connected_time":36000000000,"state":"spawning","ping":44}]},{"server_id":8,"name":"Uncletopia | Dallas | 1 | All Maps","name_short":"dal-1","host":"dal-1.us.uncletopia.com","port":27015,"enabled":true,"region":"us-central","cc":"us","latitude":32.779167,"longitude":-96.80889,"reserved":0,"last_update":"0001-01-01T00:00:00Z","name_a2s":"Uncletopia | Dallas | 1 | All Maps","protocol":17,"map":"pl_badwater","folder":"tf","game":"Team Fortress","app_id":440,"player_count":24,"max_players":24,"Bots":0,"server_type":"Dedicated","server_os":"Linux","password":true,"vac":true,"version":"7961495","steam_id":85568392924469986,"keywords":["nocrits","nodmgspread","payload","uncletopia"],"game_id":440,"stv_port":27016,"stv_name":"Uncletopia | Dallas | 1 | All Maps | STV","players":[{"user_id":184,"name":"Spy (I Love spy)","steam_id":76561199138738952,"connected_time":2747000000000,"state":"active","ping":70},{"user_id":227,"name":"Wolverine Fingerblaster","steam_id":76561198095394582,"connected_time":536000000000,"state":"active","ping":64},{"user_id":208,"name":"Heathcliff","steam_id":76561198044288534,"connected_time":1964000000000,"state":"active","ping":92},{"user_id":236,"name":"Gh0w0st","steam_id":76561199471261226,"connected_time":100000000000,"state":"active","ping":65},{"user_id":151,"name":"LUM","steam_id":76561198069976825,"connected_time":6325000000000,"state":"active","ping":96},{"user_id":168,"name":"flippercurve","steam_id":76561199238295034,"connected_time":3942000000000,"state":"active","ping":72},{"user_id":205,"name":"Mr. Pockets","steam_id":76561198053657771,"connected_time":2098000000000,"state":"active","ping":81},{"user_id":226,"name":"Bobby Cigarette","steam_id":76561198059780866,"connected_time":539000000000,"state":"active","ping":67},{"user_id":217,"name":"squaggles!","steam_id":76561197994995011,"connected_time":1380000000000,"state":"active","ping":48},{"user_id":219,"name":"(TWoN Adric)","steam_id":76561197999304024,"connected_time":1345000000000,"state":"active","ping":46},{"user_id":188,"name":"Outta Kenya","steam_id":76561198153604875,"connected_time":2679000000000,"state":"active","ping":74},{"user_id":221,"name":"RUF","steam_id":76561198062315805,"connected_time":1324000000000,"state":"active","ping":86},{"user_id":153,"name":"Shrederatershan","steam_id":76561199211707598,"connected_time":5756000000000,"state":"active","ping":84},{"user_id":232,"name":"iUseDvorak","steam_id":76561198064439037,"connected_time":281000000000,"state":"active","ping":74},{"user_id":225,"name":"gaminpanda52","steam_id":76561199090922778,"connected_time":808000000000,"state":"active","ping":93},{"user_id":213,"name":"._.","steam_id":76561198300316801,"connected_time":1720000000000,"state":"active","ping":78},{"user_id":235,"name":"Legless Amphibian","steam_id":76561198880476222,"connected_time":121000000000,"state":"active","ping":59},{"user_id":222,"name":"BumberQuest","steam_id":76561198273025294,"connected_time":1304000000000,"state":"active","ping":58},{"user_id":135,"name":"MithStyck","steam_id":76561198071538489,"connected_time":7390000000000,"state":"active","ping":41},{"user_id":233,"name":"Furrio","steam_id":76561198174104607,"connected_time":272000000000,"state":"active","ping":66},{"user_id":199,"name":"arsenic microdoser","steam_id":76561198418172095,"connected_time":2457000000000,"state":"active","ping":87},{"user_id":223,"name":"mollusk_obliteration","steam_id":76561198085388962,"connected_time":1280000000000,"state":"active","ping":97},{"user_id":229,"name":"RusticCarp42989","steam_id":76561198361151865,"connected_time":485000000000,"state":"active","ping":105},{"user_id":200,"name":"RaixaR","steam_id":76561198025289430,"connected_time":2453000000000,"state":"active","ping":53}]},{"server_id":108,"name":"Uncletopia | Dallas | 2 | All Maps","name_short":"dal-2","host":"dal-1.us.uncletopia.com","port":27025,"enabled":true,"region":"us-central","cc":"us","latitude":32.779167,"longitude":-96.80889,"reserved":0,"last_update":"0001-01-01T00:00:00Z","name_a2s":"Uncletopia | Dallas | 2 | All Maps","protocol":17,"map":"cp_altitude","folder":"tf","game":"Team Fortress","app_id":440,"player_count":24,"max_players":24,"Bots":0,"server_type":"Dedicated","server_os":"Linux","password":true,"vac":true,"version":"7961495","steam_id":85568392924469988,"keywords":["cp","nocrits","nodmgspread","uncletopia"],"game_id":440,"stv_port":27026,"stv_name":"Uncletopia | Dallas | 2 | All Maps | STV","players":[{"user_id":120,"name":"Sup m8","steam_id":76561198081659121,"connected_time":1308000000000,"state":"active","ping":38},{"user_id":133,"name":"Aeront","steam_id":76561198072032723,"connected_time":736000000000,"state":"active","ping":97},{"user_id":116,"name":"charm","steam_id":76561198126751384,"connected_time":1390000000000,"state":"active","ping":60},{"user_id":87,"name":"Ahri ♥","steam_id":76561198152499595,"connected_time":3212000000000,"state":"active","ping":80},{"user_id":143,"name":"A Can of AriZona Green Tea","steam_id":76561198062481133,"connected_time":457000000000,"state":"active","ping":71},{"user_id":99,"name":"TechnoBear2099","steam_id":76561198238863596,"connected_time":2518000000000,"state":"active","ping":47},{"user_id":142,"name":"Ricedot","steam_id":76561199053075527,"connected_time":459000000000,"state":"active","ping":94},{"user_id":144,"name":"skeleton the stairphobic","steam_id":76561198315213115,"connected_time":451000000000,"state":"active","ping":84},{"user_id":145,"name":"SGT Disoriented","steam_id":76561198058177958,"connected_time":447000000000,"state":"active","ping":48},{"user_id":81,"name":"DMM","steam_id":76561198065426171,"connected_time":3573000000000,"state":"active","ping":50},{"user_id":154,"name":"Medic Bag","steam_id":76561198403209900,"connected_time":191000000000,"state":"active","ping":74},{"user_id":139,"name":"Your Dad™","steam_id":76561198254739340,"connected_time":538000000000,"state":"active","ping":77},{"user_id":147,"name":"redsentry27","steam_id":76561198405412094,"connected_time":374000000000,"state":"active","ping":66},{"user_id":137,"name":"ElZeto","steam_id":76561198252322622,"connected_time":657000000000,"state":"active","ping":93},{"user_id":150,"name":"Your Local Jester","steam_id":76561199120223717,"connected_time":331000000000,"state":"active","ping":96},{"user_id":123,"name":"Kaestal","steam_id":76561198033174157,"connected_time":1217000000000,"state":"active","ping":54},{"user_id":149,"name":"Percival","steam_id":76561198021573426,"connected_time":361000000000,"state":"active","ping":54},{"user_id":134,"name":"milwaukee pasta bandit","steam_id":76561198417793830,"connected_time":713000000000,"state":"active","ping":75},{"user_id":122,"name":"hforce11","steam_id":76561198087647130,"connected_time":1265000000000,"state":"active","ping":56},{"user_id":132,"name":"lumbridge","steam_id":76561198009274525,"connected_time":877000000000,"state":"active","ping":89},{"user_id":151,"name":"Reague","steam_id":76561199092175631,"connected_time":305000000000,"state":"active","ping":75},{"user_id":152,"name":"Lo-Pan","steam_id":76561198085670133,"connected_time":295000000000,"state":"active","ping":58},{"user_id":135,"name":"BRO_TEIN_SHAKE","steam_id":76561198035547173,"connected_time":711000000000,"state":"active","ping":101},{"user_id":153,"name":"andyiscolorless","steam_id":76561199239870921,"connected_time":289000000000,"state":"active","ping":150}]},{"server_id":404,"name":"Uncletopia | Dallas | 3 | All Maps","name_short":"dal-3","host":"dal-1.us.uncletopia.com","port":27035,"enabled":true,"region":"us-central","cc":"us","latitude":32.779167,"longitude":-96.80889,"reserved":0,"last_update":"0001-01-01T00:00:00Z","name_a2s":"Uncletopia | Dallas | 3 | All Maps","protocol":17,"map":"cp_dustbowl","folder":"tf","game":"Team Fortress","app_id":440,"player_count":1,"max_players":24,"Bots":0,"server_type":"Dedicated","server_os":"Linux","password":true,"vac":true,"version":"7961495","steam_id":85568392924515219,"keywords":["cp","nocrits","nodmgspread","uncletopia"],"game_id":440,"stv_port":27036,"stv_name":"Uncletopia | Dallas | 3 | All Maps | STV","players":[{"user_id":252,"name":"Mr.NoBody","steam_id":76561198125107935,"connected_time":112000000000,"state":"active","ping":66}]},{"server_id":405,"name":"Uncletopia | Dallas | 4 | Community","name_short":"dal-4","host":"dal-1.us.uncletopia.com","port":27045,"enabled":true,"region":"us-central","cc":"us","latitude":32.779167,"longitude":-96.80889,"reserved":0,"last_update":"0001-01-01T00:00:00Z","name_a2s":"Uncletopia | Dallas | 4 | Community","protocol":17,"map":"workshop/cp_hazyfort_rc6.ugc1365963729","folder":"tf","game":"Team Fortress","app_id":440,"player_count":0,"max_players":24,"Bots":0,"server_type":"Dedicated","server_os":"Linux","password":true,"vac":true,"version":"7961495","steam_id":85568392924515220,"keywords":["cp","nocrits","nodmgspread","uncletopia"],"game_id":440,"stv_port":27046,"stv_name":"Uncletopia | Dallas | 4 | Community | STV","players":null},{"server_id":5,"name":"Uncletopia | Frankfurt | 1 | All Maps","name_short":"frk-1","host":"frk-1.de.uncletopia.com","port":27015,"enabled":true,"region":"eu","cc":"de","latitude":50.110924,"longitude":8.682127,"reserved":0,"last_update":"0001-01-01T00:00:00Z","name_a2s":"Uncletopia | Frankfurt | 1 | All Maps","protocol":17,"map":"cp_altitude","folder":"tf","game":"Team Fortress","app_id":440,"player_count":0,"max_players":24,"Bots":0,"server_type":"Dedicated","server_os":"Linux","password":true,"vac":true,"version":"7961495","steam_id":85568392924469989,"keywords":["cp","nocrits","nodmgspread","uncletopia"],"game_id":440,"stv_port":27016,"stv_name":"Uncletopia | Frankfurt | 1 | All Maps | STV","players":null},{"server_id":110,"name":"Uncletopia | Frankfurt | 2 | All Maps","name_short":"frk-2","host":"frk-1.de.uncletopia.com","port":27025,"enabled":true,"region":"eu","cc":"de","latitude":50.110924,"longitude":8.682127,"reserved":0,"last_update":"0001-01-01T00:00:00Z","name_a2s":"Uncletopia | Frankfurt | 2 | All Maps","protocol":17,"map":"cp_dustbowl","folder":"tf","game":"Team Fortress","app_id":440,"player_count":24,"max_players":24,"Bots":0,"server_type":"Dedicated","server_os":"Linux","password":true,"vac":true,"version":"7961495","steam_id":85568392924469990,"keywords":["cp","nocrits","nodmgspread","uncletopia"],"game_id":440,"stv_port":27026,"stv_name":"Uncletopia | Frankfurt | 2 | All Maps | STV","players":[{"user_id":754,"name":"Silverhand","steam_id":76561198006925581,"connected_time":829000000000,"state":"active","ping":46},{"user_id":757,"name":"Laylakikio","steam_id":76561198090146457,"connected_time":435000000000,"state":"active","ping":57},{"user_id":699,"name":"Talvy","steam_id":76561198009083535,"connected_time":4872000000000,"state":"active","ping":77},{"user_id":680,"name":"Baron","steam_id":76561198021901783,"connected_time":5651000000000,"state":"active","ping":73},{"user_id":688,"name":"Teecho","steam_id":76561197995269610,"connected_time":5594000000000,"state":"active","ping":70},{"user_id":739,"name":"TheFlames","steam_id":76561198179314694,"connected_time":1827000000000,"state":"active","ping":46},{"user_id":759,"name":"fish","steam_id":76561198205475839,"connected_time":346000000000,"state":"active","ping":97},{"user_id":745,"name":"eevee","steam_id":76561198447072392,"connected_time":1419000000000,"state":"active","ping":69},{"user_id":721,"name":"The Noxious Zephion","steam_id":76561198886608082,"connected_time":3036000000000,"state":"active","ping":80},{"user_id":750,"name":"DaCZ","steam_id":76561198093301141,"connected_time":970000000000,"state":"active","ping":61},{"user_id":743,"name":"Koidres","steam_id":76561198087978463,"connected_time":1546000000000,"state":"active","ping":106},{"user_id":748,"name":"Island","steam_id":76561198100757161,"connected_time":1261000000000,"state":"active","ping":59},{"user_id":713,"name":"Mashiro Shiina","steam_id":76561198301932572,"connected_time":3549000000000,"state":"active","ping":76},{"user_id":755,"name":"Tythel","steam_id":76561198119042903,"connected_time":636000000000,"state":"active","ping":84},{"user_id":674,"name":"mars attacks!!","steam_id":76561198334042273,"connected_time":5793000000000,"state":"active","ping":70},{"user_id":737,"name":"Francis","steam_id":76561198062610399,"connected_time":2116000000000,"state":"active","ping":87},{"user_id":751,"name":"crazed gunman","steam_id":76561198836246326,"connected_time":968000000000,"state":"active","ping":76},{"user_id":725,"name":"AftiksPL","steam_id":76561198875182686,"connected_time":2977000000000,"state":"active","ping":89},{"user_id":756,"name":"StaRbright0","steam_id":76561198277934180,"connected_time":631000000000,"state":"active","ping":89},{"user_id":760,"name":"Captian Wobbs","steam_id":76561198142884936,"connected_time":314000000000,"state":"active","ping":187},{"user_id":761,"name":"Ladi","steam_id":76561198047735194,"connected_time":219000000000,"state":"active","ping":69},{"user_id":762,"name":"♥ trixy ♥","steam_id":76561199474154775,"connected_time":38000000000,"state":"active","ping":59},{"user_id":729,"name":"Andrew","steam_id":76561199093858181,"connected_time":2933000000000,"state":"active","ping":66},{"user_id":686,"name":"Althea","steam_id":76561198284106616,"connected_time":5616000000000,"state":"active","ping":91}]},{"server_id":308,"name":"Uncletopia | Frankfurt | 3 | All Maps","name_short":"frk-3","host":"frk-1.de.uncletopia.com","port":27035,"enabled":true,"region":"eu","cc":"de","latitude":50.110924,"longitude":8.682127,"reserved":0,"last_update":"0001-01-01T00:00:00Z","name_a2s":"Uncletopia | Frankfurt | 3 | All Maps","protocol":17,"map":"pl_goldrush","folder":"tf","game":"Team Fortress","app_id":440,"player_count":20,"max_players":24,"Bots":0,"server_type":"Dedicated","server_os":"Linux","password":true,"vac":true,"version":"7961495","steam_id":85568392924504274,"keywords":["nocrits","nodmgspread","payload","uncletopia"],"game_id":440,"stv_port":27036,"stv_name":"Uncletopia | Frankfurt | 3 | All Maps | STV","players":[{"user_id":587,"name":"[ Louinskii ]","steam_id":76561198060509154,"connected_time":29000000000,"state":"active","ping":70},{"user_id":585,"name":"kingNAS619","steam_id":76561198322366172,"connected_time":125000000000,"state":"active","ping":178},{"user_id":564,"name":"boy i'm on yo ass","steam_id":76561198032801875,"connected_time":2092000000000,"state":"active","ping":69},{"user_id":566,"name":"Mr. Bean","steam_id":76561198086929777,"connected_time":2078000000000,"state":"active","ping":45},{"user_id":563,"name":"☭TheDevilsEye☭","steam_id":76561198017379398,"connected_time":2103000000000,"state":"active","ping":71},{"user_id":572,"name":"Larry Penus","steam_id":76561198207546233,"connected_time":1415000000000,"state":"active","ping":45},{"user_id":586,"name":"donatofina","steam_id":76561198353497885,"connected_time":68000000000,"state":"active","ping":89},{"user_id":532,"name":"Helusion","steam_id":76561198207207269,"connected_time":3670000000000,"state":"active","ping":58},{"user_id":567,"name":"Flint Atheno","steam_id":76561198000565196,"connected_time":2076000000000,"state":"active","ping":57},{"user_id":496,"name":"Programmer Socks Gaming","steam_id":76561198982674420,"connected_time":6193000000000,"state":"active","ping":50},{"user_id":509,"name":"fernandobmwm355555","steam_id":76561198086609447,"connected_time":5971000000000,"state":"active","ping":59},{"user_id":588,"name":"Mer","steam_id":76561198192171041,"connected_time":11000000000,"state":"active","ping":180},{"user_id":575,"name":"Teathling","steam_id":76561198061580505,"connected_time":1183000000000,"state":"active","ping":51},{"user_id":562,"name":"Mark Johnson","steam_id":76561198218293684,"connected_time":2158000000000,"state":"active","ping":78},{"user_id":579,"name":"Matteo Besho","steam_id":76561199159657855,"connected_time":766000000000,"state":"active","ping":60},{"user_id":515,"name":"Intruder","steam_id":76561198156128173,"connected_time":5875000000000,"state":"active","ping":74},{"user_id":582,"name":"pos","steam_id":76561198026132442,"connected_time":407000000000,"state":"active","ping":90},{"user_id":577,"name":"IgorVitoriev","steam_id":76561198075723591,"connected_time":1101000000000,"state":"active","ping":61},{"user_id":573,"name":"tone","steam_id":76561197975301462,"connected_time":1364000000000,"state":"active","ping":89},{"user_id":583,"name":"mohamadparadox","steam_id":76561198346156085,"connected_time":179000000000,"state":"active","ping":171}]},{"server_id":309,"name":"Uncletopia | Frankfurt | 4 | All Maps","name_short":"frk-4","host":"frk-1.de.uncletopia.com","port":27045,"enabled":true,"region":"eu","cc":"de","latitude":50.110924,"longitude":8.682127,"reserved":0,"last_update":"0001-01-01T00:00:00Z","name_a2s":"Uncletopia | Frankfurt | 4 | All Maps","protocol":17,"map":"pl_snowycoast","folder":"tf","game":"Team Fortress","app_id":440,"player_count":0,"max_players":24,"Bots":0,"server_type":"Dedicated","server_os":"Linux","password":true,"vac":true,"version":"7961495","steam_id":85568392924504275,"keywords":["nocrits","nodmgspread","payload","uncletopia"],"game_id":440,"stv_port":27046,"stv_name":"Uncletopia | Frankfurt | 4 | All Maps | STV","players":null},{"server_id":310,"name":"Uncletopia | Frankfurt | 5 | All Maps","name_short":"frk-5","host":"frk-1.de.uncletopia.com","port":27055,"enabled":true,"region":"eu","cc":"de","latitude":50.110924,"longitude":8.682127,"reserved":0,"last_update":"0001-01-01T00:00:00Z","name_a2s":"Uncletopia | Frankfurt | 5 | All Maps","protocol":17,"map":"pl_upward","folder":"tf","game":"Team Fortress","app_id":440,"player_count":24,"max_players":24,"Bots":0,"server_type":"Dedicated","server_os":"Linux","password":true,"vac":true,"version":"7961495","steam_id":85568392924504277,"keywords":["nocrits","nodmgspread","payload","uncletopia"],"game_id":440,"stv_port":27056,"stv_name":"Uncletopia | Frankfurt | 5 | All Maps | STV","players":[{"user_id":351,"name":"Абсолютная водка","steam_id":76561198886250433,"connected_time":551000000000,"state":"active","ping":74},{"user_id":333,"name":"Bobirulez","steam_id":76561198009125458,"connected_time":2184000000000,"state":"active","ping":67},{"user_id":314,"name":"xavier","steam_id":76561198076494034,"connected_time":4718000000000,"state":"active","ping":56},{"user_id":352,"name":"Zaratti","steam_id":76561198124224005,"connected_time":485000000000,"state":"active","ping":109},{"user_id":353,"name":"Maks","steam_id":76561198315278876,"connected_time":484000000000,"state":"active","ping":64},{"user_id":337,"name":"Tomfool","steam_id":76561197993256481,"connected_time":1666000000000,"state":"active","ping":73},{"user_id":288,"name":"Piteras","steam_id":76561198858532207,"connected_time":6620000000000,"state":"active","ping":74},{"user_id":335,"name":"Yangus","steam_id":76561198147796010,"connected_time":1740000000000,"state":"active","ping":60},{"user_id":293,"name":"Jonno","steam_id":76561198023443744,"connected_time":6191000000000,"state":"active","ping":62},{"user_id":349,"name":"deloreg (playing soldier)","steam_id":76561199487318962,"connected_time":950000000000,"state":"active","ping":70},{"user_id":354,"name":"Gen","steam_id":76561198021775885,"connected_time":431000000000,"state":"active","ping":58},{"user_id":347,"name":"Hussain_144","steam_id":76561198346029208,"connected_time":1098000000000,"state":"active","ping":175},{"user_id":330,"name":"Monkey","steam_id":76561199008411791,"connected_time":2912000000000,"state":"active","ping":61},{"user_id":298,"name":"Vershal Smershal","steam_id":76561198116223995,"connected_time":5447000000000,"state":"active","ping":61},{"user_id":355,"name":"Ivy","steam_id":76561198075568484,"connected_time":424000000000,"state":"active","ping":70},{"user_id":334,"name":"chillrend_morphs_high_lod6","steam_id":76561198452963141,"connected_time":2028000000000,"state":"active","ping":74},{"user_id":329,"name":"Stupid_Cake","steam_id":76561198079566684,"connected_time":3176000000000,"state":"active","ping":165},{"user_id":299,"name":"Just Navlis","steam_id":76561198090479609,"connected_time":5115000000000,"state":"active","ping":49},{"user_id":344,"name":"Oxer","steam_id":76561198055942412,"connected_time":1301000000000,"state":"active","ping":80},{"user_id":356,"name":"bookreader","steam_id":76561198978568007,"connected_time":396000000000,"state":"active","ping":124},{"user_id":357,"name":"Plutocola","steam_id":76561198064657605,"connected_time":357000000000,"state":"active","ping":57},{"user_id":331,"name":"modavak","steam_id":76561198946290908,"connected_time":2799000000000,"state":"active","ping":104},{"user_id":350,"name":"Haha?","steam_id":76561198056882245,"connected_time":705000000000,"state":"active","ping":56},{"user_id":358,"name":"cat food","steam_id":76561198905911729,"connected_time":318000000000,"state":"active","ping":74}]},{"server_id":311,"name":"Uncletopia | Frankfurt | 6 | All Maps","name_short":"frk-6","host":"frk-1.de.uncletopia.com","port":27065,"enabled":true,"region":"eu","cc":"de","latitude":50.110924,"longitude":8.682127,"reserved":0,"last_update":"0001-01-01T00:00:00Z","name_a2s":"Uncletopia | Frankfurt | 6 | All Maps","protocol":17,"map":"koth_lakeside_final","folder":"tf","game":"Team Fortress","app_id":440,"player_count":0,"max_players":24,"Bots":0,"server_type":"Dedicated","server_os":"Linux","password":true,"vac":true,"version":"7961495","steam_id":85568392924504278,"keywords":["cp","nocrits","nodmgspread","uncletopia"],"game_id":440,"stv_port":27066,"stv_name":"Uncletopia | Frankfurt | 6 | All Maps | STV","players":null},{"server_id":23,"name":"Uncletopia | Frankfurt | 7 | Stopwatch Beta","name_short":"frk-7","host":"frk-1.de.uncletopia.com","port":27075,"enabled":true,"region":"eu","cc":"de","latitude":50.110924,"longitude":8.682127,"reserved":0,"last_update":"0001-01-01T00:00:00Z","name_a2s":"Uncletopia | Frankfurt | 7 | Stopwatch Beta","protocol":17,"map":"workshop/pl_summercoast_rc8e.ugc1761528829","folder":"tf","game":"Team Fortress","app_id":440,"player_count":0,"max_players":24,"Bots":0,"server_type":"Dedicated","server_os":"Linux","password":true,"vac":true,"version":"7961495","steam_id":85568392924742827,"keywords":["nocrits","nodmgspread","payload","uncletopia"],"game_id":440,"stv_port":27076,"stv_name":"Uncletopia | Frankfurt | 7 | Stopwatch Beta | STV","players":null},{"server_id":24,"name":"Uncletopia | Frankfurt | 8 | Community","name_short":"frk-8","host":"frk-1.de.uncletopia.com","port":27085,"enabled":true,"region":"eu","cc":"de","latitude":50.110924,"longitude":8.682127,"reserved":0,"last_update":"0001-01-01T00:00:00Z","name_a2s":"Uncletopia | Frankfurt | 8 | Community","protocol":17,"map":"workshop/cp_propaganda_b18.ugc1603743849","folder":"tf","game":"Team Fortress","app_id":440,"player_count":12,"max_players":24,"Bots":0,"server_type":"Dedicated","server_os":"Linux","password":true,"vac":true,"version":"7961495","steam_id":85568392924742828,"keywords":["cp","nocrits","nodmgspread","uncletopia"],"game_id":440,"stv_port":27086,"stv_name":"Uncletopia | Frankfurt | 8 | Community | STV","players":[{"user_id":431,"name":"Qwerty","steam_id":76561198023525894,"connected_time":1403000000000,"state":"active","ping":77},{"user_id":437,"name":"tiia","steam_id":76561198046196005,"connected_time":497000000000,"state":"active","ping":39},{"user_id":438,"name":"tsarka","steam_id":76561198123238801,"connected_time":156000000000,"state":"active","ping":52},{"user_id":434,"name":"UGH!","steam_id":76561198004335297,"connected_time":930000000000,"state":"active","ping":60},{"user_id":440,"name":"Livicron","steam_id":76561199133754491,"connected_time":39000000000,"state":"spawning","ping":143},{"user_id":433,"name":"Daan Bread","steam_id":76561198040699398,"connected_time":957000000000,"state":"active","ping":59},{"user_id":427,"name":"Shynii","steam_id":76561198194682105,"connected_time":1737000000000,"state":"active","ping":67},{"user_id":397,"name":"☁⭍ qBowN∼","steam_id":76561198000980532,"connected_time":4251000000000,"state":"active","ping":38},{"user_id":410,"name":"schocky_panzer","steam_id":76561197965924454,"connected_time":3420000000000,"state":"active","ping":46},{"user_id":419,"name":"Imulion","steam_id":76561198069644748,"connected_time":2669000000000,"state":"active","ping":45},{"user_id":420,"name":"mc mental","steam_id":76561198370281030,"connected_time":2203000000000,"state":"active","ping":44},{"user_id":393,"name":"PeterRobloxTrolling@gmail.com","steam_id":76561198159327213,"connected_time":4612000000000,"state":"active","ping":91}]},{"server_id":202,"name":"Uncletopia | Hong Kong | 1 | All Maps","name_short":"hgk-1","host":"hgk-1.hk.uncletopia.com","port":27015,"enabled":true,"region":"asia","cc":"hk","latitude":22.302711,"longitude":114.177216,"reserved":0,"last_update":"0001-01-01T00:00:00Z","name_a2s":"Uncletopia | Hong Kong | 1 | All Maps","protocol":17,"map":"koth_viaduct","folder":"tf","game":"Team Fortress","app_id":440,"player_count":0,"max_players":24,"Bots":0,"server_type":"Dedicated","server_os":"Linux","password":true,"vac":true,"version":"7961495","steam_id":85568392924494504,"keywords":["cp","nocrits","nodmgspread","uncletopia"],"game_id":440,"stv_port":27016,"stv_name":"Uncletopia | Hong Kong | 1 | All Maps | STV","players":null},{"server_id":1,"name":"Uncletopia | Los Angeles | 1 | All Maps","name_short":"lax-1","host":"lax-1.us.uncletopia.com","port":27015,"enabled":true,"region":"us-west","cc":"us","latitude":33.94279,"longitude":-118.41004,"reserved":0,"last_update":"0001-01-01T00:00:00Z","name_a2s":"Uncletopia | Los Angeles | 1 | All Maps","protocol":17,"map":"cp_altitude","folder":"tf","game":"Team Fortress","app_id":440,"player_count":24,"max_players":24,"Bots":0,"server_type":"Dedicated","server_os":"Linux","password":true,"vac":true,"version":"7961495","steam_id":85568392924469991,"keywords":["cp","nocrits","nodmgspread","uncletopia"],"game_id":440,"stv_port":27016,"stv_name":"Uncletopia | Los Angeles | 1 | All Maps | STV","players":[{"user_id":188,"name":"the_thug_shaker","steam_id":76561199014716093,"connected_time":39000000000,"state":"spawning","ping":151},{"user_id":177,"name":"lamb cutlet","steam_id":76561199063557758,"connected_time":383000000000,"state":"active","ping":135},{"user_id":184,"name":"Rock Kickass","steam_id":76561198450510841,"connected_time":173000000000,"state":"active","ping":87},{"user_id":185,"name":"MNIJ","steam_id":76561199209509468,"connected_time":134000000000,"state":"active","ping":66},{"user_id":189,"name":"Theforcemothafukadousenseit","steam_id":76561198241213104,"connected_time":29000000000,"state":"active","ping":64},{"user_id":178,"name":"GAMEGAMING","steam_id":76561199222119901,"connected_time":279000000000,"state":"active","ping":71},{"user_id":153,"name":"Dreamzapp","steam_id":76561199084936632,"connected_time":1551000000000,"state":"active","ping":66},{"user_id":17,"name":"Sol","steam_id":76561198121500201,"connected_time":11442000000000,"state":"active","ping":46},{"user_id":179,"name":"WarBorg","steam_id":76561198929639228,"connected_time":277000000000,"state":"active","ping":43},{"user_id":152,"name":"mealy apple gaming","steam_id":76561199057644725,"connected_time":1632000000000,"state":"active","ping":62},{"user_id":155,"name":"Very_Dyslexic","steam_id":76561198255310705,"connected_time":1539000000000,"state":"active","ping":63},{"user_id":132,"name":"TheDoctorIsIn","steam_id":76561198322058639,"connected_time":3172000000000,"state":"active","ping":98},{"user_id":156,"name":"Unoriginal","steam_id":76561198799473001,"connected_time":1533000000000,"state":"active","ping":57},{"user_id":187,"name":"Cael Thavain","steam_id":76561198136789464,"connected_time":90000000000,"state":"active","ping":62},{"user_id":176,"name":"Mediocre","steam_id":76561198056352693,"connected_time":416000000000,"state":"active","ping":58},{"user_id":181,"name":"Jade Greenleaf","steam_id":76561198304845413,"connected_time":222000000000,"state":"active","ping":139},{"user_id":172,"name":"wAck","steam_id":76561198072385729,"connected_time":831000000000,"state":"active","ping":56},{"user_id":170,"name":"Im Groot","steam_id":76561198294943420,"connected_time":1048000000000,"state":"active","ping":102},{"user_id":147,"name":"Thunder","steam_id":76561198097721532,"connected_time":1915000000000,"state":"active","ping":46},{"user_id":182,"name":"jeff_fan","steam_id":76561198086420687,"connected_time":212000000000,"state":"active","ping":87},{"user_id":169,"name":"Altruisticailuridae","steam_id":76561198335295596,"connected_time":1051000000000,"state":"active","ping":58},{"user_id":183,"name":"moe","steam_id":76561198929586245,"connected_time":207000000000,"state":"active","ping":44},{"user_id":186,"name":"MouxeWare","steam_id":76561199339512223,"connected_time":111000000000,"state":"active","ping":85},{"user_id":171,"name":"Drive-By-Fish-Guy","steam_id":76561198105513652,"connected_time":1047000000000,"state":"active","ping":62}]},{"server_id":112,"name":"Uncletopia | Los Angeles | 2 | All Maps","name_short":"lax-2","host":"lax-1.us.uncletopia.com","port":27025,"enabled":true,"region":"us-west","cc":"us","latitude":33.94279,"longitude":-118.41004,"reserved":0,"last_update":"0001-01-01T00:00:00Z","name_a2s":"Uncletopia | Los Angeles | 2 | All Maps","protocol":17,"map":"cp_process_final","folder":"tf","game":"Team Fortress","app_id":440,"player_count":0,"max_players":24,"Bots":0,"server_type":"Dedicated","server_os":"Linux","password":true,"vac":true,"version":"7961495","steam_id":85568392924469992,"keywords":["cp","nocrits","nodmgspread","uncletopia"],"game_id":440,"stv_port":27026,"stv_name":"Uncletopia | Los Angeles | 2 | All Maps | STV","players":null},{"server_id":324,"name":"Uncletopia | Los Angeles | 3 | All Maps","name_short":"lax-3","host":"lax-1.us.uncletopia.com","port":27035,"enabled":true,"region":"us-west","cc":"us","latitude":33.94279,"longitude":-118.41004,"reserved":0,"last_update":"0001-01-01T00:00:00Z","name_a2s":"Uncletopia | Los Angeles | 3 | All Maps","protocol":17,"map":"cp_dustbowl","folder":"tf","game":"Team Fortress","app_id":440,"player_count":0,"max_players":24,"Bots":0,"server_type":"Dedicated","server_os":"Linux","password":true,"vac":true,"version":"7961495","steam_id":85568392924510198,"keywords":["cp","nocrits","nodmgspread","uncletopia"],"game_id":440,"stv_port":27036,"stv_name":"Uncletopia | Los Angeles | 3 | All Maps | STV","players":null},{"server_id":25,"name":"Uncletopia | Los Angeles | 4 | Stopwatch Beta","name_short":"lax-4","host":"lax-1.us.uncletopia.com","port":27045,"enabled":true,"region":"us-west","cc":"us","latitude":33.94279,"longitude":-118.41004,"reserved":0,"last_update":"0001-01-01T00:00:00Z","name_a2s":"Uncletopia | Los Angeles | 4 | Stopwatch Beta","protocol":17,"map":"workshop/pl_vigil_rc9.ugc1266210012","folder":"tf","game":"Team Fortress","app_id":440,"player_count":0,"max_players":24,"Bots":0,"server_type":"Dedicated","server_os":"Linux","password":true,"vac":true,"version":"7961495","steam_id":85568392924510199,"keywords":["nocrits","nodmgspread","payload","uncletopia"],"game_id":440,"stv_port":27046,"stv_name":"Uncletopia | Los Angeles | 4 | Stopwatch Beta | STV","players":null},{"server_id":11,"name":"Uncletopia | London | 1 | All Maps","name_short":"lon-1","host":"lon-1.uk.uncletopia.com","port":27015,"enabled":true,"region":"eu","cc":"gb","latitude":51.509865,"longitude":-0.118092,"reserved":0,"last_update":"0001-01-01T00:00:00Z","name_a2s":"Uncletopia | London | 1 | All Maps","protocol":17,"map":"pl_badwater","folder":"tf","game":"Team Fortress","app_id":440,"player_count":24,"max_players":24,"Bots":0,"server_type":"Dedicated","server_os":"Linux","password":true,"vac":true,"version":"7961495","steam_id":85568392924367362,"keywords":["nocrits","nodmgspread","payload","uncletopia"],"game_id":440,"stv_port":27016,"stv_name":"Uncletopia | London | 1 | All Maps | STV","players":[{"user_id":644,"name":"devlos","steam_id":76561198022211519,"connected_time":108000000000,"state":"active","ping":67},{"user_id":587,"name":"Smokio","steam_id":76561198069650580,"connected_time":5151000000000,"state":"active","ping":90},{"user_id":643,"name":"Hermitcrack","steam_id":76561198149216441,"connected_time":125000000000,"state":"active","ping":81},{"user_id":625,"name":"Kphi(i)","steam_id":76561198970587061,"connected_time":1462000000000,"state":"active","ping":64},{"user_id":618,"name":"Pixar Cars on the PS2","steam_id":76561198079386295,"connected_time":2514000000000,"state":"active","ping":58},{"user_id":646,"name":"Dr Condom","steam_id":76561198378657692,"connected_time":46000000000,"state":"active","ping":42},{"user_id":641,"name":"waj","steam_id":76561198053628243,"connected_time":136000000000,"state":"active","ping":44},{"user_id":578,"name":"enine","steam_id":76561198890193313,"connected_time":6172000000000,"state":"active","ping":61},{"user_id":602,"name":"rigel_","steam_id":76561198148640847,"connected_time":4579000000000,"state":"active","ping":85},{"user_id":635,"name":"Trash","steam_id":76561198084969924,"connected_time":590000000000,"state":"active","ping":58},{"user_id":619,"name":"Rai_to","steam_id":76561199013720618,"connected_time":2503000000000,"state":"active","ping":86},{"user_id":603,"name":"Lyra","steam_id":76561198043601838,"connected_time":4571000000000,"state":"active","ping":61},{"user_id":570,"name":"killer of noob, winner of game","steam_id":76561198190583242,"connected_time":6754000000000,"state":"active","ping":79},{"user_id":575,"name":"mr. sanoye","steam_id":76561198080912087,"connected_time":6701000000000,"state":"active","ping":70},{"user_id":631,"name":"ByggeSimon","steam_id":76561198134789176,"connected_time":726000000000,"state":"active","ping":74},{"user_id":632,"name":"Kahvi","steam_id":76561198723244199,"connected_time":636000000000,"state":"active","ping":75},{"user_id":634,"name":"Puss in Boots","steam_id":76561198211599767,"connected_time":610000000000,"state":"active","ping":56},{"user_id":642,"name":"Sprinkle my Pringle","steam_id":76561198112535604,"connected_time":135000000000,"state":"active","ping":64},{"user_id":622,"name":"free back real estate","steam_id":76561197999437155,"connected_time":2449000000000,"state":"active","ping":56},{"user_id":637,"name":"Not Steven","steam_id":76561198051881261,"connected_time":544000000000,"state":"active","ping":44},{"user_id":645,"name":"TAFI03","steam_id":76561198213082089,"connected_time":90000000000,"state":"active","ping":72},{"user_id":582,"name":"Resident Evil 4","steam_id":76561198168207306,"connected_time":5637000000000,"state":"active","ping":91},{"user_id":639,"name":"Stage 5 Autism","steam_id":76561198370485227,"connected_time":526000000000,"state":"active","ping":71}]},{"server_id":114,"name":"Uncletopia | London | 2 | All Maps","name_short":"lon-2","host":"lon-1.uk.uncletopia.com","port":27025,"enabled":true,"region":"eu","cc":"gb","latitude":51.509865,"longitude":-0.118092,"reserved":0,"last_update":"0001-01-01T00:00:00Z","name_a2s":"Uncletopia | London | 2 | All Maps","protocol":17,"map":"cp_dustbowl","folder":"tf","game":"Team Fortress","app_id":440,"player_count":23,"max_players":24,"Bots":0,"server_type":"Dedicated","server_os":"Linux","password":true,"vac":true,"version":"7961495","steam_id":85568392924470941,"keywords":["cp","nocrits","nodmgspread","uncletopia"],"game_id":440,"stv_port":27026,"stv_name":"Uncletopia | London | 2 | All Maps | STV","players":[{"user_id":104,"name":"Chimpanzee","steam_id":76561198850387282,"connected_time":920000000000,"state":"active","ping":149},{"user_id":122,"name":"DeanAdamFry","steam_id":76561198054153160,"connected_time":43000000000,"state":"active","ping":45},{"user_id":91,"name":"Fallen_Scholar","steam_id":76561198055468709,"connected_time":1653000000000,"state":"active","ping":61},{"user_id":110,"name":"ashley","steam_id":76561198448551449,"connected_time":619000000000,"state":"active","ping":34},{"user_id":68,"name":"randem_","steam_id":76561198338793755,"connected_time":4168000000000,"state":"active","ping":45},{"user_id":62,"name":"apple","steam_id":76561198350676879,"connected_time":4376000000000,"state":"active","ping":98},{"user_id":114,"name":"I miss a lot","steam_id":76561198185322979,"connected_time":299000000000,"state":"active","ping":43},{"user_id":36,"name":"antlion gaming","steam_id":76561198817879047,"connected_time":5349000000000,"state":"active","ping":49},{"user_id":120,"name":"bowchika wowa #SlavaUkraine","steam_id":76561198159564550,"connected_time":77000000000,"state":"active","ping":70},{"user_id":118,"name":"zananx","steam_id":76561199453766677,"connected_time":135000000000,"state":"active","ping":144},{"user_id":80,"name":"UltimateSlayer","steam_id":76561198384109309,"connected_time":2426000000000,"state":"active","ping":56},{"user_id":99,"name":"WonderOfU","steam_id":76561199172036471,"connected_time":1115000000000,"state":"active","ping":65},{"user_id":82,"name":"dodge","steam_id":76561198085296668,"connected_time":2207000000000,"state":"active","ping":47},{"user_id":100,"name":"Vitamin Weee","steam_id":76561199183937747,"connected_time":1044000000000,"state":"active","ping":100},{"user_id":115,"name":"Gilly","steam_id":76561198041995636,"connected_time":251000000000,"state":"active","ping":37},{"user_id":119,"name":"Mr.Schnittlauch","steam_id":76561198295868113,"connected_time":108000000000,"state":"active","ping":63},{"user_id":111,"name":"Evil HaMsTeR226571","steam_id":76561198992832149,"connected_time":614000000000,"state":"active","ping":77},{"user_id":121,"name":"ted","steam_id":76561198119568042,"connected_time":58000000000,"state":"active","ping":51},{"user_id":66,"name":"Discount Magician","steam_id":76561197997632512,"connected_time":4178000000000,"state":"active","ping":61},{"user_id":117,"name":"Arthur","steam_id":76561198066109166,"connected_time":183000000000,"state":"active","ping":83},{"user_id":108,"name":"William Afton Gaming","steam_id":76561198220227199,"connected_time":761000000000,"state":"active","ping":55},{"user_id":87,"name":"heal","steam_id":76561198046754534,"connected_time":2049000000000,"state":"active","ping":92},{"user_id":112,"name":"Polelele","steam_id":76561198128453719,"connected_time":593000000000,"state":"active","ping":74}]},{"server_id":320,"name":"Uncletopia | London | 3 | All Maps","name_short":"lon-3","host":"lon-1.uk.uncletopia.com","port":27035,"enabled":true,"region":"eu","cc":"gb","latitude":51.509865,"longitude":-0.118092,"reserved":0,"last_update":"0001-01-01T00:00:00Z","name_a2s":"Uncletopia | London | 3 | All Maps","protocol":17,"map":"pl_borneo","folder":"tf","game":"Team Fortress","app_id":440,"player_count":24,"max_players":24,"Bots":0,"server_type":"Dedicated","server_os":"Linux","password":true,"vac":true,"version":"7961495","steam_id":85568392924510192,"keywords":["nocrits","nodmgspread","payload","uncletopia"],"game_id":440,"stv_port":27036,"stv_name":"Uncletopia | London | 3 | All Maps | STV","players":[{"user_id":356,"name":"Alibi","steam_id":76561198061845595,"connected_time":8786000000000,"state":"active","ping":49},{"user_id":447,"name":"Sorry","steam_id":76561198040722720,"connected_time":2782000000000,"state":"active","ping":137},{"user_id":435,"name":"Bonca","steam_id":76561198137503531,"connected_time":3288000000000,"state":"active","ping":81},{"user_id":292,"name":"EngineOil","steam_id":76561198372077749,"connected_time":13256000000000,"state":"active","ping":45},{"user_id":460,"name":"Tesco Apple Crumble","steam_id":76561197984661199,"connected_time":1546000000000,"state":"active","ping":52},{"user_id":452,"name":"haraldＨＡＲＡＬＤ","steam_id":76561198116998970,"connected_time":2465000000000,"state":"active","ping":88},{"user_id":436,"name":"Akkie.","steam_id":76561198017619091,"connected_time":3209000000000,"state":"active","ping":65},{"user_id":468,"name":"svantezch","steam_id":76561198373831657,"connected_time":1116000000000,"state":"active","ping":80},{"user_id":437,"name":"Portal79","steam_id":76561198095499584,"connected_time":3143000000000,"state":"active","ping":85},{"user_id":461,"name":"areo","steam_id":76561199122174535,"connected_time":1513000000000,"state":"active","ping":70},{"user_id":417,"name":"Tipp","steam_id":76561198184360615,"connected_time":4503000000000,"state":"active","ping":104},{"user_id":462,"name":"Stankorplank","steam_id":76561198342601530,"connected_time":1485000000000,"state":"active","ping":47},{"user_id":403,"name":"png.png","steam_id":76561198444446521,"connected_time":6382000000000,"state":"active","ping":106},{"user_id":471,"name":"Stentor","steam_id":76561198050475690,"connected_time":732000000000,"state":"active","ping":120},{"user_id":472,"name":"Neco-arc Astolfo","steam_id":76561198989682540,"connected_time":729000000000,"state":"active","ping":58},{"user_id":469,"name":"The Lady","steam_id":76561198029895809,"connected_time":1045000000000,"state":"active","ping":89},{"user_id":474,"name":"travis","steam_id":76561198138119811,"connected_time":369000000000,"state":"active","ping":45},{"user_id":459,"name":"toastloard","steam_id":76561198368386853,"connected_time":1717000000000,"state":"active","ping":235},{"user_id":473,"name":"KittyKate ❤","steam_id":76561198116340817,"connected_time":638000000000,"state":"active","ping":61},{"user_id":420,"name":"Kobold","steam_id":76561198054201896,"connected_time":4340000000000,"state":"active","ping":143},{"user_id":466,"name":"StumpKnuckle","steam_id":76561197995325320,"connected_time":1388000000000,"state":"active","ping":57},{"user_id":443,"name":"fartcollector","steam_id":76561198048304703,"connected_time":2986000000000,"state":"active","ping":48},{"user_id":446,"name":"shaheen45","steam_id":76561198334819486,"connected_time":2877000000000,"state":"active","ping":138},{"user_id":451,"name":"Level 0 Sentry Gun","steam_id":76561199279295106,"connected_time":2600000000000,"state":"active","ping":129}]},{"server_id":321,"name":"Uncletopia | London | 4 | All Maps","name_short":"lon-4","host":"lon-1.uk.uncletopia.com","port":27045,"enabled":true,"region":"eu","cc":"gb","latitude":51.509865,"longitude":-0.118092,"reserved":0,"last_update":"0001-01-01T00:00:00Z","name_a2s":"Uncletopia | London | 4 | All Maps","protocol":17,"map":"pl_swiftwater_final1","folder":"tf","game":"Team Fortress","app_id":440,"player_count":24,"max_players":24,"Bots":0,"server_type":"Dedicated","server_os":"Linux","password":true,"vac":true,"version":"7961495","steam_id":85568392924510193,"keywords":["nocrits","nodmgspread","payload","uncletopia"],"game_id":440,"stv_port":27046,"stv_name":"Uncletopia | London | 4 | All Maps | STV","players":[{"user_id":479,"name":"Ritz","steam_id":76561198222317440,"connected_time":644000000000,"state":"active","ping":53},{"user_id":456,"name":"Doom Muppet","steam_id":76561198035183917,"connected_time":2082000000000,"state":"active","ping":60},{"user_id":480,"name":"Alfredo","steam_id":76561198319920100,"connected_time":628000000000,"state":"active","ping":68},{"user_id":462,"name":"fence_","steam_id":76561198150386379,"connected_time":1740000000000,"state":"active","ping":47},{"user_id":481,"name":"BELADIT","steam_id":76561198011911501,"connected_time":510000000000,"state":"active","ping":78},{"user_id":490,"name":"shekelstein shekelberg","steam_id":76561197988085026,"connected_time":164000000000,"state":"active","ping":72},{"user_id":455,"name":"danwillm","steam_id":76561198237911670,"connected_time":2090000000000,"state":"active","ping":55},{"user_id":475,"name":"Colingaffney","steam_id":76561198197984574,"connected_time":869000000000,"state":"active","ping":69},{"user_id":457,"name":"Testicular torsion","steam_id":76561198119547399,"connected_time":2015000000000,"state":"active","ping":60},{"user_id":474,"name":"halow","steam_id":76561198061505163,"connected_time":988000000000,"state":"active","ping":94},{"user_id":461,"name":"A Succulent Chinese Meal","steam_id":76561198069472440,"connected_time":1812000000000,"state":"active","ping":71},{"user_id":452,"name":"Yelowchy","steam_id":76561198199416121,"connected_time":2304000000000,"state":"active","ping":73},{"user_id":484,"name":"DwoaC","steam_id":76561198005686118,"connected_time":440000000000,"state":"active","ping":68},{"user_id":467,"name":"spinning on uncletopia","steam_id":76561199233979726,"connected_time":1454000000000,"state":"active","ping":90},{"user_id":485,"name":"SlonkyDonky","steam_id":76561198425787528,"connected_time":403000000000,"state":"active","ping":61},{"user_id":492,"name":"Jedleo","steam_id":76561198347292531,"connected_time":3000000000,"state":"spawning","ping":66},{"user_id":488,"name":"lidl","steam_id":76561198895235231,"connected_time":296000000000,"state":"active","ping":58},{"user_id":491,"name":"Littleyoshifan","steam_id":76561198445491045,"connected_time":164000000000,"state":"active","ping":44},{"user_id":465,"name":"TMC","steam_id":76561198077956157,"connected_time":1655000000000,"state":"active","ping":45},{"user_id":466,"name":"Grillem Dafoe","steam_id":76561198306874574,"connected_time":1582000000000,"state":"active","ping":98},{"user_id":468,"name":"Hans","steam_id":76561198030061999,"connected_time":1451000000000,"state":"active","ping":80},{"user_id":489,"name":"mountain goat","steam_id":76561198326628884,"connected_time":246000000000,"state":"active","ping":132},{"user_id":477,"name":"clcraven","steam_id":76561198004637699,"connected_time":769000000000,"state":"active","ping":53},{"user_id":470,"name":"Mata_FM","steam_id":76561198044824504,"connected_time":1426000000000,"state":"active","ping":66}]},{"server_id":21,"name":"Uncletopia | London | 5 | All Maps","name_short":"lon-5","host":"lon-1.uk.uncletopia.com","port":27055,"enabled":true,"region":"eu","cc":"gb","latitude":51.509865,"longitude":-0.118092,"reserved":0,"last_update":"0001-01-01T00:00:00Z","name_a2s":"Uncletopia | London | 5 | All Maps","protocol":17,"map":"cp_steel","folder":"tf","game":"Team Fortress","app_id":440,"player_count":24,"max_players":24,"Bots":0,"server_type":"Dedicated","server_os":"Linux","password":true,"vac":true,"version":"7961495","steam_id":85568392924742829,"keywords":["cp","nocrits","nodmgspread","uncletopia"],"game_id":440,"stv_port":27056,"stv_name":"Uncletopia | London | 5 | All Maps | STV","players":[{"user_id":408,"name":"Marius","steam_id":76561198253530198,"connected_time":191000000000,"state":"active","ping":71},{"user_id":397,"name":"peace of sheet","steam_id":76561197997323419,"connected_time":1222000000000,"state":"active","ping":73},{"user_id":267,"name":":3","steam_id":76561198169471853,"connected_time":9671000000000,"state":"active","ping":41},{"user_id":343,"name":"Nightmenia","steam_id":76561198010430569,"connected_time":5658000000000,"state":"active","ping":50},{"user_id":399,"name":"Envy","steam_id":76561198132723219,"connected_time":856000000000,"state":"active","ping":105},{"user_id":386,"name":"charnock1208","steam_id":76561199090127017,"connected_time":2206000000000,"state":"active","ping":53},{"user_id":383,"name":"D4NTheProtogen","steam_id":76561198206460789,"connected_time":2347000000000,"state":"active","ping":61},{"user_id":376,"name":"xTheDarkLight","steam_id":76561198239128298,"connected_time":3079000000000,"state":"active","ping":60},{"user_id":261,"name":"tanyathsus","steam_id":76561198089522447,"connected_time":9916000000000,"state":"active","ping":60},{"user_id":364,"name":"KingPotatoChips","steam_id":76561198035156465,"connected_time":4106000000000,"state":"active","ping":63},{"user_id":387,"name":"BIGGERDANGO","steam_id":76561198247876394,"connected_time":2174000000000,"state":"active","ping":45},{"user_id":395,"name":"Mboigaming","steam_id":76561199014253297,"connected_time":1810000000000,"state":"active","ping":59},{"user_id":393,"name":"Endi","steam_id":76561198914938199,"connected_time":1960000000000,"state":"active","ping":102},{"user_id":398,"name":"heavy","steam_id":76561198205501279,"connected_time":881000000000,"state":"active","ping":105},{"user_id":396,"name":"Gnarville","steam_id":76561198006373329,"connected_time":1790000000000,"state":"active","ping":45},{"user_id":407,"name":"JugoTopia","steam_id":76561197996067209,"connected_time":286000000000,"state":"active","ping":114},{"user_id":389,"name":"bert","steam_id":76561198156318293,"connected_time":2165000000000,"state":"active","ping":46},{"user_id":406,"name":"Silverkeys","steam_id":76561197986012496,"connected_time":373000000000,"state":"active","ping":128},{"user_id":358,"name":"REAL LAOZI","steam_id":76561198326944980,"connected_time":4343000000000,"state":"active","ping":158},{"user_id":390,"name":"Jamon","steam_id":76561198393024383,"connected_time":2147000000000,"state":"active","ping":41},{"user_id":391,"name":"Archos","steam_id":76561198181820631,"connected_time":2147000000000,"state":"active","ping":60},{"user_id":403,"name":"John Dillermand","steam_id":76561198009238560,"connected_time":697000000000,"state":"active","ping":57},{"user_id":409,"name":"FatCuddlyBear","steam_id":76561198133613253,"connected_time":180000000000,"state":"active","ping":162},{"user_id":410,"name":"c0mpaz","steam_id":76561198165292894,"connected_time":151000000000,"state":"active","ping":76}]},{"server_id":22,"name":"Uncletopia | London | 6 | All Maps","name_short":"lon-6","host":"lon-1.uk.uncletopia.com","port":27065,"enabled":true,"region":"eu","cc":"gb","latitude":51.509865,"longitude":-0.118092,"reserved":0,"last_update":"0001-01-01T00:00:00Z","name_a2s":"Uncletopia | London | 6 | All Maps","protocol":17,"map":"pl_goldrush","folder":"tf","game":"Team Fortress","app_id":440,"player_count":6,"max_players":24,"Bots":0,"server_type":"Dedicated","server_os":"Linux","password":true,"vac":true,"version":"7961495","steam_id":85568392924742830,"keywords":["nocrits","nodmgspread","payload","uncletopia"],"game_id":440,"stv_port":27066,"stv_name":"Uncletopia | London | 6 | All Maps | STV","players":[{"user_id":359,"name":"WallHitter","steam_id":76561199394273076,"connected_time":944000000000,"state":"active","ping":154},{"user_id":361,"name":"AntMan1812","steam_id":76561198827335041,"connected_time":917000000000,"state":"active","ping":158},{"user_id":367,"name":"Agro | KritzKast","steam_id":76561197970498549,"connected_time":224000000000,"state":"active","ping":45},{"user_id":363,"name":"Tx_madmash","steam_id":76561198924656512,"connected_time":896000000000,"state":"active","ping":137},{"user_id":364,"name":"Mobster Tortoise","steam_id":76561199036837091,"connected_time":725000000000,"state":"active","ping":85},{"user_id":365,"name":"Moon","steam_id":76561198808108594,"connected_time":715000000000,"state":"active","ping":86}]},{"server_id":40,"name":"Uncletopia | London | 7 | No Payload","name_short":"lon-7","host":"lon-1.uk.uncletopia.com","port":27075,"enabled":true,"region":"eu","cc":"gb","latitude":51.509865,"longitude":-0.118092,"reserved":0,"last_update":"0001-01-01T00:00:00Z","name_a2s":"Uncletopia | London | 7 | No Payload","protocol":17,"map":"cp_process_final","folder":"tf","game":"Team Fortress","app_id":440,"player_count":23,"max_players":24,"Bots":0,"server_type":"Dedicated","server_os":"Linux","password":true,"vac":true,"version":"7961495","steam_id":85568392924964314,"keywords":["cp","nocrits","nodmgspread","uncletopia"],"game_id":440,"stv_port":27076,"stv_name":"Uncletopia | London | 7 | No Payload | STV","players":[{"user_id":126,"name":"Toa LightMakuta","steam_id":76561198212178104,"connected_time":3994000000000,"state":"active","ping":66},{"user_id":70,"name":"Nyhde","steam_id":76561198012771416,"connected_time":7359000000000,"state":"active","ping":97},{"user_id":121,"name":"MR ASSMAN","steam_id":76561198206227241,"connected_time":4569000000000,"state":"active","ping":55},{"user_id":150,"name":"Rolloden","steam_id":76561198069414404,"connected_time":3119000000000,"state":"active","ping":68},{"user_id":184,"name":"Yummy Kabobz","steam_id":76561198067661705,"connected_time":756000000000,"state":"active","ping":119},{"user_id":166,"name":"Seal","steam_id":76561198120964941,"connected_time":1996000000000,"state":"active","ping":54},{"user_id":168,"name":"qcHeavy","steam_id":76561198072218040,"connected_time":1953000000000,"state":"active","ping":62},{"user_id":178,"name":"ROX","steam_id":76561198272289320,"connected_time":1084000000000,"state":"active","ping":62},{"user_id":170,"name":"The Butterman#SaveTF2","steam_id":76561198065057086,"connected_time":1925000000000,"state":"active","ping":72},{"user_id":171,"name":"seigfried","steam_id":76561198047260133,"connected_time":1889000000000,"state":"active","ping":61},{"user_id":187,"name":"Rat Gaming","steam_id":76561198997885594,"connected_time":597000000000,"state":"active","ping":52},{"user_id":188,"name":"Janner","steam_id":76561198127045282,"connected_time":579000000000,"state":"active","ping":45},{"user_id":194,"name":"Craig Crusade","steam_id":76561199225918086,"connected_time":83000000000,"state":"active","ping":65},{"user_id":173,"name":"The Bigman Archive","steam_id":76561199062586342,"connected_time":1820000000000,"state":"active","ping":67},{"user_id":174,"name":"Archer","steam_id":76561198132860299,"connected_time":1816000000000,"state":"active","ping":59},{"user_id":190,"name":"Yrjö Koskinen Yrjö-Koskinen","steam_id":76561198368181145,"connected_time":526000000000,"state":"active","ping":88},{"user_id":137,"name":"huskey","steam_id":76561198152392309,"connected_time":3640000000000,"state":"active","ping":46},{"user_id":159,"name":"johnathansmith1965","steam_id":76561199444971686,"connected_time":2417000000000,"state":"active","ping":51},{"user_id":193,"name":"GoatLord1","steam_id":76561198157964544,"connected_time":205000000000,"state":"active","ping":66},{"user_id":192,"name":"Saucy Jack","steam_id":76561198894525288,"connected_time":465000000000,"state":"active","ping":44},{"user_id":139,"name":"Just1s","steam_id":76561198026597437,"connected_time":3635000000000,"state":"active","ping":74},{"user_id":180,"name":"moseley519","steam_id":76561198045485374,"connected_time":938000000000,"state":"active","ping":45},{"user_id":176,"name":"Ash","steam_id":76561198148738525,"connected_time":1753000000000,"state":"active","ping":98}]},{"server_id":41,"name":"Uncletopia | London | 8 | Community","name_short":"lon-8","host":"lon-1.uk.uncletopia.com","port":27085,"enabled":true,"region":"eu","cc":"gb","latitude":51.509865,"longitude":-0.118092,"reserved":0,"last_update":"0001-01-01T00:00:00Z","name_a2s":"Uncletopia | London | 8 | Community","protocol":17,"map":"workshop/koth_slaughter_rc1.ugc1712845210","folder":"tf","game":"Team Fortress","app_id":440,"player_count":0,"max_players":24,"Bots":0,"server_type":"Dedicated","server_os":"Linux","password":true,"vac":true,"version":"7961495","steam_id":85568392924964315,"keywords":["cp","nocrits","nodmgspread","uncletopia"],"game_id":440,"stv_port":27086,"stv_name":"Uncletopia | London | 8 | Community | STV","players":null},{"server_id":300,"name":"Uncletopia | Montréal | 1 | All Maps","name_short":"mtl-1","host":"mtl-1.ca.uncletopia.com","port":27015,"enabled":true,"region":"us-east","cc":"ca","latitude":45.50889,"longitude":-73.56167,"reserved":0,"last_update":"0001-01-01T00:00:00Z","name_a2s":"Uncletopia | Montréal | 1 | All Maps","protocol":17,"map":"pl_swiftwater_final1","folder":"tf","game":"Team Fortress","app_id":440,"player_count":0,"max_players":24,"Bots":0,"server_type":"Dedicated","server_os":"Linux","password":true,"vac":true,"version":"7961495","steam_id":85568392924500087,"keywords":["nocrits","nodmgspread","payload","uncletopia"],"game_id":440,"stv_port":27016,"stv_name":"Uncletopia | Montréal | 1 | All Maps | STV","players":null},{"server_id":301,"name":"Uncletopia | Montréal | 2 | All Maps","name_short":"mtl-2","host":"mtl-1.ca.uncletopia.com","port":27025,"enabled":true,"region":"us-east","cc":"ca","latitude":45.50889,"longitude":-73.56167,"reserved":0,"last_update":"0001-01-01T00:00:00Z","name_a2s":"Uncletopia | Montréal | 2 | All Maps","protocol":17,"map":"cp_dustbowl","folder":"tf","game":"Team Fortress","app_id":440,"player_count":0,"max_players":24,"Bots":0,"server_type":"Dedicated","server_os":"Linux","password":true,"vac":true,"version":"7961495","steam_id":85568392924500088,"keywords":["cp","nocrits","nodmgspread","uncletopia"],"game_id":440,"stv_port":27026,"stv_name":"Uncletopia | Montréal | 2 | All Maps | STV","players":null},{"server_id":302,"name":"Uncletopia | Montréal | 3 | All Maps","name_short":"mtl-3","host":"mtl-1.ca.uncletopia.com","port":27035,"enabled":true,"region":"us-east","cc":"ca","latitude":45.50889,"longitude":-73.56167,"reserved":0,"last_update":"0001-01-01T00:00:00Z","name_a2s":"Uncletopia | Montréal | 3 | All Maps","protocol":17,"map":"koth_cascade","folder":"tf","game":"Team Fortress","app_id":440,"player_count":0,"max_players":24,"Bots":0,"server_type":"Dedicated","server_os":"Linux","password":true,"vac":true,"version":"7961495","steam_id":85568392924500089,"keywords":["cp","nocrits","nodmgspread","uncletopia"],"game_id":440,"stv_port":27036,"stv_name":"Uncletopia | Montréal | 3 | All Maps | STV","players":null},{"server_id":303,"name":"Uncletopia | Montréal | 4 | No Payload","name_short":"mtl-4","host":"mtl-1.ca.uncletopia.com","port":27045,"enabled":true,"region":"us-east","cc":"ca","latitude":45.50889,"longitude":-73.56167,"reserved":0,"last_update":"0001-01-01T00:00:00Z","name_a2s":"Uncletopia | Montréal | 4 | No Payload","protocol":17,"map":"koth_lakeside_final","folder":"tf","game":"Team Fortress","app_id":440,"player_count":0,"max_players":24,"Bots":0,"server_type":"Dedicated","server_os":"Linux","password":true,"vac":true,"version":"7961495","steam_id":85568392924500090,"keywords":["cp","nocrits","nodmgspread","uncletopia"],"game_id":440,"stv_port":27046,"stv_name":"Uncletopia | Montréal | 4 | No Payload | STV","players":null},{"server_id":13,"name":"Uncletopia | New York City | 1 | All Maps","name_short":"nyc-1","host":"nyc-1.us.uncletopia.com","port":27015,"enabled":true,"region":"us-east","cc":"us","latitude":40.73061,"longitude":-73.93524,"reserved":0,"last_update":"0001-01-01T00:00:00Z","name_a2s":"Uncletopia | New York City | 1 | All Maps","protocol":17,"map":"pl_upward","folder":"tf","game":"Team Fortress","app_id":440,"player_count":24,"max_players":24,"Bots":0,"server_type":"Dedicated","server_os":"Linux","password":true,"vac":true,"version":"7961495","steam_id":85568392924469993,"keywords":["nocrits","nodmgspread","payload","uncletopia"],"game_id":440,"stv_port":27016,"stv_name":"Uncletopia | New York City | 1 | All Maps | STV","players":[{"user_id":231,"name":"THE_LAW","steam_id":76561198094814970,"connected_time":422000000000,"state":"active","ping":68},{"user_id":217,"name":"Paradox","steam_id":76561198284164847,"connected_time":1427000000000,"state":"active","ping":65},{"user_id":228,"name":"spherewithahat","steam_id":76561199122192660,"connected_time":742000000000,"state":"active","ping":58},{"user_id":236,"name":"Beefaroni","steam_id":76561198093631976,"connected_time":224000000000,"state":"active","ping":42},{"user_id":192,"name":"$0.18","steam_id":76561198360134800,"connected_time":3413000000000,"state":"active","ping":58},{"user_id":224,"name":"greg club","steam_id":76561198370506193,"connected_time":989000000000,"state":"active","ping":56},{"user_id":188,"name":"King Baldski","steam_id":76561198359568400,"connected_time":3959000000000,"state":"active","ping":128},{"user_id":238,"name":"the pigeonkicker","steam_id":76561199078815637,"connected_time":39000000000,"state":"spawning","ping":90},{"user_id":234,"name":"that fat croc from donkey kong","steam_id":76561198159172495,"connected_time":236000000000,"state":"active","ping":135},{"user_id":212,"name":"Andallfor","steam_id":76561198350143349,"connected_time":2246000000000,"state":"active","ping":54},{"user_id":235,"name":"StuartBell511","steam_id":76561198060931721,"connected_time":235000000000,"state":"active","ping":70},{"user_id":183,"name":"Kritzburgh","steam_id":76561198149466938,"connected_time":4492000000000,"state":"active","ping":52},{"user_id":226,"name":"Pozyomka","steam_id":76561198086331015,"connected_time":928000000000,"state":"active","ping":41},{"user_id":198,"name":"Mike","steam_id":76561198827756158,"connected_time":3256000000000,"state":"active","ping":141},{"user_id":237,"name":"FLORAL COMPUTING","steam_id":76561199056492130,"connected_time":173000000000,"state":"active","ping":59},{"user_id":208,"name":"enzowolf10","steam_id":76561198028696728,"connected_time":2554000000000,"state":"active","ping":52},{"user_id":205,"name":"Lorberry","steam_id":76561198023706058,"connected_time":2854000000000,"state":"active","ping":56},{"user_id":176,"name":"Plimki","steam_id":76561199019877748,"connected_time":4681000000000,"state":"active","ping":79},{"user_id":220,"name":"Braamklauw","steam_id":76561198283287697,"connected_time":1260000000000,"state":"active","ping":143},{"user_id":209,"name":"1-800-GHOST-DANCE","steam_id":76561198835430429,"connected_time":2490000000000,"state":"active","ping":66},{"user_id":229,"name":"musicforthemind69420","steam_id":76561199491889281,"connected_time":643000000000,"state":"active","ping":77},{"user_id":195,"name":"CRAZY engineer","steam_id":76561198887937902,"connected_time":3312000000000,"state":"active","ping":48},{"user_id":214,"name":"jsmith","steam_id":76561198119160313,"connected_time":2106000000000,"state":"active","ping":55},{"user_id":222,"name":"Sir Quacksalot","steam_id":76561198048942777,"connected_time":1184000000000,"state":"active","ping":101}]},{"server_id":14,"name":"Uncletopia | New York City | 2 | All Maps","name_short":"nyc-2","host":"nyc-1.us.uncletopia.com","port":27025,"enabled":true,"region":"us-east","cc":"us","latitude":40.73061,"longitude":-73.93524,"reserved":0,"last_update":"0001-01-01T00:00:00Z","name_a2s":"Uncletopia | New York City | 2 | All Maps","protocol":17,"map":"pl_upward","folder":"tf","game":"Team Fortress","app_id":440,"player_count":24,"max_players":24,"Bots":0,"server_type":"Dedicated","server_os":"Linux","password":true,"vac":true,"version":"7961495","steam_id":85568392924469994,"keywords":["nocrits","nodmgspread","payload","uncletopia"],"game_id":440,"stv_port":27026,"stv_name":"Uncletopia | New York City | 2 | All Maps | STV","players":[{"user_id":448,"name":"Red Kirby","steam_id":76561198056832378,"connected_time":482000000000,"state":"active","ping":52},{"user_id":436,"name":"EmptyM1nd","steam_id":76561198054390505,"connected_time":1176000000000,"state":"active","ping":84},{"user_id":395,"name":"worlds dumbest egirl","steam_id":76561198124091620,"connected_time":5029000000000,"state":"active","ping":47},{"user_id":438,"name":"SmokyDank","steam_id":76561198045782886,"connected_time":993000000000,"state":"active","ping":103},{"user_id":443,"name":"weird fuckin cat","steam_id":76561197987763785,"connected_time":789000000000,"state":"active","ping":48},{"user_id":416,"name":"PandaDivine","steam_id":76561198040763324,"connected_time":2759000000000,"state":"active","ping":50},{"user_id":439,"name":"ryfith","steam_id":76561198878986398,"connected_time":984000000000,"state":"active","ping":75},{"user_id":433,"name":"🍃 The Toker 💨","steam_id":76561198159339442,"connected_time":1492000000000,"state":"active","ping":67},{"user_id":450,"name":"Bluedot","steam_id":76561198019909639,"connected_time":352000000000,"state":"active","ping":50},{"user_id":445,"name":"Nuclearlala","steam_id":76561198009342477,"connected_time":724000000000,"state":"active","ping":48},{"user_id":451,"name":"Rix FPV","steam_id":76561198299320893,"connected_time":328000000000,"state":"active","ping":85},{"user_id":455,"name":"FitzyBear","steam_id":76561198409189585,"connected_time":280000000000,"state":"active","ping":85},{"user_id":452,"name":"Inattentive Sorcerer","steam_id":76561198062370413,"connected_time":319000000000,"state":"active","ping":70},{"user_id":426,"name":"Some Stupid Name","steam_id":76561198065575548,"connected_time":2589000000000,"state":"active","ping":120},{"user_id":430,"name":"Stonks","steam_id":76561199490085068,"connected_time":1824000000000,"state":"active","ping":64},{"user_id":453,"name":"Shaun_Druh_Willi","steam_id":76561199087577025,"connected_time":306000000000,"state":"active","ping":120},{"user_id":440,"name":"Luke_734","steam_id":76561199229582902,"connected_time":960000000000,"state":"active","ping":78},{"user_id":454,"name":"LordOfTheNoobs","steam_id":76561197962697523,"connected_time":298000000000,"state":"active","ping":69},{"user_id":434,"name":"THOMASDEE725!!!!","steam_id":76561199189526173,"connected_time":1428000000000,"state":"active","ping":65},{"user_id":457,"name":"jazzfelix48","steam_id":76561198979303580,"connected_time":140000000000,"state":"active","ping":104},{"user_id":456,"name":"listerine","steam_id":76561198041104084,"connected_time":223000000000,"state":"active","ping":57},{"user_id":447,"name":"e doctor","steam_id":76561198081851446,"connected_time":607000000000,"state":"active","ping":71},{"user_id":441,"name":"sqerkbo","steam_id":76561198080012700,"connected_time":948000000000,"state":"active","ping":46},{"user_id":418,"name":"Citizen SNiPS!!","steam_id":76561197962408758,"connected_time":2749000000000,"state":"active","ping":84}]},{"server_id":15,"name":"Uncletopia | New York City | 3 | Stopwatch Beta","name_short":"nyc-3","host":"nyc-1.us.uncletopia.com","port":27035,"enabled":true,"region":"us-east","cc":"us","latitude":40.73061,"longitude":-73.93524,"reserved":0,"last_update":"0001-01-01T00:00:00Z","name_a2s":"Uncletopia | New York City | 3 | Stopwatch Beta","protocol":17,"map":"workshop/koth_bagel_rc6.ugc2514036946","folder":"tf","game":"Team Fortress","app_id":440,"player_count":0,"max_players":24,"Bots":0,"server_type":"Dedicated","server_os":"Linux","password":true,"vac":true,"version":"7961495","steam_id":85568392924742820,"keywords":["cp","nocrits","nodmgspread","uncletopia"],"game_id":440,"stv_port":27036,"stv_name":"Uncletopia | New York City | 3 | Stopwatch Beta | STV","players":null},{"server_id":16,"name":"Uncletopia | New York City | 4 | Community","name_short":"nyc-4","host":"nyc-1.us.uncletopia.com","port":27045,"enabled":true,"region":"us-east","cc":"us","latitude":40.73061,"longitude":-73.93524,"reserved":0,"last_update":"0001-01-01T00:00:00Z","name_a2s":"Uncletopia | New York City | 4 | Community","protocol":17,"map":"workshop/pl_highwood_b13.ugc1769496557","folder":"tf","game":"Team Fortress","app_id":440,"player_count":24,"max_players":24,"Bots":0,"server_type":"Dedicated","server_os":"Linux","password":true,"vac":true,"version":"7961495","steam_id":85568392924742821,"keywords":["nocrits","nodmgspread","payload","uncletopia"],"game_id":440,"stv_port":27046,"stv_name":"Uncletopia | New York City | 4 | Community | STV","players":[{"user_id":11,"name":"CrimsonJupiter","steam_id":76561198205981872,"connected_time":7609000000000,"state":"active","ping":141},{"user_id":117,"name":"carrion goat","steam_id":76561198262064871,"connected_time":868000000000,"state":"active","ping":39},{"user_id":81,"name":"Hormone Tyrant","steam_id":76561198057571424,"connected_time":3540000000000,"state":"active","ping":76},{"user_id":15,"name":"Indigospawn","steam_id":76561198153985924,"connected_time":7400000000000,"state":"active","ping":47},{"user_id":126,"name":"WitheringLeo","steam_id":76561198046722918,"connected_time":237000000000,"state":"active","ping":59},{"user_id":88,"name":"you forgot the sauce","steam_id":76561198387016713,"connected_time":3137000000000,"state":"active","ping":58},{"user_id":125,"name":"bsod | josey (i miss peck)","steam_id":76561199089453214,"connected_time":263000000000,"state":"active","ping":47},{"user_id":86,"name":"Chimpo","steam_id":76561198066228209,"connected_time":3273000000000,"state":"active","ping":59},{"user_id":75,"name":"an unnatural stench emanates","steam_id":76561198032259680,"connected_time":3841000000000,"state":"active","ping":62},{"user_id":127,"name":"canadian skeleton","steam_id":76561199251749108,"connected_time":210000000000,"state":"active","ping":63},{"user_id":99,"name":"r_drawviewmodel 1","steam_id":76561198161385366,"connected_time":1853000000000,"state":"active","ping":58},{"user_id":83,"name":"FROYO Yu Darvish","steam_id":76561198379421700,"connected_time":3499000000000,"state":"active","ping":51},{"user_id":115,"name":"aciddragon","steam_id":76561198151211107,"connected_time":978000000000,"state":"active","ping":98},{"user_id":116,"name":"Ghostmeal","steam_id":76561198042380299,"connected_time":930000000000,"state":"active","ping":91},{"user_id":104,"name":"TTV Hunter","steam_id":76561198115812405,"connected_time":1788000000000,"state":"active","ping":71},{"user_id":119,"name":"cube","steam_id":76561197991759721,"connected_time":574000000000,"state":"active","ping":59},{"user_id":112,"name":"JambaJuice","steam_id":76561198806736231,"connected_time":1414000000000,"state":"active","ping":60},{"user_id":87,"name":"stampdawg","steam_id":76561198050500060,"connected_time":3149000000000,"state":"active","ping":75},{"user_id":65,"name":"emerge","steam_id":76561198186882891,"connected_time":4806000000000,"state":"active","ping":79},{"user_id":97,"name":"ZAKALAKASPALDO","steam_id":76561198116675189,"connected_time":2486000000000,"state":"active","ping":75},{"user_id":80,"name":"JI-MAN CHOI","steam_id":76561198107899101,"connected_time":3571000000000,"state":"active","ping":57},{"user_id":114,"name":"KentuckyFriedPossum","steam_id":76561198930277086,"connected_time":1188000000000,"state":"active","ping":79},{"user_id":121,"name":"Pincc |✘෴✘| Gosh","steam_id":76561198024628479,"connected_time":553000000000,"state":"active","ping":64},{"user_id":98,"name":"D","steam_id":76561198292908619,"connected_time":2484000000000,"state":"active","ping":82}]},{"server_id":142,"name":"Uncletopia | São Paulo | 1 | All Maps","name_short":"sao-1","host":"sao-1.br.uncletopia.com","port":27015,"enabled":true,"region":"sa","cc":"br","latitude":-23.533773,"longitude":-46.62529,"reserved":0,"last_update":"0001-01-01T00:00:00Z","name_a2s":"Uncletopia | São Paulo | 1 | All Maps","protocol":17,"map":"pl_swiftwater_final1","folder":"tf","game":"Team Fortress","app_id":440,"player_count":0,"max_players":24,"Bots":0,"server_type":"Dedicated","server_os":"Linux","password":true,"vac":true,"version":"7961495","steam_id":85568392924469996,"keywords":["nocrits","nodmgspread","payload","uncletopia"],"game_id":440,"stv_port":27016,"stv_name":"Uncletopia | São Paulo | 1 | All Maps | STV","players":null},{"server_id":143,"name":"Uncletopia | São Paulo | 2 | Community","name_short":"sao-2","host":"sao-2.br.uncletopia.com","port":27015,"enabled":true,"region":"sa","cc":"br","latitude":-23.533773,"longitude":-46.62529,"reserved":0,"last_update":"0001-01-01T00:00:00Z","name_a2s":"Uncletopia | São Paulo | 2 | Community","protocol":17,"map":"workshop/koth_ramjam_rc1.ugc459778887","folder":"tf","game":"Team Fortress","app_id":440,"player_count":0,"max_players":24,"Bots":0,"server_type":"Dedicated","server_os":"Linux","password":true,"vac":true,"version":"7961495","steam_id":85568392924485349,"keywords":["cp","nocrits","nodmgspread","uncletopia"],"game_id":440,"stv_port":27016,"stv_name":"Uncletopia | São Paulo | 2 | Community | STV","players":null},{"server_id":7,"name":"Uncletopia | Seattle | 1 | All Maps","name_short":"sea-1","host":"sea-1.us.uncletopia.com","port":27015,"enabled":true,"region":"us-west","cc":"us","latitude":47.608013,"longitude":-122.33517,"reserved":0,"last_update":"0001-01-01T00:00:00Z","name_a2s":"Uncletopia | Seattle | 1 | All Maps","protocol":17,"map":"cp_process_final","folder":"tf","game":"Team Fortress","app_id":440,"player_count":24,"max_players":24,"Bots":0,"server_type":"Dedicated","server_os":"Linux","password":true,"vac":true,"version":"7961495","steam_id":85568392924469997,"keywords":["cp","nocrits","nodmgspread","uncletopia"],"game_id":440,"stv_port":27016,"stv_name":"Uncletopia | Seattle | 1 | All Maps | STV","players":[{"user_id":511,"name":"BlazedBunny","steam_id":76561198243610560,"connected_time":1286000000000,"state":"active","ping":71},{"user_id":374,"name":"Neptune˖⁺｡˚⋆˙♥","steam_id":76561199054203198,"connected_time":5800000000000,"state":"active","ping":132},{"user_id":480,"name":"todd(1# MAUVER)","steam_id":76561198096671524,"connected_time":4205000000000,"state":"active","ping":61},{"user_id":378,"name":"M2nt","steam_id":76561198330393911,"connected_time":5504000000000,"state":"active","ping":57},{"user_id":533,"name":"Tezla","steam_id":76561198091180274,"connected_time":156000000000,"state":"active","ping":46},{"user_id":504,"name":"Deliqene","steam_id":76561198227901308,"connected_time":1655000000000,"state":"active","ping":80},{"user_id":514,"name":"dust | she/it","steam_id":76561198045218909,"connected_time":1239000000000,"state":"active","ping":44},{"user_id":495,"name":"Rhutebeer","steam_id":76561198018302761,"connected_time":2432000000000,"state":"active","ping":129},{"user_id":509,"name":"Cam","steam_id":76561198285054047,"connected_time":1411000000000,"state":"active","ping":79},{"user_id":485,"name":"captain red","steam_id":76561198191587983,"connected_time":3636000000000,"state":"active","ping":77},{"user_id":498,"name":"HTML","steam_id":76561198099061153,"connected_time":1840000000000,"state":"active","ping":60},{"user_id":503,"name":"SpükiiTV","steam_id":76561198098281824,"connected_time":1742000000000,"state":"active","ping":97},{"user_id":510,"name":"Morse","steam_id":76561198039944542,"connected_time":1331000000000,"state":"active","ping":52},{"user_id":522,"name":"dweamy","steam_id":76561198119181880,"connected_time":874000000000,"state":"active","ping":76},{"user_id":494,"name":"no vc no c","steam_id":76561197989503095,"connected_time":2922000000000,"state":"active","ping":154},{"user_id":535,"name":"Strikerbolt","steam_id":76561199095622897,"connected_time":22000000000,"state":"spawning","ping":71},{"user_id":524,"name":"Hottodoggu","steam_id":76561198084080712,"connected_time":361000000000,"state":"active","ping":89},{"user_id":523,"name":"ars110","steam_id":76561198030492435,"connected_time":592000000000,"state":"active","ping":70},{"user_id":519,"name":"Jacobzeba01","steam_id":76561198131808718,"connected_time":1108000000000,"state":"active","ping":64},{"user_id":518,"name":"tom","steam_id":76561199406261605,"connected_time":1142000000000,"state":"active","ping":104},{"user_id":416,"name":"Muralo","steam_id":76561198202160268,"connected_time":4914000000000,"state":"active","ping":44},{"user_id":527,"name":"Mung Daal","steam_id":76561198010725277,"connected_time":335000000000,"state":"active","ping":122},{"user_id":520,"name":"Infinity","steam_id":76561199134919099,"connected_time":1100000000000,"state":"active","ping":131},{"user_id":529,"name":"M4 Sherman","steam_id":76561198126990820,"connected_time":329000000000,"state":"active","ping":87}]},{"server_id":119,"name":"Uncletopia | Seattle | 2 | All Maps","name_short":"sea-2","host":"sea-1.us.uncletopia.com","port":27025,"enabled":true,"region":"us-west","cc":"us","latitude":47.608013,"longitude":-122.33517,"reserved":0,"last_update":"0001-01-01T00:00:00Z","name_a2s":"Uncletopia | Seattle | 2 | All Maps","protocol":17,"map":"pl_borneo","folder":"tf","game":"Team Fortress","app_id":440,"player_count":24,"max_players":24,"Bots":0,"server_type":"Dedicated","server_os":"Linux","password":true,"vac":true,"version":"7961495","steam_id":85568392924469998,"keywords":["nocrits","nodmgspread","payload","uncletopia"],"game_id":440,"stv_port":27026,"stv_name":"Uncletopia | Seattle | 2 | All Maps | STV","players":[{"user_id":62,"name":"double 7","steam_id":76561198421913648,"connected_time":956000000000,"state":"active","ping":51},{"user_id":13,"name":"spiderland","steam_id":76561198335992132,"connected_time":3857000000000,"state":"active","ping":44},{"user_id":66,"name":"jooce box","steam_id":76561198162717644,"connected_time":854000000000,"state":"active","ping":70},{"user_id":20,"name":"spy","steam_id":76561199062242958,"connected_time":2765000000000,"state":"active","ping":70},{"user_id":73,"name":"BurdBrain","steam_id":76561197962097737,"connected_time":263000000000,"state":"active","ping":86},{"user_id":74,"name":"♂ boss of this gym ♂","steam_id":76561198027102212,"connected_time":183000000000,"state":"active","ping":61},{"user_id":52,"name":"Greskrendtregk","steam_id":76561197969553142,"connected_time":1848000000000,"state":"active","ping":56},{"user_id":61,"name":"Marz","steam_id":76561198799364911,"connected_time":967000000000,"state":"active","ping":84},{"user_id":21,"name":"Feasent","steam_id":76561198987316504,"connected_time":2665000000000,"state":"active","ping":68},{"user_id":72,"name":"Shopkeeper","steam_id":76561198105888756,"connected_time":275000000000,"state":"active","ping":71},{"user_id":38,"name":"Adawnby","steam_id":76561198103057295,"connected_time":2317000000000,"state":"active","ping":102},{"user_id":58,"name":"Vincent Van Bro","steam_id":76561197966919802,"connected_time":1457000000000,"state":"active","ping":62},{"user_id":64,"name":"thebeast","steam_id":76561198255963049,"connected_time":929000000000,"state":"active","ping":70},{"user_id":26,"name":"Big Yoshi","steam_id":76561199160576376,"connected_time":2553000000000,"state":"active","ping":82},{"user_id":65,"name":"Wilhelmktx","steam_id":76561198158102295,"connected_time":870000000000,"state":"active","ping":85},{"user_id":70,"name":"viedoamges","steam_id":76561198025295263,"connected_time":703000000000,"state":"active","ping":121},{"user_id":53,"name":"Flexo","steam_id":76561198111618506,"connected_time":1778000000000,"state":"active","ping":82},{"user_id":69,"name":"Pluto","steam_id":76561198338593690,"connected_time":770000000000,"state":"active","ping":128},{"user_id":56,"name":"Shark Sandwich","steam_id":76561198025007938,"connected_time":1661000000000,"state":"active","ping":55},{"user_id":75,"name":"Harry Hotcock","steam_id":76561197999209779,"connected_time":174000000000,"state":"active","ping":57},{"user_id":78,"name":"lamadre07","steam_id":76561198067337453,"connected_time":134000000000,"state":"active","ping":125},{"user_id":71,"name":"GlossyBat","steam_id":76561198929313869,"connected_time":527000000000,"state":"active","ping":84},{"user_id":35,"name":"That wasn't milk","steam_id":76561198155294045,"connected_time":2407000000000,"state":"active","ping":65},{"user_id":68,"name":"Pasta La Vista","steam_id":76561198831983336,"connected_time":816000000000,"state":"active","ping":80}]},{"server_id":406,"name":"Uncletopia | Seattle | 3 | Stopwatch Beta","name_short":"sea-3","host":"sea-1.us.uncletopia.com","port":27035,"enabled":true,"region":"us-west","cc":"us","latitude":47.608013,"longitude":-122.33517,"reserved":0,"last_update":"0001-01-01T00:00:00Z","name_a2s":"Uncletopia | Seattle | 3 | Stopwatch Beta","protocol":17,"map":"workshop/koth_ramjam_rc1.ugc459778887","folder":"tf","game":"Team Fortress","app_id":440,"player_count":0,"max_players":24,"Bots":0,"server_type":"Dedicated","server_os":"Linux","password":true,"vac":true,"version":"7961495","steam_id":85568392924515217,"keywords":["cp","nocrits","nodmgspread","uncletopia"],"game_id":440,"stv_port":27036,"stv_name":"Uncletopia | Seattle | 3 | Stopwatch Beta | STV","players":null},{"server_id":17,"name":"Uncletopia | San Francisco | 1 | All Maps","name_short":"sfo-1","host":"sfo-1.us.uncletopia.com","port":27015,"enabled":true,"region":"us-west","cc":"us","latitude":37.77397,"longitude":-122.4313,"reserved":0,"last_update":"0001-01-01T00:00:00Z","name_a2s":"Uncletopia | San Francisco | 1 | All Maps","protocol":17,"map":"koth_cascade","folder":"tf","game":"Team Fortress","app_id":440,"player_count":0,"max_players":24,"Bots":0,"server_type":"Dedicated","server_os":"Linux","password":true,"vac":true,"version":"7961495","steam_id":85568392924469999,"keywords":["cp","nocrits","nodmgspread","uncletopia"],"game_id":440,"stv_port":27016,"stv_name":"Uncletopia | San Francisco | 1 | All Maps | STV","players":null},{"server_id":18,"name":"Uncletopia | San Francisco | 2 | All Maps","name_short":"sfo-2","host":"sfo-1.us.uncletopia.com","port":27025,"enabled":true,"region":"us-west","cc":"us","latitude":37.77397,"longitude":-122.4313,"reserved":0,"last_update":"0001-01-01T00:00:00Z","name_a2s":"Uncletopia | San Francisco | 2 | All Maps","protocol":17,"map":"cp_mountainlab","folder":"tf","game":"Team Fortress","app_id":440,"player_count":0,"max_players":24,"Bots":0,"server_type":"Dedicated","server_os":"Linux","password":true,"vac":true,"version":"7961495","steam_id":85568392924470000,"keywords":["cp","nocrits","nodmgspread","uncletopia"],"game_id":440,"stv_port":27026,"stv_name":"Uncletopia | San Francisco | 2 | All Maps | STV","players":null},{"server_id":19,"name":"Uncletopia | San Francisco | 3 | Stopwatch Beta","name_short":"sfo-3","host":"sfo-1.us.uncletopia.com","port":27035,"enabled":true,"region":"us-west","cc":"us","latitude":37.77397,"longitude":-122.4313,"reserved":0,"last_update":"0001-01-01T00:00:00Z","name_a2s":"Uncletopia | San Francisco | 3 | Stopwatch Beta","protocol":17,"map":"pl_borneo","folder":"tf","game":"Team Fortress","app_id":440,"player_count":0,"max_players":24,"Bots":0,"server_type":"Dedicated","server_os":"Linux","password":true,"vac":true,"version":"7961495","steam_id":85568392924742824,"keywords":["nocrits","nodmgspread","payload","uncletopia"],"game_id":440,"stv_port":27036,"stv_name":"Uncletopia | San Francisco | 3 | Stopwatch Beta | STV","players":null},{"server_id":20,"name":"Uncletopia | San Francisco | 4 | Community","name_short":"sfo-4","host":"sfo-1.us.uncletopia.com","port":27045,"enabled":true,"region":"us-west","cc":"us","latitude":37.77397,"longitude":-122.4313,"reserved":0,"last_update":"0001-01-01T00:00:00Z","name_a2s":"Uncletopia | San Francisco | 4 | Community","protocol":17,"map":"koth_viaduct","folder":"tf","game":"Team Fortress","app_id":440,"player_count":0,"max_players":24,"Bots":0,"server_type":"Dedicated","server_os":"Linux","password":true,"vac":true,"version":"7961495","steam_id":85568392924742826,"keywords":["cp","nocrits","nodmgspread","uncletopia"],"game_id":440,"stv_port":27046,"stv_name":"Uncletopia | San Francisco | 4 | Community | STV","players":null},{"server_id":141,"name":"Uncletopia | Sydney | 1 | All Maps","name_short":"syd-1","host":"syd-1.au.uncletopia.com","port":27015,"enabled":true,"region":"au","cc":"au","latitude":-33.865143,"longitude":151.2099,"reserved":0,"last_update":"0001-01-01T00:00:00Z","name_a2s":"Uncletopia | Sydney | 1 | All Maps","protocol":17,"map":"koth_highpass","folder":"tf","game":"Team Fortress","app_id":440,"player_count":0,"max_players":24,"Bots":0,"server_type":"Dedicated","server_os":"Linux","password":true,"vac":true,"version":"7961495","steam_id":85568392924470001,"keywords":["cp","nocrits","nodmgspread","uncletopia"],"game_id":440,"stv_port":27016,"stv_name":"Uncletopia | Sydney | 1 | All Maps | STV","players":null},{"server_id":123,"name":"Uncletopia | Sydney | 2 | All Maps","name_short":"syd-2","host":"syd-1.au.uncletopia.com","port":27025,"enabled":true,"region":"au","cc":"au","latitude":-33.865143,"longitude":151.2099,"reserved":0,"last_update":"0001-01-01T00:00:00Z","name_a2s":"Uncletopia | Sydney | 2 | All Maps","protocol":17,"map":"pl_snowycoast","folder":"tf","game":"Team Fortress","app_id":440,"player_count":0,"max_players":24,"Bots":0,"server_type":"Dedicated","server_os":"Linux","password":true,"vac":true,"version":"7961495","steam_id":85568392924470002,"keywords":["nocrits","nodmgspread","payload","uncletopia"],"game_id":440,"stv_port":27026,"stv_name":"Uncletopia | Sydney | 2 | All Maps | STV","players":null},{"server_id":395,"name":"Uncletopia | Sydney | 3 | All Maps","name_short":"syd-3","host":"syd-1.au.uncletopia.com","port":27035,"enabled":true,"region":"au","cc":"au","latitude":-33.865143,"longitude":151.2099,"reserved":0,"last_update":"0001-01-01T00:00:00Z","name_a2s":"Uncletopia | Sydney | 3 | All Maps","protocol":17,"map":"cp_dustbowl","folder":"tf","game":"Team Fortress","app_id":440,"player_count":0,"max_players":24,"Bots":0,"server_type":"Dedicated","server_os":"Linux","password":true,"vac":true,"version":"7961495","steam_id":85568392925194467,"keywords":["cp","nocrits","nodmgspread","uncletopia"],"game_id":440,"stv_port":27036,"stv_name":"Uncletopia | Sydney | 3 | All Maps | STV","players":null},{"server_id":396,"name":"Uncletopia | Sydney | 4 | All Maps","name_short":"syd-4","host":"syd-1.au.uncletopia.com","port":27045,"enabled":true,"region":"au","cc":"au","latitude":-33.865143,"longitude":151.2099,"reserved":0,"last_update":"0001-01-01T00:00:00Z","name_a2s":"Uncletopia | Sydney | 4 | All Maps","protocol":17,"map":"cp_dustbowl","folder":"tf","game":"Team Fortress","app_id":440,"player_count":0,"max_players":24,"Bots":0,"server_type":"Dedicated","server_os":"Linux","password":true,"vac":true,"version":"7961495","steam_id":85568392925397958,"keywords":["cp","nocrits","nodmgspread","uncletopia"],"game_id":440,"stv_port":27046,"stv_name":"Uncletopia | Sydney | 4 | All Maps | STV","players":null},{"server_id":58,"name":"Uncletopia | Sydney | 5 | Stopwatch Beta","name_short":"syd-5","host":"syd-1.au.uncletopia.com","port":27055,"enabled":true,"region":"au","cc":"au","latitude":-33.865143,"longitude":151.2099,"reserved":0,"last_update":"0001-01-01T00:00:00Z","name_a2s":"Uncletopia | Sydney | 5 | Stopwatch Beta","protocol":17,"map":"koth_viaduct","folder":"tf","game":"Team Fortress","app_id":440,"player_count":0,"max_players":24,"Bots":0,"server_type":"Dedicated","server_os":"Linux","password":true,"vac":true,"version":"7961495","steam_id":85568392925397959,"keywords":["cp","nocrits","nodmgspread","uncletopia"],"game_id":440,"stv_port":27056,"stv_name":"Uncletopia | Sydney | 5 | Stopwatch Beta | STV","players":null},{"server_id":59,"name":"Uncletopia | Sydney | 6 | Community","name_short":"syd-6","host":"syd-1.au.uncletopia.com","port":27065,"enabled":true,"region":"au","cc":"au","latitude":-33.865143,"longitude":151.2099,"reserved":0,"last_update":"0001-01-01T00:00:00Z","name_a2s":"Uncletopia | Sydney | 6 | Community","protocol":17,"map":"koth_cascade","folder":"tf","game":"Team Fortress","app_id":440,"player_count":0,"max_players":24,"Bots":0,"server_type":"Dedicated","server_os":"Linux","password":true,"vac":true,"version":"7961495","steam_id":85568392925397960,"keywords":["cp","nocrits","nodmgspread","uncletopia"],"game_id":440,"stv_port":27066,"stv_name":"Uncletopia | Sydney | 6 | Community | STV","players":null},{"server_id":49,"name":"Uncletopia | Warsaw | 1 | All Maps","name_short":"waw-1","host":"waw-1.pl.uncletopia.com","port":27015,"enabled":true,"region":"eu","cc":"pl","latitude":52.2297,"longitude":21.017532,"reserved":0,"last_update":"0001-01-01T00:00:00Z","name_a2s":"Uncletopia | Warsaw | 1 | All Maps","protocol":17,"map":"koth_viaduct","folder":"tf","game":"Team Fortress","app_id":440,"player_count":0,"max_players":24,"Bots":0,"server_type":"Dedicated","server_os":"Linux","password":true,"vac":true,"version":"7961495","steam_id":85568392925397850,"keywords":["cp","nocrits","nodmgspread","uncletopia"],"game_id":440,"stv_port":27016,"stv_name":"Uncletopia | Warsaw | 1 | All Maps | STV","players":null},{"server_id":50,"name":"Uncletopia | Warsaw | 2 | All Maps","name_short":"waw-2","host":"waw-1.pl.uncletopia.com","port":27025,"enabled":true,"region":"eu","cc":"pl","latitude":52.2297,"longitude":21.017532,"reserved":0,"last_update":"0001-01-01T00:00:00Z","name_a2s":"Uncletopia | Warsaw | 2 | All Maps","protocol":17,"map":"koth_cascade","folder":"tf","game":"Team Fortress","app_id":440,"player_count":0,"max_players":24,"Bots":0,"server_type":"Dedicated","server_os":"Linux","password":true,"vac":true,"version":"7961495","steam_id":85568392925397851,"keywords":["cp","nocrits","nodmgspread","uncletopia"],"game_id":440,"stv_port":27026,"stv_name":"Uncletopia | Warsaw | 2 | All Maps | STV","players":null},{"server_id":51,"name":"Uncletopia | Warsaw | 3 | All Maps","name_short":"waw-3","host":"waw-1.pl.uncletopia.com","port":27035,"enabled":true,"region":"eu","cc":"pl","latitude":52.2297,"longitude":21.017532,"reserved":0,"last_update":"0001-01-01T00:00:00Z","name_a2s":"Uncletopia | Warsaw | 3 | All Maps","protocol":17,"map":"pl_upward","folder":"tf","game":"Team Fortress","app_id":440,"player_count":2,"max_players":24,"Bots":0,"server_type":"Dedicated","server_os":"Linux","password":true,"vac":true,"version":"7961495","steam_id":85568392925397852,"keywords":["nocrits","nodmgspread","payload","uncletopia"],"game_id":440,"stv_port":27036,"stv_name":"Uncletopia | Warsaw | 3 | All Maps | STV","players":[{"user_id":31,"name":"Kiz","steam_id":76561198811732820,"connected_time":2860000000000,"state":"active","ping":94},{"user_id":32,"name":"DicyPicky","steam_id":76561198078873335,"connected_time":2745000000000,"state":"active","ping":64}]},{"server_id":52,"name":"Uncletopia | Warsaw | 4 | All Maps","name_short":"waw-4","host":"waw-1.pl.uncletopia.com","port":27045,"enabled":true,"region":"eu","cc":"pl","latitude":52.2297,"longitude":21.017532,"reserved":0,"last_update":"0001-01-01T00:00:00Z","name_a2s":"Uncletopia | Warsaw | 4 | All Maps","protocol":17,"map":"pl_upward","folder":"tf","game":"Team Fortress","app_id":440,"player_count":3,"max_players":24,"Bots":0,"server_type":"Dedicated","server_os":"Linux","password":true,"vac":true,"version":"7961495","steam_id":85568392925397853,"keywords":["nocrits","nodmgspread","payload","uncletopia"],"game_id":440,"stv_port":27046,"stv_name":"Uncletopia | Warsaw | 4 | All Maps | STV","players":[{"user_id":168,"name":"sanator","steam_id":76561198048350443,"connected_time":1895000000000,"state":"active","ping":98},{"user_id":169,"name":"Bweoop","steam_id":76561198046960513,"connected_time":1882000000000,"state":"active","ping":99},{"user_id":170,"name":"nakedpee","steam_id":76561198064345980,"connected_time":536000000000,"state":"active","ping":75}]},{"server_id":53,"name":"Uncletopia | Warsaw | 5 | Stopwatch Beta","name_short":"waw-5","host":"waw-1.pl.uncletopia.com","port":27055,"enabled":true,"region":"eu","cc":"pl","latitude":52.2297,"longitude":21.017532,"reserved":0,"last_update":"0001-01-01T00:00:00Z","name_a2s":"Uncletopia | Warsaw | 5 | Stopwatch Beta","protocol":17,"map":"cp_granary","folder":"tf","game":"Team Fortress","app_id":440,"player_count":0,"max_players":24,"Bots":0,"server_type":"Dedicated","server_os":"Linux","password":true,"vac":true,"version":"7961495","steam_id":85568392925397854,"keywords":["cp","nocrits","nodmgspread","uncletopia"],"game_id":440,"stv_port":27056,"stv_name":"Uncletopia | Warsaw | 5 | Stopwatch Beta | STV","players":null},{"server_id":54,"name":"Uncletopia | Warsaw | 6 | Community","name_short":"waw-6","host":"waw-1.pl.uncletopia.com","port":27065,"enabled":true,"region":"eu","cc":"pl","latitude":52.2297,"longitude":21.017532,"reserved":0,"last_update":"0001-01-01T00:00:00Z","name_a2s":"Uncletopia | Warsaw | 6 | Community","protocol":17,"map":"workshop/koth_product_final.ugc454272353","folder":"tf","game":"Team Fortress","app_id":440,"player_count":0,"max_players":24,"Bots":0,"server_type":"Dedicated","server_os":"Linux","password":true,"vac":true,"version":"7961495","steam_id":85568392925397856,"keywords":["cp","nocrits","nodmgspread","uncletopia"],"game_id":440,"stv_port":27066,"stv_name":"Uncletopia | Warsaw | 6 | Community | STV","players":null}]}