{"status":true,"message":"","result":[{"server_id":9,"name":"Uncletopia | Atlanta | 1 | All Maps","name_short":"atl-1","host":"atl-1.us.uncletopia.com","port":27015,"enabled":true,"region":"us-east","cc":"us","latitude":33.753746,"longitude":-84.38633,"reserved":0,"last_update":"0001-01-01T00:00:00Z","name_a2s":"Uncletopia | Atlanta | 1 | All Maps","protocol":17,"map":"pl_thundermountain","folder":"tf","game":"Team Fortress","app_id":440,"player_count":24,"max_players":24,"Bots":0,"server_type":"Dedicated","server_os":"Linux","password":true,"vac":true,"version":"7757534","steam_id":85568392924469982,"keywords":["nocrits","nodmgspread","payload","uncletopia"],"game_id":440,"stv_port":27016,"stv_name":"Uncletopia | Atlanta | 1 | All Maps | STV","players":[{"user_id":163,"name":"lil hog","steam_id":76561199230929836,"connected_time":1212000000000,"state":"active","ping":71},{"user_id":145,"name":"Xaukra","steam_id":76561198180742229,"connected_time":1488000000000,"state":"active","ping":94},{"user_id":137,"name":"Motorol¬™","steam_id":76561198358119669,"connected_time":2423000000000,"state":"active","ping":115},{"user_id":204,"name":"thepokeyen","steam_id":76561198236847572,"connected_time":253000000000,"state":"active","ping":88},{"user_id":134,"name":"Jesus used Dead Ringer","steam_id":76561198268991349,"connected_time":2543000000000,"state":"active","ping":48},{"user_id":191,"name":"ATL1 | Pango","steam_id":76561198069811545,"connected_time":502000000000,"state":"active","ping":46},{"user_id":118,"name":"ATL1 | on my hunting trip","steam_id":76561198315341646,"connected_time":3771000000000,"state":"active","ping":73},{"user_id":208,"name":"RoyDJ„ÉÑ","steam_id":76561198184851991,"connected_time":95000000000,"state":"active","ping":129},{"user_id":116,"name":"sassy loli","steam_id":76561198402316065,"connected_time":4102000000000,"state":"active","ping":94},{"user_id":138,"name":"Toonice","steam_id":76561198402994885,"connected_time":2422000000000,"state":"active","ping":83},{"user_id":193,"name":"oof5642","steam_id":76561198836251164,"connected_time":449000000000,"state":"active","ping":63},{"user_id":103,"name":"Soju","steam_id":76561198044130442,"connected_time":4616000000000,"state":"active","ping":75},{"user_id":209,"name":"CrazyxxGian","steam_id":76561199174621620,"connected_time":42000000000,"state":"active","ping":66},{"user_id":190,"name":"cass","steam_id":76561198074502046,"connected_time":508000000000,"state":"active","ping":59},{"user_id":210,"name":"sea fish","steam_id":76561198098714487,"connected_time":40000000000,"state":"active","ping":106},{"user_id":206,"name":"Lactose ‡πëÔ≠•","steam_id":76561198208256987,"connected_time":176000000000,"state":"active","ping":96},{"user_id":111,"name":"Pennis the Menace","steam_id":76561198254878037,"connected_time":4399000000000,"state":"active","ping":82},{"user_id":52,"name":"BIG HOG","steam_id":76561198079923652,"connected_time":8652000000000,"state":"active","ping":71},{"user_id":211,"name":"eredyn lft","steam_id":76561198868116439,"connected_time":40000000000,"state":"active","ping":70},{"user_id":154,"name":"(1)ha-yes","steam_id":76561198057101042,"connected_time":1350000000000,"state":"active","ping":73},{"user_id":131,"name":"floofy","steam_id":76561198389769098,"connected_time":2809000000000,"state":"active","ping":85},{"user_id":64,"name":"mashallah","steam_id":76561198075111427,"connected_time":7813000000000,"state":"active","ping":100},{"user_id":200,"name":"Juice Guzzler","steam_id":76561198854745769,"connected_time":352000000000,"state":"active","ping":120},{"user_id":158,"name":"Token","steam_id":76561198067814426,"connected_time":1294000000000,"state":"active","ping":85}]},{"server_id":104,"name":"Uncletopia | Atlanta | 2 | All Maps","name_short":"atl-2","host":"atl-1.us.uncletopia.com","port":27025,"enabled":true,"region":"us-east","cc":"us","latitude":33.753746,"longitude":-84.38633,"reserved":0,"last_update":"0001-01-01T00:00:00Z","name_a2s":"Uncletopia | Atlanta | 2 | All Maps","protocol":17,"map":"pl_snowycoast","folder":"tf","game":"Team Fortress","app_id":440,"player_count":24,"max_players":24,"Bots":0,"server_type":"Dedicated","server_os":"Linux","password":true,"vac":true,"version":"7757534","steam_id":85568392924469983,"keywords":["nocrits","nodmgspread","payload","uncletopia"],"game_id":440,"stv_port":27026,"stv_name":"Uncletopia | Atlanta | 2 | All Maps | STV","players":[{"user_id":6,"name":"Team Cocktress 2","steam_id":76561198303251899,"connected_time":2291000000000,"state":"active","ping":62},{"user_id":7,"name":"puss","steam_id":76561198409588134,"connected_time":2286000000000,"state":"active","ping":60},{"user_id":28,"name":"Trove","steam_id":76561198110970476,"connected_time":845000000000,"state":"active","ping":34},{"user_id":41,"name":"Peter Griffin","steam_id":76561198036351983,"connected_time":465000000000,"state":"active","ping":43},{"user_id":10,"name":"Frost","steam_id":76561198083694664,"connected_time":1814000000000,"state":"active","ping":58},{"user_id":33,"name":"jema","steam_id":76561198276513608,"connected_time":656000000000,"state":"active","ping":167},{"user_id":12,"name":"winterClover","steam_id":76561198407390017,"connected_time":1703000000000,"state":"active","ping":70},{"user_id":15,"name":"open up, knock knock","steam_id":76561197995620232,"connected_time":1479000000000,"state":"active","ping":58},{"user_id":34,"name":"Satori Komeiji","steam_id":76561198158211423,"connected_time":636000000000,"state":"active","ping":99},{"user_id":17,"name":"esc frame","steam_id":76561198044856349,"connected_time":1412000000000,"state":"active","ping":73},{"user_id":46,"name":"A_Malebolgia","steam_id":76561198097722818,"connected_time":112000000000,"state":"active","ping":87},{"user_id":21,"name":"SpaceLeezerd","steam_id":76561198171026678,"connected_time":1127000000000,"state":"active","ping":64},{"user_id":32,"name":"ObsessedNerd505","steam_id":76561199045531456,"connected_time":703000000000,"state":"active","ping":70},{"user_id":24,"name":"Rhutebeer","steam_id":76561198018302761,"connected_time":992000000000,"state":"active","ping":80},{"user_id":25,"name":"Prsm","steam_id":76561198053344995,"connected_time":974000000000,"state":"active","ping":60},{"user_id":42,"name":"Rex","steam_id":76561198138365053,"connected_time":449000000000,"state":"active","ping":114},{"user_id":43,"name":"peeps","steam_id":76561198155736650,"connected_time":448000000000,"state":"active","ping":75},{"user_id":29,"name":"BurgerPizza","steam_id":76561198151256410,"connected_time":821000000000,"state":"active","ping":148},{"user_id":30,"name":"Grandpa 1MinecraftEmpire","steam_id":76561198069046338,"connected_time":768000000000,"state":"active","ping":122},{"user_id":35,"name":"Milkius","steam_id":76561198401392472,"connected_time":635000000000,"state":"active","ping":74},{"user_id":36,"name":"schwibble","steam_id":76561198337692867,"connected_time":618000000000,"state":"active","ping":89},{"user_id":37,"name":"catrinaisahuman","steam_id":76561198281355729,"connected_time":612000000000,"state":"active","ping":78},{"user_id":38,"name":"Scab Collector","steam_id":76561198346425545,"connected_time":610000000000,"state":"active","ping":78},{"user_id":40,"name":"HeisenBurger","steam_id":76561198040632080,"connected_time":603000000000,"state":"active","ping":63}]},{"server_id":400,"name":"Uncletopia | Atlanta | 3 | Community","name_short":"atl-3","host":"atl-1.us.uncletopia.com","port":27035,"enabled":true,"region":"us-east","cc":"us","latitude":33.753746,"longitude":-84.38633,"reserved":0,"last_update":"0001-01-01T00:00:00Z","name_a2s":"Uncletopia | Atlanta | 3 | Community","protocol":17,"map":"workshop/cp_glassworks_rc6a.ugc454118349","folder":"tf","game":"Team Fortress","app_id":440,"player_count":0,"max_players":24,"Bots":0,"server_type":"Dedicated","server_os":"Linux","password":true,"vac":true,"version":"7757534","steam_id":85568392924515187,"keywords":["cp","nocrits","nodmgspread","uncletopia"],"game_id":440,"stv_port":27036,"stv_name":"Uncletopia | Atlanta | 3 | Community | STV","players":null},{"server_id":401,"name":"Uncletopia | Atlanta | 4 | No Payload","name_short":"atl-4","host":"atl-1.us.uncletopia.com","port":27045,"enabled":true,"region":"us-east","cc":"us","latitude":33.753746,"longitude":-84.38633,"reserved":0,"last_update":"0001-01-01T00:00:00Z","name_a2s":"","protocol":0,"map":"","folder":"","game":"","app_id":0,"player_count":0,"max_players":0,"Bots":0,"server_type":"","server_os":"","password":false,"vac":false,"version":"","steam_id":0,"keywords":null,"game_id":0,"stv_port":0,"stv_name":"","players":null},{"server_id":2,"name":"Uncletopia | Chicago | 1 | All Maps","name_short":"chi-1","host":"chi-1.us.uncletopia.com","port":27015,"enabled":true,"region":"us-central","cc":"us","latitude":41.881832,"longitude":-87.62318,"reserved":0,"last_update":"0001-01-01T00:00:00Z","name_a2s":"Uncletopia | Chicago | 1 | All Maps","protocol":17,"map":"pl_badwater","folder":"tf","game":"Team Fortress","app_id":440,"player_count":24,"max_players":24,"Bots":0,"server_type":"Dedicated","server_os":"Linux","password":true,"vac":true,"version":"7757534","steam_id":85568392924469984,"keywords":["nocrits","nodmgspread","payload","uncletopia"],"game_id":440,"stv_port":27016,"stv_name":"Uncletopia | Chicago | 1 | All Maps | STV","players":[{"user_id":234,"name":"ZigZag","steam_id":76561198261037986,"connected_time":1279000000000,"state":"active","ping":64},{"user_id":249,"name":"ComradeNutria","steam_id":76561198241081126,"connected_time":451000000000,"state":"active","ping":114},{"user_id":250,"name":"ChozoChorizo","steam_id":76561198272609196,"connected_time":421000000000,"state":"active","ping":60},{"user_id":230,"name":"Im High","steam_id":76561198049954886,"connected_time":1369000000000,"state":"active","ping":73},{"user_id":251,"name":"need a dispenser here","steam_id":76561198060912995,"connected_time":369000000000,"state":"active","ping":60},{"user_id":221,"name":"ThatOneKnight","steam_id":76561198388583650,"connected_time":1692000000000,"state":"active","ping":47},{"user_id":223,"name":"Meh","steam_id":76561198078187920,"connected_time":1608000000000,"state":"active","ping":86},{"user_id":263,"name":"stardust","steam_id":76561198413930183,"connected_time":83000000000,"state":"active","ping":59},{"user_id":253,"name":"Jones","steam_id":76561198046037216,"connected_time":168000000000,"state":"active","ping":81},{"user_id":235,"name":"Raptortastico","steam_id":76561198105613110,"connected_time":1255000000000,"state":"active","ping":51},{"user_id":148,"name":"Ayylmao","steam_id":76561198104780147,"connected_time":5798000000000,"state":"active","ping":45},{"user_id":199,"name":"hatchetax","steam_id":76561199013337543,"connected_time":3334000000000,"state":"active","ping":63},{"user_id":237,"name":"Manfred von Richthofen","steam_id":76561198881106202,"connected_time":1164000000000,"state":"active","ping":96},{"user_id":262,"name":"neet","steam_id":76561197968115168,"connected_time":102000000000,"state":"active","ping":59},{"user_id":259,"name":"gl1tchr","steam_id":76561198302661983,"connected_time":140000000000,"state":"active","ping":77},{"user_id":248,"name":"Doctor Sex","steam_id":76561198378542321,"connected_time":511000000000,"state":"active","ping":77},{"user_id":226,"name":"A.J. Bakunas","steam_id":76561198045499333,"connected_time":1578000000000,"state":"active","ping":58},{"user_id":238,"name":"LunarrD","steam_id":76561198811220107,"connected_time":909000000000,"state":"active","ping":81},{"user_id":258,"name":"fish 2","steam_id":76561199208652572,"connected_time":141000000000,"state":"active","ping":73},{"user_id":239,"name":"ÔºîÔºê Ôº¶Ôº∞Ôº≥","steam_id":76561198272394965,"connected_time":904000000000,"state":"active","ping":133},{"user_id":260,"name":"very gud (very bad)","steam_id":76561199213154902,"connected_time":126000000000,"state":"active","ping":108},{"user_id":233,"name":"Potato","steam_id":76561198115677693,"connected_time":1296000000000,"state":"active","ping":58},{"user_id":242,"name":"tone","steam_id":76561198006505587,"connected_time":777000000000,"state":"active","ping":81},{"user_id":240,"name":"Venk","steam_id":76561198251131422,"connected_time":877000000000,"state":"active","ping":73}]},{"server_id":106,"name":"Uncletopia | Chicago | 2 | All Maps","name_short":"chi-2","host":"chi-1.us.uncletopia.com","port":27025,"enabled":true,"region":"us-central","cc":"us","latitude":41.881832,"longitude":-87.62318,"reserved":0,"last_update":"0001-01-01T00:00:00Z","name_a2s":"Uncletopia | Chicago | 2 | All Maps","protocol":17,"map":"koth_harvest_final","folder":"tf","game":"Team Fortress","app_id":440,"player_count":24,"max_players":24,"Bots":0,"server_type":"Dedicated","server_os":"Linux","password":true,"vac":true,"version":"7757534","steam_id":85568392924469985,"keywords":["cp","nocrits","nodmgspread","uncletopia"],"game_id":440,"stv_port":27026,"stv_name":"Uncletopia | Chicago | 2 | All Maps | STV","players":[{"user_id":317,"name":"Uzi bin Laden","steam_id":76561198218811453,"connected_time":2399000000000,"state":"active","ping":74},{"user_id":349,"name":"gallowsCalibrator","steam_id":76561198076388445,"connected_time":525000000000,"state":"active","ping":77},{"user_id":347,"name":"Daperlin (Spiritual State)","steam_id":76561198091299113,"connected_time":677000000000,"state":"active","ping":79},{"user_id":312,"name":"WalletADHD","steam_id":76561198081067377,"connected_time":2745000000000,"state":"active","ping":61},{"user_id":336,"name":"creamy","steam_id":76561198157435832,"connected_time":1386000000000,"state":"active","ping":63},{"user_id":290,"name":"Mr. Dr Professor","steam_id":76561198059764701,"connected_time":3893000000000,"state":"active","ping":94},{"user_id":353,"name":"Alon","steam_id":76561199093129130,"connected_time":131000000000,"state":"active","ping":120},{"user_id":318,"name":"The Overmind","steam_id":76561199170229428,"connected_time":2396000000000,"state":"active","ping":74},{"user_id":350,"name":"Steadman Slick","steam_id":76561198092633444,"connected_time":373000000000,"state":"active","ping":44},{"user_id":337,"name":"Worst Scenario","steam_id":76561199052130229,"connected_time":1087000000000,"state":"active","ping":52},{"user_id":326,"name":"¬ø¬øF-Colombian??","steam_id":76561198257720165,"connected_time":1879000000000,"state":"active","ping":120},{"user_id":351,"name":"he suckin on my rick til i mort","steam_id":76561198310711692,"connected_time":272000000000,"state":"active","ping":166},{"user_id":285,"name":"Poera666","steam_id":76561199054624957,"connected_time":4503000000000,"state":"active","ping":180},{"user_id":243,"name":"Tea","steam_id":76561198004133638,"connected_time":7661000000000,"state":"active","ping":146},{"user_id":292,"name":"Sodemo","steam_id":76561198074987146,"connected_time":3851000000000,"state":"active","ping":76},{"user_id":310,"name":"bingus","steam_id":76561198283992686,"connected_time":2786000000000,"state":"active","ping":72},{"user_id":345,"name":"Vegerot","steam_id":76561197997843710,"connected_time":818000000000,"state":"active","ping":60},{"user_id":276,"name":"the doo doo man","steam_id":76561198057076267,"connected_time":5269000000000,"state":"active","ping":74},{"user_id":328,"name":"burN","steam_id":76561198078828216,"connected_time":1856000000000,"state":"active","ping":60},{"user_id":342,"name":"Decs","steam_id":76561198825197974,"connected_time":1048000000000,"state":"active","ping":120},{"user_id":322,"name":"Cheeeeeeeen","steam_id":76561198986388085,"connected_time":2263000000000,"state":"active","ping":105},{"user_id":294,"name":"pitbull named princess","steam_id":76561198880211576,"connected_time":3835000000000,"state":"active","ping":97},{"user_id":334,"name":"*Gage*","steam_id":76561197975233869,"connected_time":1549000000000,"state":"active","ping":90},{"user_id":348,"name":"Titus Tyrwitt","steam_id":76561197990779673,"connected_time":630000000000,"state":"active","ping":79}]},{"server_id":402,"name":"Uncletopia | Chicago | 3 | All Maps","name_short":"chi-3","host":"chi-1.us.uncletopia.com","port":27035,"enabled":true,"region":"us-central","cc":"us","latitude":41.881832,"longitude":-87.62318,"reserved":0,"last_update":"0001-01-01T00:00:00Z","name_a2s":"Uncletopia | Chicago | 3 | All Maps","protocol":17,"map":"koth_lakeside_final","folder":"tf","game":"Team Fortress","app_id":440,"player_count":0,"max_players":24,"Bots":0,"server_type":"Dedicated","server_os":"Linux","password":true,"vac":true,"version":"7757534","steam_id":85568392924515191,"keywords":["cp","nocrits","nodmgspread","uncletopia"],"game_id":440,"stv_port":27036,"stv_name":"Uncletopia | Chicago | 3 | All Maps | STV","players":null},{"server_id":403,"name":"Uncletopia | Chicago | 4 | All Maps","name_short":"chi-4","host":"chi-1.us.uncletopia.com","port":27045,"enabled":true,"region":"us-central","cc":"us","latitude":41.881832,"longitude":-87.62318,"reserved":0,"last_update":"0001-01-01T00:00:00Z","name_a2s":"Uncletopia | Chicago | 4 | All Maps","protocol":17,"map":"koth_lakeside_final","folder":"tf","game":"Team Fortress","app_id":440,"player_count":0,"max_players":24,"Bots":0,"server_type":"Dedicated","server_os":"Linux","password":true,"vac":true,"version":"7757534","steam_id":85568392924515193,"keywords":["cp","nocrits","nodmgspread","uncletopia"],"game_id":440,"stv_port":27046,"stv_name":"Uncletopia | Chicago | 4 | All Maps | STV","players":null},{"server_id":36,"name":"Uncletopia | Chicago | 5 | All Maps","name_short":"chi-5","host":"chi-2.us.uncletopia.com","port":27015,"enabled":true,"region":"us-central","cc":"us","latitude":41.881832,"longitude":-87.62318,"reserved":0,"last_update":"0001-01-01T00:00:00Z","name_a2s":"Uncletopia | Chicago | 5 | All Maps","protocol":17,"map":"koth_cascade","folder":"tf","game":"Team Fortress","app_id":440,"player_count":0,"max_players":24,"Bots":0,"server_type":"Dedicated","server_os":"Linux","password":true,"vac":true,"version":"7757534","steam_id":85568392924866362,"keywords":["cp","nocrits","nodmgspread","uncletopia"],"game_id":440,"stv_port":27016,"stv_name":"Uncletopia | Chicago | 5 | All Maps | STV","players":null},{"server_id":37,"name":"Uncletopia | Chicago | 6 | All Maps","name_short":"chi-6","host":"chi-2.us.uncletopia.com","port":27025,"enabled":true,"region":"us-central","cc":"us","latitude":41.881832,"longitude":-87.62318,"reserved":0,"last_update":"0001-01-01T00:00:00Z","name_a2s":"Uncletopia | Chicago | 6 | All Maps","protocol":17,"map":"pl_borneo","folder":"tf","game":"Team Fortress","app_id":440,"player_count":0,"max_players":24,"Bots":0,"server_type":"Dedicated","server_os":"Linux","password":true,"vac":true,"version":"7757534","steam_id":85568392924866363,"keywords":["nocrits","nodmgspread","payload","uncletopia"],"game_id":440,"stv_port":27026,"stv_name":"Uncletopia | Chicago | 6 | All Maps | STV","players":null},{"server_id":38,"name":"Uncletopia | Chicago | 7 | Stopwatch Beta","name_short":"chi-7","host":"chi-2.us.uncletopia.com","port":27035,"enabled":true,"region":"us-central","cc":"us","latitude":41.881832,"longitude":-87.62318,"reserved":0,"last_update":"0001-01-01T00:00:00Z","name_a2s":"Uncletopia | Chicago | 7 | Stopwatch Beta","protocol":17,"map":"pl_barnblitz","folder":"tf","game":"Team Fortress","app_id":440,"player_count":0,"max_players":24,"Bots":0,"server_type":"Dedicated","server_os":"Linux","password":true,"vac":true,"version":"7757534","steam_id":85568392924866364,"keywords":["nocrits","nodmgspread","payload","uncletopia"],"game_id":440,"stv_port":27036,"stv_name":"Uncletopia | Chicago | 7 | Stopwatch Beta | STV","players":null},{"server_id":39,"name":"Uncletopia | Chicago | 8 | Community","name_short":"chi-8","host":"chi-2.us.uncletopia.com","port":27045,"enabled":true,"region":"us-central","cc":"us","latitude":41.881832,"longitude":-87.62318,"reserved":0,"last_update":"0001-01-01T00:00:00Z","name_a2s":"Uncletopia | Chicago | 8 | Community","protocol":17,"map":"koth_cascade","folder":"tf","game":"Team Fortress","app_id":440,"player_count":0,"max_players":24,"Bots":0,"server_type":"Dedicated","server_os":"Linux","password":true,"vac":true,"version":"7757534","steam_id":85568392924866365,"keywords":["cp","nocrits","nodmgspread","uncletopia"],"game_id":440,"stv_port":27046,"stv_name":"Uncletopia | Chicago | 8 | Community | STV","players":null},{"server_id":8,"name":"Uncletopia | Dallas | 1 | All Maps","name_short":"dal-1","host":"dal-1.us.uncletopia.com","port":27015,"enabled":true,"region":"us-central","cc":"us","latitude":32.779167,"longitude":-96.80889,"reserved":0,"last_update":"0001-01-01T00:00:00Z","name_a2s":"Uncletopia | Dallas | 1 | All Maps","protocol":17,"map":"pl_upward","folder":"tf","game":"Team Fortress","app_id":440,"player_count":24,"max_players":24,"Bots":0,"server_type":"Dedicated","server_os":"Linux","password":true,"vac":true,"version":"7757534","steam_id":85568392924469986,"keywords":["nocrits","nodmgspread","payload","uncletopia"],"game_id":440,"stv_port":27016,"stv_name":"Uncletopia | Dallas | 1 | All Maps | STV","players":[{"user_id":286,"name":"Shamrock Shake Oct.10.2020 @8pm","steam_id":76561198833313201,"connected_time":786000000000,"state":"active","ping":81},{"user_id":244,"name":"Osrio","steam_id":76561198083428069,"connected_time":3897000000000,"state":"active","ping":100},{"user_id":250,"name":"Cryonics","steam_id":76561198314197911,"connected_time":3388000000000,"state":"active","ping":79},{"user_id":291,"name":"nines","steam_id":76561198078992548,"connected_time":53000000000,"state":"active","ping":73},{"user_id":287,"name":"mu","steam_id":76561197997530228,"connected_time":772000000000,"state":"active","ping":109},{"user_id":243,"name":"Á≤æÊ∂≤Blev BlevÁ≤æÊ∂≤","steam_id":76561198208972565,"connected_time":3957000000000,"state":"active","ping":103},{"user_id":277,"name":"tropis","steam_id":76561198067365603,"connected_time":1111000000000,"state":"active","ping":38},{"user_id":279,"name":"douglas","steam_id":76561198053556527,"connected_time":1004000000000,"state":"active","ping":87},{"user_id":248,"name":"will uber light classes","steam_id":76561198117033273,"connected_time":3596000000000,"state":"active","ping":157},{"user_id":280,"name":"Ja","steam_id":76561198396340174,"connected_time":998000000000,"state":"active","ping":99},{"user_id":138,"name":"SeaBass","steam_id":76561197982949108,"connected_time":13904000000000,"state":"active","ping":69},{"user_id":281,"name":"Big Ears","steam_id":76561198851363077,"connected_time":995000000000,"state":"active","ping":62},{"user_id":283,"name":"Giselle","steam_id":76561198162593640,"connected_time":860000000000,"state":"active","ping":100},{"user_id":263,"name":"turkeysarefriendsz","steam_id":76561199074521322,"connected_time":2668000000000,"state":"active","ping":87},{"user_id":264,"name":"CrockettMann","steam_id":76561198286581911,"connected_time":2626000000000,"state":"active","ping":114},{"user_id":274,"name":"Hugh Mann","steam_id":76561198212049401,"connected_time":1644000000000,"state":"active","ping":55},{"user_id":144,"name":"TTV/ChadMorningWood","steam_id":76561198139832291,"connected_time":13317000000000,"state":"active","ping":62},{"user_id":238,"name":"Carl","steam_id":76561198285931413,"connected_time":4291000000000,"state":"active","ping":64},{"user_id":222,"name":"King","steam_id":76561198039763676,"connected_time":5735000000000,"state":"active","ping":77},{"user_id":249,"name":"Barack OBidoof","steam_id":76561198035142993,"connected_time":3454000000000,"state":"active","ping":79},{"user_id":236,"name":"unsafequeen","steam_id":76561199088126900,"connected_time":4432000000000,"state":"active","ping":102},{"user_id":216,"name":"The sad vanilla","steam_id":76561198268621447,"connected_time":6677000000000,"state":"active","ping":89},{"user_id":284,"name":"young kong","steam_id":76561198144673121,"connected_time":855000000000,"state":"active","ping":93},{"user_id":290,"name":"Mr. Morton, CEO of Caber Corp\ufffd\ufffd","steam_id":76561198092130334,"connected_time":90000000000,"state":"active","ping":50}]},{"server_id":108,"name":"Uncletopia | Dallas | 2 | All Maps","name_short":"dal-2","host":"dal-1.us.uncletopia.com","port":27025,"enabled":true,"region":"us-central","cc":"us","latitude":32.779167,"longitude":-96.80889,"reserved":0,"last_update":"0001-01-01T00:00:00Z","name_a2s":"Uncletopia | Dallas | 2 | All Maps","protocol":17,"map":"pl_upward","folder":"tf","game":"Team Fortress","app_id":440,"player_count":0,"max_players":24,"Bots":0,"server_type":"Dedicated","server_os":"Linux","password":true,"vac":true,"version":"7757534","steam_id":85568392924469988,"keywords":["nocrits","nodmgspread","payload","uncletopia"],"game_id":440,"stv_port":27026,"stv_name":"Uncletopia | Dallas | 2 | All Maps | STV","players":null},{"server_id":5,"name":"Uncletopia | Frankfurt | 1 | All Maps","name_short":"frk-1","host":"frk-1.de.uncletopia.com","port":27015,"enabled":true,"region":"eu","cc":"de","latitude":50.110924,"longitude":8.682127,"reserved":0,"last_update":"0001-01-01T00:00:00Z","name_a2s":"Uncletopia | Frankfurt | 1 | All Maps","protocol":17,"map":"pl_thundermountain","folder":"tf","game":"Team Fortress","app_id":440,"player_count":23,"max_players":24,"Bots":0,"server_type":"Dedicated","server_os":"Linux","password":true,"vac":true,"version":"7757534","steam_id":85568392924469989,"keywords":["nocrits","nodmgspread","payload","uncletopia"],"game_id":440,"stv_port":27016,"stv_name":"Uncletopia | Frankfurt | 1 | All Maps | STV","players":[{"user_id":730,"name":"Homosapien","steam_id":76561197972035953,"connected_time":475000000000,"state":"active","ping":48},{"user_id":735,"name":"Irme","steam_id":76561198161590299,"connected_time":298000000000,"state":"active","ping":72},{"user_id":693,"name":"pain train tf2","steam_id":76561198111568728,"connected_time":3184000000000,"state":"active","ping":46},{"user_id":731,"name":"tallen","steam_id":76561198061708595,"connected_time":453000000000,"state":"active","ping":83},{"user_id":736,"name":"Gbus","steam_id":76561198072335838,"connected_time":278000000000,"state":"active","ping":60},{"user_id":738,"name":"A stripper","steam_id":76561198034865891,"connected_time":191000000000,"state":"active","ping":63},{"user_id":705,"name":"üòà COCKDESTROYER üòà","steam_id":76561198042846999,"connected_time":2194000000000,"state":"active","ping":65},{"user_id":741,"name":"—Ç–æ–ª—è","steam_id":76561199098518615,"connected_time":72000000000,"state":"active","ping":101},{"user_id":618,"name":"BUREK od Sira","steam_id":76561198092589818,"connected_time":9256000000000,"state":"active","ping":72},{"user_id":707,"name":"Serton‚ôù","steam_id":76561198011061126,"connected_time":2172000000000,"state":"active","ping":88},{"user_id":688,"name":"LarsInABox","steam_id":76561198028329262,"connected_time":3971000000000,"state":"active","ping":75},{"user_id":710,"name":"asdqwer","steam_id":76561198058312220,"connected_time":2143000000000,"state":"active","ping":60},{"user_id":727,"name":"Thingamabob inventor","steam_id":76561198146180114,"connected_time":618000000000,"state":"active","ping":91},{"user_id":690,"name":"Fat Pigeon","steam_id":76561198817940142,"connected_time":3233000000000,"state":"active","ping":54},{"user_id":714,"name":"Droy","steam_id":76561198065854668,"connected_time":1950000000000,"state":"active","ping":59},{"user_id":676,"name":"elsuedi","steam_id":76561198074722832,"connected_time":5295000000000,"state":"active","ping":55},{"user_id":723,"name":"Johan","steam_id":76561199380849468,"connected_time":1305000000000,"state":"active","ping":61},{"user_id":724,"name":"Ember (she/her) gaymer","steam_id":76561199403820517,"connected_time":1072000000000,"state":"active","ping":68},{"user_id":715,"name":"Mr.Schnittlauch","steam_id":76561198295868113,"connected_time":1906000000000,"state":"active","ping":62},{"user_id":720,"name":"prof. Hellfire","steam_id":76561198254030118,"connected_time":1699000000000,"state":"active","ping":46},{"user_id":726,"name":"Niaz","steam_id":76561198442958151,"connected_time":766000000000,"state":"active","ping":77},{"user_id":742,"name":"planet of the snapes","steam_id":76561198053400769,"connected_time":43000000000,"state":"active","ping":71},{"user_id":683,"name":"the least schizo med main","steam_id":76561198048530109,"connected_time":4683000000000,"state":"active","ping":74}]},{"server_id":110,"name":"Uncletopia | Frankfurt | 2 | All Maps","name_short":"frk-2","host":"frk-1.de.uncletopia.com","port":27025,"enabled":true,"region":"eu","cc":"de","latitude":50.110924,"longitude":8.682127,"reserved":0,"last_update":"0001-01-01T00:00:00Z","name_a2s":"Uncletopia | Frankfurt | 2 | All Maps","protocol":17,"map":"koth_viaduct","folder":"tf","game":"Team Fortress","app_id":440,"player_count":24,"max_players":24,"Bots":0,"server_type":"Dedicated","server_os":"Linux","password":true,"vac":true,"version":"7757534","steam_id":85568392924469990,"keywords":["cp","nocrits","nodmgspread","uncletopia"],"game_id":440,"stv_port":27026,"stv_name":"Uncletopia | Frankfurt | 2 | All Maps | STV","players":[{"user_id":273,"name":"Taew","steam_id":76561198150311218,"connected_time":229000000000,"state":"active","ping":69},{"user_id":274,"name":"sesw","steam_id":76561198057332404,"connected_time":167000000000,"state":"active","ping":55},{"user_id":234,"name":"GZimmer","steam_id":76561198088794767,"connected_time":2041000000000,"state":"active","ping":50},{"user_id":253,"name":"The Oafling","steam_id":76561198183594622,"connected_time":942000000000,"state":"active","ping":87},{"user_id":226,"name":"ChickyCoop","steam_id":76561199072983488,"connected_time":3201000000000,"state":"active","ping":76},{"user_id":252,"name":"Xydran","steam_id":76561198042397402,"connected_time":1083000000000,"state":"active","ping":69},{"user_id":258,"name":"Bred Sheeran","steam_id":76561198045692016,"connected_time":737000000000,"state":"active","ping":47},{"user_id":230,"name":"Pimastr","steam_id":76561198230996464,"connected_time":2192000000000,"state":"active","ping":165},{"user_id":249,"name":"Tre3","steam_id":76561198054795379,"connected_time":1466000000000,"state":"active","ping":55},{"user_id":255,"name":"nellic","steam_id":76561198404172173,"connected_time":853000000000,"state":"active","ping":164},{"user_id":233,"name":"woolfy","steam_id":76561198954235784,"connected_time":2098000000000,"state":"active","ping":59},{"user_id":257,"name":"„ÄéDorarhim„Äè","steam_id":76561198220232352,"connected_time":803000000000,"state":"active","ping":55},{"user_id":275,"name":"Soyboy","steam_id":76561198053885716,"connected_time":131000000000,"state":"active","ping":77},{"user_id":278,"name":"Xriasp","steam_id":76561198104721321,"connected_time":93000000000,"state":"active","ping":73},{"user_id":260,"name":"Kjat","steam_id":76561198839433592,"connected_time":709000000000,"state":"active","ping":49},{"user_id":261,"name":"paguro","steam_id":76561198119560871,"connected_time":644000000000,"state":"active","ping":71},{"user_id":268,"name":"Thors","steam_id":76561197968739075,"connected_time":444000000000,"state":"active","ping":48},{"user_id":263,"name":"akakez","steam_id":76561198095432821,"connected_time":564000000000,"state":"active","ping":120},{"user_id":264,"name":"sork","steam_id":76561198082446459,"connected_time":541000000000,"state":"active","ping":69},{"user_id":265,"name":"Dr. Le Quack","steam_id":76561197995711176,"connected_time":534000000000,"state":"active","ping":77},{"user_id":269,"name":"Apollo17","steam_id":76561198886930836,"connected_time":418000000000,"state":"active","ping":89},{"user_id":276,"name":"funkliner","steam_id":76561198436902492,"connected_time":125000000000,"state":"active","ping":256},{"user_id":279,"name":"holykyckling","steam_id":76561198040661615,"connected_time":84000000000,"state":"active","ping":73},{"user_id":272,"name":"Mr Toxic","steam_id":76561198040057167,"connected_time":345000000000,"state":"active","ping":185}]},{"server_id":308,"name":"Uncletopia | Frankfurt | 3 | All Maps","name_short":"frk-3","host":"frk-1.de.uncletopia.com","port":27035,"enabled":true,"region":"eu","cc":"de","latitude":50.110924,"longitude":8.682127,"reserved":0,"last_update":"0001-01-01T00:00:00Z","name_a2s":"Uncletopia | Frankfurt | 3 | All Maps","protocol":17,"map":"pl_barnblitz","folder":"tf","game":"Team Fortress","app_id":440,"player_count":24,"max_players":24,"Bots":0,"server_type":"Dedicated","server_os":"Linux","password":true,"vac":true,"version":"7757534","steam_id":85568392924504274,"keywords":["nocrits","nodmgspread","payload","uncletopia"],"game_id":440,"stv_port":27036,"stv_name":"Uncletopia | Frankfurt | 3 | All Maps | STV","players":[{"user_id":191,"name":"ThatGamingKiwi","steam_id":76561199170522237,"connected_time":2180000000000,"state":"active","ping":156},{"user_id":187,"name":"Humle","steam_id":76561198056438772,"connected_time":2879000000000,"state":"active","ping":68},{"user_id":183,"name":"Spectra","steam_id":76561198322555105,"connected_time":3081000000000,"state":"active","ping":64},{"user_id":159,"name":"cursedbygod‚ô°","steam_id":76561198318291047,"connected_time":4690000000000,"state":"active","ping":113},{"user_id":208,"name":"Tomfool","steam_id":76561197993256481,"connected_time":1049000000000,"state":"active","ping":63},{"user_id":215,"name":"hud_saytext_time 0","steam_id":76561198010327228,"connected_time":122000000000,"state":"active","ping":55},{"user_id":209,"name":"Fames","steam_id":76561198050374123,"connected_time":1031000000000,"state":"active","ping":59},{"user_id":173,"name":"awwnoh","steam_id":76561198059842276,"connected_time":3243000000000,"state":"active","ping":84},{"user_id":174,"name":"Wardruna96","steam_id":76561199057083828,"connected_time":3216000000000,"state":"active","ping":81},{"user_id":202,"name":"lyudmilakh","steam_id":76561198362779878,"connected_time":1613000000000,"state":"active","ping":93},{"user_id":216,"name":"MoonlightDragon","steam_id":76561198124808865,"connected_time":122000000000,"state":"active","ping":161},{"user_id":214,"name":"Peams","steam_id":76561198343328308,"connected_time":140000000000,"state":"active","ping":50},{"user_id":194,"name":"wake up, little visitor","steam_id":76561198104896547,"connected_time":2103000000000,"state":"active","ping":67},{"user_id":211,"name":"thaigrr.co.uk","steam_id":76561198067678158,"connected_time":431000000000,"state":"active","ping":59},{"user_id":210,"name":"metamikko","steam_id":76561198324704234,"connected_time":1003000000000,"state":"active","ping":118},{"user_id":177,"name":"Pootis Spencer","steam_id":76561198098267117,"connected_time":3159000000000,"state":"active","ping":83},{"user_id":201,"name":"KazooBard","steam_id":76561198273124726,"connected_time":1783000000000,"state":"active","ping":69},{"user_id":205,"name":"0xDEADBEEF","steam_id":76561199075416111,"connected_time":1286000000000,"state":"active","ping":95},{"user_id":207,"name":"im wearing gunnars","steam_id":76561198045413005,"connected_time":1251000000000,"state":"active","ping":56},{"user_id":179,"name":"EZPK","steam_id":76561197987474355,"connected_time":3146000000000,"state":"active","ping":60},{"user_id":180,"name":"Grolemaster","steam_id":76561199226454635,"connected_time":3131000000000,"state":"active","ping":69},{"user_id":135,"name":"B.batt","steam_id":76561198998684199,"connected_time":6620000000000,"state":"active","ping":120},{"user_id":196,"name":"Saltanat","steam_id":76561198802621568,"connected_time":1970000000000,"state":"active","ping":78},{"user_id":186,"name":"G6 sherlock","steam_id":76561198802967796,"connected_time":2935000000000,"state":"active","ping":121}]},{"server_id":309,"name":"Uncletopia | Frankfurt | 4 | All Maps","name_short":"frk-4","host":"frk-1.de.uncletopia.com","port":27045,"enabled":true,"region":"eu","cc":"de","latitude":50.110924,"longitude":8.682127,"reserved":0,"last_update":"0001-01-01T00:00:00Z","name_a2s":"Uncletopia | Frankfurt | 4 | All Maps","protocol":17,"map":"pl_barnblitz","folder":"tf","game":"Team Fortress","app_id":440,"player_count":20,"max_players":24,"Bots":0,"server_type":"Dedicated","server_os":"Linux","password":true,"vac":true,"version":"7757534","steam_id":85568392924504275,"keywords":["nocrits","nodmgspread","payload","uncletopia"],"game_id":440,"stv_port":27046,"stv_name":"Uncletopia | Frankfurt | 4 | All Maps | STV","players":[{"user_id":89,"name":"WarAndroid","steam_id":76561198873727435,"connected_time":379000000000,"state":"active","ping":57},{"user_id":41,"name":"Mr. Mundy","steam_id":76561198132008918,"connected_time":3663000000000,"state":"active","ping":70},{"user_id":11,"name":"piss man (real)","steam_id":76561198839843428,"connected_time":6095000000000,"state":"active","ping":104},{"user_id":92,"name":"Chadrysiaque","steam_id":76561198061333310,"connected_time":242000000000,"state":"active","ping":48},{"user_id":13,"name":"that turkish mf#savetf2","steam_id":76561199352819594,"connected_time":5823000000000,"state":"active","ping":107},{"user_id":85,"name":"willus212","steam_id":76561199182615246,"connected_time":888000000000,"state":"active","ping":87},{"user_id":90,"name":"Nikcha","steam_id":76561198253300222,"connected_time":295000000000,"state":"active","ping":65},{"user_id":77,"name":"Sebastian","steam_id":76561198199302394,"connected_time":1512000000000,"state":"active","ping":61},{"user_id":28,"name":"ran is running","steam_id":76561199443185667,"connected_time":4626000000000,"state":"active","ping":132},{"user_id":19,"name":"Raufaser","steam_id":76561199266632227,"connected_time":5335000000000,"state":"active","ping":62},{"user_id":88,"name":"idk","steam_id":76561199153286032,"connected_time":425000000000,"state":"active","ping":90},{"user_id":91,"name":"SooS","steam_id":76561198058943929,"connected_time":282000000000,"state":"active","ping":83},{"user_id":86,"name":"olivia","steam_id":76561198288130849,"connected_time":602000000000,"state":"active","ping":156},{"user_id":93,"name":"Barbatruc","steam_id":76561198119019916,"connected_time":117000000000,"state":"active","ping":69},{"user_id":94,"name":"johncenx","steam_id":76561198366703672,"connected_time":113000000000,"state":"active","ping":67},{"user_id":95,"name":"SpyGunning27","steam_id":76561199234795819,"connected_time":91000000000,"state":"active","ping":87},{"user_id":69,"name":"Chen","steam_id":76561198440363619,"connected_time":2448000000000,"state":"active","ping":51},{"user_id":96,"name":"DOMAIN","steam_id":76561199095640319,"connected_time":2000000000,"state":"spawning","ping":62},{"user_id":65,"name":"Mr. Mietsch","steam_id":76561198077516818,"connected_time":2756000000000,"state":"active","ping":44},{"user_id":55,"name":"john fortress","steam_id":76561198013237629,"connected_time":3286000000000,"state":"active","ping":106}]},{"server_id":310,"name":"Uncletopia | Frankfurt | 5 | All Maps","name_short":"frk-5","host":"frk-1.de.uncletopia.com","port":27055,"enabled":true,"region":"eu","cc":"de","latitude":50.110924,"longitude":8.682127,"reserved":0,"last_update":"0001-01-01T00:00:00Z","name_a2s":"Uncletopia | Frankfurt | 5 | All Maps","protocol":17,"map":"pl_borneo","folder":"tf","game":"Team Fortress","app_id":440,"player_count":24,"max_players":24,"Bots":0,"server_type":"Dedicated","server_os":"Linux","password":true,"vac":true,"version":"7757534","steam_id":85568392924504277,"keywords":["nocrits","nodmgspread","payload","uncletopia"],"game_id":440,"stv_port":27056,"stv_name":"Uncletopia | Frankfurt | 5 | All Maps | STV","players":[{"user_id":146,"name":"Gruby","steam_id":76561198879745824,"connected_time":3276000000000,"state":"active","ping":61},{"user_id":149,"name":"VolcanicArts","steam_id":76561198063453246,"connected_time":3014000000000,"state":"active","ping":73},{"user_id":111,"name":"Francisco","steam_id":76561198074614581,"connected_time":5177000000000,"state":"active","ping":63},{"user_id":175,"name":"SpilledMilk","steam_id":76561198174123971,"connected_time":1307000000000,"state":"active","ping":61},{"user_id":182,"name":"IceDreamer","steam_id":76561197997569989,"connected_time":942000000000,"state":"active","ping":54},{"user_id":185,"name":"AmadStatistician","steam_id":76561198163654770,"connected_time":887000000000,"state":"active","ping":60},{"user_id":151,"name":"Rask","steam_id":76561198052934944,"connected_time":2936000000000,"state":"active","ping":98},{"user_id":162,"name":"Gorogaz","steam_id":76561198207157679,"connected_time":1646000000000,"state":"active","ping":66},{"user_id":152,"name":"BenteBent","steam_id":76561198297920637,"connected_time":2719000000000,"state":"active","ping":46},{"user_id":160,"name":"lofimonkeyjazz","steam_id":76561198117059662,"connected_time":1664000000000,"state":"active","ping":81},{"user_id":180,"name":"Doecheldorf","steam_id":76561198291628630,"connected_time":1033000000000,"state":"active","ping":65},{"user_id":158,"name":"KaasKrans","steam_id":76561198240451972,"connected_time":2066000000000,"state":"active","ping":65},{"user_id":123,"name":"Lyncurion","steam_id":76561199260022725,"connected_time":4786000000000,"state":"active","ping":82},{"user_id":163,"name":"VK2124 :D","steam_id":76561198111130688,"connected_time":1606000000000,"state":"active","ping":49},{"user_id":188,"name":"Dark ^^","steam_id":76561198036241064,"connected_time":132000000000,"state":"active","ping":66},{"user_id":156,"name":"Lucky B.üèÜ","steam_id":76561198077571162,"connected_time":2219000000000,"state":"active","ping":61},{"user_id":186,"name":"PashaVerti","steam_id":76561199013963024,"connected_time":666000000000,"state":"active","ping":84},{"user_id":102,"name":"XPullaHiiri","steam_id":76561198031652375,"connected_time":5787000000000,"state":"active","ping":80},{"user_id":179,"name":"fector","steam_id":76561199204249586,"connected_time":1206000000000,"state":"active","ping":131},{"user_id":184,"name":"Keku","steam_id":76561199243275120,"connected_time":932000000000,"state":"active","ping":68},{"user_id":88,"name":"Kestrel","steam_id":76561198144033005,"connected_time":6582000000000,"state":"active","ping":62},{"user_id":170,"name":"cherry coal","steam_id":76561198822725169,"connected_time":1490000000000,"state":"active","ping":61},{"user_id":171,"name":"Akane","steam_id":76561197990407312,"connected_time":1488000000000,"state":"active","ping":74},{"user_id":178,"name":"Obsidian","steam_id":76561198173359229,"connected_time":1261000000000,"state":"active","ping":112}]},{"server_id":311,"name":"Uncletopia | Frankfurt | 6 | All Maps","name_short":"frk-6","host":"frk-1.de.uncletopia.com","port":27065,"enabled":true,"region":"eu","cc":"de","latitude":50.110924,"longitude":8.682127,"reserved":0,"last_update":"0001-01-01T00:00:00Z","name_a2s":"Uncletopia | Frankfurt | 6 | All Maps","protocol":17,"map":"pl_borneo","folder":"tf","game":"Team Fortress","app_id":440,"player_count":23,"max_players":24,"Bots":0,"server_type":"Dedicated","server_os":"Linux","password":true,"vac":true,"version":"7757534","steam_id":85568392924504278,"keywords":["nocrits","nodmgspread","payload","uncletopia"],"game_id":440,"stv_port":27066,"stv_name":"Uncletopia | Frankfurt | 6 | All Maps | STV","players":[{"user_id":294,"name":"WAAGGHH Enjoyer","steam_id":76561198974205333,"connected_time":2769000000000,"state":"active","ping":71},{"user_id":312,"name":"goblinninja110","steam_id":76561198269159354,"connected_time":2035000000000,"state":"active","ping":73},{"user_id":226,"name":"syndenz","steam_id":76561198176063813,"connected_time":7531000000000,"state":"active","ping":61},{"user_id":338,"name":"The Death I Deservioli","steam_id":76561198320506848,"connected_time":517000000000,"state":"active","ping":59},{"user_id":333,"name":"PadrePockets","steam_id":76561197993251606,"connected_time":998000000000,"state":"active","ping":148},{"user_id":323,"name":"RQsC FeQuR","steam_id":76561198090884017,"connected_time":1443000000000,"state":"active","ping":53},{"user_id":193,"name":"sharkmax12312","steam_id":76561198996008569,"connected_time":9590000000000,"state":"active","ping":71},{"user_id":163,"name":"brokenphilip","steam_id":76561198080960604,"connected_time":12719000000000,"state":"active","ping":76},{"user_id":343,"name":"Miton","steam_id":76561197970323209,"connected_time":279000000000,"state":"active","ping":85},{"user_id":337,"name":"peso enjoyer","steam_id":76561198798177799,"connected_time":635000000000,"state":"active","ping":70},{"user_id":316,"name":"skylanderrobbe","steam_id":76561198243378010,"connected_time":1932000000000,"state":"active","ping":72},{"user_id":334,"name":"giclure :;","steam_id":76561197986362828,"connected_time":979000000000,"state":"active","ping":65},{"user_id":342,"name":"Syll","steam_id":76561198040736202,"connected_time":403000000000,"state":"active","ping":80},{"user_id":344,"name":"Loz405 (YouTube)","steam_id":76561198799315884,"connected_time":229000000000,"state":"active","ping":84},{"user_id":339,"name":"jge","steam_id":76561198123186387,"connected_time":509000000000,"state":"active","ping":50},{"user_id":335,"name":"dylanm0909","steam_id":76561198042433442,"connected_time":976000000000,"state":"active","ping":59},{"user_id":345,"name":"lettuce at 58p","steam_id":76561199401283123,"connected_time":5000000000,"state":"spawning","ping":201},{"user_id":287,"name":"Bocchi the Rock","steam_id":76561198801492001,"connected_time":3293000000000,"state":"active","ping":59},{"user_id":340,"name":"deflox","steam_id":76561198087450635,"connected_time":474000000000,"state":"active","ping":38},{"user_id":269,"name":"bob","steam_id":76561198424363858,"connected_time":4713000000000,"state":"active","ping":80},{"user_id":309,"name":"il","steam_id":76561198122662610,"connected_time":2115000000000,"state":"active","ping":77},{"user_id":304,"name":"idc","steam_id":76561198322087870,"connected_time":2603000000000,"state":"active","ping":112},{"user_id":341,"name":"TheCosmicLizard","steam_id":76561198861751742,"connected_time":442000000000,"state":"active","ping":79}]},{"server_id":23,"name":"Uncletopia | Frankfurt | 7 | Stopwatch Beta","name_short":"frk-7","host":"frk-1.de.uncletopia.com","port":27075,"enabled":true,"region":"eu","cc":"de","latitude":50.110924,"longitude":8.682127,"reserved":0,"last_update":"0001-01-01T00:00:00Z","name_a2s":"Uncletopia | Frankfurt | 7 | Stopwatch Beta","protocol":17,"map":"workshop/koth_ramjam_rc1.ugc459778887","folder":"tf","game":"Team Fortress","app_id":440,"player_count":0,"max_players":24,"Bots":0,"server_type":"Dedicated","server_os":"Linux","password":true,"vac":true,"version":"7757534","steam_id":85568392924742827,"keywords":["cp","nocrits","nodmgspread","uncletopia"],"game_id":440,"stv_port":27076,"stv_name":"Uncletopia | Frankfurt | 7 | Stopwatch Beta | STV","players":null},{"server_id":24,"name":"Uncletopia | Frankfurt | 8 | Community","name_short":"frk-8","host":"frk-1.de.uncletopia.com","port":27085,"enabled":true,"region":"eu","cc":"de","latitude":50.110924,"longitude":8.682127,"reserved":0,"last_update":"0001-01-01T00:00:00Z","name_a2s":"Uncletopia | Frankfurt | 8 | Community","protocol":17,"map":"koth_lakeside_final","folder":"tf","game":"Team Fortress","app_id":440,"player_count":0,"max_players":24,"Bots":0,"server_type":"Dedicated","server_os":"Linux","password":true,"vac":true,"version":"7757534","steam_id":85568392924742828,"keywords":["cp","nocrits","nodmgspread","uncletopia"],"game_id":440,"stv_port":27086,"stv_name":"Uncletopia | Frankfurt | 8 | Community | STV","players":null},{"server_id":202,"name":"Uncletopia | Hong Kong | 1 | All Maps","name_short":"hgk-1","host":"hgk-1.hk.uncletopia.com","port":27015,"enabled":true,"region":"asia","cc":"hk","latitude":22.302711,"longitude":114.177216,"reserved":0,"last_update":"0001-01-01T00:00:00Z","name_a2s":"Uncletopia | Hong Kong | 1 | All Maps","protocol":17,"map":"koth_highpass","folder":"tf","game":"Team Fortress","app_id":440,"player_count":0,"max_players":24,"Bots":0,"server_type":"Dedicated","server_os":"Linux","password":true,"vac":true,"version":"7757534","steam_id":85568392924494504,"keywords":["cp","nocrits","nodmgspread","uncletopia"],"game_id":440,"stv_port":27016,"stv_name":"Uncletopia | Hong Kong | 1 | All Maps | STV","players":null},{"server_id":1,"name":"Uncletopia | Los Angeles | 1 | All Maps","name_short":"lax-1","host":"lax-1.us.uncletopia.com","port":27015,"enabled":true,"region":"us-west","cc":"us","latitude":33.94279,"longitude":-118.41004,"reserved":0,"last_update":"0001-01-01T00:00:00Z","name_a2s":"Uncletopia | Los Angeles | 1 | All Maps","protocol":17,"map":"koth_lakeside_final","folder":"tf","game":"Team Fortress","app_id":440,"player_count":0,"max_players":24,"Bots":0,"server_type":"Dedicated","server_os":"Linux","password":true,"vac":true,"version":"7757534","steam_id":85568392924469991,"keywords":["cp","nocrits","nodmgspread","uncletopia"],"game_id":440,"stv_port":27016,"stv_name":"Uncletopia | Los Angeles | 1 | All Maps | STV","players":null},{"server_id":112,"name":"Uncletopia | Los Angeles | 2 | All Maps","name_short":"lax-2","host":"lax-1.us.uncletopia.com","port":27025,"enabled":true,"region":"us-west","cc":"us","latitude":33.94279,"longitude":-118.41004,"reserved":0,"last_update":"0001-01-01T00:00:00Z","name_a2s":"Uncletopia | Los Angeles | 2 | All Maps","protocol":17,"map":"pl_badwater","folder":"tf","game":"Team Fortress","app_id":440,"player_count":0,"max_players":24,"Bots":0,"server_type":"Dedicated","server_os":"Linux","password":true,"vac":true,"version":"7757534","steam_id":85568392924469992,"keywords":["nocrits","nodmgspread","payload","uncletopia"],"game_id":440,"stv_port":27026,"stv_name":"Uncletopia | Los Angeles | 2 | All Maps | STV","players":null},{"server_id":324,"name":"Uncletopia | Los Angeles | 3 | All Maps","name_short":"lax-3","host":"lax-1.us.uncletopia.com","port":27035,"enabled":true,"region":"us-west","cc":"us","latitude":33.94279,"longitude":-118.41004,"reserved":0,"last_update":"0001-01-01T00:00:00Z","name_a2s":"Uncletopia | Los Angeles | 3 | All Maps","protocol":17,"map":"pl_barnblitz","folder":"tf","game":"Team Fortress","app_id":440,"player_count":0,"max_players":24,"Bots":0,"server_type":"Dedicated","server_os":"Linux","password":true,"vac":true,"version":"7757534","steam_id":85568392924510198,"keywords":["nocrits","nodmgspread","payload","uncletopia"],"game_id":440,"stv_port":27036,"stv_name":"Uncletopia | Los Angeles | 3 | All Maps | STV","players":null},{"server_id":25,"name":"Uncletopia | Los Angeles | 4 | Stopwatch Beta","name_short":"lax-4","host":"lax-1.us.uncletopia.com","port":27045,"enabled":true,"region":"us-west","cc":"us","latitude":33.94279,"longitude":-118.41004,"reserved":0,"last_update":"0001-01-01T00:00:00Z","name_a2s":"Uncletopia | Los Angeles | 4 | Stopwatch Beta","protocol":17,"map":"pl_swiftwater_final1","folder":"tf","game":"Team Fortress","app_id":440,"player_count":0,"max_players":24,"Bots":0,"server_type":"Dedicated","server_os":"Linux","password":true,"vac":true,"version":"7757534","steam_id":85568392924510199,"keywords":["nocrits","nodmgspread","payload","uncletopia"],"game_id":440,"stv_port":27046,"stv_name":"Uncletopia | Los Angeles | 4 | Stopwatch Beta | STV","players":null},{"server_id":11,"name":"Uncletopia | London | 1 | All Maps","name_short":"lon-1","host":"lon-1.uk.uncletopia.com","port":27015,"enabled":true,"region":"eu","cc":"gb","latitude":51.509865,"longitude":-0.118092,"reserved":0,"last_update":"0001-01-01T00:00:00Z","name_a2s":"Uncletopia | London | 1 | All Maps","protocol":17,"map":"cp_steel","folder":"tf","game":"Team Fortress","app_id":440,"player_count":19,"max_players":24,"Bots":0,"server_type":"Dedicated","server_os":"Linux","password":true,"vac":true,"version":"7757534","steam_id":85568392924367362,"keywords":["cp","nocrits","nodmgspread","uncletopia"],"game_id":440,"stv_port":27016,"stv_name":"Uncletopia | London | 1 | All Maps | STV","players":[{"user_id":445,"name":"tomix7","steam_id":76561198365122597,"connected_time":174000000000,"state":"active","ping":68},{"user_id":364,"name":"sinologist","steam_id":76561198080912087,"connected_time":7131000000000,"state":"active","ping":74},{"user_id":439,"name":"I I(f2p)","steam_id":76561199101935057,"connected_time":486000000000,"state":"active","ping":91},{"user_id":310,"name":"i am not schizophrenic","steam_id":76561198079277466,"connected_time":10941000000000,"state":"active","ping":60},{"user_id":449,"name":"Milten","steam_id":76561198191768569,"connected_time":124000000000,"state":"active","ping":77},{"user_id":444,"name":"Fazarky","steam_id":76561199013370791,"connected_time":230000000000,"state":"active","ping":55},{"user_id":436,"name":"Andreus","steam_id":76561199403926001,"connected_time":668000000000,"state":"active","ping":88},{"user_id":448,"name":"ciliorkun18","steam_id":76561198228942500,"connected_time":136000000000,"state":"active","ping":90},{"user_id":421,"name":"maybe","steam_id":76561199028670732,"connected_time":1857000000000,"state":"active","ping":63},{"user_id":292,"name":"Healix","steam_id":76561198130270161,"connected_time":12254000000000,"state":"active","ping":59},{"user_id":424,"name":"casual schizophrenic","steam_id":76561198255357694,"connected_time":1738000000000,"state":"active","ping":85},{"user_id":450,"name":"cryne","steam_id":76561198042120598,"connected_time":54000000000,"state":"active","ping":63},{"user_id":338,"name":"aibohpsnart","steam_id":76561198168207306,"connected_time":8493000000000,"state":"active","ping":90},{"user_id":454,"name":"Sakari","steam_id":76561197997811299,"connected_time":9000000000,"state":"active","ping":83},{"user_id":451,"name":"KhornateDoom","steam_id":76561198127530619,"connected_time":46000000000,"state":"spawning","ping":56},{"user_id":452,"name":"Not Clickbait (Real)","steam_id":76561198951275407,"connected_time":20000000000,"state":"spawning","ping":68},{"user_id":455,"name":"DrunkHungarian","steam_id":76561198853346540,"connected_time":4000000000,"state":"spawning","ping":59},{"user_id":414,"name":"Arcader","steam_id":76561198109860110,"connected_time":3049000000000,"state":"active","ping":69},{"user_id":281,"name":"Rose","steam_id":76561198043601838,"connected_time":13258000000000,"state":"active","ping":68}]},{"server_id":114,"name":"Uncletopia | London | 2 | All Maps","name_short":"lon-2","host":"lon-1.uk.uncletopia.com","port":27025,"enabled":true,"region":"eu","cc":"gb","latitude":51.509865,"longitude":-0.118092,"reserved":0,"last_update":"0001-01-01T00:00:00Z","name_a2s":"Uncletopia | London | 2 | All Maps","protocol":17,"map":"pl_upward","folder":"tf","game":"Team Fortress","app_id":440,"player_count":21,"max_players":24,"Bots":0,"server_type":"Dedicated","server_os":"Linux","password":true,"vac":true,"version":"7757534","steam_id":85568392924470941,"keywords":["nocrits","nodmgspread","payload","uncletopia"],"game_id":440,"stv_port":27026,"stv_name":"Uncletopia | London | 2 | All Maps | STV","players":[{"user_id":231,"name":"Rockpig","steam_id":76561198066421407,"connected_time":2627000000000,"state":"active","ping":53},{"user_id":232,"name":"Scooterboy","steam_id":76561198071705499,"connected_time":2540000000000,"state":"active","ping":45},{"user_id":279,"name":"lore","steam_id":76561198120984188,"connected_time":207000000000,"state":"active","ping":67},{"user_id":240,"name":"Glitch","steam_id":76561198309789756,"connected_time":1935000000000,"state":"active","ping":79},{"user_id":251,"name":"JOHN GAMING (#transrights)","steam_id":76561199085822219,"connected_time":1279000000000,"state":"active","ping":77},{"user_id":244,"name":"Yaz","steam_id":76561198110613175,"connected_time":1762000000000,"state":"active","ping":109},{"user_id":261,"name":"Wujek Cacek","steam_id":76561198010267943,"connected_time":819000000000,"state":"active","ping":75},{"user_id":255,"name":"ZaynIsntHere","steam_id":76561199065092566,"connected_time":1093000000000,"state":"active","ping":60},{"user_id":248,"name":"Ixsus\u003c3","steam_id":76561198094756869,"connected_time":1622000000000,"state":"active","ping":65},{"user_id":256,"name":"Leo","steam_id":76561198308715479,"connected_time":1063000000000,"state":"active","ping":61},{"user_id":258,"name":"MelvinIsANiceBoy","steam_id":76561198178415634,"connected_time":953000000000,"state":"active","ping":53},{"user_id":283,"name":"Hokum ‚ú†","steam_id":76561198004533540,"connected_time":32000000000,"state":"active","ping":131},{"user_id":275,"name":"Dio","steam_id":76561198117685434,"connected_time":491000000000,"state":"active","ping":88},{"user_id":265,"name":"Orenge","steam_id":76561198043868408,"connected_time":758000000000,"state":"active","ping":77},{"user_id":280,"name":"Kek meister 8 mil","steam_id":76561197989904384,"connected_time":188000000000,"state":"active","ping":71},{"user_id":267,"name":"clean carp","steam_id":76561198127053294,"connected_time":722000000000,"state":"active","ping":75},{"user_id":278,"name":"gaming","steam_id":76561198036486671,"connected_time":225000000000,"state":"active","ping":61},{"user_id":269,"name":"jonsonhenderson.21078","steam_id":76561199003920232,"connected_time":690000000000,"state":"active","ping":85},{"user_id":277,"name":".::[SerafeTTiN]::.","steam_id":76561198009471724,"connected_time":294000000000,"state":"active","ping":96},{"user_id":274,"name":"Vectillion","steam_id":76561198074292454,"connected_time":543000000000,"state":"active","ping":67},{"user_id":273,"name":"Stabbyratbag","steam_id":76561198119531916,"connected_time":592000000000,"state":"active","ping":45}]},{"server_id":320,"name":"Uncletopia | London | 3 | All Maps","name_short":"lon-3","host":"lon-1.uk.uncletopia.com","port":27035,"enabled":true,"region":"eu","cc":"gb","latitude":51.509865,"longitude":-0.118092,"reserved":0,"last_update":"0001-01-01T00:00:00Z","name_a2s":"Uncletopia | London | 3 | All Maps","protocol":17,"map":"pl_barnblitz","folder":"tf","game":"Team Fortress","app_id":440,"player_count":23,"max_players":24,"Bots":0,"server_type":"Dedicated","server_os":"Linux","password":true,"vac":true,"version":"7757534","steam_id":85568392924510192,"keywords":["cp","nocrits","nodmgspread","uncletopia"],"game_id":440,"stv_port":27036,"stv_name":"Uncletopia | London | 3 | All Maps | STV","players":[{"user_id":385,"name":"the silly","steam_id":76561198289285025,"connected_time":1363000000000,"state":"connecting","ping":63},{"user_id":394,"name":"CNTRL","steam_id":76561199125803827,"connected_time":875000000000,"state":"connecting","ping":110},{"user_id":360,"name":"Clovis","steam_id":76561198076881381,"connected_time":2002000000000,"state":"connecting","ping":79},{"user_id":339,"name":"lol","steam_id":76561198104438656,"connected_time":3513000000000,"state":"connecting","ping":99},{"user_id":388,"name":"Stu","steam_id":76561198131449281,"connected_time":1157000000000,"state":"connecting","ping":75},{"user_id":293,"name":"Very bad dont rely on me","steam_id":76561198362116755,"connected_time":6409000000000,"state":"connecting","ping":213},{"user_id":356,"name":"KenPendersOfficial","steam_id":76561198065112022,"connected_time":2114000000000,"state":"connecting","ping":118},{"user_id":390,"name":"let me cook","steam_id":76561198010380786,"connected_time":1086000000000,"state":"connecting","ping":51},{"user_id":399,"name":"inV pijacka","steam_id":76561198103899658,"connected_time":552000000000,"state":"connecting","ping":90},{"user_id":406,"name":"BurritosForLegs","steam_id":76561198142555612,"connected_time":287000000000,"state":"connecting","ping":59},{"user_id":405,"name":"Mr.Bady","steam_id":76561199094651706,"connected_time":347000000000,"state":"connecting","ping":133},{"user_id":341,"name":"Soerlssoelss√∂en","steam_id":76561197993060585,"connected_time":3497000000000,"state":"connecting","ping":88},{"user_id":397,"name":"Sn1perK1ng","steam_id":76561198128065329,"connected_time":829000000000,"state":"connecting","ping":59},{"user_id":309,"name":"The Wolf Leader","steam_id":76561198038007462,"connected_time":5912000000000,"state":"connecting","ping":81},{"user_id":343,"name":"Creature from the piss drawer","steam_id":76561198055949151,"connected_time":3476000000000,"state":"connecting","ping":50},{"user_id":358,"name":"BRICK TOP","steam_id":76561198014366715,"connected_time":2020000000000,"state":"connecting","ping":62},{"user_id":403,"name":"Wcloud82","steam_id":76561198859441885,"connected_time":492000000000,"state":"spawning","ping":93},{"user_id":369,"name":"Ôº¥rendyÔº¨emon","steam_id":76561198158957324,"connected_time":1881000000000,"state":"connecting","ping":63},{"user_id":407,"name":"L1RG0","steam_id":76561198329274068,"connected_time":283000000000,"state":"connecting","ping":79},{"user_id":382,"name":"Sipsu","steam_id":76561198059424107,"connected_time":1476000000000,"state":"connecting","ping":103},{"user_id":408,"name":"result","steam_id":76561198269200388,"connected_time":279000000000,"state":"connecting","ping":94},{"user_id":393,"name":"Big Papa Yaaa","steam_id":76561198032777543,"connected_time":953000000000,"state":"connecting","ping":63}]},{"server_id":321,"name":"Uncletopia | London | 4 | All Maps","name_short":"lon-4","host":"lon-1.uk.uncletopia.com","port":27045,"enabled":true,"region":"eu","cc":"gb","latitude":51.509865,"longitude":-0.118092,"reserved":0,"last_update":"0001-01-01T00:00:00Z","name_a2s":"Uncletopia | London | 4 | All Maps","protocol":17,"map":"cp_mountainlab","folder":"tf","game":"Team Fortress","app_id":440,"player_count":0,"max_players":24,"Bots":0,"server_type":"Dedicated","server_os":"Linux","password":true,"vac":true,"version":"7757534","steam_id":85568392924510193,"keywords":["cp","nocrits","nodmgspread","uncletopia"],"game_id":440,"stv_port":27046,"stv_name":"Uncletopia | London | 4 | All Maps | STV","players":null},{"server_id":21,"name":"Uncletopia | London | 5 | All Maps","name_short":"lon-5","host":"lon-1.uk.uncletopia.com","port":27055,"enabled":true,"region":"eu","cc":"gb","latitude":51.509865,"longitude":-0.118092,"reserved":0,"last_update":"0001-01-01T00:00:00Z","name_a2s":"Uncletopia | London | 5 | All Maps","protocol":17,"map":"pl_pier","folder":"tf","game":"Team Fortress","app_id":440,"player_count":24,"max_players":24,"Bots":0,"server_type":"Dedicated","server_os":"Linux","password":true,"vac":true,"version":"7757534","steam_id":85568392924742829,"keywords":["nocrits","nodmgspread","payload","uncletopia"],"game_id":440,"stv_port":27056,"stv_name":"Uncletopia | London | 5 | All Maps | STV","players":[{"user_id":141,"name":"Captain Mac","steam_id":76561197971973906,"connected_time":905000000000,"state":"active","ping":52},{"user_id":140,"name":"waddles","steam_id":76561198205194909,"connected_time":963000000000,"state":"active","ping":86},{"user_id":148,"name":"a straight white male","steam_id":76561198381120660,"connected_time":774000000000,"state":"active","ping":97},{"user_id":150,"name":"RocketBurner #SaveTF2","steam_id":76561198915898432,"connected_time":695000000000,"state":"active","ping":96},{"user_id":142,"name":"pan gaming","steam_id":76561198065846882,"connected_time":899000000000,"state":"active","ping":51},{"user_id":152,"name":"tzino","steam_id":76561199076883472,"connected_time":562000000000,"state":"active","ping":83},{"user_id":27,"name":"XANNUR","steam_id":76561198255004930,"connected_time":7425000000000,"state":"active","ping":47},{"user_id":145,"name":"JohnTraveltime","steam_id":76561199244281754,"connected_time":841000000000,"state":"active","ping":72},{"user_id":138,"name":"BELADIT","steam_id":76561198011911501,"connected_time":1024000000000,"state":"active","ping":77},{"user_id":139,"name":"Shingo the Brit","steam_id":76561198439680647,"connected_time":1009000000000,"state":"active","ping":63},{"user_id":146,"name":"fazer","steam_id":76561199121283698,"connected_time":817000000000,"state":"active","ping":61},{"user_id":123,"name":"Adi Tagbar","steam_id":76561198255130741,"connected_time":1942000000000,"state":"active","ping":63},{"user_id":147,"name":"multiflex","steam_id":76561198049639319,"connected_time":797000000000,"state":"active","ping":64},{"user_id":157,"name":"Ocelot","steam_id":76561198263386006,"connected_time":418000000000,"state":"active","ping":110},{"user_id":160,"name":"I AM THE ONE WHO BUILDS","steam_id":76561199438413886,"connected_time":149000000000,"state":"active","ping":182},{"user_id":153,"name":"Robzy","steam_id":76561198082387972,"connected_time":457000000000,"state":"active","ping":56},{"user_id":53,"name":"Onvee","steam_id":76561198205342551,"connected_time":6470000000000,"state":"active","ping":59},{"user_id":125,"name":"Burnie","steam_id":76561198240975318,"connected_time":1802000000000,"state":"active","ping":65},{"user_id":154,"name":"Uncle Terry","steam_id":76561198396415736,"connected_time":457000000000,"state":"active","ping":55},{"user_id":155,"name":"rz-/Atomic Punch","steam_id":76561199195508541,"connected_time":454000000000,"state":"active","ping":75},{"user_id":162,"name":"Christmas Ham","steam_id":76561198119601623,"connected_time":3000000000,"state":"spawning","ping":50},{"user_id":79,"name":"Mike Oxmells-Grim","steam_id":76561198206218692,"connected_time":4962000000000,"state":"active","ping":68},{"user_id":94,"name":"nvmHastee","steam_id":76561199371458295,"connected_time":3631000000000,"state":"active","ping":84},{"user_id":161,"name":"Goobie","steam_id":76561198047375383,"connected_time":142000000000,"state":"active","ping":28}]},{"server_id":22,"name":"Uncletopia | London | 6 | All Maps","name_short":"lon-6","host":"lon-1.uk.uncletopia.com","port":27065,"enabled":true,"region":"eu","cc":"gb","latitude":51.509865,"longitude":-0.118092,"reserved":0,"last_update":"0001-01-01T00:00:00Z","name_a2s":"Uncletopia | London | 6 | All Maps","protocol":17,"map":"pl_frontier_final","folder":"tf","game":"Team Fortress","app_id":440,"player_count":0,"max_players":24,"Bots":0,"server_type":"Dedicated","server_os":"Linux","password":true,"vac":true,"version":"7757534","steam_id":85568392924742830,"keywords":["nocrits","nodmgspread","payload","uncletopia"],"game_id":440,"stv_port":27066,"stv_name":"Uncletopia | London | 6 | All Maps | STV","players":null},{"server_id":40,"name":"Uncletopia | London | 7 | No Payload","name_short":"lon-7","host":"lon-1.uk.uncletopia.com","port":27075,"enabled":true,"region":"eu","cc":"gb","latitude":51.509865,"longitude":-0.118092,"reserved":0,"last_update":"0001-01-01T00:00:00Z","name_a2s":"Uncletopia | London | 7 | No Payload","protocol":17,"map":"cp_gravelpit","folder":"tf","game":"Team Fortress","app_id":440,"player_count":0,"max_players":24,"Bots":0,"server_type":"Dedicated","server_os":"Linux","password":true,"vac":true,"version":"7757534","steam_id":85568392924964314,"keywords":["cp","nocrits","nodmgspread","uncletopia"],"game_id":440,"stv_port":27076,"stv_name":"Uncletopia | London | 7 | No Payload | STV","players":null},{"server_id":41,"name":"Uncletopia | London | 8 | Community","name_short":"lon-8","host":"lon-1.uk.uncletopia.com","port":27085,"enabled":true,"region":"eu","cc":"gb","latitude":51.509865,"longitude":-0.118092,"reserved":0,"last_update":"0001-01-01T00:00:00Z","name_a2s":"Uncletopia | London | 8 | Community","protocol":17,"map":"pl_barnblitz","folder":"tf","game":"Team Fortress","app_id":440,"player_count":0,"max_players":24,"Bots":0,"server_type":"Dedicated","server_os":"Linux","password":true,"vac":true,"version":"7757534","steam_id":85568392924964315,"keywords":["nocrits","nodmgspread","payload","uncletopia"],"game_id":440,"stv_port":27086,"stv_name":"Uncletopia | London | 8 | Community | STV","players":null},{"server_id":300,"name":"Uncletopia | Montr√©al | 1 | All Maps","name_short":"mtl-1","host":"mtl-1.ca.uncletopia.com","port":27015,"enabled":true,"region":"us-east","cc":"ca","latitude":45.50889,"longitude":-73.56167,"reserved":0,"last_update":"0001-01-01T00:00:00Z","name_a2s":"Uncletopia | Montr√©al | 1 | All Maps","protocol":17,"map":"cp_altitude","folder":"tf","game":"Team Fortress","app_id":440,"player_count":0,"max_players":24,"Bots":0,"server_type":"Dedicated","server_os":"Linux","password":true,"vac":true,"version":"7757534","steam_id":85568392924500087,"keywords":["cp","nocrits","nodmgspread","uncletopia"],"game_id":440,"stv_port":27016,"stv_name":"Uncletopia | Montr√©al | 1 | All Maps | STV","players":null},{"server_id":301,"name":"Uncletopia | Montr√©al | 2 | All Maps","name_short":"mtl-2","host":"mtl-1.ca.uncletopia.com","port":27025,"enabled":true,"region":"us-east","cc":"ca","latitude":45.50889,"longitude":-73.56167,"reserved":0,"last_update":"0001-01-01T00:00:00Z","name_a2s":"Uncletopia | Montr√©al | 2 | All Maps","protocol":17,"map":"pl_snowycoast","folder":"tf","game":"Team Fortress","app_id":440,"player_count":0,"max_players":24,"Bots":0,"server_type":"Dedicated","server_os":"Linux","password":true,"vac":true,"version":"7757534","steam_id":85568392924500088,"keywords":["nocrits","nodmgspread","payload","uncletopia"],"game_id":440,"stv_port":27026,"stv_name":"Uncletopia | Montr√©al | 2 | All Maps | STV","players":null},{"server_id":302,"name":"Uncletopia | Montr√©al | 3 | All Maps","name_short":"mtl-3","host":"mtl-1.ca.uncletopia.com","port":27035,"enabled":true,"region":"us-east","cc":"ca","latitude":45.50889,"longitude":-73.56167,"reserved":0,"last_update":"0001-01-01T00:00:00Z","name_a2s":"Uncletopia | Montr√©al | 3 | All Maps","protocol":17,"map":"pl_swiftwater_final1","folder":"tf","game":"Team Fortress","app_id":440,"player_count":0,"max_players":24,"Bots":0,"server_type":"Dedicated","server_os":"Linux","password":true,"vac":true,"version":"7757534","steam_id":85568392924500089,"keywords":["nocrits","nodmgspread","payload","uncletopia"],"game_id":440,"stv_port":27036,"stv_name":"Uncletopia | Montr√©al | 3 | All Maps | STV","players":null},{"server_id":303,"name":"Uncletopia | Montr√©al | 4 | No Payload","name_short":"mtl-4","host":"mtl-1.ca.uncletopia.com","port":27045,"enabled":true,"region":"us-east","cc":"ca","latitude":45.50889,"longitude":-73.56167,"reserved":0,"last_update":"0001-01-01T00:00:00Z","name_a2s":"Uncletopia | Montr√©al | 4 | No Payload","protocol":17,"map":"pl_pier","folder":"tf","game":"Team Fortress","app_id":440,"player_count":0,"max_players":24,"Bots":0,"server_type":"Dedicated","server_os":"Linux","password":true,"vac":true,"version":"7757534","steam_id":85568392924500090,"keywords":["nocrits","nodmgspread","payload","uncletopia"],"game_id":440,"stv_port":27046,"stv_name":"Uncletopia | Montr√©al | 4 | No Payload | STV","players":null},{"server_id":13,"name":"Uncletopia | New York City | 1 | All Maps","name_short":"nyc-1","host":"nyc-1.us.uncletopia.com","port":27015,"enabled":true,"region":"us-east","cc":"us","latitude":40.73061,"longitude":-73.93524,"reserved":0,"last_update":"0001-01-01T00:00:00Z","name_a2s":"Uncletopia | New York City | 1 | All Maps","protocol":17,"map":"koth_cascade","folder":"tf","game":"Team Fortress","app_id":440,"player_count":17,"max_players":24,"Bots":0,"server_type":"Dedicated","server_os":"Linux","password":true,"vac":true,"version":"7757534","steam_id":85568392924469993,"keywords":["cp","nocrits","nodmgspread","uncletopia"],"game_id":440,"stv_port":27016,"stv_name":"Uncletopia | New York City | 1 | All Maps | STV","players":[{"user_id":166,"name":"Registered Vex Offender","steam_id":76561198986082661,"connected_time":4830000000000,"state":"active","ping":132},{"user_id":225,"name":"if watermelons were human","steam_id":76561199044624946,"connected_time":49000000000,"state":"active","ping":45},{"user_id":227,"name":"moe5x","steam_id":76561198316877833,"connected_time":29000000000,"state":"active","ping":113},{"user_id":185,"name":"Hasid cs","steam_id":76561198091585491,"connected_time":3944000000000,"state":"active","ping":43},{"user_id":199,"name":"Crackmire","steam_id":76561199016285746,"connected_time":2602000000000,"state":"active","ping":92},{"user_id":211,"name":"Jslugg215","steam_id":76561197993200689,"connected_time":1218000000000,"state":"active","ping":44},{"user_id":218,"name":"Femboy Gigachad","steam_id":76561199385233153,"connected_time":854000000000,"state":"active","ping":37},{"user_id":213,"name":"Xuulis","steam_id":76561198042810905,"connected_time":1200000000000,"state":"active","ping":102},{"user_id":210,"name":"4ling","steam_id":76561197994398381,"connected_time":1635000000000,"state":"active","ping":56},{"user_id":222,"name":"Kerflumple","steam_id":76561198050602757,"connected_time":170000000000,"state":"active","ping":46},{"user_id":177,"name":"Pettifogging Milksop","steam_id":76561198074560331,"connected_time":4373000000000,"state":"active","ping":82},{"user_id":223,"name":"creeeeeee","steam_id":76561198392539722,"connected_time":162000000000,"state":"active","ping":76},{"user_id":215,"name":"corpach","steam_id":76561198150418268,"connected_time":1161000000000,"state":"active","ping":72},{"user_id":206,"name":"Ralser","steam_id":76561199038370433,"connected_time":2071000000000,"state":"active","ping":161},{"user_id":216,"name":"Frontier Psychiatrist","steam_id":76561198378587138,"connected_time":1159000000000,"state":"active","ping":105},{"user_id":207,"name":"„ÇØ„É¨„Ç™„É©","steam_id":76561198000830794,"connected_time":1883000000000,"state":"active","ping":100},{"user_id":220,"name":"Mister Mundy","steam_id":76561198145675134,"connected_time":239000000000,"state":"active","ping":58}]},{"server_id":14,"name":"Uncletopia | New York City | 2 | All Maps","name_short":"nyc-2","host":"nyc-1.us.uncletopia.com","port":27025,"enabled":true,"region":"us-east","cc":"us","latitude":40.73061,"longitude":-73.93524,"reserved":0,"last_update":"0001-01-01T00:00:00Z","name_a2s":"Uncletopia | New York City | 2 | All Maps","protocol":17,"map":"cp_snakewater_final1","folder":"tf","game":"Team Fortress","app_id":440,"player_count":0,"max_players":24,"Bots":0,"server_type":"Dedicated","server_os":"Linux","password":true,"vac":true,"version":"7757534","steam_id":85568392924469994,"keywords":["cp","nocrits","nodmgspread","uncletopia"],"game_id":440,"stv_port":27026,"stv_name":"Uncletopia | New York City | 2 | All Maps | STV","players":null},{"server_id":15,"name":"Uncletopia | New York City | 3 | Stopwatch Beta","name_short":"nyc-3","host":"nyc-1.us.uncletopia.com","port":27035,"enabled":true,"region":"us-east","cc":"us","latitude":40.73061,"longitude":-73.93524,"reserved":0,"last_update":"0001-01-01T00:00:00Z","name_a2s":"Uncletopia | New York City | 3 | Stopwatch Beta","protocol":17,"map":"pl_upward","folder":"tf","game":"Team Fortress","app_id":440,"player_count":0,"max_players":24,"Bots":0,"server_type":"Dedicated","server_os":"Linux","password":true,"vac":true,"version":"7757534","steam_id":85568392924742820,"keywords":["nocrits","nodmgspread","payload","uncletopia"],"game_id":440,"stv_port":27036,"stv_name":"Uncletopia | New York City | 3 | Stopwatch Beta | STV","players":null},{"server_id":16,"name":"Uncletopia | New York City | 4 | Community","name_short":"nyc-4","host":"nyc-1.us.uncletopia.com","port":27045,"enabled":true,"region":"us-east","cc":"us","latitude":40.73061,"longitude":-73.93524,"reserved":0,"last_update":"0001-01-01T00:00:00Z","name_a2s":"Uncletopia | New York City | 4 | Community","protocol":17,"map":"workshop/koth_ashville_final.ugc2130459942","folder":"tf","game":"Team Fortress","app_id":440,"player_count":2,"max_players":24,"Bots":0,"server_type":"Dedicated","server_os":"Linux","password":true,"vac":true,"version":"7757534","steam_id":85568392924742821,"keywords":["cp","nocrits","nodmgspread","uncletopia"],"game_id":440,"stv_port":27046,"stv_name":"Uncletopia | New York City | 4 | Community | STV","players":[{"user_id":17,"name":"The Gremlin","steam_id":76561198419066993,"connected_time":382000000000,"state":"active","ping":116},{"user_id":18,"name":"THE LOATHSOME DUNG EATER","steam_id":76561198805375543,"connected_time":311000000000,"state":"active","ping":126}]},{"server_id":142,"name":"Uncletopia | S√£o Paulo | 1 | All Maps","name_short":"sao-1","host":"sao-1.br.uncletopia.com","port":27015,"enabled":true,"region":"sa","cc":"br","latitude":-23.533773,"longitude":-46.62529,"reserved":0,"last_update":"0001-01-01T00:00:00Z","name_a2s":"Uncletopia | S√£o Paulo | 1 | All Maps","protocol":17,"map":"koth_viaduct","folder":"tf","game":"Team Fortress","app_id":440,"player_count":0,"max_players":24,"Bots":0,"server_type":"Dedicated","server_os":"Linux","password":true,"vac":true,"version":"7757534","steam_id":85568392924469996,"keywords":["cp","nocrits","nodmgspread","uncletopia"],"game_id":440,"stv_port":27016,"stv_name":"Uncletopia | S√£o Paulo | 1 | All Maps | STV","players":null},{"server_id":143,"name":"Uncletopia | S√£o Paulo | 2 | All Maps","name_short":"sao-2","host":"sao-2.br.uncletopia.com","port":27015,"enabled":true,"region":"sa","cc":"br","latitude":-23.533773,"longitude":-46.62529,"reserved":0,"last_update":"0001-01-01T00:00:00Z","name_a2s":"Uncletopia | S√£o Paulo | 2 | All Maps","protocol":17,"map":"pl_borneo","folder":"tf","game":"Team Fortress","app_id":440,"player_count":0,"max_players":24,"Bots":0,"server_type":"Dedicated","server_os":"Linux","password":true,"vac":true,"version":"7757534","steam_id":85568392924485349,"keywords":["nocrits","nodmgspread","payload","uncletopia"],"game_id":440,"stv_port":27016,"stv_name":"Uncletopia | S√£o Paulo | 2 | All Maps | STV","players":null},{"server_id":7,"name":"Uncletopia | Seattle | 1 | All Maps","name_short":"sea-1","host":"sea-1.us.uncletopia.com","port":27015,"enabled":true,"region":"us-west","cc":"us","latitude":47.608013,"longitude":-122.33517,"reserved":0,"last_update":"0001-01-01T00:00:00Z","name_a2s":"Uncletopia | Seattle | 1 | All Maps","protocol":17,"map":"pl_swiftwater_final1","folder":"tf","game":"Team Fortress","app_id":440,"player_count":24,"max_players":24,"Bots":0,"server_type":"Dedicated","server_os":"Linux","password":true,"vac":true,"version":"7757534","steam_id":85568392924469997,"keywords":["nocrits","nodmgspread","payload","uncletopia"],"game_id":440,"stv_port":27016,"stv_name":"Uncletopia | Seattle | 1 | All Maps | STV","players":[{"user_id":230,"name":"Deltaco","steam_id":76561198094572694,"connected_time":1703000000000,"state":"active","ping":158},{"user_id":244,"name":"Why am I the only person who","steam_id":76561198139634916,"connected_time":420000000000,"state":"active","ping":37},{"user_id":185,"name":"RC Cola ¬Æ","steam_id":76561198165074941,"connected_time":3612000000000,"state":"active","ping":78},{"user_id":235,"name":"dust | she/it","steam_id":76561198045218909,"connected_time":466000000000,"state":"active","ping":44},{"user_id":219,"name":"Vortiger","steam_id":76561198275813176,"connected_time":2007000000000,"state":"active","ping":73},{"user_id":238,"name":"Willy Wonker","steam_id":76561198082944789,"connected_time":454000000000,"state":"active","ping":77},{"user_id":138,"name":"Treekincko","steam_id":76561198047995911,"connected_time":6781000000000,"state":"active","ping":50},{"user_id":220,"name":"daBigBoss","steam_id":76561198120428029,"connected_time":1993000000000,"state":"active","ping":73},{"user_id":211,"name":"Rango","steam_id":76561198067275912,"connected_time":2934000000000,"state":"active","ping":98},{"user_id":214,"name":"THIRDWORLDS","steam_id":76561198212421513,"connected_time":2374000000000,"state":"active","ping":72},{"user_id":240,"name":"Literal Vampire Potbelly Goblin","steam_id":76561197970527356,"connected_time":449000000000,"state":"active","ping":64},{"user_id":242,"name":"yup (muted)","steam_id":76561199190800520,"connected_time":439000000000,"state":"active","ping":41},{"user_id":236,"name":"mrselfdestruct13","steam_id":76561197992054553,"connected_time":463000000000,"state":"active","ping":71},{"user_id":222,"name":"Chicanery","steam_id":76561198977589038,"connected_time":1912000000000,"state":"active","ping":105},{"user_id":179,"name":"Highground","steam_id":76561199197544789,"connected_time":3861000000000,"state":"active","ping":174},{"user_id":237,"name":"The Pepsi¬Æ Superbowl¬Æ!","steam_id":76561198080828981,"connected_time":462000000000,"state":"active","ping":73},{"user_id":206,"name":"Shwee","steam_id":76561199439625082,"connected_time":3239000000000,"state":"active","ping":101},{"user_id":232,"name":"Brain Magic","steam_id":76561198010201477,"connected_time":1266000000000,"state":"active","ping":85},{"user_id":210,"name":"joe rippa","steam_id":76561198170402666,"connected_time":3105000000000,"state":"active","ping":69},{"user_id":224,"name":"DRAGONGG","steam_id":76561199413142768,"connected_time":1890000000000,"state":"active","ping":148},{"user_id":243,"name":"kn0n1894","steam_id":76561198249172818,"connected_time":433000000000,"state":"active","ping":102},{"user_id":239,"name":"The Law","steam_id":76561198202209948,"connected_time":451000000000,"state":"active","ping":90},{"user_id":246,"name":"Waffle Wannabe","steam_id":76561198064510650,"connected_time":71000000000,"state":"active","ping":107},{"user_id":241,"name":"Owl of Delos","steam_id":76561198437116566,"connected_time":449000000000,"state":"active","ping":68}]},{"server_id":119,"name":"Uncletopia | Seattle | 2 | All Maps","name_short":"sea-2","host":"sea-1.us.uncletopia.com","port":27025,"enabled":true,"region":"us-west","cc":"us","latitude":47.608013,"longitude":-122.33517,"reserved":0,"last_update":"0001-01-01T00:00:00Z","name_a2s":"Uncletopia | Seattle | 2 | All Maps","protocol":17,"map":"pl_badwater","folder":"tf","game":"Team Fortress","app_id":440,"player_count":0,"max_players":24,"Bots":0,"server_type":"Dedicated","server_os":"Linux","password":true,"vac":true,"version":"7757534","steam_id":85568392924469998,"keywords":["nocrits","nodmgspread","payload","uncletopia"],"game_id":440,"stv_port":27026,"stv_name":"Uncletopia | Seattle | 2 | All Maps | STV","players":null},{"server_id":406,"name":"Uncletopia | Seattle | 3 | Stopwatch Beta","name_short":"sea-3","host":"sea-1.us.uncletopia.com","port":27035,"enabled":true,"region":"us-west","cc":"us","latitude":47.608013,"longitude":-122.33517,"reserved":0,"last_update":"0001-01-01T00:00:00Z","name_a2s":"Uncletopia | Seattle | 3 | Stopwatch Beta","protocol":17,"map":"cp_dustbowl","folder":"tf","game":"Team Fortress","app_id":440,"player_count":0,"max_players":24,"Bots":0,"server_type":"Dedicated","server_os":"Linux","password":true,"vac":true,"version":"7757534","steam_id":85568392924515217,"keywords":["cp","nocrits","nodmgspread","uncletopia"],"game_id":440,"stv_port":27036,"stv_name":"Uncletopia | Seattle | 3 | Stopwatch Beta | STV","players":null},{"server_id":17,"name":"Uncletopia | San Francisco | 1 | All Maps","name_short":"sfo-1","host":"sfo-1.us.uncletopia.com","port":27015,"enabled":true,"region":"us-west","cc":"us","latitude":37.77397,"longitude":-122.4313,"reserved":0,"last_update":"0001-01-01T00:00:00Z","name_a2s":"Uncletopia | San Francisco | 1 | All Maps","protocol":17,"map":"koth_cascade","folder":"tf","game":"Team Fortress","app_id":440,"player_count":1,"max_players":24,"Bots":0,"server_type":"Dedicated","server_os":"Linux","password":true,"vac":true,"version":"7757534","steam_id":85568392924469999,"keywords":["cp","nocrits","nodmgspread","uncletopia"],"game_id":440,"stv_port":27016,"stv_name":"Uncletopia | San Francisco | 1 | All Maps | STV","players":[{"user_id":5,"name":"Hottodoggu","steam_id":76561198084080712,"connected_time":143000000000,"state":"active","ping":79}]},{"server_id":18,"name":"Uncletopia | San Francisco | 2 | All Maps","name_short":"sfo-2","host":"sfo-1.us.uncletopia.com","port":27025,"enabled":true,"region":"us-west","cc":"us","latitude":37.77397,"longitude":-122.4313,"reserved":0,"last_update":"0001-01-01T00:00:00Z","name_a2s":"Uncletopia | San Francisco | 2 | All Maps","protocol":17,"map":"koth_highpass","folder":"tf","game":"Team Fortress","app_id":440,"player_count":0,"max_players":24,"Bots":0,"server_type":"Dedicated","server_os":"Linux","password":true,"vac":true,"version":"7757534","steam_id":85568392924470000,"keywords":["cp","nocrits","nodmgspread","uncletopia"],"game_id":440,"stv_port":27026,"stv_name":"Uncletopia | San Francisco | 2 | All Maps | STV","players":null},{"server_id":19,"name":"Uncletopia | San Francisco | 3 | Stopwatch Beta","name_short":"sfo-3","host":"sfo-1.us.uncletopia.com","port":27035,"enabled":true,"region":"us-west","cc":"us","latitude":37.77397,"longitude":-122.4313,"reserved":0,"last_update":"0001-01-01T00:00:00Z","name_a2s":"Uncletopia | San Francisco | 3 | Stopwatch Beta","protocol":17,"map":"koth_lakeside_final","folder":"tf","game":"Team Fortress","app_id":440,"player_count":0,"max_players":24,"Bots":0,"server_type":"Dedicated","server_os":"Linux","password":true,"vac":true,"version":"7757534","steam_id":85568392924742824,"keywords":["cp","nocrits","nodmgspread","uncletopia"],"game_id":440,"stv_port":27036,"stv_name":"Uncletopia | San Francisco | 3 | Stopwatch Beta | STV","players":null},{"server_id":20,"name":"Uncletopia | San Francisco | 4 | Community","name_short":"sfo-4","host":"sfo-1.us.uncletopia.com","port":27045,"enabled":true,"region":"us-west","cc":"us","latitude":37.77397,"longitude":-122.4313,"reserved":0,"last_update":"0001-01-01T00:00:00Z","name_a2s":"Uncletopia | San Francisco | 4 | Community","protocol":17,"map":"workshop/cp_indulge.ugc528106646","folder":"tf","game":"Team Fortress","app_id":440,"player_count":0,"max_players":24,"Bots":0,"server_type":"Dedicated","server_os":"Linux","password":true,"vac":true,"version":"7757534","steam_id":85568392924742826,"keywords":["cp","nocrits","nodmgspread","uncletopia"],"game_id":440,"stv_port":27046,"stv_name":"Uncletopia | San Francisco | 4 | Community | STV","players":null},{"server_id":141,"name":"Uncletopia | Sydney | 1 | All Maps","name_short":"syd-1","host":"syd-1.au.uncletopia.com","port":27015,"enabled":true,"region":"au","cc":"au","latitude":-33.865143,"longitude":151.2099,"reserved":0,"last_update":"0001-01-01T00:00:00Z","name_a2s":"Uncletopia | Sydney | 1 | All Maps","protocol":17,"map":"koth_cascade","folder":"tf","game":"Team Fortress","app_id":440,"player_count":0,"max_players":24,"Bots":0,"server_type":"Dedicated","server_os":"Linux","password":true,"vac":true,"version":"7757534","steam_id":85568392924470001,"keywords":["cp","nocrits","nodmgspread","uncletopia"],"game_id":440,"stv_port":27016,"stv_name":"Uncletopia | Sydney | 1 | All Maps | STV","players":null},{"server_id":123,"name":"Uncletopia | Sydney | 2 | All Maps","name_short":"syd-2","host":"syd-1.au.uncletopia.com","port":27025,"enabled":true,"region":"au","cc":"au","latitude":-33.865143,"longitude":151.2099,"reserved":0,"last_update":"0001-01-01T00:00:00Z","name_a2s":"Uncletopia | Sydney | 2 | All Maps","protocol":17,"map":"plr_hightower","folder":"tf","game":"Team Fortress","app_id":440,"player_count":0,"max_players":24,"Bots":0,"server_type":"Dedicated","server_os":"Linux","password":true,"vac":true,"version":"7757534","steam_id":85568392924470002,"keywords":["nocrits","nodmgspread","payload","uncletopia"],"game_id":440,"stv_port":27026,"stv_name":"Uncletopia | Sydney | 2 | All Maps | STV","players":null},{"server_id":395,"name":"Uncletopia | Sydney | 3 | All Maps","name_short":"syd-3","host":"syd-1.au.uncletopia.com","port":27035,"enabled":true,"region":"au","cc":"au","latitude":-33.865143,"longitude":151.2099,"reserved":0,"last_update":"0001-01-01T00:00:00Z","name_a2s":"Uncletopia | Sydney | 3 | All Maps","protocol":17,"map":"koth_viaduct","folder":"tf","game":"Team Fortress","app_id":440,"player_count":0,"max_players":24,"Bots":0,"server_type":"Dedicated","server_os":"Linux","password":true,"vac":true,"version":"7757534","steam_id":85568392925194467,"keywords":["cp","nocrits","nodmgspread","uncletopia"],"game_id":440,"stv_port":27036,"stv_name":"Uncletopia | Sydney | 3 | All Maps | STV","players":null},{"server_id":396,"name":"Uncletopia | Sydney | 4 | All Maps","name_short":"syd-4","host":"syd-1.au.uncletopia.com","port":27045,"enabled":true,"region":"au","cc":"au","latitude":-33.865143,"longitude":151.2099,"reserved":0,"last_update":"0001-01-01T00:00:00Z","name_a2s":"Uncletopia | Sydney | 4 | All Maps","protocol":17,"map":"koth_cascade","folder":"tf","game":"Team Fortress","app_id":440,"player_count":0,"max_players":24,"Bots":0,"server_type":"Dedicated","server_os":"Linux","password":true,"vac":true,"version":"7757534","steam_id":85568392925397958,"keywords":["cp","nocrits","nodmgspread","uncletopia"],"game_id":440,"stv_port":27046,"stv_name":"Uncletopia | Sydney | 4 | All Maps | STV","players":null},{"server_id":58,"name":"Uncletopia | Sydney | 5 | Stopwatch Beta","name_short":"syd-5","host":"syd-1.au.uncletopia.com","port":27055,"enabled":true,"region":"au","cc":"au","latitude":-33.865143,"longitude":151.2099,"reserved":0,"last_update":"0001-01-01T00:00:00Z","name_a2s":"Uncletopia | Sydney | 5 | Stopwatch Beta","protocol":17,"map":"workshop/koth_product_final.ugc454272353","folder":"tf","game":"Team Fortress","app_id":440,"player_count":0,"max_players":24,"Bots":0,"server_type":"Dedicated","server_os":"Linux","password":true,"vac":true,"version":"7757534","steam_id":85568392925397959,"keywords":["cp","nocrits","nodmgspread","uncletopia"],"game_id":440,"stv_port":27056,"stv_name":"Uncletopia | Sydney | 5 | Stopwatch Beta | STV","players":null},{"server_id":59,"name":"Uncletopia | Sydney | 6 | Community","name_short":"syd-6","host":"syd-1.au.uncletopia.com","port":27065,"enabled":true,"region":"au","cc":"au","latitude":-33.865143,"longitude":151.2099,"reserved":0,"last_update":"0001-01-01T00:00:00Z","name_a2s":"Uncletopia | Sydney | 6 | Community","protocol":17,"map":"workshop/pl_corrode_rc2.ugc546577989","folder":"tf","game":"Team Fortress","app_id":440,"player_count":0,"max_players":24,"Bots":0,"server_type":"Dedicated","server_os":"Linux","password":true,"vac":true,"version":"7757534","steam_id":85568392925397960,"keywords":["nocrits","nodmgspread","payload","uncletopia"],"game_id":440,"stv_port":27066,"stv_name":"Uncletopia | Sydney | 6 | Community | STV","players":null},{"server_id":49,"name":"Uncletopia | Warsaw | 1 | All Maps","name_short":"waw-1","host":"waw-1.pl.uncletopia.com","port":27015,"enabled":true,"region":"eu","cc":"pl","latitude":52.2297,"longitude":21.017532,"reserved":0,"last_update":"0001-01-01T00:00:00Z","name_a2s":"","protocol":0,"map":"","folder":"","game":"","app_id":0,"player_count":0,"max_players":0,"Bots":0,"server_type":"","server_os":"","password":false,"vac":false,"version":"","steam_id":0,"keywords":null,"game_id":0,"stv_port":0,"stv_name":"","players":null},{"server_id":50,"name":"Uncletopia | Warsaw | 2 | All Maps","name_short":"waw-2","host":"waw-1.pl.uncletopia.com","port":27025,"enabled":true,"region":"eu","cc":"pl","latitude":52.2297,"longitude":21.017532,"reserved":0,"last_update":"0001-01-01T00:00:00Z","name_a2s":"Uncletopia | Warsaw | 2 | All Maps","protocol":17,"map":"koth_viaduct","folder":"tf","game":"Team Fortress","app_id":440,"player_count":0,"max_players":24,"Bots":0,"server_type":"Dedicated","server_os":"Linux","password":true,"vac":true,"version":"7757534","steam_id":85568392925397851,"keywords":["cp","nocrits","nodmgspread","uncletopia"],"game_id":440,"stv_port":27026,"stv_name":"Uncletopia | Warsaw | 2 | All Maps | STV","players":null},{"server_id":51,"name":"Uncletopia | Warsaw | 3 | All Maps","name_short":"waw-3","host":"waw-1.pl.uncletopia.com","port":27035,"enabled":true,"region":"eu","cc":"pl","latitude":52.2297,"longitude":21.017532,"reserved":0,"last_update":"0001-01-01T00:00:00Z","name_a2s":"Uncletopia | Warsaw | 3 | All Maps","protocol":17,"map":"pl_swiftwater_final1","folder":"tf","game":"Team Fortress","app_id":440,"player_count":0,"max_players":24,"Bots":0,"server_type":"Dedicated","server_os":"Linux","password":true,"vac":true,"version":"7757534","steam_id":85568392925397852,"keywords":["nocrits","nodmgspread","payload","uncletopia"],"game_id":440,"stv_port":27036,"stv_name":"Uncletopia | Warsaw | 3 | All Maps | STV","players":null},{"server_id":52,"name":"Uncletopia | Warsaw | 4 | All Maps","name_short":"waw-4","host":"waw-1.pl.uncletopia.com","port":27045,"enabled":true,"region":"eu","cc":"pl","latitude":52.2297,"longitude":21.017532,"reserved":0,"last_update":"0001-01-01T00:00:00Z","name_a2s":"Uncletopia | Warsaw | 4 | All Maps","protocol":17,"map":"koth_lakeside_final","folder":"tf","game":"Team Fortress","app_id":440,"player_count":0,"max_players":24,"Bots":0,"server_type":"Dedicated","server_os":"Linux","password":true,"vac":true,"version":"7757534","steam_id":85568392925397853,"keywords":["cp","nocrits","nodmgspread","uncletopia"],"game_id":440,"stv_port":27046,"stv_name":"Uncletopia | Warsaw | 4 | All Maps | STV","players":null},{"server_id":53,"name":"Uncletopia | Warsaw | 5 | Stopwatch Beta","name_short":"waw-5","host":"waw-1.pl.uncletopia.com","port":27055,"enabled":true,"region":"eu","cc":"pl","latitude":52.2297,"longitude":21.017532,"reserved":0,"last_update":"0001-01-01T00:00:00Z","name_a2s":"Uncletopia | Warsaw | 5 | Stopwatch Beta","protocol":17,"map":"pl_borneo","folder":"tf","game":"Team Fortress","app_id":440,"player_count":0,"max_players":24,"Bots":0,"server_type":"Dedicated","server_os":"Linux","password":true,"vac":true,"version":"7757534","steam_id":85568392925397854,"keywords":["nocrits","nodmgspread","payload","uncletopia"],"game_id":440,"stv_port":27056,"stv_name":"Uncletopia | Warsaw | 5 | Stopwatch Beta | STV","players":null},{"server_id":54,"name":"Uncletopia | Warsaw | 6 | Community","name_short":"waw-6","host":"waw-1.pl.uncletopia.com","port":27065,"enabled":true,"region":"eu","cc":"pl","latitude":52.2297,"longitude":21.017532,"reserved":0,"last_update":"0001-01-01T00:00:00Z","name_a2s":"Uncletopia | Warsaw | 6 | Community","protocol":17,"map":"koth_lakeside_final","folder":"tf","game":"Team Fortress","app_id":440,"player_count":0,"max_players":24,"Bots":0,"server_type":"Dedicated","server_os":"Linux","password":true,"vac":true,"version":"7757534","steam_id":85568392925397856,"keywords":["cp","nocrits","nodmgspread","uncletopia"],"game_id":440,"stv_port":27066,"stv_name":"Uncletopia | Warsaw | 6 | Community | STV","players":null}]}