{"status":true,"message":"","result":[{"server_id":9,"name":"Uncletopia | Atlanta | 1 | All Maps","name_short":"atl-1","host":"atl-1.us.uncletopia.com","port":27015,"enabled":true,"region":"us-east","cc":"us","latitude":33.753746,"longitude":-84.38633,"reserved":0,"last_update":"0001-01-01T00:00:00Z","name_a2s":"Uncletopia | Atlanta | 1 | All Maps","protocol":17,"map":"pl_frontier_final","folder":"tf","game":"Team Fortress","app_id":440,"player_count":24,"max_players":24,"Bots":0,"server_type":"Dedicated","server_os":"Linux","password":true,"vac":true,"version":"7961495","steam_id":85568392924469982,"keywords":["nocrits","nodmgspread","payload","uncletopia"],"game_id":440,"stv_port":27016,"stv_name":"Uncletopia | Atlanta | 1 | All Maps | STV","players":[{"user_id":248,"name":"Dabbledornk","steam_id":76561198065241300,"connected_time":240000000000,"state":"active","ping":51},{"user_id":224,"name":"PK","steam_id":76561198368722500,"connected_time":1433000000000,"state":"active","ping":74},{"user_id":244,"name":"Dr.Inkmix(femboy medic!)","steam_id":76561198854070384,"connected_time":427000000000,"state":"active","ping":115},{"user_id":223,"name":"logan","steam_id":76561198083063071,"connected_time":1440000000000,"state":"active","ping":43},{"user_id":245,"name":"TheRatBoi","steam_id":76561199123032506,"connected_time":381000000000,"state":"active","ping":88},{"user_id":242,"name":"Cat_Soldier","steam_id":76561198799974610,"connected_time":470000000000,"state":"active","ping":67},{"user_id":205,"name":"Amy Roxwell","steam_id":76561198303391830,"connected_time":2783000000000,"state":"active","ping":118},{"user_id":236,"name":"Lee-Ch","steam_id":76561198164980622,"connected_time":731000000000,"state":"active","ping":60},{"user_id":247,"name":"Robin","steam_id":76561198825412838,"connected_time":265000000000,"state":"active","ping":84},{"user_id":145,"name":"NeptuneÀñ‚Å∫ÔΩ°Àö‚ãÜÀô‚ô•","steam_id":76561199054203198,"connected_time":8684000000000,"state":"active","ping":70},{"user_id":246,"name":"iceetee","steam_id":76561198156275931,"connected_time":269000000000,"state":"active","ping":88},{"user_id":127,"name":"Young-OG","steam_id":76561198058800479,"connected_time":10045000000000,"state":"active","ping":61},{"user_id":193,"name":"wincel hampton","steam_id":76561198083095146,"connected_time":4253000000000,"state":"active","ping":60},{"user_id":199,"name":"Thotimus Begonimus","steam_id":76561197970275938,"connected_time":3267000000000,"state":"active","ping":61},{"user_id":243,"name":"[CTC] kooldan","steam_id":76561198136593625,"connected_time":438000000000,"state":"active","ping":61},{"user_id":222,"name":"Jin Gulilo","steam_id":76561198065151242,"connected_time":1481000000000,"state":"active","ping":72},{"user_id":213,"name":"zabloinkus","steam_id":76561198069967245,"connected_time":2508000000000,"state":"active","ping":110},{"user_id":190,"name":"JimmySquid","steam_id":76561198254242530,"connected_time":4301000000000,"state":"active","ping":97},{"user_id":197,"name":"vv","steam_id":76561198134813102,"connected_time":3782000000000,"state":"active","ping":77},{"user_id":249,"name":"Boone","steam_id":76561198398931575,"connected_time":233000000000,"state":"active","ping":129},{"user_id":182,"name":"xX_HimboSwallower_Xx","steam_id":76561198016029965,"connected_time":5659000000000,"state":"active","ping":60},{"user_id":180,"name":"Albino Jellyfish","steam_id":76561198208561097,"connected_time":5951000000000,"state":"active","ping":54},{"user_id":219,"name":"why","steam_id":76561199059732212,"connected_time":1626000000000,"state":"active","ping":54},{"user_id":234,"name":"Kc","steam_id":76561198210734407,"connected_time":1077000000000,"state":"active","ping":52}]},{"server_id":104,"name":"Uncletopia | Atlanta | 2 | All Maps","name_short":"atl-2","host":"atl-1.us.uncletopia.com","port":27025,"enabled":true,"region":"us-east","cc":"us","latitude":33.753746,"longitude":-84.38633,"reserved":0,"last_update":"0001-01-01T00:00:00Z","name_a2s":"Uncletopia | Atlanta | 2 | All Maps","protocol":17,"map":"koth_cascade","folder":"tf","game":"Team Fortress","app_id":440,"player_count":0,"max_players":24,"Bots":0,"server_type":"Dedicated","server_os":"Linux","password":true,"vac":true,"version":"7961495","steam_id":85568392924469983,"keywords":["cp","nocrits","nodmgspread","uncletopia"],"game_id":440,"stv_port":27026,"stv_name":"Uncletopia | Atlanta | 2 | All Maps | STV","players":null},{"server_id":400,"name":"Uncletopia | Atlanta | 3 | Stopwatch","name_short":"atl-3","host":"atl-1.us.uncletopia.com","port":27035,"enabled":true,"region":"us-east","cc":"us","latitude":33.753746,"longitude":-84.38633,"reserved":0,"last_update":"0001-01-01T00:00:00Z","name_a2s":"Uncletopia | Atlanta | 3 | Stopwatch","protocol":17,"map":"workshop/koth_ramjam_rc1.ugc459778887","folder":"tf","game":"Team Fortress","app_id":440,"player_count":0,"max_players":24,"Bots":0,"server_type":"Dedicated","server_os":"Linux","password":true,"vac":true,"version":"7961495","steam_id":85568392924515187,"keywords":["cp","nocrits","nodmgspread","uncletopia"],"game_id":440,"stv_port":27036,"stv_name":"Uncletopia | Atlanta | 3 | Stopwatch | STV","players":null},{"server_id":401,"name":"Uncletopia | Atlanta | 4 | Community","name_short":"atl-4","host":"atl-1.us.uncletopia.com","port":27045,"enabled":true,"region":"us-east","cc":"us","latitude":33.753746,"longitude":-84.38633,"reserved":0,"last_update":"0001-01-01T00:00:00Z","name_a2s":"Uncletopia | Atlanta | 4 | Community","protocol":17,"map":"cp_sunshine","folder":"tf","game":"Team Fortress","app_id":440,"player_count":0,"max_players":24,"Bots":0,"server_type":"Dedicated","server_os":"Linux","password":true,"vac":true,"version":"7961495","steam_id":85568392924515188,"keywords":["cp","nocrits","nodmgspread","uncletopia"],"game_id":440,"stv_port":27046,"stv_name":"Uncletopia | Atlanta | 4 | Community | STV","players":null},{"server_id":2,"name":"Uncletopia | Chicago | 1 | All Maps","name_short":"chi-1","host":"chi-1.us.uncletopia.com","port":27015,"enabled":true,"region":"us-central","cc":"us","latitude":41.881832,"longitude":-87.62318,"reserved":0,"last_update":"0001-01-01T00:00:00Z","name_a2s":"Uncletopia | Chicago | 1 | All Maps","protocol":17,"map":"ctf_turbine","folder":"tf","game":"Team Fortress","app_id":440,"player_count":24,"max_players":24,"Bots":0,"server_type":"Dedicated","server_os":"Linux","password":true,"vac":true,"version":"7961495","steam_id":85568392924469984,"keywords":["ctf","nocrits","nodmgspread","uncletopia"],"game_id":440,"stv_port":27016,"stv_name":"Uncletopia | Chicago | 1 | All Maps | STV","players":[{"user_id":281,"name":"UnforeseenCabbages","steam_id":76561198079386608,"connected_time":237000000000,"state":"active","ping":83},{"user_id":282,"name":"Nexusuxen","steam_id":76561198117547131,"connected_time":219000000000,"state":"active","ping":62},{"user_id":251,"name":"agless","steam_id":76561198045248344,"connected_time":2219000000000,"state":"active","ping":56},{"user_id":262,"name":"Humwrecker","steam_id":76561199003607331,"connected_time":1495000000000,"state":"active","ping":105},{"user_id":274,"name":"Mossssssssss","steam_id":76561199122200727,"connected_time":903000000000,"state":"active","ping":68},{"user_id":237,"name":"Lost","steam_id":76561198025933206,"connected_time":3366000000000,"state":"active","ping":60},{"user_id":268,"name":"Lord_Manship","steam_id":76561198045168765,"connected_time":1122000000000,"state":"active","ping":82},{"user_id":252,"name":"Nestor","steam_id":76561198070782619,"connected_time":2010000000000,"state":"active","ping":55},{"user_id":283,"name":"astrobob911","steam_id":76561199099110654,"connected_time":204000000000,"state":"active","ping":69},{"user_id":165,"name":"Siz","steam_id":76561198072962154,"connected_time":7879000000000,"state":"active","ping":58},{"user_id":279,"name":"NeoWolf","steam_id":76561198144759784,"connected_time":329000000000,"state":"active","ping":97},{"user_id":246,"name":"Blackwing","steam_id":76561198225732032,"connected_time":2776000000000,"state":"active","ping":59},{"user_id":258,"name":"LesbianRobot","steam_id":76561199274191548,"connected_time":1786000000000,"state":"active","ping":85},{"user_id":130,"name":"Gangbang Venture Capitalist","steam_id":76561198188115438,"connected_time":10084000000000,"state":"active","ping":95},{"user_id":206,"name":"Bojangalo","steam_id":76561198058682640,"connected_time":5859000000000,"state":"active","ping":60},{"user_id":259,"name":"Gaming","steam_id":76561198107080532,"connected_time":1762000000000,"state":"active","ping":61},{"user_id":278,"name":"Likeia #Savetf2","steam_id":76561198005214207,"connected_time":352000000000,"state":"active","ping":62},{"user_id":273,"name":"Disco Fever","steam_id":76561198069532215,"connected_time":934000000000,"state":"active","ping":71},{"user_id":264,"name":"ROGUE-PLANET","steam_id":76561198116023052,"connected_time":1351000000000,"state":"active","ping":61},{"user_id":280,"name":"fudo myoo","steam_id":76561198456258164,"connected_time":319000000000,"state":"active","ping":68},{"user_id":247,"name":"MrPopcornMan","steam_id":76561198227950712,"connected_time":2558000000000,"state":"active","ping":49},{"user_id":226,"name":"mkl","steam_id":76561197986401685,"connected_time":4662000000000,"state":"active","ping":76},{"user_id":209,"name":"asimus","steam_id":76561199141433499,"connected_time":5733000000000,"state":"active","ping":108},{"user_id":284,"name":"TfTyn","steam_id":76561198856936151,"connected_time":163000000000,"state":"active","ping":130}]},{"server_id":106,"name":"Uncletopia | Chicago | 2 | All Maps","name_short":"chi-2","host":"chi-1.us.uncletopia.com","port":27025,"enabled":true,"region":"us-central","cc":"us","latitude":41.881832,"longitude":-87.62318,"reserved":0,"last_update":"0001-01-01T00:00:00Z","name_a2s":"Uncletopia | Chicago | 2 | All Maps","protocol":17,"map":"pl_swiftwater_final1","folder":"tf","game":"Team Fortress","app_id":440,"player_count":0,"max_players":24,"Bots":0,"server_type":"Dedicated","server_os":"Linux","password":true,"vac":true,"version":"7961495","steam_id":85568392924469985,"keywords":["nocrits","nodmgspread","payload","uncletopia"],"game_id":440,"stv_port":27026,"stv_name":"Uncletopia | Chicago | 2 | All Maps | STV","players":null},{"server_id":402,"name":"Uncletopia | Chicago | 3 | All Maps","name_short":"chi-3","host":"chi-1.us.uncletopia.com","port":27035,"enabled":true,"region":"us-central","cc":"us","latitude":41.881832,"longitude":-87.62318,"reserved":0,"last_update":"0001-01-01T00:00:00Z","name_a2s":"Uncletopia | Chicago | 3 | All Maps","protocol":17,"map":"cp_process_final","folder":"tf","game":"Team Fortress","app_id":440,"player_count":24,"max_players":24,"Bots":0,"server_type":"Dedicated","server_os":"Linux","password":true,"vac":true,"version":"7961495","steam_id":85568392924515191,"keywords":["cp","nocrits","nodmgspread","uncletopia"],"game_id":440,"stv_port":27036,"stv_name":"Uncletopia | Chicago | 3 | All Maps | STV","players":[{"user_id":5,"name":"stupid ape","steam_id":76561198350027075,"connected_time":5090000000000,"state":"active","ping":46},{"user_id":53,"name":"BunnyBlitz","steam_id":76561198165881112,"connected_time":363000000000,"state":"active","ping":83},{"user_id":58,"name":"BILLSHIRE FARMS","steam_id":76561198254216920,"connected_time":82000000000,"state":"active","ping":94},{"user_id":37,"name":"sunglasses","steam_id":76561198173747227,"connected_time":2806000000000,"state":"active","ping":54},{"user_id":15,"name":"Deez","steam_id":76561198155587897,"connected_time":3370000000000,"state":"active","ping":61},{"user_id":16,"name":"Bruh Bruh The Brah Brah","steam_id":76561198087482068,"connected_time":3330000000000,"state":"active","ping":50},{"user_id":17,"name":"nabla","steam_id":76561198066923067,"connected_time":3221000000000,"state":"active","ping":60},{"user_id":18,"name":"qki, Attorney at Law","steam_id":76561198056198168,"connected_time":3216000000000,"state":"active","ping":62},{"user_id":46,"name":"Toasterduds","steam_id":76561198163477584,"connected_time":1877000000000,"state":"active","ping":116},{"user_id":56,"name":"13 INCH TGIRL SCHLONG","steam_id":76561198122059018,"connected_time":243000000000,"state":"active","ping":45},{"user_id":21,"name":"MaineGameBoy","steam_id":76561198278698726,"connected_time":3137000000000,"state":"active","ping":83},{"user_id":44,"name":"ginosaurusx","steam_id":76561198410640142,"connected_time":2123000000000,"state":"active","ping":84},{"user_id":23,"name":"Brenda Delam","steam_id":76561198006983771,"connected_time":3117000000000,"state":"active","ping":81},{"user_id":25,"name":"Wilma","steam_id":76561198138420251,"connected_time":3019000000000,"state":"active","ping":65},{"user_id":47,"name":"Beebo, Son of Beebo","steam_id":76561198055948497,"connected_time":1802000000000,"state":"active","ping":54},{"user_id":43,"name":"Kayak","steam_id":76561198370429263,"connected_time":2205000000000,"state":"active","ping":96},{"user_id":51,"name":"A Puppy","steam_id":76561198828184456,"connected_time":690000000000,"state":"active","ping":61},{"user_id":49,"name":"Dr. Don. Wario M.D.","steam_id":76561198107259309,"connected_time":1669000000000,"state":"active","ping":60},{"user_id":57,"name":"Stevelonk","steam_id":76561198088224665,"connected_time":234000000000,"state":"active","ping":69},{"user_id":33,"name":"GamingJuice42","steam_id":76561198110469437,"connected_time":2892000000000,"state":"active","ping":57},{"user_id":39,"name":"Comfy!","steam_id":76561198008818346,"connected_time":2666000000000,"state":"active","ping":85},{"user_id":35,"name":"_Lusty_","steam_id":76561198876948142,"connected_time":2851000000000,"state":"active","ping":64},{"user_id":42,"name":"a","steam_id":76561198074209737,"connected_time":2410000000000,"state":"active","ping":60},{"user_id":55,"name":"freyjaaaaaaaaaaaaaaaaaaaaaaaaaa","steam_id":76561198249206656,"connected_time":301000000000,"state":"active","ping":61}]},{"server_id":403,"name":"Uncletopia | Chicago | 4 | All Maps","name_short":"chi-4","host":"chi-1.us.uncletopia.com","port":27045,"enabled":true,"region":"us-central","cc":"us","latitude":41.881832,"longitude":-87.62318,"reserved":0,"last_update":"0001-01-01T00:00:00Z","name_a2s":"Uncletopia | Chicago | 4 | All Maps","protocol":17,"map":"pl_badwater","folder":"tf","game":"Team Fortress","app_id":440,"player_count":24,"max_players":24,"Bots":0,"server_type":"Dedicated","server_os":"Linux","password":true,"vac":true,"version":"7961495","steam_id":85568392924515193,"keywords":["nocrits","nodmgspread","payload","uncletopia"],"game_id":440,"stv_port":27046,"stv_name":"Uncletopia | Chicago | 4 | All Maps | STV","players":[{"user_id":385,"name":"soona","steam_id":76561198127325351,"connected_time":1410000000000,"state":"active","ping":63},{"user_id":326,"name":"Jango","steam_id":76561198084589742,"connected_time":5964000000000,"state":"active","ping":78},{"user_id":382,"name":"Mogwr","steam_id":76561198124942972,"connected_time":2206000000000,"state":"active","ping":75},{"user_id":402,"name":"Crayfry","steam_id":76561198146525237,"connected_time":163000000000,"state":"active","ping":44},{"user_id":386,"name":"Stonks","steam_id":76561199490085068,"connected_time":1401000000000,"state":"active","ping":76},{"user_id":381,"name":"GreySweaterCat","steam_id":76561198351860293,"connected_time":2369000000000,"state":"active","ping":93},{"user_id":318,"name":"J O S H¬≥¬≤","steam_id":76561198122603779,"connected_time":6408000000000,"state":"active","ping":97},{"user_id":293,"name":"monstertimescary","steam_id":76561198079303767,"connected_time":7820000000000,"state":"active","ping":79},{"user_id":368,"name":"Yam Jazzy Jim","steam_id":76561198000788950,"connected_time":3307000000000,"state":"active","ping":60},{"user_id":387,"name":"FIREPOW ORIGINS","steam_id":76561198111259720,"connected_time":1386000000000,"state":"active","ping":69},{"user_id":243,"name":"Rornir","steam_id":76561198081829615,"connected_time":11118000000000,"state":"active","ping":39},{"user_id":395,"name":"jehdye","steam_id":76561198284388342,"connected_time":981000000000,"state":"active","ping":46},{"user_id":358,"name":"Waff00","steam_id":76561198848377100,"connected_time":4156000000000,"state":"active","ping":83},{"user_id":401,"name":"ZYNTERLINKED","steam_id":76561198241948526,"connected_time":233000000000,"state":"active","ping":60},{"user_id":399,"name":"Fentanyl76","steam_id":76561198043497451,"connected_time":359000000000,"state":"active","ping":46},{"user_id":376,"name":"Yopi","steam_id":76561198004298898,"connected_time":2820000000000,"state":"active","ping":119},{"user_id":372,"name":"Prsm","steam_id":76561198053344995,"connected_time":3237000000000,"state":"active","ping":60},{"user_id":403,"name":"Beef Wellington","steam_id":76561198049837377,"connected_time":161000000000,"state":"active","ping":49},{"user_id":369,"name":"LavenderSys","steam_id":76561198289106015,"connected_time":3288000000000,"state":"active","ping":86},{"user_id":231,"name":"ThatGamingKiwi","steam_id":76561199170522237,"connected_time":12232000000000,"state":"active","ping":77},{"user_id":374,"name":"ùëëùëúùëôùëù‚Ñéùëñùëõ.","steam_id":76561198294013916,"connected_time":3010000000000,"state":"active","ping":60},{"user_id":353,"name":"HollyBlocky","steam_id":76561198030156100,"connected_time":4450000000000,"state":"active","ping":68},{"user_id":397,"name":"Aztea","steam_id":76561198982089893,"connected_time":480000000000,"state":"active","ping":81},{"user_id":379,"name":"Little Skull Boi","steam_id":76561198093595888,"connected_time":2537000000000,"state":"active","ping":101}]},{"server_id":36,"name":"Uncletopia | Chicago | 5 | All Maps","name_short":"chi-5","host":"chi-2.us.uncletopia.com","port":27015,"enabled":true,"region":"us-central","cc":"us","latitude":41.881832,"longitude":-87.62318,"reserved":0,"last_update":"0001-01-01T00:00:00Z","name_a2s":"Uncletopia | Chicago | 5 | All Maps","protocol":17,"map":"koth_viaduct","folder":"tf","game":"Team Fortress","app_id":440,"player_count":0,"max_players":24,"Bots":0,"server_type":"Dedicated","server_os":"Linux","password":true,"vac":true,"version":"7961495","steam_id":85568392924866362,"keywords":["cp","nocrits","nodmgspread","uncletopia"],"game_id":440,"stv_port":27016,"stv_name":"Uncletopia | Chicago | 5 | All Maps | STV","players":null},{"server_id":37,"name":"Uncletopia | Chicago | 6 | All Maps","name_short":"chi-6","host":"chi-2.us.uncletopia.com","port":27025,"enabled":true,"region":"us-central","cc":"us","latitude":41.881832,"longitude":-87.62318,"reserved":0,"last_update":"0001-01-01T00:00:00Z","name_a2s":"Uncletopia | Chicago | 6 | All Maps","protocol":17,"map":"cp_snakewater_final1","folder":"tf","game":"Team Fortress","app_id":440,"player_count":0,"max_players":24,"Bots":0,"server_type":"Dedicated","server_os":"Linux","password":true,"vac":true,"version":"7961495","steam_id":85568392924866363,"keywords":["cp","nocrits","nodmgspread","uncletopia"],"game_id":440,"stv_port":27026,"stv_name":"Uncletopia | Chicago | 6 | All Maps | STV","players":null},{"server_id":38,"name":"Uncletopia | Chicago | 7 | Stopwatch","name_short":"chi-7","host":"chi-2.us.uncletopia.com","port":27035,"enabled":true,"region":"us-central","cc":"us","latitude":41.881832,"longitude":-87.62318,"reserved":0,"last_update":"0001-01-01T00:00:00Z","name_a2s":"Uncletopia | Chicago | 7 | Stopwatch","protocol":17,"map":"workshop/koth_clearcut_b15.ugc2107050255","folder":"tf","game":"Team Fortress","app_id":440,"player_count":0,"max_players":24,"Bots":0,"server_type":"Dedicated","server_os":"Linux","password":true,"vac":true,"version":"7961495","steam_id":85568392924866364,"keywords":["cp","nocrits","nodmgspread","uncletopia"],"game_id":440,"stv_port":27036,"stv_name":"Uncletopia | Chicago | 7 | Stopwatch | STV","players":null},{"server_id":39,"name":"Uncletopia | Chicago | 8 | Community","name_short":"chi-8","host":"chi-2.us.uncletopia.com","port":27045,"enabled":true,"region":"us-central","cc":"us","latitude":41.881832,"longitude":-87.62318,"reserved":0,"last_update":"0001-01-01T00:00:00Z","name_a2s":"Uncletopia | Chicago | 8 | Community","protocol":17,"map":"workshop/koth_kemptown_rc1.ugc767410655","folder":"tf","game":"Team Fortress","app_id":440,"player_count":0,"max_players":24,"Bots":0,"server_type":"Dedicated","server_os":"Linux","password":true,"vac":true,"version":"7961495","steam_id":85568392924866365,"keywords":["cp","nocrits","nodmgspread","uncletopia"],"game_id":440,"stv_port":27046,"stv_name":"Uncletopia | Chicago | 8 | Community | STV","players":null},{"server_id":8,"name":"Uncletopia | Dallas | 1 | All Maps","name_short":"dal-1","host":"dal-1.us.uncletopia.com","port":27015,"enabled":true,"region":"us-central","cc":"us","latitude":32.779167,"longitude":-96.80889,"reserved":0,"last_update":"0001-01-01T00:00:00Z","name_a2s":"Uncletopia | Dallas | 1 | All Maps","protocol":17,"map":"pl_upward","folder":"tf","game":"Team Fortress","app_id":440,"player_count":24,"max_players":24,"Bots":0,"server_type":"Dedicated","server_os":"Linux","password":true,"vac":true,"version":"7961495","steam_id":85568392924469986,"keywords":["nocrits","nodmgspread","payload","uncletopia"],"game_id":440,"stv_port":27016,"stv_name":"Uncletopia | Dallas | 1 | All Maps | STV","players":[{"user_id":89,"name":"hatchetax","steam_id":76561199013337543,"connected_time":2232000000000,"state":"active","ping":61},{"user_id":50,"name":"plink","steam_id":76561198057829889,"connected_time":5544000000000,"state":"active","ping":60},{"user_id":99,"name":"literally coping and seething","steam_id":76561198131567365,"connected_time":1769000000000,"state":"active","ping":82},{"user_id":100,"name":"Burnside Special","steam_id":76561198822221762,"connected_time":1761000000000,"state":"active","ping":94},{"user_id":68,"name":"god","steam_id":76561198278008225,"connected_time":3693000000000,"state":"active","ping":90},{"user_id":138,"name":"DrDefault","steam_id":76561197972494920,"connected_time":519000000000,"state":"active","ping":105},{"user_id":136,"name":"uzr","steam_id":76561198799343084,"connected_time":532000000000,"state":"active","ping":80},{"user_id":90,"name":"Drakon","steam_id":76561198078210822,"connected_time":2210000000000,"state":"active","ping":90},{"user_id":112,"name":"largefish","steam_id":76561198066215341,"connected_time":908000000000,"state":"active","ping":69},{"user_id":146,"name":"\u003eœâ\u003c","steam_id":76561198325980914,"connected_time":347000000000,"state":"active","ping":59},{"user_id":147,"name":"Kirby.exe","steam_id":76561198242714582,"connected_time":150000000000,"state":"active","ping":49},{"user_id":82,"name":"Op banana","steam_id":76561198303231451,"connected_time":2557000000000,"state":"active","ping":48},{"user_id":118,"name":"zinnk","steam_id":76561198092081825,"connected_time":829000000000,"state":"active","ping":86},{"user_id":51,"name":"cyren caster","steam_id":76561198204509499,"connected_time":5484000000000,"state":"active","ping":99},{"user_id":144,"name":"‚ò≠ French Lym","steam_id":76561198954876624,"connected_time":388000000000,"state":"active","ping":168},{"user_id":105,"name":"JNGthree","steam_id":76561198166002579,"connected_time":1439000000000,"state":"active","ping":71},{"user_id":113,"name":"balls","steam_id":76561198164619692,"connected_time":897000000000,"state":"active","ping":83},{"user_id":110,"name":"Vestuvian","steam_id":76561199007823355,"connected_time":924000000000,"state":"active","ping":66},{"user_id":116,"name":"KingSteve42","steam_id":76561198409455888,"connected_time":844000000000,"state":"active","ping":109},{"user_id":104,"name":"Rennsellaer","steam_id":76561198096207580,"connected_time":1646000000000,"state":"active","ping":80},{"user_id":107,"name":"Sizenberg","steam_id":76561198115842661,"connected_time":937000000000,"state":"active","ping":107},{"user_id":92,"name":"nobody","steam_id":76561198148059714,"connected_time":2195000000000,"state":"active","ping":86},{"user_id":123,"name":"Seymore Slutz","steam_id":76561198025796732,"connected_time":729000000000,"state":"active","ping":77},{"user_id":143,"name":"skoops","steam_id":76561198083276946,"connected_time":396000000000,"state":"active","ping":86}]},{"server_id":108,"name":"Uncletopia | Dallas | 2 | All Maps","name_short":"dal-2","host":"dal-1.us.uncletopia.com","port":27025,"enabled":true,"region":"us-central","cc":"us","latitude":32.779167,"longitude":-96.80889,"reserved":0,"last_update":"0001-01-01T00:00:00Z","name_a2s":"Uncletopia | Dallas | 2 | All Maps","protocol":17,"map":"pl_pier","folder":"tf","game":"Team Fortress","app_id":440,"player_count":0,"max_players":24,"Bots":0,"server_type":"Dedicated","server_os":"Linux","password":true,"vac":true,"version":"7961495","steam_id":85568392924469988,"keywords":["nocrits","nodmgspread","payload","uncletopia"],"game_id":440,"stv_port":27026,"stv_name":"Uncletopia | Dallas | 2 | All Maps | STV","players":null},{"server_id":404,"name":"Uncletopia | Dallas | 3 | All Maps","name_short":"dal-3","host":"dal-1.us.uncletopia.com","port":27035,"enabled":true,"region":"us-central","cc":"us","latitude":32.779167,"longitude":-96.80889,"reserved":0,"last_update":"0001-01-01T00:00:00Z","name_a2s":"Uncletopia | Dallas | 3 | All Maps","protocol":17,"map":"pl_badwater","folder":"tf","game":"Team Fortress","app_id":440,"player_count":0,"max_players":24,"Bots":0,"server_type":"Dedicated","server_os":"Linux","password":true,"vac":true,"version":"7961495","steam_id":85568392924515219,"keywords":["nocrits","nodmgspread","payload","uncletopia"],"game_id":440,"stv_port":27036,"stv_name":"Uncletopia | Dallas | 3 | All Maps | STV","players":null},{"server_id":405,"name":"Uncletopia | Dallas | 4 | Community","name_short":"dal-4","host":"dal-1.us.uncletopia.com","port":27045,"enabled":true,"region":"us-central","cc":"us","latitude":32.779167,"longitude":-96.80889,"reserved":0,"last_update":"0001-01-01T00:00:00Z","name_a2s":"Uncletopia | Dallas | 4 | Community","protocol":17,"map":"pl_pier","folder":"tf","game":"Team Fortress","app_id":440,"player_count":0,"max_players":24,"Bots":0,"server_type":"Dedicated","server_os":"Linux","password":true,"vac":true,"version":"7961495","steam_id":85568392924515220,"keywords":["nocrits","nodmgspread","payload","uncletopia"],"game_id":440,"stv_port":27046,"stv_name":"Uncletopia | Dallas | 4 | Community | STV","players":null},{"server_id":5,"name":"Uncletopia | Frankfurt | 1 | All Maps","name_short":"frk-1","host":"frk-1.de.uncletopia.com","port":27015,"enabled":true,"region":"eu","cc":"de","latitude":50.110924,"longitude":8.682127,"reserved":0,"last_update":"0001-01-01T00:00:00Z","name_a2s":"Uncletopia | Frankfurt | 1 | All Maps","protocol":17,"map":"pl_barnblitz","folder":"tf","game":"Team Fortress","app_id":440,"player_count":24,"max_players":24,"Bots":0,"server_type":"Dedicated","server_os":"Linux","password":true,"vac":true,"version":"7961495","steam_id":85568392924469989,"keywords":["nocrits","nodmgspread","payload","uncletopia"],"game_id":440,"stv_port":27016,"stv_name":"Uncletopia | Frankfurt | 1 | All Maps | STV","players":[{"user_id":431,"name":"Finem Belli","steam_id":76561198227177976,"connected_time":638000000000,"state":"active","ping":50},{"user_id":414,"name":"BallinScout","steam_id":76561198152443697,"connected_time":2039000000000,"state":"active","ping":65},{"user_id":268,"name":"Gaxkang","steam_id":76561198125768571,"connected_time":10909000000000,"state":"active","ping":69},{"user_id":423,"name":"Sir Sammie","steam_id":76561198329808137,"connected_time":1608000000000,"state":"active","ping":60},{"user_id":408,"name":"naist","steam_id":76561198058127952,"connected_time":2147000000000,"state":"active","ping":55},{"user_id":333,"name":"Sn1Ch","steam_id":76561198073076943,"connected_time":7537000000000,"state":"active","ping":86},{"user_id":429,"name":"Amoru","steam_id":76561198798161817,"connected_time":878000000000,"state":"active","ping":76},{"user_id":405,"name":"-LPD-Eldariub","steam_id":76561198039852722,"connected_time":2278000000000,"state":"active","ping":94},{"user_id":376,"name":"octopus","steam_id":76561199144235136,"connected_time":4893000000000,"state":"active","ping":80},{"user_id":435,"name":"astro","steam_id":76561198253700509,"connected_time":5000000000,"state":"spawning","ping":57},{"user_id":425,"name":"Fr0zt","steam_id":76561198353017137,"connected_time":1392000000000,"state":"active","ping":165},{"user_id":432,"name":"digilith","steam_id":76561199106966802,"connected_time":537000000000,"state":"active","ping":89},{"user_id":411,"name":"lucifer_on_vacation","steam_id":76561198088956059,"connected_time":2129000000000,"state":"active","ping":101},{"user_id":412,"name":"ddchdrn","steam_id":76561198024358566,"connected_time":2123000000000,"state":"active","ping":60},{"user_id":433,"name":"ufomaster1111111","steam_id":76561198837347666,"connected_time":360000000000,"state":"active","ping":58},{"user_id":328,"name":"‚ù§Speedbump‚ù§","steam_id":76561198388690313,"connected_time":7878000000000,"state":"active","ping":58},{"user_id":413,"name":"Loitsu","steam_id":76561198098177012,"connected_time":2113000000000,"state":"active","ping":103},{"user_id":415,"name":"Robert Rockets","steam_id":76561199407941086,"connected_time":2016000000000,"state":"active","ping":64},{"user_id":430,"name":"ok","steam_id":76561198320042443,"connected_time":854000000000,"state":"active","ping":98},{"user_id":427,"name":"Darfsterman #rustclash","steam_id":76561199004139305,"connected_time":1164000000000,"state":"active","ping":65},{"user_id":418,"name":"FoOzTV","steam_id":76561197998636728,"connected_time":1973000000000,"state":"active","ping":62},{"user_id":434,"name":"TJ1212","steam_id":76561199013575313,"connected_time":173000000000,"state":"active","ping":65},{"user_id":371,"name":"LeGerooo","steam_id":76561199110422160,"connected_time":5175000000000,"state":"active","ping":93},{"user_id":422,"name":"Haze","steam_id":76561197979781384,"connected_time":1651000000000,"state":"active","ping":94}]},{"server_id":110,"name":"Uncletopia | Frankfurt | 2 | All Maps","name_short":"frk-2","host":"frk-1.de.uncletopia.com","port":27025,"enabled":true,"region":"eu","cc":"de","latitude":50.110924,"longitude":8.682127,"reserved":0,"last_update":"0001-01-01T00:00:00Z","name_a2s":"Uncletopia | Frankfurt | 2 | All Maps","protocol":17,"map":"cp_snakewater_final1","folder":"tf","game":"Team Fortress","app_id":440,"player_count":21,"max_players":24,"Bots":0,"server_type":"Dedicated","server_os":"Linux","password":true,"vac":true,"version":"7961495","steam_id":85568392924469990,"keywords":["cp","nocrits","nodmgspread","uncletopia"],"game_id":440,"stv_port":27026,"stv_name":"Uncletopia | Frankfurt | 2 | All Maps | STV","players":[{"user_id":511,"name":"Elsuedi","steam_id":76561198074722832,"connected_time":25000000000,"state":"active","ping":53},{"user_id":502,"name":"Olekman","steam_id":76561198035446981,"connected_time":729000000000,"state":"active","ping":51},{"user_id":448,"name":"Ketich","steam_id":76561198021772703,"connected_time":3972000000000,"state":"active","ping":72},{"user_id":478,"name":"leminsc8","steam_id":76561198825084995,"connected_time":2457000000000,"state":"active","ping":43},{"user_id":499,"name":"Walle","steam_id":76561197995148937,"connected_time":866000000000,"state":"active","ping":59},{"user_id":510,"name":"3.5 Mefedron Plug","steam_id":76561198969473168,"connected_time":86000000000,"state":"active","ping":75},{"user_id":508,"name":"BL√ÖHAJ","steam_id":76561197996473698,"connected_time":293000000000,"state":"active","ping":105},{"user_id":495,"name":"Average meme enjoyer","steam_id":76561199087566663,"connected_time":1411000000000,"state":"active","ping":80},{"user_id":506,"name":"Weezbeck","steam_id":76561198163487467,"connected_time":495000000000,"state":"active","ping":72},{"user_id":393,"name":"Nespreco","steam_id":76561198252035336,"connected_time":7923000000000,"state":"active","ping":128},{"user_id":509,"name":"nappo","steam_id":76561198060105180,"connected_time":102000000000,"state":"active","ping":75},{"user_id":512,"name":"Lag","steam_id":76561198159360376,"connected_time":24000000000,"state":"active","ping":59},{"user_id":513,"name":"Cheshireycat","steam_id":76561198067204908,"connected_time":15000000000,"state":"active","ping":65},{"user_id":514,"name":"da-mi palme peste fund taticule","steam_id":76561198097507847,"connected_time":9000000000,"state":"active","ping":80},{"user_id":504,"name":"Yes","steam_id":76561198046729687,"connected_time":620000000000,"state":"active","ping":62},{"user_id":515,"name":"Joejee","steam_id":76561199122423976,"connected_time":8000000000,"state":"spawning","ping":68},{"user_id":472,"name":"Spoon ¬Ω","steam_id":76561198032696548,"connected_time":3123000000000,"state":"active","ping":72},{"user_id":493,"name":"Lil Gnome","steam_id":76561198053577503,"connected_time":1561000000000,"state":"active","ping":57},{"user_id":505,"name":"Pepegi","steam_id":76561198001230113,"connected_time":577000000000,"state":"active","ping":78},{"user_id":492,"name":"Flelis‚òÅ","steam_id":76561198065225852,"connected_time":1675000000000,"state":"active","ping":52},{"user_id":440,"name":"KFD","steam_id":76561198157183003,"connected_time":4227000000000,"state":"active","ping":75}]},{"server_id":308,"name":"Uncletopia | Frankfurt | 3 | All Maps","name_short":"frk-3","host":"frk-1.de.uncletopia.com","port":27035,"enabled":true,"region":"eu","cc":"de","latitude":50.110924,"longitude":8.682127,"reserved":0,"last_update":"0001-01-01T00:00:00Z","name_a2s":"Uncletopia | Frankfurt | 3 | All Maps","protocol":17,"map":"cp_mountainlab","folder":"tf","game":"Team Fortress","app_id":440,"player_count":21,"max_players":24,"Bots":0,"server_type":"Dedicated","server_os":"Linux","password":true,"vac":true,"version":"7961495","steam_id":85568392924504274,"keywords":["cp","nocrits","nodmgspread","uncletopia"],"game_id":440,"stv_port":27036,"stv_name":"Uncletopia | Frankfurt | 3 | All Maps | STV","players":[{"user_id":303,"name":"Amandus","steam_id":76561198036281079,"connected_time":1429000000000,"state":"active","ping":60},{"user_id":355,"name":"Kappa","steam_id":76561198089341471,"connected_time":122000000000,"state":"active","ping":63},{"user_id":283,"name":"cockroach","steam_id":76561198841841656,"connected_time":2489000000000,"state":"active","ping":63},{"user_id":286,"name":"Chad","steam_id":76561198170939811,"connected_time":2125000000000,"state":"active","ping":45},{"user_id":340,"name":"Lemon","steam_id":76561198188535947,"connected_time":500000000000,"state":"active","ping":70},{"user_id":357,"name":"Rice Lee","steam_id":76561198313734012,"connected_time":85000000000,"state":"active","ping":60},{"user_id":171,"name":"sticks","steam_id":76561198127099299,"connected_time":8894000000000,"state":"active","ping":49},{"user_id":358,"name":"p8ps","steam_id":76561199137042715,"connected_time":32000000000,"state":"active","ping":104},{"user_id":359,"name":"the lorax","steam_id":76561199180176442,"connected_time":16000000000,"state":"active","ping":63},{"user_id":353,"name":"NBlast","steam_id":76561197994904389,"connected_time":179000000000,"state":"active","ping":62},{"user_id":332,"name":"{TPF}Badaabing","steam_id":76561197996161449,"connected_time":696000000000,"state":"active","ping":54},{"user_id":276,"name":"‚ò≠TheDevilsEye‚ò≠","steam_id":76561198017379398,"connected_time":2875000000000,"state":"active","ping":73},{"user_id":223,"name":"Killbasa","steam_id":76561198064868400,"connected_time":5816000000000,"state":"active","ping":129},{"user_id":328,"name":"Crimson","steam_id":76561197987552332,"connected_time":747000000000,"state":"active","ping":41},{"user_id":294,"name":"mini kebab zombie","steam_id":76561198106778578,"connected_time":1894000000000,"state":"active","ping":152},{"user_id":258,"name":"h mana sou pou klanei","steam_id":76561198150728602,"connected_time":4165000000000,"state":"active","ping":81},{"user_id":321,"name":"Doctor Medic","steam_id":76561198100957443,"connected_time":1029000000000,"state":"active","ping":73},{"user_id":291,"name":"hermano de batalla","steam_id":76561198093073758,"connected_time":1996000000000,"state":"active","ping":70},{"user_id":301,"name":"Kn√∂sta","steam_id":76561198143422139,"connected_time":1513000000000,"state":"active","ping":103},{"user_id":320,"name":"random gaming","steam_id":76561198087970118,"connected_time":1038000000000,"state":"active","ping":63},{"user_id":244,"name":"Aku+","steam_id":76561198813782795,"connected_time":4794000000000,"state":"active","ping":73}]},{"server_id":309,"name":"Uncletopia | Frankfurt | 4 | All Maps","name_short":"frk-4","host":"frk-1.de.uncletopia.com","port":27045,"enabled":true,"region":"eu","cc":"de","latitude":50.110924,"longitude":8.682127,"reserved":0,"last_update":"0001-01-01T00:00:00Z","name_a2s":"Uncletopia | Frankfurt | 4 | All Maps","protocol":17,"map":"pl_rumford_event","folder":"tf","game":"Team Fortress","app_id":440,"player_count":12,"max_players":24,"Bots":0,"server_type":"Dedicated","server_os":"Linux","password":true,"vac":true,"version":"7961495","steam_id":85568392924504275,"keywords":["nocrits","nodmgspread","payload","uncletopia"],"game_id":440,"stv_port":27046,"stv_name":"Uncletopia | Frankfurt | 4 | All Maps | STV","players":[{"user_id":195,"name":"T/5. Cernuno [16th IR]","steam_id":76561197977897110,"connected_time":1572000000000,"state":"active","ping":75},{"user_id":187,"name":"Mister Minthey","steam_id":76561197997249321,"connected_time":2969000000000,"state":"active","ping":55},{"user_id":144,"name":"cl","steam_id":76561199436640904,"connected_time":5267000000000,"state":"active","ping":79},{"user_id":160,"name":"Unemployed Gaming","steam_id":76561198982674420,"connected_time":4894000000000,"state":"active","ping":63},{"user_id":225,"name":"Zerfesh","steam_id":76561198117534358,"connected_time":128000000000,"state":"active","ping":92},{"user_id":148,"name":"golfmastr","steam_id":76561198993144124,"connected_time":5203000000000,"state":"active","ping":66},{"user_id":197,"name":"The","steam_id":76561199378865926,"connected_time":1557000000000,"state":"active","ping":90},{"user_id":200,"name":"loremantes","steam_id":76561198013132313,"connected_time":1532000000000,"state":"active","ping":46},{"user_id":188,"name":"limbicsystem","steam_id":76561198025612680,"connected_time":2869000000000,"state":"active","ping":67},{"user_id":203,"name":"Cosmetic brain","steam_id":76561198055936410,"connected_time":1516000000000,"state":"active","ping":84},{"user_id":205,"name":"Kurt Beyber","steam_id":76561198047207247,"connected_time":1469000000000,"state":"active","ping":53},{"user_id":218,"name":"Your Local Pybro","steam_id":76561198801472157,"connected_time":471000000000,"state":"active","ping":43}]},{"server_id":310,"name":"Uncletopia | Frankfurt | 5 | All Maps","name_short":"frk-5","host":"frk-1.de.uncletopia.com","port":27055,"enabled":true,"region":"eu","cc":"de","latitude":50.110924,"longitude":8.682127,"reserved":0,"last_update":"0001-01-01T00:00:00Z","name_a2s":"Uncletopia | Frankfurt | 5 | All Maps","protocol":17,"map":"pl_swiftwater_final1","folder":"tf","game":"Team Fortress","app_id":440,"player_count":24,"max_players":24,"Bots":0,"server_type":"Dedicated","server_os":"Linux","password":true,"vac":true,"version":"7961495","steam_id":85568392924504277,"keywords":["nocrits","nodmgspread","payload","uncletopia"],"game_id":440,"stv_port":27056,"stv_name":"Uncletopia | Frankfurt | 5 | All Maps | STV","players":[{"user_id":71,"name":"Dr. Livesey","steam_id":76561198071049943,"connected_time":484000000000,"state":"active","ping":66},{"user_id":28,"name":"Von Leining","steam_id":76561198859983504,"connected_time":2261000000000,"state":"active","ping":53},{"user_id":22,"name":"collidescope","steam_id":76561198124175960,"connected_time":2646000000000,"state":"active","ping":88},{"user_id":68,"name":"weedwacker32","steam_id":76561198139026085,"connected_time":660000000000,"state":"active","ping":66},{"user_id":24,"name":"200beetles=Destroy - Bug POWER!","steam_id":76561198166574996,"connected_time":2624000000000,"state":"active","ping":131},{"user_id":40,"name":"Croc 2‚Ñ¢ for the playstation 1","steam_id":76561198093111986,"connected_time":1630000000000,"state":"active","ping":68},{"user_id":43,"name":"rizzed out the wazzoo","steam_id":76561198040482859,"connected_time":1616000000000,"state":"active","ping":62},{"user_id":64,"name":"moe rogan","steam_id":76561198043536092,"connected_time":1187000000000,"state":"active","ping":72},{"user_id":52,"name":"Moe Biden","steam_id":76561198129755592,"connected_time":1538000000000,"state":"active","ping":65},{"user_id":35,"name":"–®–∞–ø–∫–∞ #TF2Center","steam_id":76561198368792603,"connected_time":1848000000000,"state":"active","ping":64},{"user_id":69,"name":"Stabing spy","steam_id":76561198847888227,"connected_time":629000000000,"state":"active","ping":79},{"user_id":45,"name":"glass of drink","steam_id":76561198881074696,"connected_time":1604000000000,"state":"active","ping":89},{"user_id":39,"name":"koffei","steam_id":76561198065683178,"connected_time":1649000000000,"state":"active","ping":69},{"user_id":42,"name":"Stroz","steam_id":76561198146444213,"connected_time":1625000000000,"state":"active","ping":62},{"user_id":74,"name":"anabolic swag","steam_id":76561198214848887,"connected_time":425000000000,"state":"active","ping":63},{"user_id":49,"name":"Arttu1601","steam_id":76561198957109392,"connected_time":1560000000000,"state":"active","ping":86},{"user_id":48,"name":"KaruBiznjek","steam_id":76561198043898118,"connected_time":1572000000000,"state":"active","ping":111},{"user_id":75,"name":"NOne","steam_id":76561198002359947,"connected_time":338000000000,"state":"active","ping":76},{"user_id":51,"name":"Nicotintti","steam_id":76561198396574151,"connected_time":1554000000000,"state":"active","ping":85},{"user_id":59,"name":"Swagmaster","steam_id":76561198045828392,"connected_time":1366000000000,"state":"active","ping":66},{"user_id":77,"name":"‡ºº ‡∫àŸÑÕú‡∫à‡ºΩ","steam_id":76561198027166144,"connected_time":73000000000,"state":"active","ping":85},{"user_id":65,"name":"Qwerty","steam_id":76561198023525894,"connected_time":966000000000,"state":"active","ping":84},{"user_id":73,"name":"dre","steam_id":76561198252628006,"connected_time":459000000000,"state":"active","ping":57},{"user_id":63,"name":"dank pank","steam_id":76561198995052713,"connected_time":1314000000000,"state":"active","ping":75}]},{"server_id":311,"name":"Uncletopia | Frankfurt | 6 | All Maps","name_short":"frk-6","host":"frk-1.de.uncletopia.com","port":27065,"enabled":true,"region":"eu","cc":"de","latitude":50.110924,"longitude":8.682127,"reserved":0,"last_update":"0001-01-01T00:00:00Z","name_a2s":"Uncletopia | Frankfurt | 6 | All Maps","protocol":17,"map":"pl_thundermountain","folder":"tf","game":"Team Fortress","app_id":440,"player_count":24,"max_players":24,"Bots":0,"server_type":"Dedicated","server_os":"Linux","password":true,"vac":true,"version":"7961495","steam_id":85568392924504278,"keywords":["nocrits","nodmgspread","payload","uncletopia"],"game_id":440,"stv_port":27066,"stv_name":"Uncletopia | Frankfurt | 6 | All Maps | STV","players":[{"user_id":119,"name":"Pimpin' \u0026 Blimpin'","steam_id":76561198326776107,"connected_time":533000000000,"state":"active","ping":82},{"user_id":107,"name":"Frostlight","steam_id":76561198016360449,"connected_time":1387000000000,"state":"active","ping":75},{"user_id":82,"name":"stoppen","steam_id":76561197960281482,"connected_time":2597000000000,"state":"active","ping":75},{"user_id":108,"name":"Kinjiko","steam_id":76561199124619827,"connected_time":1241000000000,"state":"active","ping":72},{"user_id":112,"name":"Chad Bubba","steam_id":76561199121249554,"connected_time":1040000000000,"state":"active","ping":76},{"user_id":118,"name":"pretty dick peso","steam_id":76561198798177799,"connected_time":615000000000,"state":"active","ping":75},{"user_id":77,"name":"Cosmic Gamer","steam_id":76561198027357981,"connected_time":3045000000000,"state":"active","ping":90},{"user_id":94,"name":"PENGUN","steam_id":76561199015156956,"connected_time":1953000000000,"state":"active","ping":95},{"user_id":114,"name":"A stripper","steam_id":76561198034865891,"connected_time":678000000000,"state":"active","ping":58},{"user_id":95,"name":"AlFury1003","steam_id":76561198219881904,"connected_time":1949000000000,"state":"active","ping":148},{"user_id":105,"name":"LiterallyRyanGosling","steam_id":76561199017856691,"connected_time":1630000000000,"state":"active","ping":69},{"user_id":97,"name":"REN","steam_id":76561198000596385,"connected_time":1897000000000,"state":"active","ping":89},{"user_id":99,"name":"qwartz","steam_id":76561198057730291,"connected_time":1851000000000,"state":"active","ping":100},{"user_id":113,"name":"Carry Krypl","steam_id":76561198136938121,"connected_time":904000000000,"state":"active","ping":64},{"user_id":89,"name":"MaciekToGigachad","steam_id":76561199387550937,"connected_time":2133000000000,"state":"active","ping":53},{"user_id":100,"name":"Cookies and Bakies","steam_id":76561198017442928,"connected_time":1787000000000,"state":"active","ping":70},{"user_id":109,"name":"The CEO of Sex Inc.","steam_id":76561198385989487,"connected_time":1217000000000,"state":"active","ping":102},{"user_id":115,"name":"Egor Pomidor","steam_id":76561199175688390,"connected_time":656000000000,"state":"active","ping":76},{"user_id":102,"name":"Spoque","steam_id":76561197994448453,"connected_time":1758000000000,"state":"active","ping":70},{"user_id":121,"name":"Janfors","steam_id":76561198874152503,"connected_time":109000000000,"state":"active","ping":86},{"user_id":64,"name":"Virgil","steam_id":76561198248786778,"connected_time":3375000000000,"state":"active","ping":118},{"user_id":110,"name":"shr1mple","steam_id":76561198173537027,"connected_time":1201000000000,"state":"active","ping":43},{"user_id":79,"name":"benjaminmarkMLP","steam_id":76561198920361202,"connected_time":2882000000000,"state":"active","ping":142},{"user_id":87,"name":"KsawiDemon","steam_id":76561198855789287,"connected_time":2178000000000,"state":"active","ping":63}]},{"server_id":23,"name":"Uncletopia | Frankfurt | 7 | Stopwatch","name_short":"frk-7","host":"frk-1.de.uncletopia.com","port":27075,"enabled":true,"region":"eu","cc":"de","latitude":50.110924,"longitude":8.682127,"reserved":0,"last_update":"0001-01-01T00:00:00Z","name_a2s":"Uncletopia | Frankfurt | 7 | Stopwatch","protocol":17,"map":"workshop/pl_summercoast_rc8e.ugc1761528829","folder":"tf","game":"Team Fortress","app_id":440,"player_count":24,"max_players":24,"Bots":0,"server_type":"Dedicated","server_os":"Linux","password":true,"vac":true,"version":"7961495","steam_id":85568392924742827,"keywords":["nocrits","nodmgspread","payload","uncletopia"],"game_id":440,"stv_port":27076,"stv_name":"Uncletopia | Frankfurt | 7 | Stopwatch | STV","players":[{"user_id":597,"name":"Karlik","steam_id":76561198065860769,"connected_time":504000000000,"state":"active","ping":80},{"user_id":537,"name":"Kenny","steam_id":76561198994898206,"connected_time":3657000000000,"state":"active","ping":73},{"user_id":549,"name":"Luke","steam_id":76561198018495649,"connected_time":3198000000000,"state":"active","ping":66},{"user_id":593,"name":"kupak","steam_id":76561198043078996,"connected_time":718000000000,"state":"active","ping":75},{"user_id":562,"name":"ImInYourWalls","steam_id":76561198074257986,"connected_time":2466000000000,"state":"active","ping":71},{"user_id":594,"name":"Soulman25 (FIN)","steam_id":76561198103611974,"connected_time":683000000000,"state":"active","ping":83},{"user_id":585,"name":"dumbfuck","steam_id":76561198311044984,"connected_time":1212000000000,"state":"active","ping":63},{"user_id":576,"name":"PEPEGA GAMING","steam_id":76561198089975288,"connected_time":1838000000000,"state":"active","ping":77},{"user_id":566,"name":"joachym","steam_id":76561198428579761,"connected_time":2235000000000,"state":"active","ping":63},{"user_id":601,"name":"Bepis","steam_id":76561198139719533,"connected_time":359000000000,"state":"active","ping":69},{"user_id":577,"name":"pojkmodare","steam_id":76561198163615254,"connected_time":1838000000000,"state":"active","ping":60},{"user_id":527,"name":"KaasKrans","steam_id":76561198240451972,"connected_time":3925000000000,"state":"active","ping":61},{"user_id":586,"name":"bloodsvscrips2","steam_id":76561198138928548,"connected_time":1103000000000,"state":"active","ping":47},{"user_id":595,"name":"Topme","steam_id":76561198091734693,"connected_time":616000000000,"state":"active","ping":84},{"user_id":551,"name":"Snail","steam_id":76561198004806315,"connected_time":3148000000000,"state":"active","ping":103},{"user_id":575,"name":"haydar198112","steam_id":76561198131197590,"connected_time":1914000000000,"state":"active","ping":138},{"user_id":599,"name":"≈†tƒõp√°n","steam_id":76561198275742101,"connected_time":457000000000,"state":"active","ping":52},{"user_id":602,"name":"Sani","steam_id":76561198278976298,"connected_time":303000000000,"state":"active","ping":66},{"user_id":580,"name":":\u003e////:D\u003e_\u003c^^","steam_id":76561198280507478,"connected_time":1771000000000,"state":"active","ping":57},{"user_id":581,"name":"M√©bh √ìg MacT√≠re","steam_id":76561198346399624,"connected_time":1724000000000,"state":"active","ping":77},{"user_id":558,"name":"Hegyi tah√≥ F2P","steam_id":76561199219150356,"connected_time":2709000000000,"state":"active","ping":88},{"user_id":600,"name":"akakez","steam_id":76561198095432821,"connected_time":450000000000,"state":"active","ping":120},{"user_id":603,"name":"Snowy","steam_id":76561198169992461,"connected_time":63000000000,"state":"active","ping":190},{"user_id":588,"name":"Fourged","steam_id":76561198082830930,"connected_time":1038000000000,"state":"active","ping":72}]},{"server_id":24,"name":"Uncletopia | Frankfurt | 8 | Community","name_short":"frk-8","host":"frk-1.de.uncletopia.com","port":27085,"enabled":true,"region":"eu","cc":"de","latitude":50.110924,"longitude":8.682127,"reserved":0,"last_update":"0001-01-01T00:00:00Z","name_a2s":"Uncletopia | Frankfurt | 8 | Community","protocol":17,"map":"workshop/koth_product_final.ugc454272353","folder":"tf","game":"Team Fortress","app_id":440,"player_count":0,"max_players":24,"Bots":0,"server_type":"Dedicated","server_os":"Linux","password":true,"vac":true,"version":"7961495","steam_id":85568392924742828,"keywords":["cp","nocrits","nodmgspread","uncletopia"],"game_id":440,"stv_port":27086,"stv_name":"Uncletopia | Frankfurt | 8 | Community | STV","players":null},{"server_id":202,"name":"Uncletopia | Hong Kong | 1 | All Maps","name_short":"hgk-1","host":"hgk-1.hk.uncletopia.com","port":27015,"enabled":true,"region":"asia","cc":"hk","latitude":22.302711,"longitude":114.177216,"reserved":0,"last_update":"0001-01-01T00:00:00Z","name_a2s":"Uncletopia | Hong Kong | 1 | All Maps","protocol":17,"map":"koth_highpass","folder":"tf","game":"Team Fortress","app_id":440,"player_count":0,"max_players":24,"Bots":0,"server_type":"Dedicated","server_os":"Linux","password":true,"vac":true,"version":"7961495","steam_id":85568392924494504,"keywords":["cp","nocrits","nodmgspread","uncletopia"],"game_id":440,"stv_port":27016,"stv_name":"Uncletopia | Hong Kong | 1 | All Maps | STV","players":null},{"server_id":1,"name":"Uncletopia | Los Angeles | 1 | All Maps","name_short":"lax-1","host":"lax-1.us.uncletopia.com","port":27015,"enabled":true,"region":"us-west","cc":"us","latitude":33.94279,"longitude":-118.41004,"reserved":0,"last_update":"0001-01-01T00:00:00Z","name_a2s":"Uncletopia | Los Angeles | 1 | All Maps","protocol":17,"map":"pl_snowycoast","folder":"tf","game":"Team Fortress","app_id":440,"player_count":0,"max_players":24,"Bots":0,"server_type":"Dedicated","server_os":"Linux","password":true,"vac":true,"version":"7961495","steam_id":85568392924469991,"keywords":["nocrits","nodmgspread","payload","uncletopia"],"game_id":440,"stv_port":27016,"stv_name":"Uncletopia | Los Angeles | 1 | All Maps | STV","players":null},{"server_id":112,"name":"Uncletopia | Los Angeles | 2 | All Maps","name_short":"lax-2","host":"lax-1.us.uncletopia.com","port":27025,"enabled":true,"region":"us-west","cc":"us","latitude":33.94279,"longitude":-118.41004,"reserved":0,"last_update":"0001-01-01T00:00:00Z","name_a2s":"Uncletopia | Los Angeles | 2 | All Maps","protocol":17,"map":"cp_mountainlab","folder":"tf","game":"Team Fortress","app_id":440,"player_count":0,"max_players":24,"Bots":0,"server_type":"Dedicated","server_os":"Linux","password":true,"vac":true,"version":"7961495","steam_id":85568392924469992,"keywords":["cp","nocrits","nodmgspread","uncletopia"],"game_id":440,"stv_port":27026,"stv_name":"Uncletopia | Los Angeles | 2 | All Maps | STV","players":null},{"server_id":324,"name":"Uncletopia | Los Angeles | 3 | All Maps","name_short":"lax-3","host":"lax-1.us.uncletopia.com","port":27035,"enabled":true,"region":"us-west","cc":"us","latitude":33.94279,"longitude":-118.41004,"reserved":0,"last_update":"0001-01-01T00:00:00Z","name_a2s":"Uncletopia | Los Angeles | 3 | All Maps","protocol":17,"map":"pl_frontier_final","folder":"tf","game":"Team Fortress","app_id":440,"player_count":0,"max_players":24,"Bots":0,"server_type":"Dedicated","server_os":"Linux","password":true,"vac":true,"version":"7961495","steam_id":85568392924510198,"keywords":["nocrits","nodmgspread","payload","uncletopia"],"game_id":440,"stv_port":27036,"stv_name":"Uncletopia | Los Angeles | 3 | All Maps | STV","players":null},{"server_id":25,"name":"Uncletopia | Los Angeles | 4 | Stopwatch","name_short":"lax-4","host":"lax-1.us.uncletopia.com","port":27045,"enabled":true,"region":"us-west","cc":"us","latitude":33.94279,"longitude":-118.41004,"reserved":0,"last_update":"0001-01-01T00:00:00Z","name_a2s":"Uncletopia | Los Angeles | 4 | Stopwatch","protocol":17,"map":"pl_barnblitz","folder":"tf","game":"Team Fortress","app_id":440,"player_count":0,"max_players":24,"Bots":0,"server_type":"Dedicated","server_os":"Linux","password":true,"vac":true,"version":"7961495","steam_id":85568392924510199,"keywords":["nocrits","nodmgspread","payload","uncletopia"],"game_id":440,"stv_port":27046,"stv_name":"Uncletopia | Los Angeles | 4 | Stopwatch | STV","players":null},{"server_id":11,"name":"Uncletopia | London | 1 | All Maps","name_short":"lon-1","host":"lon-1.uk.uncletopia.com","port":27015,"enabled":true,"region":"eu","cc":"gb","latitude":51.509865,"longitude":-0.118092,"reserved":0,"last_update":"0001-01-01T00:00:00Z","name_a2s":"Uncletopia | London | 1 | All Maps","protocol":17,"map":"cp_process_final","folder":"tf","game":"Team Fortress","app_id":440,"player_count":25,"max_players":24,"Bots":0,"server_type":"Dedicated","server_os":"Linux","password":true,"vac":true,"version":"7961495","steam_id":85568392924367362,"keywords":["cp","nocrits","nodmgspread","uncletopia"],"game_id":440,"stv_port":27016,"stv_name":"Uncletopia | London | 1 | All Maps | STV","players":[{"user_id":498,"name":"SnareBreaker","steam_id":76561198854045058,"connected_time":4126000000000,"state":"active","ping":71},{"user_id":601,"name":"Kekmilk","steam_id":76561198255619250,"connected_time":1998000000000,"state":"active","ping":43},{"user_id":671,"name":"UltimateAura","steam_id":76561198338361324,"connected_time":704000000000,"state":"active","ping":45},{"user_id":475,"name":"face beautiful lies","steam_id":76561198079277466,"connected_time":6695000000000,"state":"active","ping":72},{"user_id":540,"name":"not my season","steam_id":76561198083588151,"connected_time":2856000000000,"state":"active","ping":75},{"user_id":658,"name":"misterwondo","steam_id":76561198187934110,"connected_time":836000000000,"state":"active","ping":60},{"user_id":762,"name":"Udinese Dion","steam_id":76561198067931573,"connected_time":15000000000,"state":"active","ping":66},{"user_id":662,"name":"MaTTy","steam_id":76561198154318571,"connected_time":795000000000,"state":"active","ping":89},{"user_id":587,"name":"unconditional love","steam_id":76561199026097466,"connected_time":2285000000000,"state":"active","ping":75},{"user_id":483,"name":"4Hero","steam_id":76561198310095220,"connected_time":6002000000000,"state":"active","ping":44},{"user_id":763,"name":"Gelato","steam_id":76561198282596343,"connected_time":1000000000,"state":"spawning","ping":26},{"user_id":715,"name":"Lyra","steam_id":76561198043601838,"connected_time":458000000000,"state":"active","ping":64},{"user_id":485,"name":"ganja guru guuguu gaga","steam_id":76561198190583242,"connected_time":5873000000000,"state":"active","ping":95},{"user_id":744,"name":"femboy enjoyer","steam_id":76561199041737814,"connected_time":243000000000,"state":"active","ping":41},{"user_id":394,"name":"‡∂ûaura‡∂û","steam_id":76561198066258544,"connected_time":15295000000000,"state":"active","ping":59},{"user_id":636,"name":"rigel_","steam_id":76561198148640847,"connected_time":1166000000000,"state":"active","ping":90},{"user_id":591,"name":"mertefe","steam_id":76561199237126613,"connected_time":2228000000000,"state":"active","ping":113},{"user_id":749,"name":"‚ô° Birdy ‚ô°","steam_id":76561198139632682,"connected_time":201000000000,"state":"active","ping":91},{"user_id":750,"name":"whimsy.","steam_id":76561198878171763,"connected_time":200000000000,"state":"active","ping":51},{"user_id":665,"name":"V63 050","steam_id":76561198097789669,"connected_time":759000000000,"state":"active","ping":71},{"user_id":490,"name":"Amok","steam_id":76561198043889110,"connected_time":5518000000000,"state":"active","ping":77},{"user_id":670,"name":"GoblinGaming (Jazzy)","steam_id":76561198360395476,"connected_time":707000000000,"state":"active","ping":35},{"user_id":456,"name":"gamerkiddo","steam_id":76561198047380360,"connected_time":8791000000000,"state":"active","ping":53},{"user_id":473,"name":"as allah intended","steam_id":76561198106049954,"connected_time":6859000000000,"state":"active","ping":81},{"user_id":677,"name":"Na'vi Misato (by popular demand","steam_id":76561198130860698,"connected_time":636000000000,"state":"active","ping":58}]},{"server_id":114,"name":"Uncletopia | London | 2 | All Maps","name_short":"lon-2","host":"lon-1.uk.uncletopia.com","port":27025,"enabled":true,"region":"eu","cc":"gb","latitude":51.509865,"longitude":-0.118092,"reserved":0,"last_update":"0001-01-01T00:00:00Z","name_a2s":"Uncletopia | London | 2 | All Maps","protocol":17,"map":"pl_frontier_final","folder":"tf","game":"Team Fortress","app_id":440,"player_count":24,"max_players":24,"Bots":0,"server_type":"Dedicated","server_os":"Linux","password":true,"vac":true,"version":"7961495","steam_id":85568392924470941,"keywords":["nocrits","nodmgspread","payload","uncletopia"],"game_id":440,"stv_port":27026,"stv_name":"Uncletopia | London | 2 | All Maps | STV","players":[{"user_id":281,"name":"Repa24","steam_id":76561198033016390,"connected_time":3354000000000,"state":"active","ping":72},{"user_id":316,"name":"GregerUlander","steam_id":76561198152375055,"connected_time":1053000000000,"state":"active","ping":112},{"user_id":284,"name":"Asfreild","steam_id":76561198055901120,"connected_time":2940000000000,"state":"active","ping":78},{"user_id":318,"name":"Gideon","steam_id":76561198045132575,"connected_time":854000000000,"state":"active","ping":42},{"user_id":282,"name":"Larry Penus","steam_id":76561198207546233,"connected_time":3300000000000,"state":"active","ping":71},{"user_id":319,"name":"Chris","steam_id":76561198179791702,"connected_time":239000000000,"state":"active","ping":177},{"user_id":317,"name":"arowin24","steam_id":76561198077342689,"connected_time":1038000000000,"state":"active","ping":61},{"user_id":269,"name":"Ôº•Ôº•Ôº≠Ôº°ÔºÆ‚Ñ¢","steam_id":76561198044903016,"connected_time":3982000000000,"state":"active","ping":70},{"user_id":311,"name":"timmy.27","steam_id":76561198063296613,"connected_time":1359000000000,"state":"active","ping":76},{"user_id":327,"name":"Herr NOOB","steam_id":76561198043913077,"connected_time":136000000000,"state":"active","ping":60},{"user_id":287,"name":"Bouef","steam_id":76561198240814546,"connected_time":2886000000000,"state":"active","ping":54},{"user_id":321,"name":"trite","steam_id":76561197983765323,"connected_time":237000000000,"state":"active","ping":54},{"user_id":322,"name":"greezelag","steam_id":76561198053015949,"connected_time":231000000000,"state":"active","ping":84},{"user_id":302,"name":"Oviraptor Supreme","steam_id":76561198044262534,"connected_time":1953000000000,"state":"active","ping":160},{"user_id":323,"name":"Sugardaddy_pep","steam_id":76561198807512589,"connected_time":209000000000,"state":"active","ping":87},{"user_id":198,"name":"Ullr","steam_id":76561198140547483,"connected_time":9286000000000,"state":"active","ping":45},{"user_id":324,"name":"LOBZIK","steam_id":76561198114830120,"connected_time":204000000000,"state":"active","ping":81},{"user_id":313,"name":"etc","steam_id":76561197998394797,"connected_time":1342000000000,"state":"active","ping":51},{"user_id":296,"name":"Hugh","steam_id":76561198976348754,"connected_time":2553000000000,"state":"active","ping":53},{"user_id":224,"name":"Codex","steam_id":76561198068748584,"connected_time":7321000000000,"state":"active","ping":49},{"user_id":325,"name":"Washburne","steam_id":76561198032810579,"connected_time":189000000000,"state":"active","ping":47},{"user_id":314,"name":"GEP Gun","steam_id":76561197981821003,"connected_time":1317000000000,"state":"active","ping":54},{"user_id":326,"name":"f","steam_id":76561199085624224,"connected_time":187000000000,"state":"active","ping":60},{"user_id":256,"name":"Rocket Queen's consort","steam_id":76561198092995429,"connected_time":4726000000000,"state":"active","ping":149}]},{"server_id":320,"name":"Uncletopia | London | 3 | All Maps","name_short":"lon-3","host":"lon-1.uk.uncletopia.com","port":27035,"enabled":true,"region":"eu","cc":"gb","latitude":51.509865,"longitude":-0.118092,"reserved":0,"last_update":"0001-01-01T00:00:00Z","name_a2s":"Uncletopia | London | 3 | All Maps","protocol":17,"map":"cp_mountainlab","folder":"tf","game":"Team Fortress","app_id":440,"player_count":24,"max_players":24,"Bots":0,"server_type":"Dedicated","server_os":"Linux","password":true,"vac":true,"version":"7961495","steam_id":85568392924510192,"keywords":["cp","nocrits","nodmgspread","uncletopia"],"game_id":440,"stv_port":27036,"stv_name":"Uncletopia | London | 3 | All Maps | STV","players":[{"user_id":427,"name":"oskaroku00","steam_id":76561199025360128,"connected_time":944000000000,"state":"active","ping":74},{"user_id":423,"name":"Skorly","steam_id":76561198094858507,"connected_time":2147000000000,"state":"active","ping":65},{"user_id":447,"name":"energoosest","steam_id":76561199036816943,"connected_time":149000000000,"state":"active","ping":106},{"user_id":420,"name":"Plep","steam_id":76561198840259819,"connected_time":2190000000000,"state":"active","ping":59},{"user_id":425,"name":"N0tzz","steam_id":76561198391025653,"connected_time":1457000000000,"state":"active","ping":67},{"user_id":441,"name":"shoras","steam_id":76561198019680159,"connected_time":286000000000,"state":"active","ping":96},{"user_id":446,"name":"SheepMan","steam_id":76561198297813325,"connected_time":171000000000,"state":"active","ping":131},{"user_id":443,"name":"CiVillain","steam_id":76561198059617732,"connected_time":264000000000,"state":"active","ping":70},{"user_id":404,"name":"Lemmy","steam_id":76561199038870751,"connected_time":4073000000000,"state":"active","ping":56},{"user_id":341,"name":"Deez nuts","steam_id":76561199429562693,"connected_time":9584000000000,"state":"active","ping":69},{"user_id":401,"name":"Warrior555MainsGanon","steam_id":76561198388627786,"connected_time":4109000000000,"state":"active","ping":67},{"user_id":419,"name":"smokingjacketman610","steam_id":76561198857441444,"connected_time":2557000000000,"state":"active","ping":66},{"user_id":448,"name":"CaPs7816","steam_id":76561198232749604,"connected_time":41000000000,"state":"active","ping":82},{"user_id":415,"name":"GazerBazer","steam_id":76561198879107565,"connected_time":2745000000000,"state":"active","ping":61},{"user_id":432,"name":"znunney","steam_id":76561199438501613,"connected_time":786000000000,"state":"active","ping":68},{"user_id":444,"name":"bigeon","steam_id":76561198078601337,"connected_time":241000000000,"state":"active","ping":108},{"user_id":408,"name":"paypig","steam_id":76561198035137115,"connected_time":3522000000000,"state":"active","ping":45},{"user_id":439,"name":"PotatoBus2011","steam_id":76561197999146612,"connected_time":303000000000,"state":"active","ping":40},{"user_id":435,"name":"Pottery Knight","steam_id":76561198094455814,"connected_time":515000000000,"state":"active","ping":71},{"user_id":437,"name":"just a cat","steam_id":76561198328023740,"connected_time":492000000000,"state":"active","ping":54},{"user_id":426,"name":"DXD Tech","steam_id":76561198358379587,"connected_time":1362000000000,"state":"active","ping":78},{"user_id":418,"name":"Alegz","steam_id":76561198287810139,"connected_time":2625000000000,"state":"active","ping":110},{"user_id":396,"name":"BardiBoi","steam_id":76561197985615971,"connected_time":5092000000000,"state":"active","ping":90},{"user_id":410,"name":"‚ò© Knightz ‚ò©","steam_id":76561198040936414,"connected_time":3456000000000,"state":"active","ping":105}]},{"server_id":321,"name":"Uncletopia | London | 4 | All Maps","name_short":"lon-4","host":"lon-1.uk.uncletopia.com","port":27045,"enabled":true,"region":"eu","cc":"gb","latitude":51.509865,"longitude":-0.118092,"reserved":0,"last_update":"0001-01-01T00:00:00Z","name_a2s":"Uncletopia | London | 4 | All Maps","protocol":17,"map":"pl_badwater","folder":"tf","game":"Team Fortress","app_id":440,"player_count":24,"max_players":24,"Bots":0,"server_type":"Dedicated","server_os":"Linux","password":true,"vac":true,"version":"7961495","steam_id":85568392924510193,"keywords":["nocrits","nodmgspread","payload","uncletopia"],"game_id":440,"stv_port":27046,"stv_name":"Uncletopia | London | 4 | All Maps | STV","players":[{"user_id":70,"name":"A Shoelace","steam_id":76561198126726364,"connected_time":1279000000000,"state":"active","ping":61},{"user_id":19,"name":"Bagingi","steam_id":76561198052197810,"connected_time":3696000000000,"state":"active","ping":106},{"user_id":46,"name":"skittish maiden","steam_id":76561198096856475,"connected_time":2444000000000,"state":"active","ping":57},{"user_id":57,"name":"Jersku","steam_id":76561198140994845,"connected_time":2080000000000,"state":"active","ping":74},{"user_id":34,"name":"starke le beau","steam_id":76561199375305230,"connected_time":2564000000000,"state":"active","ping":66},{"user_id":26,"name":"breadbear \u003c3","steam_id":76561198036895007,"connected_time":2895000000000,"state":"active","ping":89},{"user_id":29,"name":"Olu","steam_id":76561198057135574,"connected_time":2666000000000,"state":"active","ping":92},{"user_id":75,"name":"Merca #savetf2","steam_id":76561198088782472,"connected_time":342000000000,"state":"active","ping":60},{"user_id":31,"name":"Jrock","steam_id":76561198045715996,"connected_time":2650000000000,"state":"active","ping":148},{"user_id":58,"name":"Laysketchup","steam_id":76561198798891390,"connected_time":2050000000000,"state":"active","ping":62},{"user_id":35,"name":"Certified Hood pybro (ua)","steam_id":76561198970562699,"connected_time":2537000000000,"state":"active","ping":56},{"user_id":61,"name":"WinterBucket","steam_id":76561198381313801,"connected_time":1857000000000,"state":"active","ping":71},{"user_id":37,"name":"confusion","steam_id":76561199199499453,"connected_time":2509000000000,"state":"active","ping":97},{"user_id":81,"name":"Greyhunter","steam_id":76561197960884202,"connected_time":114000000000,"state":"active","ping":33},{"user_id":82,"name":"–∫–∞—Ä–∞—Å–∏–∫","steam_id":76561197971140507,"connected_time":73000000000,"state":"active","ping":70},{"user_id":79,"name":"beetrootstrawberry2011","steam_id":76561198097239850,"connected_time":169000000000,"state":"active","ping":69},{"user_id":62,"name":"Colonel Dimanche","steam_id":76561197994792632,"connected_time":1848000000000,"state":"active","ping":41},{"user_id":68,"name":"Fissure","steam_id":76561198272595481,"connected_time":1534000000000,"state":"active","ping":90},{"user_id":77,"name":"Lyell","steam_id":76561198350329389,"connected_time":205000000000,"state":"active","ping":80},{"user_id":44,"name":"Beanie","steam_id":76561198173882658,"connected_time":2478000000000,"state":"active","ping":45},{"user_id":45,"name":"armadillo","steam_id":76561198324656652,"connected_time":2458000000000,"state":"active","ping":49},{"user_id":80,"name":"toomas2018(real)(real)(real)","steam_id":76561199105796083,"connected_time":157000000000,"state":"active","ping":128},{"user_id":49,"name":"Aphrodite","steam_id":76561199085162623,"connected_time":2429000000000,"state":"active","ping":86},{"user_id":54,"name":"Sex Man TF2","steam_id":76561198798657045,"connected_time":2250000000000,"state":"active","ping":74}]},{"server_id":21,"name":"Uncletopia | London | 5 | All Maps","name_short":"lon-5","host":"lon-1.uk.uncletopia.com","port":27055,"enabled":true,"region":"eu","cc":"gb","latitude":51.509865,"longitude":-0.118092,"reserved":0,"last_update":"0001-01-01T00:00:00Z","name_a2s":"Uncletopia | London | 5 | All Maps","protocol":17,"map":"koth_viaduct","folder":"tf","game":"Team Fortress","app_id":440,"player_count":24,"max_players":24,"Bots":0,"server_type":"Dedicated","server_os":"Linux","password":true,"vac":true,"version":"7961495","steam_id":85568392924742829,"keywords":["cp","nocrits","nodmgspread","uncletopia"],"game_id":440,"stv_port":27056,"stv_name":"Uncletopia | London | 5 | All Maps | STV","players":[{"user_id":148,"name":"Ergas","steam_id":76561198860861032,"connected_time":211000000000,"state":"active","ping":64},{"user_id":136,"name":"Captain Warburtons","steam_id":76561198013798237,"connected_time":1261000000000,"state":"active","ping":46},{"user_id":120,"name":"[Heavy Mandarin]","steam_id":76561198531978435,"connected_time":1961000000000,"state":"active","ping":51},{"user_id":152,"name":"GrentenDri","steam_id":76561198146131107,"connected_time":175000000000,"state":"active","ping":82},{"user_id":132,"name":"[Imbr] kurush117","steam_id":76561198003364899,"connected_time":1463000000000,"state":"active","ping":50},{"user_id":96,"name":"Femboy Thighs","steam_id":76561198115496457,"connected_time":4189000000000,"state":"active","ping":37},{"user_id":67,"name":"warforge3","steam_id":76561199276024310,"connected_time":5736000000000,"state":"active","ping":106},{"user_id":150,"name":"Lunatic","steam_id":76561198068814245,"connected_time":181000000000,"state":"active","ping":93},{"user_id":153,"name":"Nithle","steam_id":76561198025372740,"connected_time":170000000000,"state":"active","ping":30},{"user_id":98,"name":"Toopy","steam_id":76561198041708820,"connected_time":3983000000000,"state":"active","ping":34},{"user_id":139,"name":"MG","steam_id":76561197992591715,"connected_time":1174000000000,"state":"active","ping":71},{"user_id":138,"name":"Fuvuk","steam_id":76561198044458593,"connected_time":1229000000000,"state":"active","ping":91},{"user_id":147,"name":"finbar","steam_id":76561198056812396,"connected_time":228000000000,"state":"active","ping":74},{"user_id":151,"name":"Space","steam_id":76561198378357559,"connected_time":180000000000,"state":"active","ping":42},{"user_id":159,"name":"DEFENDOR62","steam_id":76561199386703896,"connected_time":129000000000,"state":"active","ping":53},{"user_id":129,"name":"[Imbr] Supe7nova","steam_id":76561197986998963,"connected_time":1507000000000,"state":"active","ping":64},{"user_id":144,"name":"‚ù§ Sparx ‚ù§","steam_id":76561198095009261,"connected_time":423000000000,"state":"active","ping":78},{"user_id":118,"name":"UltimateSlayer","steam_id":76561198384109309,"connected_time":2209000000000,"state":"active","ping":53},{"user_id":42,"name":"flange","steam_id":76561198040182692,"connected_time":7529000000000,"state":"active","ping":42},{"user_id":155,"name":"josef.fritzl.1934","steam_id":76561198371317553,"connected_time":165000000000,"state":"active","ping":108},{"user_id":156,"name":"Just Meziu","steam_id":76561199121734315,"connected_time":137000000000,"state":"active","ping":66},{"user_id":157,"name":"Mars","steam_id":76561198156073462,"connected_time":136000000000,"state":"active","ping":77},{"user_id":158,"name":"hey STUPID! I'm over here...","steam_id":76561198056388702,"connected_time":135000000000,"state":"active","ping":96},{"user_id":142,"name":"Crunchy","steam_id":76561198184973203,"connected_time":507000000000,"state":"active","ping":52}]},{"server_id":22,"name":"Uncletopia | London | 6 | All Maps","name_short":"lon-6","host":"lon-1.uk.uncletopia.com","port":27065,"enabled":true,"region":"eu","cc":"gb","latitude":51.509865,"longitude":-0.118092,"reserved":0,"last_update":"0001-01-01T00:00:00Z","name_a2s":"Uncletopia | London | 6 | All Maps","protocol":17,"map":"pl_frontier_final","folder":"tf","game":"Team Fortress","app_id":440,"player_count":24,"max_players":24,"Bots":0,"server_type":"Dedicated","server_os":"Linux","password":true,"vac":true,"version":"7961495","steam_id":85568392924742830,"keywords":["nocrits","nodmgspread","payload","uncletopia"],"game_id":440,"stv_port":27066,"stv_name":"Uncletopia | London | 6 | All Maps | STV","players":[{"user_id":204,"name":"Wholesome","steam_id":76561198010329501,"connected_time":1114000000000,"state":"active","ping":60},{"user_id":198,"name":"Graham","steam_id":76561198062668942,"connected_time":1297000000000,"state":"active","ping":46},{"user_id":199,"name":"TheBeast03[GENS]","steam_id":76561198185354465,"connected_time":1276000000000,"state":"active","ping":71},{"user_id":200,"name":"Ayla Lune","steam_id":76561198293309694,"connected_time":1267000000000,"state":"active","ping":44},{"user_id":201,"name":"PoisionFox","steam_id":76561198864161505,"connected_time":1220000000000,"state":"active","ping":56},{"user_id":202,"name":"Doctor Glizzy","steam_id":76561198315474018,"connected_time":1205000000000,"state":"active","ping":70},{"user_id":203,"name":"Sniff Gluer","steam_id":76561198263263692,"connected_time":1204000000000,"state":"active","ping":74},{"user_id":210,"name":"Typh","steam_id":76561198315344079,"connected_time":921000000000,"state":"active","ping":139},{"user_id":211,"name":"maushedpotatoes","steam_id":76561199145764691,"connected_time":825000000000,"state":"active","ping":103},{"user_id":231,"name":"Swiss_Nostalgia","steam_id":76561199159896259,"connected_time":94000000000,"state":"active","ping":68},{"user_id":221,"name":"Senior","steam_id":76561198065014164,"connected_time":703000000000,"state":"active","ping":49},{"user_id":208,"name":"faccboi","steam_id":76561198137816642,"connected_time":953000000000,"state":"active","ping":51},{"user_id":230,"name":"MatesThePlayer","steam_id":76561198066156449,"connected_time":100000000000,"state":"active","ping":65},{"user_id":217,"name":"jjkun786","steam_id":76561199438517484,"connected_time":763000000000,"state":"active","ping":34},{"user_id":213,"name":"Xx_Piss_xX","steam_id":76561199368762224,"connected_time":789000000000,"state":"active","ping":122},{"user_id":214,"name":"≈†varcas","steam_id":76561198841646694,"connected_time":783000000000,"state":"active","ping":66},{"user_id":229,"name":"Pink_Slime","steam_id":76561198279172546,"connected_time":233000000000,"state":"active","ping":69},{"user_id":218,"name":"fish","steam_id":76561198205475839,"connected_time":751000000000,"state":"active","ping":108},{"user_id":219,"name":"- Indigo -","steam_id":76561198380193071,"connected_time":742000000000,"state":"active","ping":73},{"user_id":220,"name":"Solymr ibn Wali Barad","steam_id":76561198044008976,"connected_time":728000000000,"state":"active","ping":66},{"user_id":222,"name":"MagusCubed","steam_id":76561198083973944,"connected_time":688000000000,"state":"active","ping":47},{"user_id":223,"name":"Dr. Gruno","steam_id":76561198815633513,"connected_time":685000000000,"state":"active","ping":110},{"user_id":224,"name":"Nightman","steam_id":76561198089513762,"connected_time":680000000000,"state":"active","ping":150},{"user_id":225,"name":"mary","steam_id":76561198014828037,"connected_time":670000000000,"state":"active","ping":59}]},{"server_id":40,"name":"Uncletopia | London | 7 | Stopwatch","name_short":"lon-7","host":"lon-1.uk.uncletopia.com","port":27075,"enabled":true,"region":"eu","cc":"gb","latitude":51.509865,"longitude":-0.118092,"reserved":0,"last_update":"0001-01-01T00:00:00Z","name_a2s":"Uncletopia | London | 7 | Stopwatch","protocol":17,"map":"workshop/koth_bagel_rc6.ugc2514036946","folder":"tf","game":"Team Fortress","app_id":440,"player_count":2,"max_players":24,"Bots":0,"server_type":"Dedicated","server_os":"Linux","password":true,"vac":true,"version":"7961495","steam_id":85568392924964314,"keywords":["cp","nocrits","nodmgspread","uncletopia"],"game_id":440,"stv_port":27076,"stv_name":"Uncletopia | London | 7 | Stopwatch | STV","players":[{"user_id":20,"name":"nop 21","steam_id":76561198331641220,"connected_time":254000000000,"state":"active","ping":39},{"user_id":18,"name":"MegaChungusUnderCheeto_69420","steam_id":76561199159878197,"connected_time":1513000000000,"state":"active","ping":35}]},{"server_id":41,"name":"Uncletopia | London | 8 | Community","name_short":"lon-8","host":"lon-1.uk.uncletopia.com","port":27085,"enabled":true,"region":"eu","cc":"gb","latitude":51.509865,"longitude":-0.118092,"reserved":0,"last_update":"0001-01-01T00:00:00Z","name_a2s":"Uncletopia | London | 8 | Community","protocol":17,"map":"workshop/pl_barnblitz_pro7.ugc582280235","folder":"tf","game":"Team Fortress","app_id":440,"player_count":0,"max_players":24,"Bots":0,"server_type":"Dedicated","server_os":"Linux","password":true,"vac":true,"version":"7961495","steam_id":85568392924964315,"keywords":["nocrits","nodmgspread","payload","uncletopia"],"game_id":440,"stv_port":27086,"stv_name":"Uncletopia | London | 8 | Community | STV","players":null},{"server_id":300,"name":"Uncletopia | Montr√©al | 1 | One Thousand Uncles","name_short":"mtl-1","host":"mtl-1.ca.uncletopia.com","port":27015,"enabled":true,"region":"us-east","cc":"ca","latitude":45.50889,"longitude":-73.56167,"reserved":0,"last_update":"0001-01-01T00:00:00Z","name_a2s":"","protocol":0,"map":"","folder":"","game":"","app_id":0,"player_count":0,"max_players":0,"Bots":0,"server_type":"","server_os":"","password":false,"vac":false,"version":"","steam_id":0,"keywords":null,"game_id":0,"stv_port":0,"stv_name":"","players":null},{"server_id":301,"name":"Uncletopia | Montr√©al | 2 | One Thousand Uncles","name_short":"mtl-2","host":"mtl-1.ca.uncletopia.com","port":27025,"enabled":true,"region":"us-east","cc":"ca","latitude":45.50889,"longitude":-73.56167,"reserved":0,"last_update":"0001-01-01T00:00:00Z","name_a2s":"","protocol":0,"map":"","folder":"","game":"","app_id":0,"player_count":0,"max_players":0,"Bots":0,"server_type":"","server_os":"","password":false,"vac":false,"version":"","steam_id":0,"keywords":null,"game_id":0,"stv_port":0,"stv_name":"","players":null},{"server_id":302,"name":"Uncletopia | Montr√©al | 3 | One Thousand Uncles","name_short":"mtl-3","host":"mtl-1.ca.uncletopia.com","port":27035,"enabled":true,"region":"us-east","cc":"ca","latitude":45.50889,"longitude":-73.56167,"reserved":0,"last_update":"0001-01-01T00:00:00Z","name_a2s":"","protocol":0,"map":"","folder":"","game":"","app_id":0,"player_count":0,"max_players":0,"Bots":0,"server_type":"","server_os":"","password":false,"vac":false,"version":"","steam_id":0,"keywords":null,"game_id":0,"stv_port":0,"stv_name":"","players":null},{"server_id":13,"name":"Uncletopia | New York City | 1 | All Maps","name_short":"nyc-1","host":"nyc-1.us.uncletopia.com","port":27015,"enabled":true,"region":"us-east","cc":"us","latitude":40.73061,"longitude":-73.93524,"reserved":0,"last_update":"0001-01-01T00:00:00Z","name_a2s":"Uncletopia | New York City | 1 | All Maps","protocol":17,"map":"koth_cascade","folder":"tf","game":"Team Fortress","app_id":440,"player_count":4,"max_players":24,"Bots":0,"server_type":"Dedicated","server_os":"Linux","password":true,"vac":true,"version":"7961495","steam_id":85568392924469993,"keywords":["cp","nocrits","nodmgspread","uncletopia"],"game_id":440,"stv_port":27016,"stv_name":"Uncletopia | New York City | 1 | All Maps | STV","players":[{"user_id":14,"name":"inphlate","steam_id":76561199016973013,"connected_time":485000000000,"state":"active","ping":60},{"user_id":18,"name":"jorjor wells","steam_id":76561199073429082,"connected_time":140000000000,"state":"active","ping":51},{"user_id":19,"name":"THE CUMEST LORD","steam_id":76561198061412592,"connected_time":80000000000,"state":"active","ping":69},{"user_id":20,"name":"Random Shonen Smear","steam_id":76561198397873029,"connected_time":74000000000,"state":"active","ping":56}]},{"server_id":14,"name":"Uncletopia | New York City | 2 | All Maps","name_short":"nyc-2","host":"nyc-1.us.uncletopia.com","port":27025,"enabled":true,"region":"us-east","cc":"us","latitude":40.73061,"longitude":-73.93524,"reserved":0,"last_update":"0001-01-01T00:00:00Z","name_a2s":"Uncletopia | New York City | 2 | All Maps","protocol":17,"map":"cp_snakewater_final1","folder":"tf","game":"Team Fortress","app_id":440,"player_count":0,"max_players":24,"Bots":0,"server_type":"Dedicated","server_os":"Linux","password":true,"vac":true,"version":"7961495","steam_id":85568392924469994,"keywords":["cp","nocrits","nodmgspread","uncletopia"],"game_id":440,"stv_port":27026,"stv_name":"Uncletopia | New York City | 2 | All Maps | STV","players":null},{"server_id":15,"name":"Uncletopia | New York City | 3 | Stopwatch","name_short":"nyc-3","host":"nyc-1.us.uncletopia.com","port":27035,"enabled":true,"region":"us-east","cc":"us","latitude":40.73061,"longitude":-73.93524,"reserved":0,"last_update":"0001-01-01T00:00:00Z","name_a2s":"Uncletopia | New York City | 3 | Stopwatch","protocol":17,"map":"cp_process_final","folder":"tf","game":"Team Fortress","app_id":440,"player_count":0,"max_players":24,"Bots":0,"server_type":"Dedicated","server_os":"Linux","password":true,"vac":true,"version":"7961495","steam_id":85568392924742820,"keywords":["cp","nocrits","nodmgspread","uncletopia"],"game_id":440,"stv_port":27036,"stv_name":"Uncletopia | New York City | 3 | Stopwatch | STV","players":null},{"server_id":16,"name":"Uncletopia | New York City | 4 | Community","name_short":"nyc-4","host":"nyc-1.us.uncletopia.com","port":27045,"enabled":true,"region":"us-east","cc":"us","latitude":40.73061,"longitude":-73.93524,"reserved":0,"last_update":"0001-01-01T00:00:00Z","name_a2s":"Uncletopia | New York City | 4 | Community","protocol":17,"map":"workshop/cp_snowbase_b21.ugc2081770490","folder":"tf","game":"Team Fortress","app_id":440,"player_count":0,"max_players":24,"Bots":0,"server_type":"Dedicated","server_os":"Linux","password":true,"vac":true,"version":"7961495","steam_id":85568392924742821,"keywords":["cp","nocrits","nodmgspread","uncletopia"],"game_id":440,"stv_port":27046,"stv_name":"Uncletopia | New York City | 4 | Community | STV","players":null},{"server_id":142,"name":"Uncletopia | S√£o Paulo | 1 | All Maps","name_short":"sao-1","host":"sao-1.br.uncletopia.com","port":27015,"enabled":true,"region":"sa","cc":"br","latitude":-23.533773,"longitude":-46.62529,"reserved":0,"last_update":"0001-01-01T00:00:00Z","name_a2s":"Uncletopia | S√£o Paulo | 1 | All Maps","protocol":17,"map":"cp_sunshine","folder":"tf","game":"Team Fortress","app_id":440,"player_count":0,"max_players":24,"Bots":0,"server_type":"Dedicated","server_os":"Linux","password":true,"vac":true,"version":"7961495","steam_id":85568392924469996,"keywords":["cp","nocrits","nodmgspread","uncletopia"],"game_id":440,"stv_port":27016,"stv_name":"Uncletopia | S√£o Paulo | 1 | All Maps | STV","players":null},{"server_id":143,"name":"Uncletopia | S√£o Paulo | 2 | Community","name_short":"sao-2","host":"sao-2.br.uncletopia.com","port":27015,"enabled":true,"region":"sa","cc":"br","latitude":-23.533773,"longitude":-46.62529,"reserved":0,"last_update":"0001-01-01T00:00:00Z","name_a2s":"Uncletopia | S√£o Paulo | 2 | Community","protocol":17,"map":"pl_badwater","folder":"tf","game":"Team Fortress","app_id":440,"player_count":0,"max_players":24,"Bots":0,"server_type":"Dedicated","server_os":"Linux","password":true,"vac":true,"version":"7961495","steam_id":85568392924485349,"keywords":["nocrits","nodmgspread","payload","uncletopia"],"game_id":440,"stv_port":27016,"stv_name":"Uncletopia | S√£o Paulo | 2 | Community | STV","players":null},{"server_id":7,"name":"Uncletopia | Seattle | 1 | All Maps","name_short":"sea-1","host":"sea-1.us.uncletopia.com","port":27015,"enabled":true,"region":"us-west","cc":"us","latitude":47.608013,"longitude":-122.33517,"reserved":0,"last_update":"0001-01-01T00:00:00Z","name_a2s":"Uncletopia | Seattle | 1 | All Maps","protocol":17,"map":"plr_bananabay","folder":"tf","game":"Team Fortress","app_id":440,"player_count":24,"max_players":24,"Bots":0,"server_type":"Dedicated","server_os":"Linux","password":true,"vac":true,"version":"7961495","steam_id":85568392924469997,"keywords":["nocrits","nodmgspread","payload","uncletopia"],"game_id":440,"stv_port":27016,"stv_name":"Uncletopia | Seattle | 1 | All Maps | STV","players":[{"user_id":315,"name":"diddy bop","steam_id":76561198327633561,"connected_time":1493000000000,"state":"active","ping":89},{"user_id":325,"name":"lukamine","steam_id":76561198166827208,"connected_time":941000000000,"state":"active","ping":40},{"user_id":321,"name":"toes","steam_id":76561198221151676,"connected_time":1004000000000,"state":"active","ping":48},{"user_id":280,"name":"2 Point Tom","steam_id":76561198087617008,"connected_time":3422000000000,"state":"active","ping":48},{"user_id":326,"name":"Chirp","steam_id":76561198240780230,"connected_time":656000000000,"state":"active","ping":71},{"user_id":317,"name":"oo","steam_id":76561198119626492,"connected_time":1390000000000,"state":"active","ping":69},{"user_id":322,"name":"Brando","steam_id":76561198078306678,"connected_time":1000000000000,"state":"active","ping":87},{"user_id":332,"name":"SneekiCheekiQbone","steam_id":76561198045077980,"connected_time":114000000000,"state":"active","ping":74},{"user_id":297,"name":"jams","steam_id":76561198131701290,"connected_time":1959000000000,"state":"active","ping":75},{"user_id":318,"name":"CheekyMcCheek","steam_id":76561198081978491,"connected_time":1383000000000,"state":"active","ping":78},{"user_id":309,"name":"MrQuack","steam_id":76561198873049714,"connected_time":1627000000000,"state":"active","ping":76},{"user_id":310,"name":"the keebler","steam_id":76561199486326945,"connected_time":1625000000000,"state":"active","ping":130},{"user_id":299,"name":"Chubbles","steam_id":76561198237619472,"connected_time":1930000000000,"state":"active","ping":112},{"user_id":311,"name":"Echo","steam_id":76561198103342230,"connected_time":1595000000000,"state":"active","ping":48},{"user_id":301,"name":"cran","steam_id":76561198178840075,"connected_time":1881000000000,"state":"active","ping":75},{"user_id":290,"name":"ArchmageF","steam_id":76561197992246851,"connected_time":2343000000000,"state":"active","ping":58},{"user_id":324,"name":"Grumbo","steam_id":76561199002106124,"connected_time":958000000000,"state":"active","ping":128},{"user_id":303,"name":"Breve","steam_id":76561198065141099,"connected_time":1873000000000,"state":"active","ping":123},{"user_id":319,"name":"-{A‚òÖT}- KnightofWind","steam_id":76561198103233971,"connected_time":1358000000000,"state":"active","ping":77},{"user_id":333,"name":"a chicken","steam_id":76561198313121580,"connected_time":19000000000,"state":"active","ping":87},{"user_id":328,"name":"V. G. Sunderland","steam_id":76561198161839980,"connected_time":604000000000,"state":"active","ping":119},{"user_id":331,"name":"011sra","steam_id":76561199489542125,"connected_time":232000000000,"state":"active","ping":45},{"user_id":174,"name":"Rat Smoking a big cigar","steam_id":76561198090419068,"connected_time":10912000000000,"state":"active","ping":71},{"user_id":330,"name":"Nova Academy of Salmon Action","steam_id":76561198021842526,"connected_time":348000000000,"state":"active","ping":63}]},{"server_id":119,"name":"Uncletopia | Seattle | 2 | All Maps","name_short":"sea-2","host":"sea-1.us.uncletopia.com","port":27025,"enabled":true,"region":"us-west","cc":"us","latitude":47.608013,"longitude":-122.33517,"reserved":0,"last_update":"0001-01-01T00:00:00Z","name_a2s":"Uncletopia | Seattle | 2 | All Maps","protocol":17,"map":"koth_viaduct","folder":"tf","game":"Team Fortress","app_id":440,"player_count":0,"max_players":24,"Bots":0,"server_type":"Dedicated","server_os":"Linux","password":true,"vac":true,"version":"7961495","steam_id":85568392924469998,"keywords":["cp","nocrits","nodmgspread","uncletopia"],"game_id":440,"stv_port":27026,"stv_name":"Uncletopia | Seattle | 2 | All Maps | STV","players":null},{"server_id":406,"name":"Uncletopia | Seattle | 3 | Stopwatch","name_short":"sea-3","host":"sea-1.us.uncletopia.com","port":27035,"enabled":true,"region":"us-west","cc":"us","latitude":47.608013,"longitude":-122.33517,"reserved":0,"last_update":"0001-01-01T00:00:00Z","name_a2s":"Uncletopia | Seattle | 3 | Stopwatch","protocol":17,"map":"pl_pier","folder":"tf","game":"Team Fortress","app_id":440,"player_count":0,"max_players":24,"Bots":0,"server_type":"Dedicated","server_os":"Linux","password":true,"vac":true,"version":"7961495","steam_id":85568392924515217,"keywords":["nocrits","nodmgspread","payload","uncletopia"],"game_id":440,"stv_port":27036,"stv_name":"Uncletopia | Seattle | 3 | Stopwatch | STV","players":null},{"server_id":17,"name":"Uncletopia | San Francisco | 1 | All Maps","name_short":"sfo-1","host":"sfo-1.us.uncletopia.com","port":27015,"enabled":true,"region":"us-west","cc":"us","latitude":37.77397,"longitude":-122.4313,"reserved":0,"last_update":"0001-01-01T00:00:00Z","name_a2s":"Uncletopia | San Francisco | 1 | All Maps","protocol":17,"map":"koth_cascade","folder":"tf","game":"Team Fortress","app_id":440,"player_count":0,"max_players":24,"Bots":0,"server_type":"Dedicated","server_os":"Linux","password":true,"vac":true,"version":"7961495","steam_id":85568392924469999,"keywords":["cp","nocrits","nodmgspread","uncletopia"],"game_id":440,"stv_port":27016,"stv_name":"Uncletopia | San Francisco | 1 | All Maps | STV","players":null},{"server_id":18,"name":"Uncletopia | San Francisco | 2 | All Maps","name_short":"sfo-2","host":"sfo-1.us.uncletopia.com","port":27025,"enabled":true,"region":"us-west","cc":"us","latitude":37.77397,"longitude":-122.4313,"reserved":0,"last_update":"0001-01-01T00:00:00Z","name_a2s":"Uncletopia | San Francisco | 2 | All Maps","protocol":17,"map":"pl_frontier_final","folder":"tf","game":"Team Fortress","app_id":440,"player_count":0,"max_players":24,"Bots":0,"server_type":"Dedicated","server_os":"Linux","password":true,"vac":true,"version":"7961495","steam_id":85568392924470000,"keywords":["nocrits","nodmgspread","payload","uncletopia"],"game_id":440,"stv_port":27026,"stv_name":"Uncletopia | San Francisco | 2 | All Maps | STV","players":null},{"server_id":19,"name":"Uncletopia | San Francisco | 3 | Stopwatch","name_short":"sfo-3","host":"sfo-1.us.uncletopia.com","port":27035,"enabled":true,"region":"us-west","cc":"us","latitude":37.77397,"longitude":-122.4313,"reserved":0,"last_update":"0001-01-01T00:00:00Z","name_a2s":"Uncletopia | San Francisco | 3 | Stopwatch","protocol":17,"map":"pl_pier","folder":"tf","game":"Team Fortress","app_id":440,"player_count":0,"max_players":24,"Bots":0,"server_type":"Dedicated","server_os":"Linux","password":true,"vac":true,"version":"7961495","steam_id":85568392924742824,"keywords":["nocrits","nodmgspread","payload","uncletopia"],"game_id":440,"stv_port":27036,"stv_name":"Uncletopia | San Francisco | 3 | Stopwatch | STV","players":null},{"server_id":20,"name":"Uncletopia | San Francisco | 4 | Community","name_short":"sfo-4","host":"sfo-1.us.uncletopia.com","port":27045,"enabled":true,"region":"us-west","cc":"us","latitude":37.77397,"longitude":-122.4313,"reserved":0,"last_update":"0001-01-01T00:00:00Z","name_a2s":"Uncletopia | San Francisco | 4 | Community","protocol":17,"map":"pl_pier","folder":"tf","game":"Team Fortress","app_id":440,"player_count":0,"max_players":24,"Bots":0,"server_type":"Dedicated","server_os":"Linux","password":true,"vac":true,"version":"7961495","steam_id":85568392924742826,"keywords":["nocrits","nodmgspread","payload","uncletopia"],"game_id":440,"stv_port":27046,"stv_name":"Uncletopia | San Francisco | 4 | Community | STV","players":null},{"server_id":141,"name":"Uncletopia | Sydney | 1 | All Maps","name_short":"syd-1","host":"syd-1.au.uncletopia.com","port":27015,"enabled":true,"region":"au","cc":"au","latitude":-33.865143,"longitude":151.2099,"reserved":0,"last_update":"0001-01-01T00:00:00Z","name_a2s":"Uncletopia | Sydney | 1 | All Maps","protocol":17,"map":"koth_highpass","folder":"tf","game":"Team Fortress","app_id":440,"player_count":0,"max_players":24,"Bots":0,"server_type":"Dedicated","server_os":"Linux","password":true,"vac":true,"version":"7961495","steam_id":85568392924470001,"keywords":["cp","nocrits","nodmgspread","uncletopia"],"game_id":440,"stv_port":27016,"stv_name":"Uncletopia | Sydney | 1 | All Maps | STV","players":null},{"server_id":123,"name":"Uncletopia | Sydney | 2 | All Maps","name_short":"syd-2","host":"syd-1.au.uncletopia.com","port":27025,"enabled":true,"region":"au","cc":"au","latitude":-33.865143,"longitude":151.2099,"reserved":0,"last_update":"0001-01-01T00:00:00Z","name_a2s":"Uncletopia | Sydney | 2 | All Maps","protocol":17,"map":"koth_lakeside_final","folder":"tf","game":"Team Fortress","app_id":440,"player_count":0,"max_players":24,"Bots":0,"server_type":"Dedicated","server_os":"Linux","password":true,"vac":true,"version":"7961495","steam_id":85568392924470002,"keywords":["cp","nocrits","nodmgspread","uncletopia"],"game_id":440,"stv_port":27026,"stv_name":"Uncletopia | Sydney | 2 | All Maps | STV","players":null},{"server_id":395,"name":"Uncletopia | Sydney | 3 | All Maps","name_short":"syd-3","host":"syd-1.au.uncletopia.com","port":27035,"enabled":true,"region":"au","cc":"au","latitude":-33.865143,"longitude":151.2099,"reserved":0,"last_update":"0001-01-01T00:00:00Z","name_a2s":"Uncletopia | Sydney | 3 | All Maps","protocol":17,"map":"cp_sunshine","folder":"tf","game":"Team Fortress","app_id":440,"player_count":0,"max_players":24,"Bots":0,"server_type":"Dedicated","server_os":"Linux","password":true,"vac":true,"version":"7961495","steam_id":85568392925194467,"keywords":["cp","nocrits","nodmgspread","uncletopia"],"game_id":440,"stv_port":27036,"stv_name":"Uncletopia | Sydney | 3 | All Maps | STV","players":null},{"server_id":396,"name":"Uncletopia | Sydney | 4 | All Maps","name_short":"syd-4","host":"syd-1.au.uncletopia.com","port":27045,"enabled":true,"region":"au","cc":"au","latitude":-33.865143,"longitude":151.2099,"reserved":0,"last_update":"0001-01-01T00:00:00Z","name_a2s":"Uncletopia | Sydney | 4 | All Maps","protocol":17,"map":"koth_viaduct","folder":"tf","game":"Team Fortress","app_id":440,"player_count":0,"max_players":24,"Bots":0,"server_type":"Dedicated","server_os":"Linux","password":true,"vac":true,"version":"7961495","steam_id":85568392925397958,"keywords":["cp","nocrits","nodmgspread","uncletopia"],"game_id":440,"stv_port":27046,"stv_name":"Uncletopia | Sydney | 4 | All Maps | STV","players":null},{"server_id":58,"name":"Uncletopia | Sydney | 5 | Stopwatch","name_short":"syd-5","host":"syd-1.au.uncletopia.com","port":27055,"enabled":true,"region":"au","cc":"au","latitude":-33.865143,"longitude":151.2099,"reserved":0,"last_update":"0001-01-01T00:00:00Z","name_a2s":"Uncletopia | Sydney | 5 | Stopwatch","protocol":17,"map":"pl_upward","folder":"tf","game":"Team Fortress","app_id":440,"player_count":0,"max_players":24,"Bots":0,"server_type":"Dedicated","server_os":"Linux","password":true,"vac":true,"version":"7961495","steam_id":85568392925397959,"keywords":["nocrits","nodmgspread","payload","uncletopia"],"game_id":440,"stv_port":27056,"stv_name":"Uncletopia | Sydney | 5 | Stopwatch | STV","players":null},{"server_id":59,"name":"Uncletopia | Sydney | 6 | Community","name_short":"syd-6","host":"syd-1.au.uncletopia.com","port":27065,"enabled":true,"region":"au","cc":"au","latitude":-33.865143,"longitude":151.2099,"reserved":0,"last_update":"0001-01-01T00:00:00Z","name_a2s":"Uncletopia | Sydney | 6 | Community","protocol":17,"map":"cp_sunshine","folder":"tf","game":"Team Fortress","app_id":440,"player_count":0,"max_players":24,"Bots":0,"server_type":"Dedicated","server_os":"Linux","password":true,"vac":true,"version":"7961495","steam_id":85568392925397960,"keywords":["cp","nocrits","nodmgspread","uncletopia"],"game_id":440,"stv_port":27066,"stv_name":"Uncletopia | Sydney | 6 | Community | STV","players":null},{"server_id":49,"name":"Uncletopia | Warsaw | 1 | One Thousand Uncles","name_short":"waw-1","host":"waw-1.pl.uncletopia.com","port":27015,"enabled":true,"region":"eu","cc":"pl","latitude":52.2297,"longitude":21.017532,"reserved":0,"last_update":"0001-01-01T00:00:00Z","name_a2s":"Uncletopia | Warsaw | 1 | One Thousand Uncles","protocol":17,"map":"cp_egypt_final","folder":"tf","game":"Team Fortress","app_id":440,"player_count":29,"max_players":32,"Bots":16,"server_type":"Dedicated","server_os":"Linux","password":true,"vac":true,"version":"7961495","steam_id":85568392925397850,"keywords":["alltalk","bots","cp","danepve","increased_maxplayers","nocrits","norespawntime","uncletopia"],"game_id":440,"stv_port":0,"stv_name":"","players":[{"user_id":522,"name":"DaNugget_Prime","steam_id":76561198360512945,"connected_time":11051000000000,"state":"active","ping":62},{"user_id":672,"name":"Cg Studios","steam_id":76561198286908002,"connected_time":1029000000000,"state":"active","ping":80},{"user_id":555,"name":"progamercoast","steam_id":76561199240271445,"connected_time":8974000000000,"state":"active","ping":75},{"user_id":671,"name":"Tispy","steam_id":76561199207410049,"connected_time":1514000000000,"state":"active","ping":95},{"user_id":569,"name":"Riky95","steam_id":76561198095289436,"connected_time":6279000000000,"state":"active","ping":60},{"user_id":564,"name":"Ksiedzu","steam_id":76561198844946261,"connected_time":7765000000000,"state":"active","ping":70},{"user_id":652,"name":"yarchik moldavan","steam_id":76561199440082131,"connected_time":1850000000000,"state":"active","ping":68},{"user_id":675,"name":"Dj_Bear","steam_id":76561198149865187,"connected_time":653000000000,"state":"active","ping":35},{"user_id":646,"name":"JayMaloney","steam_id":76561198050173547,"connected_time":2616000000000,"state":"active","ping":74},{"user_id":620,"name":"IHaveBecomeBread","steam_id":76561198884652507,"connected_time":4259000000000,"state":"active","ping":88},{"user_id":647,"name":"LizardMilk_19","steam_id":76561199435002235,"connected_time":2557000000000,"state":"active","ping":297},{"user_id":677,"name":"Yogii","steam_id":76561198042215138,"connected_time":521000000000,"state":"active","ping":90},{"user_id":653,"name":"niceneo69","steam_id":76561199442221642,"connected_time":1824000000000,"state":"active","ping":80}]},{"server_id":50,"name":"Uncletopia | Warsaw | 2 | One Thousand Uncles","name_short":"waw-2","host":"waw-1.pl.uncletopia.com","port":27025,"enabled":true,"region":"eu","cc":"pl","latitude":52.2297,"longitude":21.017532,"reserved":0,"last_update":"0001-01-01T00:00:00Z","name_a2s":"Uncletopia | Warsaw | 2 | One Thousand Uncles","protocol":17,"map":"cp_dustbowl","folder":"tf","game":"Team Fortress","app_id":440,"player_count":25,"max_players":32,"Bots":16,"server_type":"Dedicated","server_os":"Linux","password":true,"vac":true,"version":"7961495","steam_id":85568392925397851,"keywords":["alltalk","bots","cp","danepve","increased_maxplayers","nocrits","norespawntime","uncletopia"],"game_id":440,"stv_port":0,"stv_name":"","players":[{"user_id":376,"name":"Kaia Brodbecker","steam_id":76561198294109951,"connected_time":205000000000,"state":"active","ping":95},{"user_id":352,"name":"bryophyta","steam_id":76561197968945306,"connected_time":868000000000,"state":"active","ping":102},{"user_id":373,"name":"Dosi","steam_id":76561199032025182,"connected_time":427000000000,"state":"active","ping":35},{"user_id":374,"name":"FalconBalcon","steam_id":76561199123991020,"connected_time":327000000000,"state":"active","ping":79},{"user_id":378,"name":"IRobot","steam_id":76561198830182200,"connected_time":115000000000,"state":"active","ping":44},{"user_id":323,"name":"skike","steam_id":76561198071079992,"connected_time":4082000000000,"state":"active","ping":99},{"user_id":371,"name":"Tiny Desk Engineer","steam_id":76561199049784560,"connected_time":595000000000,"state":"active","ping":186},{"user_id":302,"name":"yes man","steam_id":76561199403589748,"connected_time":6629000000000,"state":"active","ping":152},{"user_id":329,"name":"bartoszmalaszkiewicz","steam_id":76561199157266817,"connected_time":3773000000000,"state":"active","ping":41}]},{"server_id":51,"name":"Uncletopia | Warsaw | 3 | All Maps","name_short":"waw-3","host":"waw-1.pl.uncletopia.com","port":27035,"enabled":true,"region":"eu","cc":"pl","latitude":52.2297,"longitude":21.017532,"reserved":0,"last_update":"0001-01-01T00:00:00Z","name_a2s":"Uncletopia | Warsaw | 3 | All Maps","protocol":17,"map":"koth_cascade","folder":"tf","game":"Team Fortress","app_id":440,"player_count":0,"max_players":24,"Bots":0,"server_type":"Dedicated","server_os":"Linux","password":true,"vac":true,"version":"7961495","steam_id":85568392925397852,"keywords":["cp","nocrits","nodmgspread","uncletopia"],"game_id":440,"stv_port":27036,"stv_name":"Uncletopia | Warsaw | 3 | All Maps | STV","players":null},{"server_id":52,"name":"Uncletopia | Warsaw | 4 | All Maps","name_short":"waw-4","host":"waw-1.pl.uncletopia.com","port":27045,"enabled":true,"region":"eu","cc":"pl","latitude":52.2297,"longitude":21.017532,"reserved":0,"last_update":"0001-01-01T00:00:00Z","name_a2s":"Uncletopia | Warsaw | 4 | All Maps","protocol":17,"map":"pl_borneo","folder":"tf","game":"Team Fortress","app_id":440,"player_count":0,"max_players":24,"Bots":0,"server_type":"Dedicated","server_os":"Linux","password":true,"vac":true,"version":"7961495","steam_id":85568392925397853,"keywords":["nocrits","nodmgspread","payload","uncletopia"],"game_id":440,"stv_port":27046,"stv_name":"Uncletopia | Warsaw | 4 | All Maps | STV","players":null},{"server_id":53,"name":"Uncletopia | Warsaw | 5 | Stopwatch","name_short":"waw-5","host":"waw-1.pl.uncletopia.com","port":27055,"enabled":true,"region":"eu","cc":"pl","latitude":52.2297,"longitude":21.017532,"reserved":0,"last_update":"0001-01-01T00:00:00Z","name_a2s":"Uncletopia | Warsaw | 5 | Stopwatch","protocol":17,"map":"workshop/pl_barnblitz_pro7.ugc582280235","folder":"tf","game":"Team Fortress","app_id":440,"player_count":0,"max_players":24,"Bots":0,"server_type":"Dedicated","server_os":"Linux","password":true,"vac":true,"version":"7961495","steam_id":85568392925397854,"keywords":["nocrits","nodmgspread","payload","uncletopia"],"game_id":440,"stv_port":27056,"stv_name":"Uncletopia | Warsaw | 5 | Stopwatch | STV","players":null},{"server_id":54,"name":"Uncletopia | Warsaw | 6 | Community","name_short":"waw-6","host":"waw-1.pl.uncletopia.com","port":27065,"enabled":true,"region":"eu","cc":"pl","latitude":52.2297,"longitude":21.017532,"reserved":0,"last_update":"0001-01-01T00:00:00Z","name_a2s":"Uncletopia | Warsaw | 6 | Community","protocol":17,"map":"workshop/cp_coilblaze_rc7.ugc1272700588","folder":"tf","game":"Team Fortress","app_id":440,"player_count":0,"max_players":24,"Bots":0,"server_type":"Dedicated","server_os":"Linux","password":true,"vac":true,"version":"7961495","steam_id":85568392925397856,"keywords":["cp","nocrits","nodmgspread","uncletopia"],"game_id":440,"stv_port":27066,"stv_name":"Uncletopia | Warsaw | 6 | Community | STV","players":null}]}