{"status":true,"message":"","result":[{"server_id":9,"name":"Uncletopia | Atlanta | 1 | All Maps","name_short":"atl-1","host":"atl-1.us.uncletopia.com","port":27015,"enabled":true,"region":"us-east","cc":"us","latitude":33.753746,"longitude":-84.38633,"reserved":0,"last_update":"0001-01-01T00:00:00Z","name_a2s":"Uncletopia | Atlanta | 1 | All Maps","protocol":17,"map":"koth_viaduct","folder":"tf","game":"Team Fortress","app_id":440,"player_count":0,"max_players":24,"Bots":0,"server_type":"Dedicated","server_os":"Linux","password":true,"vac":true,"version":"7961495","steam_id":85568392924469982,"keywords":["cp","nocrits","nodmgspread","uncletopia"],"game_id":440,"stv_port":27016,"stv_name":"Uncletopia | Atlanta | 1 | All Maps | STV","players":null},{"server_id":104,"name":"Uncletopia | Atlanta | 2 | All Maps","name_short":"atl-2","host":"atl-1.us.uncletopia.com","port":27025,"enabled":true,"region":"us-east","cc":"us","latitude":33.753746,"longitude":-84.38633,"reserved":0,"last_update":"0001-01-01T00:00:00Z","name_a2s":"Uncletopia | Atlanta | 2 | All Maps","protocol":17,"map":"koth_cascade","folder":"tf","game":"Team Fortress","app_id":440,"player_count":0,"max_players":24,"Bots":0,"server_type":"Dedicated","server_os":"Linux","password":true,"vac":true,"version":"7961495","steam_id":85568392924469983,"keywords":["cp","nocrits","nodmgspread","uncletopia"],"game_id":440,"stv_port":27026,"stv_name":"Uncletopia | Atlanta | 2 | All Maps | STV","players":null},{"server_id":400,"name":"Uncletopia | Atlanta | 3 | Stopwatch","name_short":"atl-3","host":"atl-1.us.uncletopia.com","port":27035,"enabled":true,"region":"us-east","cc":"us","latitude":33.753746,"longitude":-84.38633,"reserved":0,"last_update":"0001-01-01T00:00:00Z","name_a2s":"Uncletopia | Atlanta | 3 | Stopwatch","protocol":17,"map":"koth_ramjam_rc1","folder":"tf","game":"Team Fortress","app_id":440,"player_count":0,"max_players":24,"Bots":0,"server_type":"Dedicated","server_os":"Linux","password":true,"vac":true,"version":"7961495","steam_id":85568392924515187,"keywords":["cp","nocrits","nodmgspread","uncletopia"],"game_id":440,"stv_port":27036,"stv_name":"Uncletopia | Atlanta | 3 | Stopwatch | STV","players":null},{"server_id":401,"name":"Uncletopia | Atlanta | 4 | Community","name_short":"atl-4","host":"atl-1.us.uncletopia.com","port":27045,"enabled":true,"region":"us-east","cc":"us","latitude":33.753746,"longitude":-84.38633,"reserved":0,"last_update":"0001-01-01T00:00:00Z","name_a2s":"Uncletopia | Atlanta | 4 | Community","protocol":17,"map":"cp_kalinka_rc6a","folder":"tf","game":"Team Fortress","app_id":440,"player_count":0,"max_players":24,"Bots":0,"server_type":"Dedicated","server_os":"Linux","password":true,"vac":true,"version":"7961495","steam_id":85568392924515188,"keywords":["cp","nocrits","nodmgspread","uncletopia"],"game_id":440,"stv_port":27046,"stv_name":"Uncletopia | Atlanta | 4 | Community | STV","players":null},{"server_id":2,"name":"Uncletopia | Chicago | 1 | All Maps","name_short":"chi-1","host":"chi-1.us.uncletopia.com","port":27015,"enabled":true,"region":"us-central","cc":"us","latitude":41.881832,"longitude":-87.62318,"reserved":0,"last_update":"0001-01-01T00:00:00Z","name_a2s":"Uncletopia | Chicago | 1 | All Maps","protocol":17,"map":"pl_borneo","folder":"tf","game":"Team Fortress","app_id":440,"player_count":24,"max_players":24,"Bots":0,"server_type":"Dedicated","server_os":"Linux","password":true,"vac":true,"version":"7961495","steam_id":85568392924469984,"keywords":["nocrits","nodmgspread","payload","uncletopia"],"game_id":440,"stv_port":27016,"stv_name":"Uncletopia | Chicago | 1 | All Maps | STV","players":[{"user_id":198,"name":"anonpain","steam_id":76561198081317092,"connected_time":3386000000000,"state":"active","ping":55},{"user_id":177,"name":"Bottom Trans Cowgirl","steam_id":76561198304239680,"connected_time":4906000000000,"state":"active","ping":78},{"user_id":226,"name":"RPGnoob","steam_id":76561198384913758,"connected_time":403000000000,"state":"active","ping":71},{"user_id":123,"name":"burger bill","steam_id":76561198116829392,"connected_time":9570000000000,"state":"active","ping":105},{"user_id":223,"name":"Shimori","steam_id":76561198050838732,"connected_time":614000000000,"state":"active","ping":142},{"user_id":181,"name":"localmeat.gov","steam_id":76561198079178866,"connected_time":4559000000000,"state":"active","ping":72},{"user_id":219,"name":"Mailman","steam_id":76561198395766307,"connected_time":1245000000000,"state":"active","ping":45},{"user_id":207,"name":"Milkmur","steam_id":76561198210043821,"connected_time":2333000000000,"state":"active","ping":74},{"user_id":231,"name":"vv","steam_id":76561198134813102,"connected_time":131000000000,"state":"active","ping":54},{"user_id":209,"name":"greasywombat","steam_id":76561198166590832,"connected_time":2095000000000,"state":"active","ping":100},{"user_id":221,"name":"2manyman","steam_id":76561198067156972,"connected_time":809000000000,"state":"active","ping":79},{"user_id":87,"name":"james may","steam_id":76561198043857339,"connected_time":11401000000000,"state":"active","ping":105},{"user_id":214,"name":"Comfy!","steam_id":76561198008818346,"connected_time":1812000000000,"state":"active","ping":74},{"user_id":230,"name":"lu","steam_id":76561198080731872,"connected_time":218000000000,"state":"active","ping":74},{"user_id":211,"name":"blossom!!! @ vegemite.com.au","steam_id":76561198042735130,"connected_time":2011000000000,"state":"active","ping":110},{"user_id":222,"name":"i suffer from ligma","steam_id":76561199158496518,"connected_time":755000000000,"state":"active","ping":114},{"user_id":224,"name":"Yengozi","steam_id":76561198448764748,"connected_time":419000000000,"state":"active","ping":82},{"user_id":212,"name":"Bee_Pirate","steam_id":76561199000599111,"connected_time":1995000000000,"state":"active","ping":51},{"user_id":208,"name":"blix24","steam_id":76561198126548774,"connected_time":2192000000000,"state":"active","ping":74},{"user_id":215,"name":"Owixan","steam_id":76561198074990070,"connected_time":1799000000000,"state":"active","ping":36},{"user_id":145,"name":"Archimedes!","steam_id":76561199446023933,"connected_time":8294000000000,"state":"active","ping":91},{"user_id":159,"name":"yes daddy","steam_id":76561198166100997,"connected_time":6159000000000,"state":"active","ping":80},{"user_id":233,"name":"Abysa.","steam_id":76561198424398862,"connected_time":73000000000,"state":"active","ping":126},{"user_id":228,"name":"fish ●","steam_id":76561198999217575,"connected_time":401000000000,"state":"active","ping":69}]},{"server_id":106,"name":"Uncletopia | Chicago | 2 | All Maps","name_short":"chi-2","host":"chi-1.us.uncletopia.com","port":27025,"enabled":true,"region":"us-central","cc":"us","latitude":41.881832,"longitude":-87.62318,"reserved":0,"last_update":"0001-01-01T00:00:00Z","name_a2s":"Uncletopia | Chicago | 2 | All Maps","protocol":17,"map":"cp_process_final","folder":"tf","game":"Team Fortress","app_id":440,"player_count":24,"max_players":24,"Bots":0,"server_type":"Dedicated","server_os":"Linux","password":true,"vac":true,"version":"7961495","steam_id":85568392924469985,"keywords":["cp","nocrits","nodmgspread","uncletopia"],"game_id":440,"stv_port":27026,"stv_name":"Uncletopia | Chicago | 2 | All Maps | STV","players":[{"user_id":345,"name":"[Sc.B.V.G] Eagley Beagley Eagle","steam_id":76561198166730618,"connected_time":581000000000,"state":"active","ping":63},{"user_id":325,"name":"Scorpie Doodle","steam_id":76561198021845763,"connected_time":1150000000000,"state":"active","ping":57},{"user_id":273,"name":"Unnecessary Toxicity","steam_id":76561198249397292,"connected_time":4294000000000,"state":"active","ping":70},{"user_id":354,"name":"Cheese4Everyone","steam_id":76561198022333985,"connected_time":292000000000,"state":"active","ping":70},{"user_id":322,"name":"Draconic Ballad","steam_id":76561198027191515,"connected_time":1426000000000,"state":"active","ping":56},{"user_id":347,"name":"SomeRandomCat","steam_id":76561199107044061,"connected_time":486000000000,"state":"active","ping":73},{"user_id":226,"name":"Nephi","steam_id":76561198031525122,"connected_time":7677000000000,"state":"active","ping":78},{"user_id":337,"name":"Loogus","steam_id":76561198811561721,"connected_time":875000000000,"state":"active","ping":92},{"user_id":338,"name":"Two","steam_id":76561198207078715,"connected_time":861000000000,"state":"active","ping":103},{"user_id":348,"name":"The_Hairy_Beast","steam_id":76561198976661052,"connected_time":477000000000,"state":"active","ping":75},{"user_id":330,"name":"songcreator","steam_id":76561198076822464,"connected_time":1119000000000,"state":"active","ping":48},{"user_id":327,"name":"THORNFIELDGAMER","steam_id":76561199087167473,"connected_time":1138000000000,"state":"active","ping":85},{"user_id":342,"name":"shitass (Reaping and Sowing)","steam_id":76561198210572481,"connected_time":686000000000,"state":"active","ping":76},{"user_id":302,"name":"Tommy Pickles (Very Cool)","steam_id":76561198391261463,"connected_time":3083000000000,"state":"active","ping":77},{"user_id":355,"name":"Blitzy","steam_id":76561198149472890,"connected_time":263000000000,"state":"active","ping":75},{"user_id":306,"name":"_Lusty_","steam_id":76561198876948142,"connected_time":2820000000000,"state":"active","ping":62},{"user_id":341,"name":"Oopsie Daisy ❋","steam_id":76561198042144492,"connected_time":828000000000,"state":"active","ping":71},{"user_id":332,"name":"lampin","steam_id":76561197964367078,"connected_time":1108000000000,"state":"active","ping":47},{"user_id":351,"name":"howie","steam_id":76561198108685037,"connected_time":407000000000,"state":"active","ping":64},{"user_id":221,"name":"FIJI","steam_id":76561198126087725,"connected_time":8280000000000,"state":"active","ping":72},{"user_id":350,"name":"stub","steam_id":76561199060788308,"connected_time":436000000000,"state":"active","ping":72},{"user_id":340,"name":"Bored Barred Owl","steam_id":76561198263895597,"connected_time":853000000000,"state":"active","ping":82},{"user_id":353,"name":"Im High","steam_id":76561198049954886,"connected_time":342000000000,"state":"active","ping":77},{"user_id":305,"name":"IanTheAwsm","steam_id":76561198093031738,"connected_time":2907000000000,"state":"active","ping":59}]},{"server_id":402,"name":"Uncletopia | Chicago | 3 | All Maps","name_short":"chi-3","host":"chi-1.us.uncletopia.com","port":27035,"enabled":true,"region":"us-central","cc":"us","latitude":41.881832,"longitude":-87.62318,"reserved":0,"last_update":"0001-01-01T00:00:00Z","name_a2s":"Uncletopia | Chicago | 3 | All Maps","protocol":17,"map":"pl_upward","folder":"tf","game":"Team Fortress","app_id":440,"player_count":24,"max_players":24,"Bots":0,"server_type":"Dedicated","server_os":"Linux","password":true,"vac":true,"version":"7961495","steam_id":85568392924515191,"keywords":["nocrits","nodmgspread","payload","uncletopia"],"game_id":440,"stv_port":27036,"stv_name":"Uncletopia | Chicago | 3 | All Maps | STV","players":[{"user_id":44,"name":"A Puppy","steam_id":76561198828184456,"connected_time":2575000000000,"state":"active","ping":57},{"user_id":69,"name":"siodoge","steam_id":76561198061184951,"connected_time":39000000000,"state":"active","ping":62},{"user_id":13,"name":"mild mannered mystery man","steam_id":76561198072095399,"connected_time":3694000000000,"state":"active","ping":58},{"user_id":14,"name":"TimeWarper","steam_id":76561198307258839,"connected_time":3658000000000,"state":"active","ping":73},{"user_id":55,"name":"LocaKola","steam_id":76561198173435430,"connected_time":1580000000000,"state":"active","ping":68},{"user_id":56,"name":"LofiBunny","steam_id":76561198019602869,"connected_time":1572000000000,"state":"active","ping":45},{"user_id":37,"name":"Olympic Toe Curling","steam_id":76561198433807531,"connected_time":2810000000000,"state":"active","ping":79},{"user_id":25,"name":"Nemiel Zaharion","steam_id":76561197999234678,"connected_time":3066000000000,"state":"active","ping":76},{"user_id":20,"name":"Dinosaur","steam_id":76561198854695804,"connected_time":3199000000000,"state":"active","ping":70},{"user_id":21,"name":"Kevin Y.","steam_id":76561198364331423,"connected_time":3197000000000,"state":"active","ping":93},{"user_id":66,"name":"King","steam_id":76561198039763676,"connected_time":737000000000,"state":"active","ping":61},{"user_id":64,"name":"FAT FUCK engineer","steam_id":76561198882404753,"connected_time":807000000000,"state":"active","ping":75},{"user_id":24,"name":"Pork44","steam_id":76561198005773170,"connected_time":3112000000000,"state":"active","ping":69},{"user_id":63,"name":"Kid named download","steam_id":76561199192074448,"connected_time":1035000000000,"state":"active","ping":80},{"user_id":27,"name":"that shit for the birds","steam_id":76561198142756572,"connected_time":2999000000000,"state":"active","ping":59},{"user_id":68,"name":"DJtrickshot2013","steam_id":76561199184622920,"connected_time":198000000000,"state":"active","ping":84},{"user_id":62,"name":"Jake_Spencer","steam_id":76561198025176750,"connected_time":1056000000000,"state":"active","ping":77},{"user_id":31,"name":"The Great Eagle Scourge of 1822","steam_id":76561198325086209,"connected_time":2914000000000,"state":"active","ping":114},{"user_id":67,"name":"sorrow","steam_id":76561199108203038,"connected_time":729000000000,"state":"active","ping":50},{"user_id":52,"name":"lynt","steam_id":76561198988333976,"connected_time":1913000000000,"state":"active","ping":60},{"user_id":65,"name":"Nefy","steam_id":76561198030017316,"connected_time":773000000000,"state":"active","ping":88},{"user_id":38,"name":"Nightman","steam_id":76561198089513762,"connected_time":2784000000000,"state":"active","ping":86},{"user_id":70,"name":"it’s all fake and gay","steam_id":76561198038080028,"connected_time":34000000000,"state":"active","ping":90},{"user_id":45,"name":"kermitcreeper(ZAZA)","steam_id":76561199222829972,"connected_time":2574000000000,"state":"active","ping":52}]},{"server_id":403,"name":"Uncletopia | Chicago | 4 | All Maps","name_short":"chi-4","host":"chi-1.us.uncletopia.com","port":27045,"enabled":true,"region":"us-central","cc":"us","latitude":41.881832,"longitude":-87.62318,"reserved":0,"last_update":"0001-01-01T00:00:00Z","name_a2s":"Uncletopia | Chicago | 4 | All Maps","protocol":17,"map":"plr_bananabay","folder":"tf","game":"Team Fortress","app_id":440,"player_count":24,"max_players":24,"Bots":0,"server_type":"Dedicated","server_os":"Linux","password":true,"vac":true,"version":"7961495","steam_id":85568392924515193,"keywords":["nocrits","nodmgspread","payload","uncletopia"],"game_id":440,"stv_port":27046,"stv_name":"Uncletopia | Chicago | 4 | All Maps | STV","players":[{"user_id":135,"name":"tydogzilla","steam_id":76561198054254518,"connected_time":1320000000000,"state":"active","ping":65},{"user_id":98,"name":"banana bay enthusiast","steam_id":76561198124791670,"connected_time":4463000000000,"state":"active","ping":57},{"user_id":136,"name":"Mojak","steam_id":76561198420166545,"connected_time":428000000000,"state":"active","ping":68},{"user_id":96,"name":"Urbanzpinapple","steam_id":76561198115426938,"connected_time":4509000000000,"state":"active","ping":64},{"user_id":137,"name":"mechiimi","steam_id":76561198321627268,"connected_time":350000000000,"state":"active","ping":117},{"user_id":132,"name":"Pomson Gaming","steam_id":76561199200442395,"connected_time":1510000000000,"state":"active","ping":179},{"user_id":141,"name":"ScoutBox","steam_id":76561198111539895,"connected_time":262000000000,"state":"active","ping":97},{"user_id":139,"name":"Els","steam_id":76561198354718934,"connected_time":294000000000,"state":"active","ping":86},{"user_id":119,"name":"CarrotGaming39581","steam_id":76561198316235342,"connected_time":2508000000000,"state":"active","ping":66},{"user_id":129,"name":"KaijuCowBelle","steam_id":76561198191619439,"connected_time":1566000000000,"state":"active","ping":75},{"user_id":130,"name":"shoutyman","steam_id":76561198055456198,"connected_time":1530000000000,"state":"active","ping":75},{"user_id":148,"name":"deep seated issues","steam_id":76561198110046630,"connected_time":78000000000,"state":"active","ping":58},{"user_id":142,"name":"Joe","steam_id":76561198247499954,"connected_time":252000000000,"state":"active","ping":66},{"user_id":81,"name":"Prof. Shittington","steam_id":76561198135137213,"connected_time":5465000000000,"state":"active","ping":57},{"user_id":82,"name":"Junkan","steam_id":76561198127676420,"connected_time":5446000000000,"state":"active","ping":80},{"user_id":131,"name":"D.E.O","steam_id":76561198096992957,"connected_time":1527000000000,"state":"active","ping":118},{"user_id":143,"name":"g8rade","steam_id":76561198070593964,"connected_time":245000000000,"state":"active","ping":76},{"user_id":144,"name":"ඞ","steam_id":76561199365672047,"connected_time":229000000000,"state":"active","ping":87},{"user_id":145,"name":"TACOMA WEPT","steam_id":76561198273568117,"connected_time":184000000000,"state":"active","ping":67},{"user_id":122,"name":"YOU WHAT?!","steam_id":76561198418679471,"connected_time":2472000000000,"state":"active","ping":60},{"user_id":75,"name":"William Wallace","steam_id":76561199343316814,"connected_time":5534000000000,"state":"active","ping":76},{"user_id":123,"name":"H1DD3 gaming","steam_id":76561198855897385,"connected_time":2454000000000,"state":"active","ping":171},{"user_id":146,"name":"Defragmented","steam_id":76561198854210081,"connected_time":176000000000,"state":"active","ping":70},{"user_id":147,"name":"Citizen Snips","steam_id":76561197987632836,"connected_time":138000000000,"state":"active","ping":58}]},{"server_id":36,"name":"Uncletopia | Chicago | 5 | All Maps","name_short":"chi-5","host":"chi-2.us.uncletopia.com","port":27015,"enabled":true,"region":"us-central","cc":"us","latitude":41.881832,"longitude":-87.62318,"reserved":0,"last_update":"0001-01-01T00:00:00Z","name_a2s":"Uncletopia | Chicago | 5 | All Maps","protocol":17,"map":"koth_viaduct","folder":"tf","game":"Team Fortress","app_id":440,"player_count":0,"max_players":24,"Bots":0,"server_type":"Dedicated","server_os":"Linux","password":true,"vac":true,"version":"7961495","steam_id":85568392924866362,"keywords":["cp","nocrits","nodmgspread","uncletopia"],"game_id":440,"stv_port":27016,"stv_name":"Uncletopia | Chicago | 5 | All Maps | STV","players":null},{"server_id":37,"name":"Uncletopia | Chicago | 6 | All Maps","name_short":"chi-6","host":"chi-2.us.uncletopia.com","port":27025,"enabled":true,"region":"us-central","cc":"us","latitude":41.881832,"longitude":-87.62318,"reserved":0,"last_update":"0001-01-01T00:00:00Z","name_a2s":"Uncletopia | Chicago | 6 | All Maps","protocol":17,"map":"pl_snowycoast","folder":"tf","game":"Team Fortress","app_id":440,"player_count":24,"max_players":24,"Bots":0,"server_type":"Dedicated","server_os":"Linux","password":true,"vac":true,"version":"7961495","steam_id":85568392924866363,"keywords":["nocrits","nodmgspread","payload","uncletopia"],"game_id":440,"stv_port":27026,"stv_name":"Uncletopia | Chicago | 6 | All Maps | STV","players":[{"user_id":73,"name":"Epifiny","steam_id":76561198027958086,"connected_time":258000000000,"state":"active","ping":65},{"user_id":53,"name":"Ejaculation Zach","steam_id":76561198203765200,"connected_time":1009000000000,"state":"active","ping":62},{"user_id":56,"name":"A Dodge Challenger","steam_id":76561198097978317,"connected_time":840000000000,"state":"active","ping":75},{"user_id":55,"name":"jaker","steam_id":76561198088031993,"connected_time":906000000000,"state":"active","ping":111},{"user_id":52,"name":"Tobo","steam_id":76561198085846393,"connected_time":1083000000000,"state":"active","ping":96},{"user_id":57,"name":"Ninja Steave","steam_id":76561197985884951,"connected_time":824000000000,"state":"active","ping":64},{"user_id":72,"name":"Gotta Move That Gear Up","steam_id":76561197993467034,"connected_time":293000000000,"state":"active","ping":52},{"user_id":45,"name":"wafflehamster2000","steam_id":76561198849161820,"connected_time":2305000000000,"state":"active","ping":74},{"user_id":74,"name":"Poo","steam_id":76561198265144507,"connected_time":251000000000,"state":"active","ping":97},{"user_id":75,"name":"sudo apt-get install joe mama","steam_id":76561198394654876,"connected_time":223000000000,"state":"active","ping":53},{"user_id":60,"name":"6t26j","steam_id":76561198278282836,"connected_time":779000000000,"state":"active","ping":48},{"user_id":61,"name":"toastman","steam_id":76561198207073088,"connected_time":767000000000,"state":"active","ping":85},{"user_id":76,"name":"Juustin","steam_id":76561198121922413,"connected_time":176000000000,"state":"active","ping":100},{"user_id":64,"name":"Mr.Pwesident","steam_id":76561198058114703,"connected_time":742000000000,"state":"active","ping":96},{"user_id":47,"name":"Howard Hamlin","steam_id":76561198881039861,"connected_time":2154000000000,"state":"active","ping":52},{"user_id":51,"name":"Dishwasher Detergent Evangelism","steam_id":76561198069735882,"connected_time":1366000000000,"state":"active","ping":75},{"user_id":68,"name":"Ac3_0f_Spades","steam_id":76561198356433082,"connected_time":493000000000,"state":"active","ping":83},{"user_id":37,"name":"StarB","steam_id":76561198149605368,"connected_time":3270000000000,"state":"active","ping":84},{"user_id":66,"name":"veki177","steam_id":76561199059047474,"connected_time":591000000000,"state":"active","ping":198},{"user_id":77,"name":"Sandor","steam_id":76561198379995820,"connected_time":133000000000,"state":"active","ping":71},{"user_id":67,"name":"Wulf","steam_id":76561198006072568,"connected_time":571000000000,"state":"active","ping":108},{"user_id":69,"name":"Carl, Good to see you","steam_id":76561198070574075,"connected_time":476000000000,"state":"active","ping":72},{"user_id":34,"name":"I am the pinnacle of funny","steam_id":76561198306393090,"connected_time":3604000000000,"state":"active","ping":47},{"user_id":78,"name":"Space Lizard","steam_id":76561198056798193,"connected_time":130000000000,"state":"active","ping":76}]},{"server_id":38,"name":"Uncletopia | Chicago | 7 | Stopwatch","name_short":"chi-7","host":"chi-2.us.uncletopia.com","port":27035,"enabled":true,"region":"us-central","cc":"us","latitude":41.881832,"longitude":-87.62318,"reserved":0,"last_update":"0001-01-01T00:00:00Z","name_a2s":"Uncletopia | Chicago | 7 | Stopwatch","protocol":17,"map":"workshop/koth_product_final.ugc454272353","folder":"tf","game":"Team Fortress","app_id":440,"player_count":0,"max_players":24,"Bots":0,"server_type":"Dedicated","server_os":"Linux","password":true,"vac":true,"version":"7961495","steam_id":85568392924866364,"keywords":["cp","nocrits","nodmgspread","uncletopia"],"game_id":440,"stv_port":27036,"stv_name":"Uncletopia | Chicago | 7 | Stopwatch | STV","players":null},{"server_id":39,"name":"Uncletopia | Chicago | 8 | Community","name_short":"chi-8","host":"chi-2.us.uncletopia.com","port":27045,"enabled":true,"region":"us-central","cc":"us","latitude":41.881832,"longitude":-87.62318,"reserved":0,"last_update":"0001-01-01T00:00:00Z","name_a2s":"Uncletopia | Chicago | 8 | Community","protocol":17,"map":"workshop/pl_eruption_b9a.ugc2807898013","folder":"tf","game":"Team Fortress","app_id":440,"player_count":0,"max_players":24,"Bots":0,"server_type":"Dedicated","server_os":"Linux","password":true,"vac":true,"version":"7961495","steam_id":85568392924866365,"keywords":["nocrits","nodmgspread","payload","uncletopia"],"game_id":440,"stv_port":27046,"stv_name":"Uncletopia | Chicago | 8 | Community | STV","players":null},{"server_id":8,"name":"Uncletopia | Dallas | 1 | All Maps","name_short":"dal-1","host":"dal-1.us.uncletopia.com","port":27015,"enabled":true,"region":"us-central","cc":"us","latitude":32.779167,"longitude":-96.80889,"reserved":0,"last_update":"0001-01-01T00:00:00Z","name_a2s":"Uncletopia | Dallas | 1 | All Maps","protocol":17,"map":"koth_highpass","folder":"tf","game":"Team Fortress","app_id":440,"player_count":24,"max_players":24,"Bots":0,"server_type":"Dedicated","server_os":"Linux","password":true,"vac":true,"version":"7961495","steam_id":85568392924469986,"keywords":["cp","nocrits","nodmgspread","uncletopia"],"game_id":440,"stv_port":27016,"stv_name":"Uncletopia | Dallas | 1 | All Maps | STV","players":[{"user_id":192,"name":"Silvermace","steam_id":76561198090696843,"connected_time":1032000000000,"state":"active","ping":60},{"user_id":194,"name":"pinglefingle","steam_id":76561198216580197,"connected_time":1010000000000,"state":"active","ping":61},{"user_id":186,"name":"BukkBuggy","steam_id":76561198046107506,"connected_time":1707000000000,"state":"active","ping":96},{"user_id":203,"name":"TechnoBear2099","steam_id":76561198238863596,"connected_time":28000000000,"state":"active","ping":50},{"user_id":185,"name":"Rob","steam_id":76561199187786660,"connected_time":1939000000000,"state":"active","ping":56},{"user_id":175,"name":"Bleat","steam_id":76561198138678917,"connected_time":2385000000000,"state":"active","ping":150},{"user_id":197,"name":"Minus-Abinus","steam_id":76561199080630632,"connected_time":712000000000,"state":"active","ping":90},{"user_id":198,"name":"josh","steam_id":76561198077902438,"connected_time":706000000000,"state":"active","ping":75},{"user_id":196,"name":"moe","steam_id":76561198929586245,"connected_time":991000000000,"state":"active","ping":71},{"user_id":140,"name":"FI LO","steam_id":76561198976530881,"connected_time":4974000000000,"state":"active","ping":74},{"user_id":195,"name":"Penguinoverlord999","steam_id":76561199231051116,"connected_time":1006000000000,"state":"active","ping":87},{"user_id":200,"name":"Stultus","steam_id":76561198115116367,"connected_time":471000000000,"state":"active","ping":94},{"user_id":189,"name":"GuyGoom","steam_id":76561198254522178,"connected_time":1338000000000,"state":"active","ping":75},{"user_id":173,"name":"Pal","steam_id":76561198079657093,"connected_time":2473000000000,"state":"active","ping":45},{"user_id":128,"name":"J.C. Leyendenton","steam_id":76561198096306325,"connected_time":5179000000000,"state":"active","ping":93},{"user_id":177,"name":"Nylus","steam_id":76561198026623489,"connected_time":2372000000000,"state":"active","ping":178},{"user_id":187,"name":"atlas","steam_id":76561198116768948,"connected_time":1700000000000,"state":"active","ping":90},{"user_id":153,"name":"DiscoTraveler","steam_id":76561199240168088,"connected_time":4117000000000,"state":"active","ping":80},{"user_id":201,"name":"chubbs from happy gilmore","steam_id":76561198143538672,"connected_time":435000000000,"state":"active","ping":80},{"user_id":202,"name":"ATL1 | to4st","steam_id":76561198981009008,"connected_time":132000000000,"state":"active","ping":74},{"user_id":191,"name":"the.land.of.avalon","steam_id":76561198245431668,"connected_time":1034000000000,"state":"active","ping":74},{"user_id":180,"name":"Pixeled","steam_id":76561198088917077,"connected_time":2246000000000,"state":"active","ping":97},{"user_id":181,"name":"Password is Taco","steam_id":76561198026092945,"connected_time":2245000000000,"state":"active","ping":71},{"user_id":183,"name":"HEHRAHA KRITTY KRAT :3","steam_id":76561198210951041,"connected_time":1982000000000,"state":"active","ping":161}]},{"server_id":108,"name":"Uncletopia | Dallas | 2 | All Maps","name_short":"dal-2","host":"dal-1.us.uncletopia.com","port":27025,"enabled":true,"region":"us-central","cc":"us","latitude":32.779167,"longitude":-96.80889,"reserved":0,"last_update":"0001-01-01T00:00:00Z","name_a2s":"Uncletopia | Dallas | 2 | All Maps","protocol":17,"map":"pl_badwater","folder":"tf","game":"Team Fortress","app_id":440,"player_count":24,"max_players":24,"Bots":0,"server_type":"Dedicated","server_os":"Linux","password":true,"vac":true,"version":"7961495","steam_id":85568392924469988,"keywords":["nocrits","nodmgspread","payload","uncletopia"],"game_id":440,"stv_port":27026,"stv_name":"Uncletopia | Dallas | 2 | All Maps | STV","players":[{"user_id":105,"name":"n00dle","steam_id":76561198120798040,"connected_time":422000000000,"state":"active","ping":70},{"user_id":68,"name":"graham crackr","steam_id":76561199072720886,"connected_time":3417000000000,"state":"active","ping":78},{"user_id":79,"name":"Jesse Bear","steam_id":76561198217075305,"connected_time":1866000000000,"state":"active","ping":92},{"user_id":73,"name":"Kirby.exe","steam_id":76561198242714582,"connected_time":2705000000000,"state":"active","ping":58},{"user_id":80,"name":"Ecliptica","steam_id":76561198171951333,"connected_time":1857000000000,"state":"active","ping":73},{"user_id":98,"name":"MonkeyNobody","steam_id":76561199451266605,"connected_time":665000000000,"state":"active","ping":85},{"user_id":97,"name":"shreklover69","steam_id":76561198054070811,"connected_time":670000000000,"state":"active","ping":86},{"user_id":22,"name":"trying to get my bf pregnant","steam_id":76561198097175164,"connected_time":5813000000000,"state":"active","ping":109},{"user_id":106,"name":"brimblobeeple","steam_id":76561198073176682,"connected_time":395000000000,"state":"active","ping":84},{"user_id":96,"name":"Firedust19","steam_id":76561198153238631,"connected_time":1022000000000,"state":"active","ping":105},{"user_id":107,"name":"090-nsalih","steam_id":76561199467467873,"connected_time":384000000000,"state":"active","ping":118},{"user_id":101,"name":"lego star wars on the psp","steam_id":76561198148014773,"connected_time":620000000000,"state":"active","ping":99},{"user_id":64,"name":"Mellou","steam_id":76561198212048740,"connected_time":3835000000000,"state":"active","ping":44},{"user_id":28,"name":"Jack the Dripper","steam_id":76561198043911582,"connected_time":5714000000000,"state":"active","ping":84},{"user_id":88,"name":"Riff III","steam_id":76561198066921423,"connected_time":1475000000000,"state":"active","ping":70},{"user_id":108,"name":"HarryjusttHarry","steam_id":76561198982810452,"connected_time":377000000000,"state":"active","ping":82},{"user_id":95,"name":"JobyDudePerson","steam_id":76561199157937846,"connected_time":1120000000000,"state":"active","ping":100},{"user_id":34,"name":"ʏᴜᴊɪ","steam_id":76561198401572620,"connected_time":5595000000000,"state":"active","ping":87},{"user_id":102,"name":"SpyderMonkee777","steam_id":76561198170859026,"connected_time":584000000000,"state":"active","ping":60},{"user_id":85,"name":"Dr. House","steam_id":76561198052910702,"connected_time":1812000000000,"state":"active","ping":70},{"user_id":103,"name":"Bradz","steam_id":76561198175090085,"connected_time":575000000000,"state":"active","ping":78},{"user_id":86,"name":"marty","steam_id":76561198032782746,"connected_time":1798000000000,"state":"active","ping":89},{"user_id":104,"name":"Joey Diaz","steam_id":76561198114230694,"connected_time":525000000000,"state":"active","ping":97},{"user_id":91,"name":"Diehardboom","steam_id":76561198008934263,"connected_time":1389000000000,"state":"active","ping":76}]},{"server_id":404,"name":"Uncletopia | Dallas | 3 | All Maps","name_short":"dal-3","host":"dal-1.us.uncletopia.com","port":27035,"enabled":true,"region":"us-central","cc":"us","latitude":32.779167,"longitude":-96.80889,"reserved":0,"last_update":"0001-01-01T00:00:00Z","name_a2s":"Uncletopia | Dallas | 3 | All Maps","protocol":17,"map":"koth_viaduct","folder":"tf","game":"Team Fortress","app_id":440,"player_count":0,"max_players":24,"Bots":0,"server_type":"Dedicated","server_os":"Linux","password":true,"vac":true,"version":"7961495","steam_id":85568392924515219,"keywords":["cp","nocrits","nodmgspread","uncletopia"],"game_id":440,"stv_port":27036,"stv_name":"Uncletopia | Dallas | 3 | All Maps | STV","players":null},{"server_id":405,"name":"Uncletopia | Dallas | 4 | Community","name_short":"dal-4","host":"dal-1.us.uncletopia.com","port":27045,"enabled":true,"region":"us-central","cc":"us","latitude":32.779167,"longitude":-96.80889,"reserved":0,"last_update":"0001-01-01T00:00:00Z","name_a2s":"Uncletopia | Dallas | 4 | Community","protocol":17,"map":"workshop/cp_croissant_final.ugc458840209","folder":"tf","game":"Team Fortress","app_id":440,"player_count":6,"max_players":24,"Bots":0,"server_type":"Dedicated","server_os":"Linux","password":true,"vac":true,"version":"7961495","steam_id":85568392924515220,"keywords":["cp","nocrits","nodmgspread","uncletopia"],"game_id":440,"stv_port":27046,"stv_name":"Uncletopia | Dallas | 4 | Community | STV","players":[{"user_id":7,"name":"Spinch","steam_id":76561198296224166,"connected_time":3750000000000,"state":"active","ping":71},{"user_id":6,"name":"Publo","steam_id":76561198161777140,"connected_time":3827000000000,"state":"active","ping":47},{"user_id":16,"name":"ninja45","steam_id":76561198150619521,"connected_time":1602000000000,"state":"active","ping":80},{"user_id":20,"name":"joachym","steam_id":76561198428579761,"connected_time":989000000000,"state":"active","ping":176},{"user_id":21,"name":"Minlit","steam_id":76561198205832799,"connected_time":213000000000,"state":"active","ping":47},{"user_id":17,"name":"K2f","steam_id":76561198049600563,"connected_time":1516000000000,"state":"active","ping":70}]},{"server_id":5,"name":"Uncletopia | Frankfurt | 1 | All Maps","name_short":"frk-1","host":"frk-1.de.uncletopia.com","port":27015,"enabled":true,"region":"eu","cc":"de","latitude":50.110924,"longitude":8.682127,"reserved":0,"last_update":"0001-01-01T00:00:00Z","name_a2s":"Uncletopia | Frankfurt | 1 | All Maps","protocol":17,"map":"pl_barnblitz","folder":"tf","game":"Team Fortress","app_id":440,"player_count":24,"max_players":24,"Bots":0,"server_type":"Dedicated","server_os":"Linux","password":true,"vac":true,"version":"7961495","steam_id":85568392924469989,"keywords":["nocrits","nodmgspread","payload","uncletopia"],"game_id":440,"stv_port":27016,"stv_name":"Uncletopia | Frankfurt | 1 | All Maps | STV","players":[{"user_id":456,"name":"[P-roc] Cmm Bert","steam_id":76561198016658674,"connected_time":4767000000000,"state":"active","ping":68},{"user_id":499,"name":"StaigerDuck","steam_id":76561199190706582,"connected_time":1958000000000,"state":"active","ping":145},{"user_id":460,"name":"VIN WEASEL","steam_id":76561198014387066,"connected_time":4239000000000,"state":"active","ping":49},{"user_id":482,"name":"Nor1h_l1zard","steam_id":76561198250011918,"connected_time":2448000000000,"state":"active","ping":73},{"user_id":483,"name":"Aven","steam_id":76561198974343597,"connected_time":2444000000000,"state":"active","ping":84},{"user_id":516,"name":"w presser","steam_id":76561197994600818,"connected_time":323000000000,"state":"active","ping":45},{"user_id":504,"name":"[P-roc] Lovely","steam_id":76561198074361075,"connected_time":1137000000000,"state":"active","ping":56},{"user_id":502,"name":"justify","steam_id":76561199227541378,"connected_time":1652000000000,"state":"active","ping":172},{"user_id":518,"name":"Spotmonkey","steam_id":76561198003994092,"connected_time":88000000000,"state":"active","ping":70},{"user_id":500,"name":"MixailSend","steam_id":76561198992531145,"connected_time":1841000000000,"state":"active","ping":90},{"user_id":501,"name":"MaTke","steam_id":76561198378170301,"connected_time":1721000000000,"state":"active","ping":70},{"user_id":508,"name":"Rojapokemona","steam_id":76561198179925894,"connected_time":1001000000000,"state":"active","ping":66},{"user_id":480,"name":"_Alonso","steam_id":76561198041893314,"connected_time":2927000000000,"state":"active","ping":52},{"user_id":486,"name":"thorstianer","steam_id":76561199090304505,"connected_time":2423000000000,"state":"active","ping":63},{"user_id":491,"name":"hasky","steam_id":76561197986052798,"connected_time":2289000000000,"state":"active","ping":72},{"user_id":517,"name":"Ash","steam_id":76561198148738525,"connected_time":251000000000,"state":"active","ping":102},{"user_id":492,"name":"corralled","steam_id":76561198028648627,"connected_time":2193000000000,"state":"active","ping":71},{"user_id":487,"name":"uma","steam_id":76561198147976939,"connected_time":2420000000000,"state":"active","ping":50},{"user_id":477,"name":"filthy ☆","steam_id":76561198089069719,"connected_time":3183000000000,"state":"active","ping":67},{"user_id":497,"name":"Dr. Livesey","steam_id":76561198071049943,"connected_time":2031000000000,"state":"active","ping":74},{"user_id":493,"name":"witamina B","steam_id":76561198109304574,"connected_time":2139000000000,"state":"active","ping":75},{"user_id":498,"name":"gagalak","steam_id":76561198089979108,"connected_time":2012000000000,"state":"active","ping":90},{"user_id":390,"name":"Schmack","steam_id":76561198026535437,"connected_time":7702000000000,"state":"active","ping":60},{"user_id":506,"name":"Carl","steam_id":76561198045638738,"connected_time":1047000000000,"state":"active","ping":73}]},{"server_id":110,"name":"Uncletopia | Frankfurt | 2 | All Maps","name_short":"frk-2","host":"frk-1.de.uncletopia.com","port":27025,"enabled":true,"region":"eu","cc":"de","latitude":50.110924,"longitude":8.682127,"reserved":0,"last_update":"0001-01-01T00:00:00Z","name_a2s":"Uncletopia | Frankfurt | 2 | All Maps","protocol":17,"map":"pl_hoodoo_final","folder":"tf","game":"Team Fortress","app_id":440,"player_count":24,"max_players":24,"Bots":0,"server_type":"Dedicated","server_os":"Linux","password":true,"vac":true,"version":"7961495","steam_id":85568392924469990,"keywords":["nocrits","nodmgspread","payload","uncletopia"],"game_id":440,"stv_port":27026,"stv_name":"Uncletopia | Frankfurt | 2 | All Maps | STV","players":[{"user_id":151,"name":"niandits","steam_id":76561198419798900,"connected_time":628000000000,"state":"active","ping":126},{"user_id":74,"name":"x","steam_id":76561198043837480,"connected_time":4941000000000,"state":"active","ping":63},{"user_id":22,"name":"Skuld","steam_id":76561198064734905,"connected_time":5922000000000,"state":"active","ping":90},{"user_id":155,"name":"jù xiē","steam_id":76561198096189399,"connected_time":490000000000,"state":"active","ping":54},{"user_id":26,"name":"skorp1le","steam_id":76561198862770825,"connected_time":5894000000000,"state":"active","ping":86},{"user_id":127,"name":"burritoeater","steam_id":76561199124197813,"connected_time":1869000000000,"state":"active","ping":81},{"user_id":99,"name":"Max Power","steam_id":76561198019269089,"connected_time":3498000000000,"state":"active","ping":49},{"user_id":157,"name":"UltimateAura","steam_id":76561198338361324,"connected_time":478000000000,"state":"active","ping":47},{"user_id":114,"name":"Sleepy","steam_id":76561198417022185,"connected_time":2959000000000,"state":"active","ping":97},{"user_id":120,"name":"rets_","steam_id":76561198061551392,"connected_time":2268000000000,"state":"active","ping":43},{"user_id":132,"name":"mt","steam_id":76561197961319303,"connected_time":1806000000000,"state":"active","ping":44},{"user_id":156,"name":"THIG","steam_id":76561198058056059,"connected_time":484000000000,"state":"active","ping":73},{"user_id":145,"name":"Dommy","steam_id":76561197990864747,"connected_time":1041000000000,"state":"active","ping":54},{"user_id":83,"name":"Fat Pigeon","steam_id":76561198817940142,"connected_time":4294000000000,"state":"active","ping":52},{"user_id":160,"name":"el cohete","steam_id":76561197960747734,"connected_time":180000000000,"state":"active","ping":66},{"user_id":140,"name":"Castellan","steam_id":76561197994861142,"connected_time":1402000000000,"state":"active","ping":65},{"user_id":118,"name":"Nittugai","steam_id":76561198067366462,"connected_time":2329000000000,"state":"active","ping":60},{"user_id":152,"name":"fortnite balls","steam_id":76561198308885950,"connected_time":617000000000,"state":"active","ping":73},{"user_id":137,"name":"travis","steam_id":76561198138119811,"connected_time":1420000000000,"state":"active","ping":60},{"user_id":158,"name":"scarfweather","steam_id":76561198121331836,"connected_time":432000000000,"state":"active","ping":65},{"user_id":159,"name":"mr.resetti","steam_id":76561198974520642,"connected_time":412000000000,"state":"active","ping":64},{"user_id":153,"name":"Vexu","steam_id":76561198113145846,"connected_time":574000000000,"state":"active","ping":90},{"user_id":149,"name":"Kjat","steam_id":76561198839433592,"connected_time":817000000000,"state":"active","ping":56},{"user_id":143,"name":"Adrian Picche","steam_id":76561198009335657,"connected_time":1372000000000,"state":"active","ping":65}]},{"server_id":308,"name":"Uncletopia | Frankfurt | 3 | All Maps","name_short":"frk-3","host":"frk-1.de.uncletopia.com","port":27035,"enabled":true,"region":"eu","cc":"de","latitude":50.110924,"longitude":8.682127,"reserved":0,"last_update":"0001-01-01T00:00:00Z","name_a2s":"Uncletopia | Frankfurt | 3 | All Maps","protocol":17,"map":"pl_swiftwater_final1","folder":"tf","game":"Team Fortress","app_id":440,"player_count":24,"max_players":24,"Bots":0,"server_type":"Dedicated","server_os":"Linux","password":true,"vac":true,"version":"7961495","steam_id":85568392924504274,"keywords":["nocrits","nodmgspread","payload","uncletopia"],"game_id":440,"stv_port":27036,"stv_name":"Uncletopia | Frankfurt | 3 | All Maps | STV","players":[{"user_id":323,"name":"MeNonMorietur","steam_id":76561198184075019,"connected_time":1698000000000,"state":"active","ping":73},{"user_id":271,"name":"cursedbygod♡","steam_id":76561198318291047,"connected_time":5872000000000,"state":"active","ping":105},{"user_id":337,"name":"Omni","steam_id":76561197964320557,"connected_time":377000000000,"state":"active","ping":65},{"user_id":318,"name":"GARY SHOVEL","steam_id":76561198041137841,"connected_time":2309000000000,"state":"active","ping":89},{"user_id":333,"name":"Yrjö Koskinen Yrjö-Koskinen","steam_id":76561198368181145,"connected_time":855000000000,"state":"active","ping":80},{"user_id":319,"name":"Gaattori","steam_id":76561198065624683,"connected_time":2216000000000,"state":"active","ping":88},{"user_id":338,"name":"666sammy","steam_id":76561198016607625,"connected_time":342000000000,"state":"active","ping":82},{"user_id":301,"name":"K.O.wal","steam_id":76561198317737261,"connected_time":2923000000000,"state":"active","ping":56},{"user_id":312,"name":"After8","steam_id":76561198090750865,"connected_time":2436000000000,"state":"active","ping":73},{"user_id":262,"name":"glorpis","steam_id":76561199225333422,"connected_time":6346000000000,"state":"active","ping":63},{"user_id":339,"name":"Gold","steam_id":76561198071111501,"connected_time":303000000000,"state":"active","ping":59},{"user_id":329,"name":"squillisky","steam_id":76561198083569327,"connected_time":1020000000000,"state":"active","ping":73},{"user_id":335,"name":"the one who grips","steam_id":76561198381106289,"connected_time":422000000000,"state":"active","ping":74},{"user_id":310,"name":"LizCul","steam_id":76561198024436969,"connected_time":2456000000000,"state":"active","ping":54},{"user_id":334,"name":"Artificial.Ignorance","steam_id":76561198453090180,"connected_time":519000000000,"state":"active","ping":141},{"user_id":326,"name":"󠀡󠀡","steam_id":76561198059375315,"connected_time":1355000000000,"state":"active","ping":65},{"user_id":280,"name":"Jonak","steam_id":76561198080832458,"connected_time":4879000000000,"state":"active","ping":67},{"user_id":293,"name":"Tohtori gerhard (official)","steam_id":76561198835081622,"connected_time":3685000000000,"state":"active","ping":103},{"user_id":331,"name":"Ignot","steam_id":76561198235896754,"connected_time":978000000000,"state":"active","ping":87},{"user_id":303,"name":"DrunkHungarian","steam_id":76561198853346540,"connected_time":2760000000000,"state":"active","ping":53},{"user_id":299,"name":"ArtaKir","steam_id":76561198291746440,"connected_time":3107000000000,"state":"active","ping":76},{"user_id":218,"name":"ممارس العنف","steam_id":76561198093073758,"connected_time":10302000000000,"state":"active","ping":69},{"user_id":317,"name":"top 10 turnips","steam_id":76561198069649097,"connected_time":2396000000000,"state":"active","ping":76},{"user_id":243,"name":"Sakari","steam_id":76561197997811299,"connected_time":8092000000000,"state":"active","ping":59}]},{"server_id":309,"name":"Uncletopia | Frankfurt | 4 | All Maps","name_short":"frk-4","host":"frk-1.de.uncletopia.com","port":27045,"enabled":true,"region":"eu","cc":"de","latitude":50.110924,"longitude":8.682127,"reserved":0,"last_update":"0001-01-01T00:00:00Z","name_a2s":"Uncletopia | Frankfurt | 4 | All Maps","protocol":17,"map":"koth_highpass","folder":"tf","game":"Team Fortress","app_id":440,"player_count":6,"max_players":24,"Bots":0,"server_type":"Dedicated","server_os":"Linux","password":true,"vac":true,"version":"7961495","steam_id":85568392924504275,"keywords":["cp","nocrits","nodmgspread","uncletopia"],"game_id":440,"stv_port":27046,"stv_name":"Uncletopia | Frankfurt | 4 | All Maps | STV","players":[{"user_id":23,"name":"Chiers","steam_id":76561198073461642,"connected_time":1204000000000,"state":"active","ping":53},{"user_id":24,"name":"Zero Sleep Gaming","steam_id":76561198982674420,"connected_time":1197000000000,"state":"active","ping":52},{"user_id":25,"name":"Milk","steam_id":76561198125876588,"connected_time":936000000000,"state":"active","ping":51},{"user_id":26,"name":"Jeffrey Harpen","steam_id":76561199073314677,"connected_time":846000000000,"state":"active","ping":74},{"user_id":29,"name":"Von Leining","steam_id":76561198859983504,"connected_time":594000000000,"state":"active","ping":53},{"user_id":30,"name":"ran is running","steam_id":76561199443185667,"connected_time":152000000000,"state":"active","ping":132}]},{"server_id":310,"name":"Uncletopia | Frankfurt | 5 | All Maps","name_short":"frk-5","host":"frk-1.de.uncletopia.com","port":27055,"enabled":true,"region":"eu","cc":"de","latitude":50.110924,"longitude":8.682127,"reserved":0,"last_update":"0001-01-01T00:00:00Z","name_a2s":"Uncletopia | Frankfurt | 5 | All Maps","protocol":17,"map":"pl_frontier_final","folder":"tf","game":"Team Fortress","app_id":440,"player_count":24,"max_players":24,"Bots":0,"server_type":"Dedicated","server_os":"Linux","password":true,"vac":true,"version":"7961495","steam_id":85568392924504277,"keywords":["nocrits","nodmgspread","payload","uncletopia"],"game_id":440,"stv_port":27056,"stv_name":"Uncletopia | Frankfurt | 5 | All Maps | STV","players":[{"user_id":352,"name":"paguro","steam_id":76561198119560871,"connected_time":2662000000000,"state":"active","ping":66},{"user_id":385,"name":"-gunripp0r^be / Obelix^","steam_id":76561197999306879,"connected_time":686000000000,"state":"active","ping":109},{"user_id":336,"name":"Marabosha","steam_id":76561198137599173,"connected_time":3661000000000,"state":"active","ping":103},{"user_id":386,"name":"Accident","steam_id":76561198115160396,"connected_time":685000000000,"state":"active","ping":72},{"user_id":379,"name":"✪ lopik_","steam_id":76561198104479867,"connected_time":878000000000,"state":"active","ping":59},{"user_id":371,"name":"Carrotcracker","steam_id":76561198034862396,"connected_time":1783000000000,"state":"active","ping":67},{"user_id":382,"name":"Andy","steam_id":76561198046918834,"connected_time":757000000000,"state":"active","ping":68},{"user_id":387,"name":"WyvernLord","steam_id":76561198014577540,"connected_time":665000000000,"state":"active","ping":66},{"user_id":388,"name":"Acucutl","steam_id":76561198133867096,"connected_time":662000000000,"state":"active","ping":50},{"user_id":383,"name":"Neacrock","steam_id":76561199178338856,"connected_time":696000000000,"state":"active","ping":151},{"user_id":401,"name":"Lyncurion","steam_id":76561199260022725,"connected_time":203000000000,"state":"active","ping":80},{"user_id":372,"name":"Archive","steam_id":76561198071255385,"connected_time":1564000000000,"state":"active","ping":88},{"user_id":395,"name":"pablo","steam_id":76561198089285014,"connected_time":613000000000,"state":"active","ping":82},{"user_id":316,"name":"\"w\"esley \"s\"o","steam_id":76561199415989636,"connected_time":5686000000000,"state":"active","ping":96},{"user_id":400,"name":"Ninjaneer","steam_id":76561198015299457,"connected_time":254000000000,"state":"active","ping":93},{"user_id":397,"name":"Gent","steam_id":76561198037167890,"connected_time":596000000000,"state":"active","ping":84},{"user_id":378,"name":"SpaceBoxxer","steam_id":76561198798211513,"connected_time":945000000000,"state":"active","ping":75},{"user_id":380,"name":"MK-Ultra Violence","steam_id":76561198081328238,"connected_time":875000000000,"state":"active","ping":64},{"user_id":381,"name":"The man","steam_id":76561198342065102,"connected_time":854000000000,"state":"active","ping":56},{"user_id":392,"name":"dunduu","steam_id":76561198875240717,"connected_time":632000000000,"state":"active","ping":62},{"user_id":402,"name":"The cock","steam_id":76561198197304886,"connected_time":199000000000,"state":"active","ping":101},{"user_id":364,"name":"Jyghc","steam_id":76561198405980575,"connected_time":2331000000000,"state":"active","ping":61},{"user_id":399,"name":"Dct","steam_id":76561198397105421,"connected_time":577000000000,"state":"active","ping":60},{"user_id":367,"name":"Fluffy","steam_id":76561198084447725,"connected_time":2211000000000,"state":"active","ping":45}]},{"server_id":311,"name":"Uncletopia | Frankfurt | 6 | All Maps","name_short":"frk-6","host":"frk-1.de.uncletopia.com","port":27065,"enabled":true,"region":"eu","cc":"de","latitude":50.110924,"longitude":8.682127,"reserved":0,"last_update":"0001-01-01T00:00:00Z","name_a2s":"Uncletopia | Frankfurt | 6 | All Maps","protocol":17,"map":"pl_frontier_final","folder":"tf","game":"Team Fortress","app_id":440,"player_count":24,"max_players":24,"Bots":0,"server_type":"Dedicated","server_os":"Linux","password":true,"vac":true,"version":"7961495","steam_id":85568392924504278,"keywords":["nocrits","nodmgspread","payload","uncletopia"],"game_id":440,"stv_port":27066,"stv_name":"Uncletopia | Frankfurt | 6 | All Maps | STV","players":[{"user_id":205,"name":"[503. ]captain swiftfingers","steam_id":76561198043684517,"connected_time":3088000000000,"state":"active","ping":71},{"user_id":207,"name":"busgrabb","steam_id":76561198055768465,"connected_time":2953000000000,"state":"active","ping":60},{"user_id":225,"name":"tiia","steam_id":76561198046196005,"connected_time":1540000000000,"state":"active","ping":42},{"user_id":232,"name":"Udinese Dion","steam_id":76561198067931573,"connected_time":932000000000,"state":"active","ping":52},{"user_id":246,"name":"Francis","steam_id":76561198987134265,"connected_time":131000000000,"state":"active","ping":73},{"user_id":219,"name":"Dråbe","steam_id":76561197979603871,"connected_time":1937000000000,"state":"active","ping":57},{"user_id":243,"name":"in mcdonalds","steam_id":76561198143921841,"connected_time":506000000000,"state":"active","ping":85},{"user_id":230,"name":"bigwish | bmod.tf","steam_id":76561197997859723,"connected_time":1155000000000,"state":"active","ping":75},{"user_id":235,"name":"Valheim","steam_id":76561198044199912,"connected_time":908000000000,"state":"active","ping":82},{"user_id":224,"name":"Rock..","steam_id":76561198004641963,"connected_time":1557000000000,"state":"active","ping":78},{"user_id":237,"name":"please do not the cat","steam_id":76561198089003514,"connected_time":856000000000,"state":"active","ping":44},{"user_id":163,"name":"Mr. Mundy","steam_id":76561198132008918,"connected_time":5865000000000,"state":"active","ping":83},{"user_id":226,"name":"flr","steam_id":76561198249327786,"connected_time":1536000000000,"state":"active","ping":89},{"user_id":222,"name":"FilipeLuk","steam_id":76561198150675438,"connected_time":1584000000000,"state":"active","ping":71},{"user_id":244,"name":"clean carp","steam_id":76561198127053294,"connected_time":497000000000,"state":"active","ping":74},{"user_id":239,"name":"vladthelad","steam_id":76561199295290233,"connected_time":835000000000,"state":"active","ping":55},{"user_id":228,"name":"val","steam_id":76561198324316160,"connected_time":1518000000000,"state":"active","ping":57},{"user_id":231,"name":"dbuBBle","steam_id":76561198057961506,"connected_time":1115000000000,"state":"active","ping":75},{"user_id":190,"name":"Zazou","steam_id":76561198028076362,"connected_time":3548000000000,"state":"active","ping":59},{"user_id":174,"name":"ScampSixteen","steam_id":76561198021771000,"connected_time":5484000000000,"state":"active","ping":68},{"user_id":245,"name":"BRM","steam_id":76561198453041505,"connected_time":250000000000,"state":"active","ping":73},{"user_id":238,"name":"Tri-","steam_id":76561198133524794,"connected_time":847000000000,"state":"active","ping":55},{"user_id":199,"name":"Tomaash","steam_id":76561198115542042,"connected_time":3250000000000,"state":"active","ping":64},{"user_id":203,"name":"Lesu","steam_id":76561198064130397,"connected_time":3124000000000,"state":"active","ping":57}]},{"server_id":23,"name":"Uncletopia | Frankfurt | 7 | Stopwatch","name_short":"frk-7","host":"frk-1.de.uncletopia.com","port":27075,"enabled":true,"region":"eu","cc":"de","latitude":50.110924,"longitude":8.682127,"reserved":0,"last_update":"0001-01-01T00:00:00Z","name_a2s":"Uncletopia | Frankfurt | 7 | Stopwatch","protocol":17,"map":"pl_borneo","folder":"tf","game":"Team Fortress","app_id":440,"player_count":0,"max_players":24,"Bots":0,"server_type":"Dedicated","server_os":"Linux","password":true,"vac":true,"version":"7961495","steam_id":85568392924742827,"keywords":["nocrits","nodmgspread","payload","uncletopia"],"game_id":440,"stv_port":27076,"stv_name":"Uncletopia | Frankfurt | 7 | Stopwatch | STV","players":null},{"server_id":24,"name":"Uncletopia | Frankfurt | 8 | Community","name_short":"frk-8","host":"frk-1.de.uncletopia.com","port":27085,"enabled":true,"region":"eu","cc":"de","latitude":50.110924,"longitude":8.682127,"reserved":0,"last_update":"0001-01-01T00:00:00Z","name_a2s":"Uncletopia | Frankfurt | 8 | Community","protocol":17,"map":"workshop/koth_trenchfoot_b1a.ugc731436616","folder":"tf","game":"Team Fortress","app_id":440,"player_count":0,"max_players":24,"Bots":0,"server_type":"Dedicated","server_os":"Linux","password":true,"vac":true,"version":"7961495","steam_id":85568392924742828,"keywords":["cp","nocrits","nodmgspread","uncletopia"],"game_id":440,"stv_port":27086,"stv_name":"Uncletopia | Frankfurt | 8 | Community | STV","players":null},{"server_id":202,"name":"Uncletopia | Hong Kong | 1 | All Maps","name_short":"hgk-1","host":"hgk-1.hk.uncletopia.com","port":27015,"enabled":true,"region":"asia","cc":"hk","latitude":22.302711,"longitude":114.177216,"reserved":0,"last_update":"0001-01-01T00:00:00Z","name_a2s":"Uncletopia | Hong Kong | 1 | All Maps","protocol":17,"map":"koth_harvest_final","folder":"tf","game":"Team Fortress","app_id":440,"player_count":0,"max_players":24,"Bots":0,"server_type":"Dedicated","server_os":"Linux","password":true,"vac":true,"version":"7961495","steam_id":85568392924494504,"keywords":["cp","nocrits","nodmgspread","uncletopia"],"game_id":440,"stv_port":27016,"stv_name":"Uncletopia | Hong Kong | 1 | All Maps | STV","players":null},{"server_id":1,"name":"Uncletopia | Los Angeles | 1 | All Maps","name_short":"lax-1","host":"lax-1.us.uncletopia.com","port":27015,"enabled":true,"region":"us-west","cc":"us","latitude":33.94279,"longitude":-118.41004,"reserved":0,"last_update":"0001-01-01T00:00:00Z","name_a2s":"Uncletopia | Los Angeles | 1 | All Maps","protocol":17,"map":"koth_highpass","folder":"tf","game":"Team Fortress","app_id":440,"player_count":0,"max_players":24,"Bots":0,"server_type":"Dedicated","server_os":"Linux","password":true,"vac":true,"version":"7961495","steam_id":85568392924469991,"keywords":["cp","nocrits","nodmgspread","uncletopia"],"game_id":440,"stv_port":27016,"stv_name":"Uncletopia | Los Angeles | 1 | All Maps | STV","players":null},{"server_id":112,"name":"Uncletopia | Los Angeles | 2 | All Maps","name_short":"lax-2","host":"lax-1.us.uncletopia.com","port":27025,"enabled":true,"region":"us-west","cc":"us","latitude":33.94279,"longitude":-118.41004,"reserved":0,"last_update":"0001-01-01T00:00:00Z","name_a2s":"Uncletopia | Los Angeles | 2 | All Maps","protocol":17,"map":"pl_snowycoast","folder":"tf","game":"Team Fortress","app_id":440,"player_count":0,"max_players":24,"Bots":0,"server_type":"Dedicated","server_os":"Linux","password":true,"vac":true,"version":"7961495","steam_id":85568392924469992,"keywords":["nocrits","nodmgspread","payload","uncletopia"],"game_id":440,"stv_port":27026,"stv_name":"Uncletopia | Los Angeles | 2 | All Maps | STV","players":null},{"server_id":324,"name":"Uncletopia | Los Angeles | 3 | All Maps","name_short":"lax-3","host":"lax-1.us.uncletopia.com","port":27035,"enabled":true,"region":"us-west","cc":"us","latitude":33.94279,"longitude":-118.41004,"reserved":0,"last_update":"0001-01-01T00:00:00Z","name_a2s":"Uncletopia | Los Angeles | 3 | All Maps","protocol":17,"map":"pl_frontier_final","folder":"tf","game":"Team Fortress","app_id":440,"player_count":0,"max_players":24,"Bots":0,"server_type":"Dedicated","server_os":"Linux","password":true,"vac":true,"version":"7961495","steam_id":85568392924510198,"keywords":["nocrits","nodmgspread","payload","uncletopia"],"game_id":440,"stv_port":27036,"stv_name":"Uncletopia | Los Angeles | 3 | All Maps | STV","players":null},{"server_id":25,"name":"Uncletopia | Los Angeles | 4 | Stopwatch","name_short":"lax-4","host":"lax-1.us.uncletopia.com","port":27045,"enabled":true,"region":"us-west","cc":"us","latitude":33.94279,"longitude":-118.41004,"reserved":0,"last_update":"0001-01-01T00:00:00Z","name_a2s":"Uncletopia | Los Angeles | 4 | Stopwatch","protocol":17,"map":"cp_process_final","folder":"tf","game":"Team Fortress","app_id":440,"player_count":0,"max_players":24,"Bots":0,"server_type":"Dedicated","server_os":"Linux","password":true,"vac":true,"version":"7961495","steam_id":85568392924510199,"keywords":["cp","nocrits","nodmgspread","uncletopia"],"game_id":440,"stv_port":27046,"stv_name":"Uncletopia | Los Angeles | 4 | Stopwatch | STV","players":null},{"server_id":11,"name":"Uncletopia | London | 1 | All Maps","name_short":"lon-1","host":"lon-1.uk.uncletopia.com","port":27015,"enabled":true,"region":"eu","cc":"gb","latitude":51.509865,"longitude":-0.118092,"reserved":0,"last_update":"0001-01-01T00:00:00Z","name_a2s":"Uncletopia | London | 1 | All Maps","protocol":17,"map":"pl_barnblitz","folder":"tf","game":"Team Fortress","app_id":440,"player_count":24,"max_players":24,"Bots":0,"server_type":"Dedicated","server_os":"Linux","password":true,"vac":true,"version":"7961495","steam_id":85568392924367362,"keywords":["nocrits","nodmgspread","payload","uncletopia"],"game_id":440,"stv_port":27016,"stv_name":"Uncletopia | London | 1 | All Maps | STV","players":[{"user_id":509,"name":"Waffle","steam_id":76561198397024973,"connected_time":2044000000000,"state":"active","ping":39},{"user_id":521,"name":"✪ Danny","steam_id":76561198104483241,"connected_time":344000000000,"state":"active","ping":53},{"user_id":510,"name":"Cava","steam_id":76561198054840118,"connected_time":1930000000000,"state":"active","ping":68},{"user_id":522,"name":"Repa24","steam_id":76561198033016390,"connected_time":61000000000,"state":"active","ping":76},{"user_id":519,"name":"Aaron","steam_id":76561197990046953,"connected_time":937000000000,"state":"active","ping":59},{"user_id":508,"name":"smell_my_cheese","steam_id":76561198008517427,"connected_time":2124000000000,"state":"active","ping":54},{"user_id":515,"name":"Kasper","steam_id":76561198133060222,"connected_time":1164000000000,"state":"active","ping":44},{"user_id":507,"name":"trite","steam_id":76561197983765323,"connected_time":2172000000000,"state":"active","ping":52},{"user_id":492,"name":"Kai","steam_id":76561198800004578,"connected_time":3435000000000,"state":"active","ping":46},{"user_id":464,"name":"Fuck it (unhandicaps)","steam_id":76561197983095579,"connected_time":4992000000000,"state":"active","ping":84},{"user_id":520,"name":"Cpt_frost","steam_id":76561198218034817,"connected_time":733000000000,"state":"active","ping":42},{"user_id":476,"name":"toomas2018 (real)(official)","steam_id":76561199105796083,"connected_time":4531000000000,"state":"active","ping":80},{"user_id":511,"name":"epic gamer moment","steam_id":76561198299515070,"connected_time":1606000000000,"state":"active","ping":91},{"user_id":458,"name":"transgender e-girl","steam_id":76561198168589809,"connected_time":5372000000000,"state":"active","ping":65},{"user_id":517,"name":"stroyo","steam_id":76561198409592046,"connected_time":1095000000000,"state":"active","ping":47},{"user_id":340,"name":"halow","steam_id":76561198061505163,"connected_time":16616000000000,"state":"active","ping":94},{"user_id":473,"name":"MaypulSoyrup","steam_id":76561199213966821,"connected_time":4711000000000,"state":"active","ping":78},{"user_id":516,"name":"N.","steam_id":76561198017274851,"connected_time":1157000000000,"state":"active","ping":35},{"user_id":487,"name":"JohnTraveltime","steam_id":76561199244281754,"connected_time":3734000000000,"state":"active","ping":84},{"user_id":348,"name":"shooer!","steam_id":76561198110531281,"connected_time":16247000000000,"state":"active","ping":72},{"user_id":498,"name":"idenburg","steam_id":76561198063574956,"connected_time":3278000000000,"state":"active","ping":54},{"user_id":513,"name":"bowchika wowa #SlavaUkraine","steam_id":76561198159564550,"connected_time":1187000000000,"state":"active","ping":71},{"user_id":460,"name":"gibb (official)","steam_id":76561198074097655,"connected_time":5178000000000,"state":"active","ping":45},{"user_id":485,"name":"♥aura♥","steam_id":76561198066258544,"connected_time":3929000000000,"state":"active","ping":59}]},{"server_id":114,"name":"Uncletopia | London | 2 | All Maps","name_short":"lon-2","host":"lon-1.uk.uncletopia.com","port":27025,"enabled":true,"region":"eu","cc":"gb","latitude":51.509865,"longitude":-0.118092,"reserved":0,"last_update":"0001-01-01T00:00:00Z","name_a2s":"Uncletopia | London | 2 | All Maps","protocol":17,"map":"pl_pier","folder":"tf","game":"Team Fortress","app_id":440,"player_count":24,"max_players":24,"Bots":0,"server_type":"Dedicated","server_os":"Linux","password":true,"vac":true,"version":"7961495","steam_id":85568392924470941,"keywords":["nocrits","nodmgspread","payload","uncletopia"],"game_id":440,"stv_port":27026,"stv_name":"Uncletopia | London | 2 | All Maps | STV","players":[{"user_id":459,"name":"Tavish","steam_id":76561197971486686,"connected_time":435000000000,"state":"active","ping":48},{"user_id":444,"name":"Pyrokaliptyk","steam_id":76561198013065105,"connected_time":1611000000000,"state":"active","ping":60},{"user_id":457,"name":"olof","steam_id":76561198095681561,"connected_time":835000000000,"state":"active","ping":106},{"user_id":466,"name":"crazycalumrock","steam_id":76561198049890080,"connected_time":343000000000,"state":"active","ping":38},{"user_id":477,"name":"heavyweaponsguy","steam_id":76561198137778097,"connected_time":90000000000,"state":"active","ping":61},{"user_id":478,"name":"lemao","steam_id":76561198058366676,"connected_time":81000000000,"state":"active","ping":96},{"user_id":411,"name":"Ja Yeti","steam_id":76561199203212796,"connected_time":3341000000000,"state":"active","ping":104},{"user_id":433,"name":"AndLogin","steam_id":76561198108601962,"connected_time":2310000000000,"state":"active","ping":89},{"user_id":460,"name":"d","steam_id":76561198165550964,"connected_time":420000000000,"state":"active","ping":50},{"user_id":468,"name":"Dr. Funkenstein","steam_id":76561197977816210,"connected_time":316000000000,"state":"active","ping":131},{"user_id":395,"name":"Level 60 holy priest","steam_id":76561198031573426,"connected_time":4333000000000,"state":"active","ping":73},{"user_id":454,"name":"meriones","steam_id":76561198034234373,"connected_time":1268000000000,"state":"active","ping":43},{"user_id":469,"name":"jovi_","steam_id":76561198449280552,"connected_time":314000000000,"state":"active","ping":53},{"user_id":434,"name":"Krotowech","steam_id":76561198052624378,"connected_time":2310000000000,"state":"active","ping":97},{"user_id":446,"name":"Saken","steam_id":76561198049075295,"connected_time":1538000000000,"state":"active","ping":72},{"user_id":470,"name":"shadow39344","steam_id":76561198090639618,"connected_time":307000000000,"state":"active","ping":62},{"user_id":455,"name":"cropping","steam_id":76561198026586456,"connected_time":1076000000000,"state":"active","ping":68},{"user_id":471,"name":"Rajewski","steam_id":76561198207353952,"connected_time":285000000000,"state":"active","ping":73},{"user_id":451,"name":"Team Fortress 3","steam_id":76561198860424456,"connected_time":1406000000000,"state":"active","ping":72},{"user_id":456,"name":"burial","steam_id":76561198009115060,"connected_time":1021000000000,"state":"active","ping":75},{"user_id":472,"name":"Hyppy ja liipasin pohjaan :D","steam_id":76561198080669698,"connected_time":283000000000,"state":"active","ping":97},{"user_id":476,"name":"Kadgarger","steam_id":76561198146300107,"connected_time":110000000000,"state":"active","ping":88},{"user_id":474,"name":"󠀡󠀡","steam_id":76561198399390201,"connected_time":265000000000,"state":"active","ping":86},{"user_id":475,"name":"obi","steam_id":76561198040154461,"connected_time":262000000000,"state":"active","ping":67}]},{"server_id":320,"name":"Uncletopia | London | 3 | All Maps","name_short":"lon-3","host":"lon-1.uk.uncletopia.com","port":27035,"enabled":true,"region":"eu","cc":"gb","latitude":51.509865,"longitude":-0.118092,"reserved":0,"last_update":"0001-01-01T00:00:00Z","name_a2s":"Uncletopia | London | 3 | All Maps","protocol":17,"map":"pl_borneo","folder":"tf","game":"Team Fortress","app_id":440,"player_count":24,"max_players":24,"Bots":0,"server_type":"Dedicated","server_os":"Linux","password":true,"vac":true,"version":"7961495","steam_id":85568392924510192,"keywords":["nocrits","nodmgspread","payload","uncletopia"],"game_id":440,"stv_port":27036,"stv_name":"Uncletopia | London | 3 | All Maps | STV","players":[{"user_id":81,"name":"Hannü","steam_id":76561197969886128,"connected_time":135000000000,"state":"active","ping":54},{"user_id":12,"name":"Our Hero","steam_id":76561198132047538,"connected_time":4063000000000,"state":"active","ping":91},{"user_id":67,"name":"Alekk","steam_id":76561198093533143,"connected_time":1282000000000,"state":"active","ping":71},{"user_id":60,"name":"heisenberg","steam_id":76561198988867951,"connected_time":1785000000000,"state":"active","ping":59},{"user_id":20,"name":"arcticcu","steam_id":76561198002435882,"connected_time":3849000000000,"state":"active","ping":92},{"user_id":17,"name":"'Tis But A Scratch!","steam_id":76561198054360605,"connected_time":3898000000000,"state":"active","ping":60},{"user_id":18,"name":"Rockfrenzy","steam_id":76561198005428050,"connected_time":3891000000000,"state":"active","ping":75},{"user_id":69,"name":"Suspicious Viktor","steam_id":76561198136496249,"connected_time":1120000000000,"state":"active","ping":98},{"user_id":21,"name":"Meff","steam_id":76561197970610839,"connected_time":3838000000000,"state":"active","ping":66},{"user_id":79,"name":"Ullr","steam_id":76561198140547483,"connected_time":354000000000,"state":"active","ping":44},{"user_id":55,"name":"Miss American PIe","steam_id":76561198867108476,"connected_time":2752000000000,"state":"active","ping":55},{"user_id":71,"name":"Jango","steam_id":76561199497481497,"connected_time":1114000000000,"state":"active","ping":60},{"user_id":52,"name":"YOUR MOTHER","steam_id":76561199122009463,"connected_time":2830000000000,"state":"active","ping":79},{"user_id":58,"name":"richard","steam_id":76561199042470246,"connected_time":2218000000000,"state":"active","ping":66},{"user_id":66,"name":"Fran","steam_id":76561199070516960,"connected_time":1378000000000,"state":"active","ping":73},{"user_id":63,"name":"God's Goofiest Goober","steam_id":76561198103175187,"connected_time":1746000000000,"state":"active","ping":92},{"user_id":36,"name":"AllInTw0","steam_id":76561199063146937,"connected_time":3565000000000,"state":"active","ping":78},{"user_id":77,"name":"LOBZIK","steam_id":76561198114830120,"connected_time":373000000000,"state":"active","ping":81},{"user_id":72,"name":"Nekroguy","steam_id":76561198180886977,"connected_time":1103000000000,"state":"active","ping":76},{"user_id":65,"name":"jon","steam_id":76561198031544468,"connected_time":1560000000000,"state":"active","ping":85},{"user_id":34,"name":"Ixsus\u003c3","steam_id":76561198094756869,"connected_time":3603000000000,"state":"active","ping":61},{"user_id":80,"name":"HUGO","steam_id":76561198317134996,"connected_time":277000000000,"state":"active","ping":90},{"user_id":74,"name":"Ze","steam_id":76561198314901652,"connected_time":866000000000,"state":"active","ping":69},{"user_id":78,"name":"hhhhhh","steam_id":76561198031982574,"connected_time":372000000000,"state":"active","ping":67}]},{"server_id":321,"name":"Uncletopia | London | 4 | All Maps","name_short":"lon-4","host":"lon-1.uk.uncletopia.com","port":27045,"enabled":true,"region":"eu","cc":"gb","latitude":51.509865,"longitude":-0.118092,"reserved":0,"last_update":"0001-01-01T00:00:00Z","name_a2s":"Uncletopia | London | 4 | All Maps","protocol":17,"map":"pl_badwater","folder":"tf","game":"Team Fortress","app_id":440,"player_count":24,"max_players":24,"Bots":0,"server_type":"Dedicated","server_os":"Linux","password":true,"vac":true,"version":"7961495","steam_id":85568392924510193,"keywords":["nocrits","nodmgspread","payload","uncletopia"],"game_id":440,"stv_port":27046,"stv_name":"Uncletopia | London | 4 | All Maps | STV","players":[{"user_id":186,"name":"Nonok","steam_id":76561199480685498,"connected_time":2322000000000,"state":"active","ping":78},{"user_id":212,"name":"TEMZ","steam_id":76561198799288322,"connected_time":243000000000,"state":"active","ping":53},{"user_id":213,"name":"The Bugs Under Your Skin","steam_id":76561198064795519,"connected_time":232000000000,"state":"active","ping":62},{"user_id":169,"name":"Blar","steam_id":76561198042438229,"connected_time":4179000000000,"state":"active","ping":58},{"user_id":173,"name":"jj","steam_id":76561198079200985,"connected_time":3615000000000,"state":"active","ping":58},{"user_id":175,"name":"Tummy","steam_id":76561198045654910,"connected_time":3145000000000,"state":"active","ping":43},{"user_id":219,"name":"Pyrolander","steam_id":76561198050785450,"connected_time":141000000000,"state":"active","ping":47},{"user_id":199,"name":"wow","steam_id":76561198880454530,"connected_time":1603000000000,"state":"active","ping":45},{"user_id":196,"name":"bob","steam_id":76561198448135228,"connected_time":1970000000000,"state":"active","ping":83},{"user_id":215,"name":"Purpurea","steam_id":76561198075376419,"connected_time":211000000000,"state":"active","ping":66},{"user_id":207,"name":"A Featherless Biped","steam_id":76561198307904901,"connected_time":807000000000,"state":"active","ping":44},{"user_id":211,"name":"wren","steam_id":76561198066634798,"connected_time":457000000000,"state":"active","ping":54},{"user_id":191,"name":"PP_master69420","steam_id":76561199019913910,"connected_time":2098000000000,"state":"active","ping":87},{"user_id":210,"name":"JackButNotBlack","steam_id":76561198199196931,"connected_time":551000000000,"state":"active","ping":75},{"user_id":214,"name":"Mr_Pulse_","steam_id":76561198095001602,"connected_time":221000000000,"state":"active","ping":99},{"user_id":178,"name":"Spoof059","steam_id":76561198356116829,"connected_time":2983000000000,"state":"active","ping":60},{"user_id":179,"name":"Fuvuk","steam_id":76561198044458593,"connected_time":2940000000000,"state":"active","ping":87},{"user_id":220,"name":"Stefman","steam_id":76561199025104038,"connected_time":129000000000,"state":"active","ping":42},{"user_id":216,"name":"Polesn","steam_id":76561198209583116,"connected_time":209000000000,"state":"active","ping":62},{"user_id":217,"name":"Kaishakunin","steam_id":76561198028123874,"connected_time":208000000000,"state":"active","ping":101},{"user_id":208,"name":"Ruth(-less bitch)","steam_id":76561198150006573,"connected_time":739000000000,"state":"active","ping":45},{"user_id":218,"name":"Anzu","steam_id":76561198043953503,"connected_time":194000000000,"state":"active","ping":77},{"user_id":194,"name":"idarmed","steam_id":76561198420064361,"connected_time":2049000000000,"state":"active","ping":161},{"user_id":197,"name":"xXx Rexxie Rose xXx","steam_id":76561198087993931,"connected_time":1960000000000,"state":"active","ping":50}]},{"server_id":21,"name":"Uncletopia | London | 5 | All Maps","name_short":"lon-5","host":"lon-1.uk.uncletopia.com","port":27055,"enabled":true,"region":"eu","cc":"gb","latitude":51.509865,"longitude":-0.118092,"reserved":0,"last_update":"0001-01-01T00:00:00Z","name_a2s":"Uncletopia | London | 5 | All Maps","protocol":17,"map":"koth_lakeside_final","folder":"tf","game":"Team Fortress","app_id":440,"player_count":0,"max_players":24,"Bots":0,"server_type":"Dedicated","server_os":"Linux","password":true,"vac":true,"version":"7961495","steam_id":85568392924742829,"keywords":["cp","nocrits","nodmgspread","uncletopia"],"game_id":440,"stv_port":27056,"stv_name":"Uncletopia | London | 5 | All Maps | STV","players":null},{"server_id":22,"name":"Uncletopia | London | 6 | All Maps","name_short":"lon-6","host":"lon-1.uk.uncletopia.com","port":27065,"enabled":true,"region":"eu","cc":"gb","latitude":51.509865,"longitude":-0.118092,"reserved":0,"last_update":"0001-01-01T00:00:00Z","name_a2s":"Uncletopia | London | 6 | All Maps","protocol":17,"map":"pl_swiftwater_final1","folder":"tf","game":"Team Fortress","app_id":440,"player_count":18,"max_players":24,"Bots":0,"server_type":"Dedicated","server_os":"Linux","password":true,"vac":true,"version":"7961495","steam_id":85568392924742830,"keywords":["nocrits","nodmgspread","payload","uncletopia"],"game_id":440,"stv_port":27066,"stv_name":"Uncletopia | London | 6 | All Maps | STV","players":[{"user_id":517,"name":"Silver","steam_id":76561198037290739,"connected_time":102000000000,"state":"active","ping":69},{"user_id":515,"name":"cuddle","steam_id":76561198805181599,"connected_time":140000000000,"state":"active","ping":56},{"user_id":458,"name":"RandoART","steam_id":76561198818165503,"connected_time":4537000000000,"state":"active","ping":99},{"user_id":460,"name":"Vonacht","steam_id":76561198016033944,"connected_time":4515000000000,"state":"active","ping":60},{"user_id":472,"name":"Deformed Gollum","steam_id":76561198155563589,"connected_time":3591000000000,"state":"active","ping":50},{"user_id":508,"name":"Flamy?","steam_id":76561198024332838,"connected_time":1232000000000,"state":"active","ping":88},{"user_id":516,"name":"Plep","steam_id":76561198840259819,"connected_time":118000000000,"state":"active","ping":56},{"user_id":518,"name":"Khrinde","steam_id":76561198036744526,"connected_time":88000000000,"state":"active","ping":92},{"user_id":451,"name":"Tá prátaí go maith","steam_id":76561198372536459,"connected_time":5114000000000,"state":"active","ping":49},{"user_id":519,"name":"Evie :3 uwu Eep \u003e\u003c","steam_id":76561198115291462,"connected_time":1000000000,"state":"spawning","ping":54},{"user_id":480,"name":"JaTu12","steam_id":76561198060819811,"connected_time":3117000000000,"state":"active","ping":47},{"user_id":510,"name":"Kaziocalvice","steam_id":76561198146425583,"connected_time":1201000000000,"state":"active","ping":65},{"user_id":509,"name":"Thors","steam_id":76561197968739075,"connected_time":1209000000000,"state":"active","ping":45},{"user_id":471,"name":"XxBenShapiro420xX","steam_id":76561199229373972,"connected_time":3760000000000,"state":"active","ping":59},{"user_id":514,"name":"cheezindashower","steam_id":76561198400078752,"connected_time":161000000000,"state":"active","ping":56},{"user_id":369,"name":"The Engineer","steam_id":76561199437330739,"connected_time":9248000000000,"state":"active","ping":61},{"user_id":513,"name":"Parmenides","steam_id":76561198079849761,"connected_time":849000000000,"state":"active","ping":49},{"user_id":506,"name":"q47tx","steam_id":76561199181333933,"connected_time":1284000000000,"state":"active","ping":88}]},{"server_id":40,"name":"Uncletopia | London | 7 | Stopwatch","name_short":"lon-7","host":"lon-1.uk.uncletopia.com","port":27075,"enabled":true,"region":"eu","cc":"gb","latitude":51.509865,"longitude":-0.118092,"reserved":0,"last_update":"0001-01-01T00:00:00Z","name_a2s":"Uncletopia | London | 7 | Stopwatch","protocol":17,"map":"workshop/koth_bagel_rc6.ugc2514036946","folder":"tf","game":"Team Fortress","app_id":440,"player_count":23,"max_players":24,"Bots":0,"server_type":"Dedicated","server_os":"Linux","password":true,"vac":true,"version":"7961495","steam_id":85568392924964314,"keywords":["cp","nocrits","nodmgspread","uncletopia"],"game_id":440,"stv_port":27076,"stv_name":"Uncletopia | London | 7 | Stopwatch | STV","players":[{"user_id":378,"name":"F4.exe","steam_id":76561198278822807,"connected_time":1378000000000,"state":"active","ping":68},{"user_id":372,"name":"Rodak","steam_id":76561199135986344,"connected_time":1700000000000,"state":"active","ping":72},{"user_id":389,"name":"Circular","steam_id":76561198001536710,"connected_time":811000000000,"state":"active","ping":46},{"user_id":388,"name":"Cyren","steam_id":76561198043086414,"connected_time":888000000000,"state":"active","ping":62},{"user_id":390,"name":"A_GingerIdiot","steam_id":76561198313306026,"connected_time":722000000000,"state":"active","ping":62},{"user_id":383,"name":"elmstJP ₪ F4.exe","steam_id":76561197997909480,"connected_time":1226000000000,"state":"active","ping":82},{"user_id":391,"name":"ht7d","steam_id":76561199482913517,"connected_time":676000000000,"state":"active","ping":89},{"user_id":397,"name":"Genesis","steam_id":76561198999652040,"connected_time":394000000000,"state":"active","ping":60},{"user_id":394,"name":"akakez","steam_id":76561198095432821,"connected_time":496000000000,"state":"active","ping":114},{"user_id":386,"name":"roblan11","steam_id":76561198066839258,"connected_time":1044000000000,"state":"active","ping":45},{"user_id":398,"name":"Bingus is WAM","steam_id":76561199131547722,"connected_time":363000000000,"state":"active","ping":69},{"user_id":396,"name":"RemRem","steam_id":76561199005155029,"connected_time":459000000000,"state":"active","ping":56},{"user_id":399,"name":"Sun Tzu","steam_id":76561198357107806,"connected_time":278000000000,"state":"active","ping":60},{"user_id":400,"name":"Geese Goose","steam_id":76561198070903248,"connected_time":257000000000,"state":"active","ping":50},{"user_id":401,"name":"YINGBING43","steam_id":76561198166141576,"connected_time":248000000000,"state":"active","ping":150},{"user_id":403,"name":"guerillamannam","steam_id":76561198121045396,"connected_time":146000000000,"state":"active","ping":63},{"user_id":369,"name":"Aspartus","steam_id":76561198101385763,"connected_time":1968000000000,"state":"active","ping":38},{"user_id":405,"name":"Ardaaaaaaaaaaaaaaaaaaaaaaaaaaa","steam_id":76561199004214779,"connected_time":85000000000,"state":"active","ping":112},{"user_id":406,"name":"testikal","steam_id":76561199049633351,"connected_time":52000000000,"state":"spawning","ping":161},{"user_id":407,"name":"tanyathsus","steam_id":76561198089522447,"connected_time":44000000000,"state":"active","ping":63},{"user_id":408,"name":"IndigoJones","steam_id":76561198050284262,"connected_time":41000000000,"state":"spawning","ping":45},{"user_id":409,"name":"Andrew","steam_id":76561198070615190,"connected_time":37000000000,"state":"active","ping":150},{"user_id":410,"name":"Duhkat_79","steam_id":76561198384313098,"connected_time":29000000000,"state":"spawning","ping":214}]},{"server_id":41,"name":"Uncletopia | London | 8 | Community","name_short":"lon-8","host":"lon-1.uk.uncletopia.com","port":27085,"enabled":true,"region":"eu","cc":"gb","latitude":51.509865,"longitude":-0.118092,"reserved":0,"last_update":"0001-01-01T00:00:00Z","name_a2s":"Uncletopia | London | 8 | Community","protocol":17,"map":"workshop/koth_trenchfoot_b1a.ugc731436616","folder":"tf","game":"Team Fortress","app_id":440,"player_count":0,"max_players":24,"Bots":0,"server_type":"Dedicated","server_os":"Linux","password":true,"vac":true,"version":"7961495","steam_id":85568392924964315,"keywords":["cp","nocrits","nodmgspread","uncletopia"],"game_id":440,"stv_port":27086,"stv_name":"Uncletopia | London | 8 | Community | STV","players":null},{"server_id":300,"name":"Uncletopia | Montréal | 1 | All Maps","name_short":"mtl-1","host":"mtl-1.ca.uncletopia.com","port":27015,"enabled":true,"region":"us-east","cc":"ca","latitude":45.50889,"longitude":-73.56167,"reserved":0,"last_update":"0001-01-01T00:00:00Z","name_a2s":"","protocol":0,"map":"","folder":"","game":"","app_id":0,"player_count":0,"max_players":0,"Bots":0,"server_type":"","server_os":"","password":false,"vac":false,"version":"","steam_id":0,"keywords":null,"game_id":0,"stv_port":0,"stv_name":"","players":null},{"server_id":301,"name":"Uncletopia | Montréal | 2 | One Thousand Uncles","name_short":"mtl-2","host":"mtl-1.ca.uncletopia.com","port":27025,"enabled":true,"region":"us-east","cc":"ca","latitude":45.50889,"longitude":-73.56167,"reserved":0,"last_update":"0001-01-01T00:00:00Z","name_a2s":"","protocol":0,"map":"","folder":"","game":"","app_id":0,"player_count":11,"max_players":0,"Bots":0,"server_type":"","server_os":"","password":false,"vac":false,"version":"","steam_id":0,"keywords":null,"game_id":0,"stv_port":0,"stv_name":"","players":[{"user_id":89,"name":"Cornmac","steam_id":76561198104780569,"connected_time":3709000000000,"state":"active","ping":141},{"user_id":107,"name":"hawkson","steam_id":76561198328814390,"connected_time":3594000000000,"state":"active","ping":184},{"user_id":141,"name":"I just joined","steam_id":76561198057999536,"connected_time":935000000000,"state":"active","ping":105},{"user_id":162,"name":"Starmind","steam_id":76561198112444568,"connected_time":322000000000,"state":"active","ping":46},{"user_id":58,"name":"MancalaMadMan","steam_id":76561198347324053,"connected_time":6429000000000,"state":"active","ping":117},{"user_id":108,"name":"gideon nav my beloved","steam_id":76561198259092181,"connected_time":3389000000000,"state":"active","ping":55},{"user_id":131,"name":"bobbymcbobington","steam_id":76561199089411172,"connected_time":1281000000000,"state":"active","ping":128},{"user_id":106,"name":"leboeufbn","steam_id":76561199228923100,"connected_time":3685000000000,"state":"active","ping":75},{"user_id":109,"name":"Mecha","steam_id":76561198014927379,"connected_time":3284000000000,"state":"active","ping":60},{"user_id":111,"name":"Sause","steam_id":76561198813759906,"connected_time":2513000000000,"state":"active","ping":104},{"user_id":163,"name":"Discourse","steam_id":76561198984286678,"connected_time":155000000000,"state":"active","ping":58}]},{"server_id":13,"name":"Uncletopia | New York City | 1 | All Maps","name_short":"nyc-1","host":"nyc-1.us.uncletopia.com","port":27015,"enabled":true,"region":"us-east","cc":"us","latitude":40.73061,"longitude":-73.93524,"reserved":0,"last_update":"0001-01-01T00:00:00Z","name_a2s":"Uncletopia | New York City | 1 | All Maps","protocol":17,"map":"koth_highpass","folder":"tf","game":"Team Fortress","app_id":440,"player_count":0,"max_players":24,"Bots":0,"server_type":"Dedicated","server_os":"Linux","password":true,"vac":true,"version":"7961495","steam_id":85568392924469993,"keywords":["cp","nocrits","nodmgspread","uncletopia"],"game_id":440,"stv_port":27016,"stv_name":"Uncletopia | New York City | 1 | All Maps | STV","players":null},{"server_id":14,"name":"Uncletopia | New York City | 2 | All Maps","name_short":"nyc-2","host":"nyc-1.us.uncletopia.com","port":27025,"enabled":true,"region":"us-east","cc":"us","latitude":40.73061,"longitude":-73.93524,"reserved":0,"last_update":"0001-01-01T00:00:00Z","name_a2s":"Uncletopia | New York City | 2 | All Maps","protocol":17,"map":"pl_frontier_final","folder":"tf","game":"Team Fortress","app_id":440,"player_count":23,"max_players":24,"Bots":0,"server_type":"Dedicated","server_os":"Linux","password":true,"vac":true,"version":"7961495","steam_id":85568392924469994,"keywords":["nocrits","nodmgspread","payload","uncletopia"],"game_id":440,"stv_port":27026,"stv_name":"Uncletopia | New York City | 2 | All Maps | STV","players":[{"user_id":333,"name":"MondoDong","steam_id":76561197991400109,"connected_time":60000000000,"state":"active","ping":49},{"user_id":274,"name":"THE ANTAGONIST","steam_id":76561198171091281,"connected_time":3804000000000,"state":"active","ping":47},{"user_id":269,"name":"GP","steam_id":76561198215438831,"connected_time":5143000000000,"state":"active","ping":74},{"user_id":324,"name":"peace dog","steam_id":76561198267988522,"connected_time":1174000000000,"state":"active","ping":67},{"user_id":276,"name":"Rachi","steam_id":76561198083826053,"connected_time":3795000000000,"state":"active","ping":61},{"user_id":332,"name":"Dan","steam_id":76561199236719411,"connected_time":262000000000,"state":"active","ping":82},{"user_id":330,"name":"Tile(s)","steam_id":76561198196660338,"connected_time":995000000000,"state":"active","ping":59},{"user_id":311,"name":"Catscout","steam_id":76561198140893643,"connected_time":2639000000000,"state":"active","ping":103},{"user_id":309,"name":"Sly cooper","steam_id":76561198242108868,"connected_time":2748000000000,"state":"active","ping":63},{"user_id":310,"name":"RadioactiveRoyce","steam_id":76561198300806123,"connected_time":2740000000000,"state":"active","ping":132},{"user_id":271,"name":"Tony hawks pro skater 2 dlc","steam_id":76561198243387974,"connected_time":4641000000000,"state":"active","ping":56},{"user_id":305,"name":"freyjaaaaaaaaaaaaaaaaaaaaaa","steam_id":76561198249206656,"connected_time":2991000000000,"state":"active","ping":75},{"user_id":331,"name":"Sigiferd","steam_id":76561198148788110,"connected_time":538000000000,"state":"active","ping":120},{"user_id":326,"name":"Sicko Mode (Chris Pratt Cover)","steam_id":76561198315786174,"connected_time":1164000000000,"state":"active","ping":68},{"user_id":322,"name":"I am the traitor","steam_id":76561198012072536,"connected_time":1224000000000,"state":"active","ping":50},{"user_id":255,"name":"Cla1rv0yant","steam_id":76561198073841803,"connected_time":6987000000000,"state":"active","ping":60},{"user_id":261,"name":"Broadway Rose","steam_id":76561198046083342,"connected_time":5256000000000,"state":"active","ping":39},{"user_id":327,"name":"CREE","steam_id":76561198392539722,"connected_time":1155000000000,"state":"active","ping":79},{"user_id":319,"name":"Rat","steam_id":76561198187698871,"connected_time":1751000000000,"state":"active","ping":60},{"user_id":328,"name":"Mr.Bones","steam_id":76561198205170595,"connected_time":1103000000000,"state":"active","ping":120},{"user_id":321,"name":"Goku","steam_id":76561199085137300,"connected_time":1457000000000,"state":"active","ping":65},{"user_id":135,"name":"Chris","steam_id":76561198044278802,"connected_time":14669000000000,"state":"active","ping":50},{"user_id":224,"name":"Voracious Puma","steam_id":76561197963621649,"connected_time":8674000000000,"state":"active","ping":90}]},{"server_id":15,"name":"Uncletopia | New York City | 3 | Stopwatch","name_short":"nyc-3","host":"nyc-1.us.uncletopia.com","port":27035,"enabled":true,"region":"us-east","cc":"us","latitude":40.73061,"longitude":-73.93524,"reserved":0,"last_update":"0001-01-01T00:00:00Z","name_a2s":"Uncletopia | New York City | 3 | Stopwatch","protocol":17,"map":"cp_process_final","folder":"tf","game":"Team Fortress","app_id":440,"player_count":0,"max_players":24,"Bots":0,"server_type":"Dedicated","server_os":"Linux","password":true,"vac":true,"version":"7961495","steam_id":85568392924742820,"keywords":["cp","nocrits","nodmgspread","uncletopia"],"game_id":440,"stv_port":27036,"stv_name":"Uncletopia | New York City | 3 | Stopwatch | STV","players":null},{"server_id":16,"name":"Uncletopia | New York City | 4 | Community","name_short":"nyc-4","host":"nyc-1.us.uncletopia.com","port":27045,"enabled":true,"region":"us-east","cc":"us","latitude":40.73061,"longitude":-73.93524,"reserved":0,"last_update":"0001-01-01T00:00:00Z","name_a2s":"Uncletopia | New York City | 4 | Community","protocol":17,"map":"workshop/pl_cactuscanyon_redux_final2.ugc2579644293","folder":"tf","game":"Team Fortress","app_id":440,"player_count":0,"max_players":24,"Bots":0,"server_type":"Dedicated","server_os":"Linux","password":true,"vac":true,"version":"7961495","steam_id":85568392924742821,"keywords":["nocrits","nodmgspread","payload","uncletopia"],"game_id":440,"stv_port":27046,"stv_name":"Uncletopia | New York City | 4 | Community | STV","players":null},{"server_id":142,"name":"Uncletopia | São Paulo | 1 | All Maps","name_short":"sao-1","host":"sao-1.br.uncletopia.com","port":27015,"enabled":true,"region":"sa","cc":"br","latitude":-23.533773,"longitude":-46.62529,"reserved":0,"last_update":"0001-01-01T00:00:00Z","name_a2s":"Uncletopia | São Paulo | 1 | All Maps","protocol":17,"map":"cp_mountainlab","folder":"tf","game":"Team Fortress","app_id":440,"player_count":0,"max_players":24,"Bots":0,"server_type":"Dedicated","server_os":"Linux","password":true,"vac":true,"version":"7961495","steam_id":85568392924469996,"keywords":["cp","nocrits","nodmgspread","uncletopia"],"game_id":440,"stv_port":27016,"stv_name":"Uncletopia | São Paulo | 1 | All Maps | STV","players":null},{"server_id":143,"name":"Uncletopia | São Paulo | 2 | Community","name_short":"sao-2","host":"sao-2.br.uncletopia.com","port":27015,"enabled":true,"region":"sa","cc":"br","latitude":-23.533773,"longitude":-46.62529,"reserved":0,"last_update":"0001-01-01T00:00:00Z","name_a2s":"Uncletopia | São Paulo | 2 | Community","protocol":17,"map":"pl_badwater","folder":"tf","game":"Team Fortress","app_id":440,"player_count":0,"max_players":24,"Bots":0,"server_type":"Dedicated","server_os":"Linux","password":true,"vac":true,"version":"7961495","steam_id":85568392924485349,"keywords":["nocrits","nodmgspread","payload","uncletopia"],"game_id":440,"stv_port":27016,"stv_name":"Uncletopia | São Paulo | 2 | Community | STV","players":null},{"server_id":7,"name":"Uncletopia | Seattle | 1 | All Maps","name_short":"sea-1","host":"sea-1.us.uncletopia.com","port":27015,"enabled":true,"region":"us-west","cc":"us","latitude":47.608013,"longitude":-122.33517,"reserved":0,"last_update":"0001-01-01T00:00:00Z","name_a2s":"Uncletopia | Seattle | 1 | All Maps","protocol":17,"map":"koth_harvest_final","folder":"tf","game":"Team Fortress","app_id":440,"player_count":4,"max_players":24,"Bots":0,"server_type":"Dedicated","server_os":"Linux","password":true,"vac":true,"version":"7961495","steam_id":85568392924469997,"keywords":["cp","nocrits","nodmgspread","uncletopia"],"game_id":440,"stv_port":27016,"stv_name":"Uncletopia | Seattle | 1 | All Maps | STV","players":[{"user_id":177,"name":"woodpigeon","steam_id":76561199391478575,"connected_time":956000000000,"state":"active","ping":44},{"user_id":180,"name":"[TrC] Dackstrus","steam_id":76561197973518509,"connected_time":298000000000,"state":"active","ping":46},{"user_id":181,"name":"[TrC] Nosy","steam_id":76561197978859310,"connected_time":218000000000,"state":"active","ping":47},{"user_id":183,"name":"Doggo","steam_id":76561198973038585,"connected_time":59000000000,"state":"active","ping":117}]},{"server_id":119,"name":"Uncletopia | Seattle | 2 | All Maps","name_short":"sea-2","host":"sea-1.us.uncletopia.com","port":27025,"enabled":true,"region":"us-west","cc":"us","latitude":47.608013,"longitude":-122.33517,"reserved":0,"last_update":"0001-01-01T00:00:00Z","name_a2s":"Uncletopia | Seattle | 2 | All Maps","protocol":17,"map":"cp_dustbowl","folder":"tf","game":"Team Fortress","app_id":440,"player_count":0,"max_players":24,"Bots":0,"server_type":"Dedicated","server_os":"Linux","password":true,"vac":true,"version":"7961495","steam_id":85568392924469998,"keywords":["cp","nocrits","nodmgspread","uncletopia"],"game_id":440,"stv_port":27026,"stv_name":"Uncletopia | Seattle | 2 | All Maps | STV","players":null},{"server_id":406,"name":"Uncletopia | Seattle | 3 | Stopwatch","name_short":"sea-3","host":"sea-1.us.uncletopia.com","port":27035,"enabled":true,"region":"us-west","cc":"us","latitude":47.608013,"longitude":-122.33517,"reserved":0,"last_update":"0001-01-01T00:00:00Z","name_a2s":"Uncletopia | Seattle | 3 | Stopwatch","protocol":17,"map":"cp_process_final","folder":"tf","game":"Team Fortress","app_id":440,"player_count":0,"max_players":24,"Bots":0,"server_type":"Dedicated","server_os":"Linux","password":true,"vac":true,"version":"7961495","steam_id":85568392924515217,"keywords":["cp","nocrits","nodmgspread","uncletopia"],"game_id":440,"stv_port":27036,"stv_name":"Uncletopia | Seattle | 3 | Stopwatch | STV","players":null},{"server_id":17,"name":"Uncletopia | San Francisco | 1 | All Maps","name_short":"sfo-1","host":"sfo-1.us.uncletopia.com","port":27015,"enabled":true,"region":"us-west","cc":"us","latitude":37.77397,"longitude":-122.4313,"reserved":0,"last_update":"0001-01-01T00:00:00Z","name_a2s":"Uncletopia | San Francisco | 1 | All Maps","protocol":17,"map":"koth_cascade","folder":"tf","game":"Team Fortress","app_id":440,"player_count":0,"max_players":24,"Bots":0,"server_type":"Dedicated","server_os":"Linux","password":true,"vac":true,"version":"7961495","steam_id":85568392924469999,"keywords":["cp","nocrits","nodmgspread","uncletopia"],"game_id":440,"stv_port":27016,"stv_name":"Uncletopia | San Francisco | 1 | All Maps | STV","players":null},{"server_id":18,"name":"Uncletopia | San Francisco | 2 | All Maps","name_short":"sfo-2","host":"sfo-1.us.uncletopia.com","port":27025,"enabled":true,"region":"us-west","cc":"us","latitude":37.77397,"longitude":-122.4313,"reserved":0,"last_update":"0001-01-01T00:00:00Z","name_a2s":"Uncletopia | San Francisco | 2 | All Maps","protocol":17,"map":"pl_pier","folder":"tf","game":"Team Fortress","app_id":440,"player_count":0,"max_players":24,"Bots":0,"server_type":"Dedicated","server_os":"Linux","password":true,"vac":true,"version":"7961495","steam_id":85568392924470000,"keywords":["nocrits","nodmgspread","payload","uncletopia"],"game_id":440,"stv_port":27026,"stv_name":"Uncletopia | San Francisco | 2 | All Maps | STV","players":null},{"server_id":19,"name":"Uncletopia | San Francisco | 3 | Stopwatch","name_short":"sfo-3","host":"sfo-1.us.uncletopia.com","port":27035,"enabled":true,"region":"us-west","cc":"us","latitude":37.77397,"longitude":-122.4313,"reserved":0,"last_update":"0001-01-01T00:00:00Z","name_a2s":"Uncletopia | San Francisco | 3 | Stopwatch","protocol":17,"map":"pl_pier","folder":"tf","game":"Team Fortress","app_id":440,"player_count":0,"max_players":24,"Bots":0,"server_type":"Dedicated","server_os":"Linux","password":true,"vac":true,"version":"7961495","steam_id":85568392924742824,"keywords":["nocrits","nodmgspread","payload","uncletopia"],"game_id":440,"stv_port":27036,"stv_name":"Uncletopia | San Francisco | 3 | Stopwatch | STV","players":null},{"server_id":20,"name":"Uncletopia | San Francisco | 4 | Community","name_short":"sfo-4","host":"sfo-1.us.uncletopia.com","port":27045,"enabled":true,"region":"us-west","cc":"us","latitude":37.77397,"longitude":-122.4313,"reserved":0,"last_update":"0001-01-01T00:00:00Z","name_a2s":"Uncletopia | San Francisco | 4 | Community","protocol":17,"map":"pl_pier","folder":"tf","game":"Team Fortress","app_id":440,"player_count":0,"max_players":24,"Bots":0,"server_type":"Dedicated","server_os":"Linux","password":true,"vac":true,"version":"7961495","steam_id":85568392924742826,"keywords":["nocrits","nodmgspread","payload","uncletopia"],"game_id":440,"stv_port":27046,"stv_name":"Uncletopia | San Francisco | 4 | Community | STV","players":null},{"server_id":141,"name":"Uncletopia | Sydney | 1 | All Maps","name_short":"syd-1","host":"syd-1.au.uncletopia.com","port":27015,"enabled":true,"region":"au","cc":"au","latitude":-33.865143,"longitude":151.2099,"reserved":0,"last_update":"0001-01-01T00:00:00Z","name_a2s":"Uncletopia | Sydney | 1 | All Maps","protocol":17,"map":"koth_lakeside_final","folder":"tf","game":"Team Fortress","app_id":440,"player_count":0,"max_players":24,"Bots":0,"server_type":"Dedicated","server_os":"Linux","password":true,"vac":true,"version":"7961495","steam_id":85568392924470001,"keywords":["cp","nocrits","nodmgspread","uncletopia"],"game_id":440,"stv_port":27016,"stv_name":"Uncletopia | Sydney | 1 | All Maps | STV","players":null},{"server_id":123,"name":"Uncletopia | Sydney | 2 | All Maps","name_short":"syd-2","host":"syd-1.au.uncletopia.com","port":27025,"enabled":true,"region":"au","cc":"au","latitude":-33.865143,"longitude":151.2099,"reserved":0,"last_update":"0001-01-01T00:00:00Z","name_a2s":"Uncletopia | Sydney | 2 | All Maps","protocol":17,"map":"cp_5gorge","folder":"tf","game":"Team Fortress","app_id":440,"player_count":0,"max_players":24,"Bots":0,"server_type":"Dedicated","server_os":"Linux","password":true,"vac":true,"version":"7961495","steam_id":85568392924470002,"keywords":["cp","nocrits","nodmgspread","uncletopia"],"game_id":440,"stv_port":27026,"stv_name":"Uncletopia | Sydney | 2 | All Maps | STV","players":null},{"server_id":395,"name":"Uncletopia | Sydney | 3 | All Maps","name_short":"syd-3","host":"syd-1.au.uncletopia.com","port":27035,"enabled":true,"region":"au","cc":"au","latitude":-33.865143,"longitude":151.2099,"reserved":0,"last_update":"0001-01-01T00:00:00Z","name_a2s":"Uncletopia | Sydney | 3 | All Maps","protocol":17,"map":"cp_altitude","folder":"tf","game":"Team Fortress","app_id":440,"player_count":0,"max_players":24,"Bots":0,"server_type":"Dedicated","server_os":"Linux","password":true,"vac":true,"version":"7961495","steam_id":85568392925194467,"keywords":["cp","nocrits","nodmgspread","uncletopia"],"game_id":440,"stv_port":27036,"stv_name":"Uncletopia | Sydney | 3 | All Maps | STV","players":null},{"server_id":396,"name":"Uncletopia | Sydney | 4 | All Maps","name_short":"syd-4","host":"syd-1.au.uncletopia.com","port":27045,"enabled":true,"region":"au","cc":"au","latitude":-33.865143,"longitude":151.2099,"reserved":0,"last_update":"0001-01-01T00:00:00Z","name_a2s":"Uncletopia | Sydney | 4 | All Maps","protocol":17,"map":"koth_highpass","folder":"tf","game":"Team Fortress","app_id":440,"player_count":0,"max_players":24,"Bots":0,"server_type":"Dedicated","server_os":"Linux","password":true,"vac":true,"version":"7961495","steam_id":85568392925397958,"keywords":["cp","nocrits","nodmgspread","uncletopia"],"game_id":440,"stv_port":27046,"stv_name":"Uncletopia | Sydney | 4 | All Maps | STV","players":null},{"server_id":58,"name":"Uncletopia | Sydney | 5 | Stopwatch","name_short":"syd-5","host":"syd-1.au.uncletopia.com","port":27055,"enabled":true,"region":"au","cc":"au","latitude":-33.865143,"longitude":151.2099,"reserved":0,"last_update":"0001-01-01T00:00:00Z","name_a2s":"Uncletopia | Sydney | 5 | Stopwatch","protocol":17,"map":"workshop/koth_clearcut_b15.ugc2107050255","folder":"tf","game":"Team Fortress","app_id":440,"player_count":0,"max_players":24,"Bots":0,"server_type":"Dedicated","server_os":"Linux","password":true,"vac":true,"version":"7961495","steam_id":85568392925397959,"keywords":["cp","nocrits","nodmgspread","uncletopia"],"game_id":440,"stv_port":27056,"stv_name":"Uncletopia | Sydney | 5 | Stopwatch | STV","players":null},{"server_id":59,"name":"Uncletopia | Sydney | 6 | Community","name_short":"syd-6","host":"syd-1.au.uncletopia.com","port":27065,"enabled":true,"region":"au","cc":"au","latitude":-33.865143,"longitude":151.2099,"reserved":0,"last_update":"0001-01-01T00:00:00Z","name_a2s":"Uncletopia | Sydney | 6 | Community","protocol":17,"map":"cp_sunshine","folder":"tf","game":"Team Fortress","app_id":440,"player_count":0,"max_players":24,"Bots":0,"server_type":"Dedicated","server_os":"Linux","password":true,"vac":true,"version":"7961495","steam_id":85568392925397960,"keywords":["cp","nocrits","nodmgspread","uncletopia"],"game_id":440,"stv_port":27066,"stv_name":"Uncletopia | Sydney | 6 | Community | STV","players":null},{"server_id":49,"name":"Uncletopia | Warsaw | 1 | All Maps","name_short":"waw-1","host":"waw-1.pl.uncletopia.com","port":27015,"enabled":true,"region":"eu","cc":"pl","latitude":52.2297,"longitude":21.017532,"reserved":0,"last_update":"0001-01-01T00:00:00Z","name_a2s":"Uncletopia | Warsaw | 1 | All Maps","protocol":17,"map":"koth_lakeside_final","folder":"tf","game":"Team Fortress","app_id":440,"player_count":0,"max_players":24,"Bots":0,"server_type":"Dedicated","server_os":"Linux","password":true,"vac":true,"version":"7961495","steam_id":85568392925397850,"keywords":["cp","nocrits","nodmgspread","uncletopia"],"game_id":440,"stv_port":27016,"stv_name":"Uncletopia | Warsaw | 1 | All Maps | STV","players":null},{"server_id":50,"name":"Uncletopia | Warsaw | 2 | All Maps","name_short":"waw-2","host":"waw-1.pl.uncletopia.com","port":27025,"enabled":true,"region":"eu","cc":"pl","latitude":52.2297,"longitude":21.017532,"reserved":0,"last_update":"0001-01-01T00:00:00Z","name_a2s":"Uncletopia | Warsaw | 2 | All Maps","protocol":17,"map":"koth_viaduct","folder":"tf","game":"Team Fortress","app_id":440,"player_count":24,"max_players":24,"Bots":0,"server_type":"Dedicated","server_os":"Linux","password":true,"vac":true,"version":"7961495","steam_id":85568392925397851,"keywords":["cp","nocrits","nodmgspread","uncletopia"],"game_id":440,"stv_port":27026,"stv_name":"Uncletopia | Warsaw | 2 | All Maps | STV","players":[{"user_id":138,"name":"IDunnoMemes","steam_id":76561198303462971,"connected_time":94000000000,"state":"active","ping":36},{"user_id":136,"name":"Shiisi","steam_id":76561197973650828,"connected_time":516000000000,"state":"active","ping":91},{"user_id":126,"name":"Bodolaz","steam_id":76561198031327763,"connected_time":1684000000000,"state":"active","ping":60},{"user_id":134,"name":"CEO of Racism","steam_id":76561198042317958,"connected_time":1095000000000,"state":"active","ping":44},{"user_id":115,"name":"jedna djacka sa pavlakom","steam_id":76561199135803236,"connected_time":2851000000000,"state":"active","ping":110},{"user_id":128,"name":"A-10 Thunderbolt II","steam_id":76561198253252434,"connected_time":1657000000000,"state":"active","ping":53},{"user_id":12,"name":"orneps489","steam_id":76561199124755916,"connected_time":9661000000000,"state":"active","ping":158},{"user_id":116,"name":"le big mac","steam_id":76561199026378253,"connected_time":2849000000000,"state":"active","ping":71},{"user_id":123,"name":"Grandfather Boris","steam_id":76561198175048651,"connected_time":2428000000000,"state":"active","ping":70},{"user_id":120,"name":"Nyhde","steam_id":76561198012771416,"connected_time":2700000000000,"state":"active","ping":107},{"user_id":129,"name":"MUWEQ","steam_id":76561198107615727,"connected_time":1651000000000,"state":"active","ping":53},{"user_id":135,"name":"Sudiak","steam_id":76561198119246214,"connected_time":627000000000,"state":"active","ping":170},{"user_id":117,"name":"Gooner","steam_id":76561198087035309,"connected_time":2849000000000,"state":"active","ping":40},{"user_id":121,"name":"V.","steam_id":76561198079157329,"connected_time":2577000000000,"state":"active","ping":98},{"user_id":132,"name":"i hack smart refrigerators","steam_id":76561199265289808,"connected_time":1540000000000,"state":"active","ping":133},{"user_id":122,"name":"forza","steam_id":76561198027045712,"connected_time":2551000000000,"state":"active","ping":75},{"user_id":137,"name":"Geogre Floyd","steam_id":76561199293583242,"connected_time":508000000000,"state":"active","ping":48},{"user_id":79,"name":"Squanchy","steam_id":76561198013657513,"connected_time":6162000000000,"state":"active","ping":46},{"user_id":108,"name":"random guy (real)","steam_id":76561199199499453,"connected_time":3700000000000,"state":"active","ping":74},{"user_id":65,"name":"HilldogGaming♛","steam_id":76561198082209322,"connected_time":6585000000000,"state":"active","ping":116},{"user_id":118,"name":"REDZED","steam_id":76561199434154377,"connected_time":2844000000000,"state":"active","ping":113},{"user_id":91,"name":"Caliban","steam_id":76561197999696839,"connected_time":5331000000000,"state":"active","ping":102},{"user_id":77,"name":"iniT","steam_id":76561198019883794,"connected_time":6225000000000,"state":"active","ping":70},{"user_id":110,"name":"Mischail","steam_id":76561198016127010,"connected_time":3250000000000,"state":"active","ping":87}]},{"server_id":51,"name":"Uncletopia | Warsaw | 3 | All Maps","name_short":"waw-3","host":"waw-1.pl.uncletopia.com","port":27035,"enabled":true,"region":"eu","cc":"pl","latitude":52.2297,"longitude":21.017532,"reserved":0,"last_update":"0001-01-01T00:00:00Z","name_a2s":"Uncletopia | Warsaw | 3 | All Maps","protocol":17,"map":"pl_upward","folder":"tf","game":"Team Fortress","app_id":440,"player_count":19,"max_players":24,"Bots":0,"server_type":"Dedicated","server_os":"Linux","password":true,"vac":true,"version":"7961495","steam_id":85568392925397852,"keywords":["nocrits","nodmgspread","payload","uncletopia"],"game_id":440,"stv_port":27036,"stv_name":"Uncletopia | Warsaw | 3 | All Maps | STV","players":[{"user_id":358,"name":"John","steam_id":76561199063651035,"connected_time":1662000000000,"state":"active","ping":67},{"user_id":378,"name":"Knocker","steam_id":76561199165251659,"connected_time":490000000000,"state":"active","ping":124},{"user_id":360,"name":"the_Bulgarian_Badger","steam_id":76561199067348424,"connected_time":1522000000000,"state":"active","ping":114},{"user_id":383,"name":"simon","steam_id":76561198160514633,"connected_time":149000000000,"state":"active","ping":31},{"user_id":384,"name":"TwiceBakedPotato","steam_id":76561198178524571,"connected_time":2000000000,"state":"spawning","ping":135},{"user_id":325,"name":"NANI?!?!?!","steam_id":76561198172078559,"connected_time":4892000000000,"state":"active","ping":90},{"user_id":364,"name":"Strangerdanger","steam_id":76561198206728500,"connected_time":1354000000000,"state":"active","ping":90},{"user_id":365,"name":"peterthecallistrophy","steam_id":76561199443272346,"connected_time":1335000000000,"state":"active","ping":85},{"user_id":348,"name":"Sir Loin","steam_id":76561198084097322,"connected_time":3017000000000,"state":"active","ping":174},{"user_id":366,"name":"Emppuuu","steam_id":76561198817630199,"connected_time":1309000000000,"state":"active","ping":111},{"user_id":367,"name":"anabol1c steroids","steam_id":76561199470147761,"connected_time":1295000000000,"state":"active","ping":155},{"user_id":346,"name":"Myra Valkyr","steam_id":76561198047233788,"connected_time":3063000000000,"state":"active","ping":64},{"user_id":382,"name":"1000 hours 0 skill","steam_id":76561198406826998,"connected_time":277000000000,"state":"active","ping":102},{"user_id":369,"name":"EdgyKItro","steam_id":76561199018665986,"connected_time":1238000000000,"state":"active","ping":73},{"user_id":370,"name":"Crimson","steam_id":76561198154413600,"connected_time":1209000000000,"state":"active","ping":85},{"user_id":381,"name":"DeanAdamFry","steam_id":76561198054153160,"connected_time":451000000000,"state":"active","ping":77},{"user_id":328,"name":"bestuan","steam_id":76561199083610617,"connected_time":4770000000000,"state":"active","ping":161},{"user_id":377,"name":"BELADIT","steam_id":76561198011911501,"connected_time":653000000000,"state":"active","ping":83},{"user_id":354,"name":"splooncas","steam_id":76561199487485968,"connected_time":2814000000000,"state":"active","ping":61}]},{"server_id":52,"name":"Uncletopia | Warsaw | 4 | All Maps","name_short":"waw-4","host":"waw-1.pl.uncletopia.com","port":27045,"enabled":true,"region":"eu","cc":"pl","latitude":52.2297,"longitude":21.017532,"reserved":0,"last_update":"0001-01-01T00:00:00Z","name_a2s":"Uncletopia | Warsaw | 4 | All Maps","protocol":17,"map":"cp_dustbowl","folder":"tf","game":"Team Fortress","app_id":440,"player_count":0,"max_players":24,"Bots":0,"server_type":"Dedicated","server_os":"Linux","password":true,"vac":true,"version":"7961495","steam_id":85568392925397853,"keywords":["cp","nocrits","nodmgspread","uncletopia"],"game_id":440,"stv_port":27046,"stv_name":"Uncletopia | Warsaw | 4 | All Maps | STV","players":null},{"server_id":53,"name":"Uncletopia | Warsaw | 5 | Stopwatch","name_short":"waw-5","host":"waw-1.pl.uncletopia.com","port":27055,"enabled":true,"region":"eu","cc":"pl","latitude":52.2297,"longitude":21.017532,"reserved":0,"last_update":"0001-01-01T00:00:00Z","name_a2s":"Uncletopia | Warsaw | 5 | Stopwatch","protocol":17,"map":"workshop/koth_ramjam_rc1.ugc459778887","folder":"tf","game":"Team Fortress","app_id":440,"player_count":0,"max_players":24,"Bots":0,"server_type":"Dedicated","server_os":"Linux","password":true,"vac":true,"version":"7961495","steam_id":85568392925397854,"keywords":["cp","nocrits","nodmgspread","uncletopia"],"game_id":440,"stv_port":27056,"stv_name":"Uncletopia | Warsaw | 5 | Stopwatch | STV","players":null},{"server_id":54,"name":"Uncletopia | Warsaw | 6 | Community","name_short":"waw-6","host":"waw-1.pl.uncletopia.com","port":27065,"enabled":true,"region":"eu","cc":"pl","latitude":52.2297,"longitude":21.017532,"reserved":0,"last_update":"0001-01-01T00:00:00Z","name_a2s":"Uncletopia | Warsaw | 6 | Community","protocol":17,"map":"workshop/pl_emerge_rc2.ugc888027758","folder":"tf","game":"Team Fortress","app_id":440,"player_count":0,"max_players":24,"Bots":0,"server_type":"Dedicated","server_os":"Linux","password":true,"vac":true,"version":"7961495","steam_id":85568392925397856,"keywords":["nocrits","nodmgspread","payload","uncletopia"],"game_id":440,"stv_port":27066,"stv_name":"Uncletopia | Warsaw | 6 | Community | STV","players":null}]}