{"status":true,"message":"","result":[{"server_id":9,"name":"Uncletopia | Atlanta | 1 | All Maps","name_short":"atl-1","host":"atl-1.us.uncletopia.com","port":27015,"enabled":true,"region":"us-east","cc":"us","latitude":33.753746,"longitude":-84.38633,"reserved":0,"last_update":"0001-01-01T00:00:00Z","name_a2s":"Uncletopia | Atlanta | 1 | All Maps","protocol":17,"map":"pl_pier","folder":"tf","game":"Team Fortress","app_id":440,"player_count":19,"max_players":24,"Bots":0,"server_type":"Dedicated","server_os":"Linux","password":true,"vac":true,"version":"7757534","steam_id":85568392924469982,"keywords":["nocrits","nodmgspread","payload","uncletopia"],"game_id":440,"stv_port":27016,"stv_name":"Uncletopia | Atlanta | 1 | All Maps | STV","players":[{"user_id":240,"name":"tomboytysen","steam_id":76561198149641643,"connected_time":98000000000,"state":"active","ping":88},{"user_id":241,"name":"Siafu","steam_id":76561198155249592,"connected_time":52000000000,"state":"active","ping":72},{"user_id":228,"name":"lil hog","steam_id":76561199230929836,"connected_time":495000000000,"state":"active","ping":91},{"user_id":215,"name":"***MeDiCuRe***","steam_id":76561199216222247,"connected_time":1158000000000,"state":"active","ping":84},{"user_id":130,"name":"SomeScuffedKid","steam_id":76561198086113234,"connected_time":7354000000000,"state":"active","ping":84},{"user_id":237,"name":"Disgruntled Nerd","steam_id":76561198009022261,"connected_time":172000000000,"state":"active","ping":135},{"user_id":238,"name":"ash","steam_id":76561198127890645,"connected_time":164000000000,"state":"active","ping":60},{"user_id":242,"name":"ScurvyScoundrel","steam_id":76561199036505151,"connected_time":29000000000,"state":"active","ping":48},{"user_id":122,"name":"Carl, Good to see you","steam_id":76561198070574075,"connected_time":7906000000000,"state":"active","ping":58},{"user_id":243,"name":"Tugs","steam_id":76561198123426505,"connected_time":26000000000,"state":"spawning","ping":73},{"user_id":244,"name":"MOB101","steam_id":76561198360491038,"connected_time":10000000000,"state":"spawning","ping":44},{"user_id":205,"name":"ATL 1 | Save your wifi","steam_id":76561198286147372,"connected_time":1893000000000,"state":"active","ping":46},{"user_id":201,"name":"Towns","steam_id":76561198984662863,"connected_time":2472000000000,"state":"active","ping":59},{"user_id":212,"name":"ATL1 | on my hunting trip","steam_id":76561198315341646,"connected_time":1388000000000,"state":"active","ping":73},{"user_id":210,"name":"The Silly Banana #SaveTF2","steam_id":76561199238728842,"connected_time":1695000000000,"state":"active","ping":70},{"user_id":217,"name":"carrotcake","steam_id":76561198030997761,"connected_time":1120000000000,"state":"active","ping":60},{"user_id":222,"name":"barry from jetpack joyride","steam_id":76561198881575174,"connected_time":998000000000,"state":"active","ping":177},{"user_id":234,"name":"s","steam_id":76561199196967125,"connected_time":279000000000,"state":"active","ping":59},{"user_id":235,"name":"TaeTaeNuna","steam_id":76561199177395010,"connected_time":278000000000,"state":"active","ping":141}]},{"server_id":104,"name":"Uncletopia | Atlanta | 2 | All Maps","name_short":"atl-2","host":"atl-1.us.uncletopia.com","port":27025,"enabled":true,"region":"us-east","cc":"us","latitude":33.753746,"longitude":-84.38633,"reserved":0,"last_update":"0001-01-01T00:00:00Z","name_a2s":"Uncletopia | Atlanta | 2 | All Maps","protocol":17,"map":"koth_lakeside_final","folder":"tf","game":"Team Fortress","app_id":440,"player_count":0,"max_players":24,"Bots":0,"server_type":"Dedicated","server_os":"Linux","password":true,"vac":true,"version":"7757534","steam_id":85568392924469983,"keywords":["cp","nocrits","nodmgspread","uncletopia"],"game_id":440,"stv_port":27026,"stv_name":"Uncletopia | Atlanta | 2 | All Maps | STV","players":null},{"server_id":400,"name":"Uncletopia | Atlanta | 3 | Community","name_short":"atl-3","host":"atl-1.us.uncletopia.com","port":27035,"enabled":true,"region":"us-east","cc":"us","latitude":33.753746,"longitude":-84.38633,"reserved":0,"last_update":"0001-01-01T00:00:00Z","name_a2s":"Uncletopia | Atlanta | 3 | Community","protocol":17,"map":"workshop/koth_trenchfoot_b1a.ugc731436616","folder":"tf","game":"Team Fortress","app_id":440,"player_count":0,"max_players":24,"Bots":0,"server_type":"Dedicated","server_os":"Linux","password":true,"vac":true,"version":"7757534","steam_id":85568392924515187,"keywords":["cp","nocrits","nodmgspread","uncletopia"],"game_id":440,"stv_port":27036,"stv_name":"Uncletopia | Atlanta | 3 | Community | STV","players":null},{"server_id":401,"name":"Uncletopia | Atlanta | 4 | No Payload","name_short":"atl-4","host":"atl-1.us.uncletopia.com","port":27045,"enabled":true,"region":"us-east","cc":"us","latitude":33.753746,"longitude":-84.38633,"reserved":0,"last_update":"0001-01-01T00:00:00Z","name_a2s":"","protocol":0,"map":"","folder":"","game":"","app_id":0,"player_count":0,"max_players":0,"Bots":0,"server_type":"","server_os":"","password":false,"vac":false,"version":"","steam_id":0,"keywords":null,"game_id":0,"stv_port":0,"stv_name":"","players":null},{"server_id":2,"name":"Uncletopia | Chicago | 1 | All Maps","name_short":"chi-1","host":"chi-1.us.uncletopia.com","port":27015,"enabled":true,"region":"us-central","cc":"us","latitude":41.881832,"longitude":-87.62318,"reserved":0,"last_update":"0001-01-01T00:00:00Z","name_a2s":"Uncletopia | Chicago | 1 | All Maps","protocol":17,"map":"koth_highpass","folder":"tf","game":"Team Fortress","app_id":440,"player_count":0,"max_players":24,"Bots":0,"server_type":"Dedicated","server_os":"Linux","password":true,"vac":true,"version":"7757534","steam_id":85568392924469984,"keywords":["cp","nocrits","nodmgspread","uncletopia"],"game_id":440,"stv_port":27016,"stv_name":"Uncletopia | Chicago | 1 | All Maps | STV","players":null},{"server_id":106,"name":"Uncletopia | Chicago | 2 | All Maps","name_short":"chi-2","host":"chi-1.us.uncletopia.com","port":27025,"enabled":true,"region":"us-central","cc":"us","latitude":41.881832,"longitude":-87.62318,"reserved":0,"last_update":"0001-01-01T00:00:00Z","name_a2s":"Uncletopia | Chicago | 2 | All Maps","protocol":17,"map":"plr_nightfall_final","folder":"tf","game":"Team Fortress","app_id":440,"player_count":23,"max_players":24,"Bots":0,"server_type":"Dedicated","server_os":"Linux","password":true,"vac":true,"version":"7757534","steam_id":85568392924469985,"keywords":["nocrits","nodmgspread","payload","uncletopia"],"game_id":440,"stv_port":27026,"stv_name":"Uncletopia | Chicago | 2 | All Maps | STV","players":[{"user_id":280,"name":"Coffee with a Stranger","steam_id":76561198307422313,"connected_time":5810000000000,"state":"active","ping":67},{"user_id":339,"name":"a mass hallucination","steam_id":76561198259092181,"connected_time":761000000000,"state":"active","ping":67},{"user_id":340,"name":"üåπVinceüêù","steam_id":76561198983122997,"connected_time":723000000000,"state":"active","ping":59},{"user_id":330,"name":"kametro4","steam_id":76561198835430429,"connected_time":1513000000000,"state":"active","ping":75},{"user_id":338,"name":"Henry Ota-Clay","steam_id":76561198053232470,"connected_time":774000000000,"state":"active","ping":56},{"user_id":291,"name":"TwistedTurk","steam_id":76561198082047119,"connected_time":4969000000000,"state":"active","ping":68},{"user_id":320,"name":"‚ùÑ Alice ‚ô•","steam_id":76561198869945051,"connected_time":1864000000000,"state":"active","ping":146},{"user_id":304,"name":"Bobby","steam_id":76561198164004939,"connected_time":4365000000000,"state":"active","ping":126},{"user_id":321,"name":"Captain Cracker","steam_id":76561198834400665,"connected_time":1759000000000,"state":"active","ping":59},{"user_id":335,"name":"LerN","steam_id":76561198083463877,"connected_time":1193000000000,"state":"active","ping":47},{"user_id":153,"name":"Ajax","steam_id":76561197962240140,"connected_time":16403000000000,"state":"active","ping":71},{"user_id":333,"name":"A Storm of Swords","steam_id":76561198044495382,"connected_time":1266000000000,"state":"active","ping":80},{"user_id":337,"name":"ThatGamingKiwi","steam_id":76561199170522237,"connected_time":800000000000,"state":"active","ping":77},{"user_id":325,"name":"Queen Frau the Round","steam_id":76561197999942134,"connected_time":1707000000000,"state":"active","ping":44},{"user_id":328,"name":"dairy","steam_id":76561198117033273,"connected_time":1657000000000,"state":"active","ping":145},{"user_id":317,"name":"I Am Alpharius","steam_id":76561198799197135,"connected_time":2599000000000,"state":"active","ping":62},{"user_id":313,"name":"Cousin Corn on the Cob","steam_id":76561198049837377,"connected_time":2892000000000,"state":"active","ping":46},{"user_id":352,"name":"Kid named download","steam_id":76561199192074448,"connected_time":377000000000,"state":"active","ping":81},{"user_id":270,"name":"Mike Arsfast","steam_id":76561198839205387,"connected_time":6750000000000,"state":"active","ping":65},{"user_id":284,"name":"Rick Beato","steam_id":76561199080451611,"connected_time":5765000000000,"state":"active","ping":89},{"user_id":348,"name":"shadow elite","steam_id":76561198165212575,"connected_time":588000000000,"state":"active","ping":69},{"user_id":366,"name":"vv","steam_id":76561198134813102,"connected_time":80000000000,"state":"active","ping":57},{"user_id":314,"name":"debin","steam_id":76561198070711217,"connected_time":2892000000000,"state":"active","ping":46}]},{"server_id":402,"name":"Uncletopia | Chicago | 3 | All Maps","name_short":"chi-3","host":"chi-1.us.uncletopia.com","port":27035,"enabled":true,"region":"us-central","cc":"us","latitude":41.881832,"longitude":-87.62318,"reserved":0,"last_update":"0001-01-01T00:00:00Z","name_a2s":"Uncletopia | Chicago | 3 | All Maps","protocol":17,"map":"koth_highpass","folder":"tf","game":"Team Fortress","app_id":440,"player_count":0,"max_players":24,"Bots":0,"server_type":"Dedicated","server_os":"Linux","password":true,"vac":true,"version":"7757534","steam_id":85568392924515191,"keywords":["cp","nocrits","nodmgspread","uncletopia"],"game_id":440,"stv_port":27036,"stv_name":"Uncletopia | Chicago | 3 | All Maps | STV","players":null},{"server_id":403,"name":"Uncletopia | Chicago | 4 | All Maps","name_short":"chi-4","host":"chi-1.us.uncletopia.com","port":27045,"enabled":true,"region":"us-central","cc":"us","latitude":41.881832,"longitude":-87.62318,"reserved":0,"last_update":"0001-01-01T00:00:00Z","name_a2s":"Uncletopia | Chicago | 4 | All Maps","protocol":17,"map":"koth_lakeside_final","folder":"tf","game":"Team Fortress","app_id":440,"player_count":0,"max_players":24,"Bots":0,"server_type":"Dedicated","server_os":"Linux","password":true,"vac":true,"version":"7757534","steam_id":85568392924515193,"keywords":["cp","nocrits","nodmgspread","uncletopia"],"game_id":440,"stv_port":27046,"stv_name":"Uncletopia | Chicago | 4 | All Maps | STV","players":null},{"server_id":36,"name":"Uncletopia | Chicago | 5 | All Maps","name_short":"chi-5","host":"chi-2.us.uncletopia.com","port":27015,"enabled":true,"region":"us-central","cc":"us","latitude":41.881832,"longitude":-87.62318,"reserved":0,"last_update":"0001-01-01T00:00:00Z","name_a2s":"Uncletopia | Chicago | 5 | All Maps","protocol":17,"map":"pl_badwater","folder":"tf","game":"Team Fortress","app_id":440,"player_count":21,"max_players":24,"Bots":0,"server_type":"Dedicated","server_os":"Linux","password":true,"vac":true,"version":"7757534","steam_id":85568392924866362,"keywords":["nocrits","nodmgspread","payload","uncletopia"],"game_id":440,"stv_port":27016,"stv_name":"Uncletopia | Chicago | 5 | All Maps | STV","players":[{"user_id":23,"name":"Venk","steam_id":76561198251131422,"connected_time":745000000000,"state":"active","ping":68},{"user_id":24,"name":"ThatFrog","steam_id":76561198437198904,"connected_time":560000000000,"state":"active","ping":99},{"user_id":12,"name":"[DEEP] Danmar33","steam_id":76561198056453091,"connected_time":2374000000000,"state":"active","ping":46},{"user_id":28,"name":"My dad owns Club Penguin.","steam_id":76561198032864436,"connected_time":258000000000,"state":"active","ping":66},{"user_id":43,"name":"Corneta","steam_id":76561198180551281,"connected_time":75000000000,"state":"spawning","ping":220},{"user_id":25,"name":"The Ghost of Jay Leno","steam_id":76561198058938897,"connected_time":535000000000,"state":"active","ping":72},{"user_id":20,"name":"Cuntslinger","steam_id":76561198303948269,"connected_time":966000000000,"state":"active","ping":61},{"user_id":21,"name":"griff928","steam_id":76561198149614679,"connected_time":905000000000,"state":"active","ping":40},{"user_id":27,"name":"magickxanadu","steam_id":76561199117360103,"connected_time":362000000000,"state":"active","ping":68},{"user_id":29,"name":"Soil","steam_id":76561198943879122,"connected_time":252000000000,"state":"active","ping":65},{"user_id":30,"name":"KingCrawful","steam_id":76561198104291657,"connected_time":246000000000,"state":"active","ping":54},{"user_id":32,"name":"TheCheeseWizard","steam_id":76561198058931315,"connected_time":214000000000,"state":"active","ping":53},{"user_id":33,"name":"Dask","steam_id":76561198043385839,"connected_time":212000000000,"state":"active","ping":48},{"user_id":34,"name":"In W+M1 rehab","steam_id":76561198400058665,"connected_time":198000000000,"state":"active","ping":70},{"user_id":35,"name":"ChipE","steam_id":76561198137146627,"connected_time":136000000000,"state":"active","ping":101},{"user_id":45,"name":"fat scout gaming 420","steam_id":76561199331315881,"connected_time":52000000000,"state":"active","ping":83},{"user_id":38,"name":"Quietsharp","steam_id":76561198277968438,"connected_time":113000000000,"state":"active","ping":103},{"user_id":39,"name":"dvnncl","steam_id":76561198337115759,"connected_time":111000000000,"state":"active","ping":61},{"user_id":40,"name":"Nappa","steam_id":76561198142406272,"connected_time":109000000000,"state":"active","ping":74},{"user_id":41,"name":"Eosson","steam_id":76561198108642113,"connected_time":107000000000,"state":"active","ping":60},{"user_id":42,"name":"_Ati","steam_id":76561198339777801,"connected_time":107000000000,"state":"active","ping":104}]},{"server_id":37,"name":"Uncletopia | Chicago | 6 | All Maps","name_short":"chi-6","host":"chi-2.us.uncletopia.com","port":27025,"enabled":true,"region":"us-central","cc":"us","latitude":41.881832,"longitude":-87.62318,"reserved":0,"last_update":"0001-01-01T00:00:00Z","name_a2s":"Uncletopia | Chicago | 6 | All Maps","protocol":17,"map":"cp_altitude","folder":"tf","game":"Team Fortress","app_id":440,"player_count":0,"max_players":24,"Bots":0,"server_type":"Dedicated","server_os":"Linux","password":true,"vac":true,"version":"7757534","steam_id":85568392924866363,"keywords":["cp","nocrits","nodmgspread","uncletopia"],"game_id":440,"stv_port":27026,"stv_name":"Uncletopia | Chicago | 6 | All Maps | STV","players":null},{"server_id":38,"name":"Uncletopia | Chicago | 7 | Stopwatch Beta","name_short":"chi-7","host":"chi-2.us.uncletopia.com","port":27035,"enabled":true,"region":"us-central","cc":"us","latitude":41.881832,"longitude":-87.62318,"reserved":0,"last_update":"0001-01-01T00:00:00Z","name_a2s":"Uncletopia | Chicago | 7 | Stopwatch Beta","protocol":17,"map":"pl_barnblitz","folder":"tf","game":"Team Fortress","app_id":440,"player_count":0,"max_players":24,"Bots":0,"server_type":"Dedicated","server_os":"Linux","password":true,"vac":true,"version":"7757534","steam_id":85568392924866364,"keywords":["nocrits","nodmgspread","payload","uncletopia"],"game_id":440,"stv_port":27036,"stv_name":"Uncletopia | Chicago | 7 | Stopwatch Beta | STV","players":null},{"server_id":39,"name":"Uncletopia | Chicago | 8 | Community","name_short":"chi-8","host":"chi-2.us.uncletopia.com","port":27045,"enabled":true,"region":"us-central","cc":"us","latitude":41.881832,"longitude":-87.62318,"reserved":0,"last_update":"0001-01-01T00:00:00Z","name_a2s":"Uncletopia | Chicago | 8 | Community","protocol":17,"map":"workshop/koth_slaughter_rc1.ugc1712845210","folder":"tf","game":"Team Fortress","app_id":440,"player_count":0,"max_players":24,"Bots":0,"server_type":"Dedicated","server_os":"Linux","password":true,"vac":true,"version":"7757534","steam_id":85568392924866365,"keywords":["cp","nocrits","nodmgspread","uncletopia"],"game_id":440,"stv_port":27046,"stv_name":"Uncletopia | Chicago | 8 | Community | STV","players":null},{"server_id":8,"name":"Uncletopia | Dallas | 1 | All Maps","name_short":"dal-1","host":"dal-1.us.uncletopia.com","port":27015,"enabled":true,"region":"us-central","cc":"us","latitude":32.779167,"longitude":-96.80889,"reserved":0,"last_update":"0001-01-01T00:00:00Z","name_a2s":"Uncletopia | Dallas | 1 | All Maps","protocol":17,"map":"pl_badwater","folder":"tf","game":"Team Fortress","app_id":440,"player_count":24,"max_players":24,"Bots":0,"server_type":"Dedicated","server_os":"Linux","password":true,"vac":true,"version":"7757534","steam_id":85568392924469986,"keywords":["nocrits","nodmgspread","payload","uncletopia"],"game_id":440,"stv_port":27016,"stv_name":"Uncletopia | Dallas | 1 | All Maps | STV","players":[{"user_id":343,"name":"Riff","steam_id":76561198066921423,"connected_time":1074000000000,"state":"active","ping":63},{"user_id":349,"name":"Siri Keeton","steam_id":76561198006579827,"connected_time":527000000000,"state":"active","ping":89},{"user_id":344,"name":"Crime lord Discord","steam_id":76561198101490966,"connected_time":1048000000000,"state":"active","ping":87},{"user_id":341,"name":"[LINUX] Purple Penguin Pybro","steam_id":76561198093538786,"connected_time":1085000000000,"state":"active","ping":45},{"user_id":339,"name":"majorbobfunction","steam_id":76561198042464632,"connected_time":1353000000000,"state":"active","ping":82},{"user_id":352,"name":"CPUnit","steam_id":76561198162881878,"connected_time":244000000000,"state":"active","ping":87},{"user_id":354,"name":"Shattered Glass","steam_id":76561198116835391,"connected_time":159000000000,"state":"active","ping":97},{"user_id":323,"name":"FOrce of nature","steam_id":76561198390522839,"connected_time":2123000000000,"state":"active","ping":105},{"user_id":345,"name":"Gordon Ramsay","steam_id":76561198123893900,"connected_time":1030000000000,"state":"active","ping":105},{"user_id":325,"name":"LuciD","steam_id":76561198242842394,"connected_time":2032000000000,"state":"active","ping":71},{"user_id":346,"name":"your local forecast","steam_id":76561198042243083,"connected_time":964000000000,"state":"active","ping":75},{"user_id":351,"name":"crack crisis","steam_id":76561198332519926,"connected_time":302000000000,"state":"active","ping":88},{"user_id":319,"name":"Alara","steam_id":76561198083144491,"connected_time":2608000000000,"state":"active","ping":85},{"user_id":335,"name":"The Bombinomicon","steam_id":76561198209881263,"connected_time":1688000000000,"state":"active","ping":84},{"user_id":337,"name":"Apollite","steam_id":76561198071669801,"connected_time":1626000000000,"state":"active","ping":77},{"user_id":340,"name":"Imrgrim","steam_id":76561198135866481,"connected_time":1143000000000,"state":"active","ping":70},{"user_id":330,"name":"N'Frieden","steam_id":76561198125840265,"connected_time":1843000000000,"state":"active","ping":77},{"user_id":331,"name":"Animal Slices","steam_id":76561198137545511,"connected_time":1840000000000,"state":"active","ping":76},{"user_id":348,"name":"Dr. Ludwig","steam_id":76561198110246392,"connected_time":731000000000,"state":"active","ping":70},{"user_id":315,"name":"Outlander","steam_id":76561197998995746,"connected_time":3117000000000,"state":"active","ping":68},{"user_id":347,"name":"Can You Feel It Mr.Krabs","steam_id":76561198128302414,"connected_time":953000000000,"state":"active","ping":69},{"user_id":342,"name":"Stamin-Pol","steam_id":76561198280081805,"connected_time":1082000000000,"state":"active","ping":87},{"user_id":252,"name":"Quiver Cakes ._.","steam_id":76561198243155576,"connected_time":7125000000000,"state":"active","ping":81},{"user_id":356,"name":"capybara enjoyer","steam_id":76561198143132686,"connected_time":159000000000,"state":"active","ping":75}]},{"server_id":108,"name":"Uncletopia | Dallas | 2 | All Maps","name_short":"dal-2","host":"dal-1.us.uncletopia.com","port":27025,"enabled":true,"region":"us-central","cc":"us","latitude":32.779167,"longitude":-96.80889,"reserved":0,"last_update":"0001-01-01T00:00:00Z","name_a2s":"Uncletopia | Dallas | 2 | All Maps","protocol":17,"map":"cp_dustbowl","folder":"tf","game":"Team Fortress","app_id":440,"player_count":24,"max_players":24,"Bots":0,"server_type":"Dedicated","server_os":"Linux","password":true,"vac":true,"version":"7757534","steam_id":85568392924469988,"keywords":["cp","nocrits","nodmgspread","uncletopia"],"game_id":440,"stv_port":27026,"stv_name":"Uncletopia | Dallas | 2 | All Maps | STV","players":[{"user_id":188,"name":"=7Cav=SGT.Smith.V","steam_id":76561198104044042,"connected_time":1158000000000,"state":"active","ping":73},{"user_id":163,"name":"j4ckman","steam_id":76561198307901342,"connected_time":2981000000000,"state":"active","ping":50},{"user_id":134,"name":"bleh","steam_id":76561198398383076,"connected_time":5119000000000,"state":"active","ping":129},{"user_id":164,"name":"ÔºîÔºê Ôº¶Ôº∞Ôº≥","steam_id":76561198272394965,"connected_time":2913000000000,"state":"active","ping":147},{"user_id":193,"name":"‚ô´Pilk King‚ô´","steam_id":76561198073660779,"connected_time":804000000000,"state":"active","ping":43},{"user_id":207,"name":"D K","steam_id":76561199040749437,"connected_time":228000000000,"state":"active","ping":105},{"user_id":28,"name":"kasp","steam_id":76561198263271697,"connected_time":11090000000000,"state":"active","ping":66},{"user_id":173,"name":"DerpFamous","steam_id":76561198046167888,"connected_time":1881000000000,"state":"active","ping":50},{"user_id":206,"name":"Satori Komeiji","steam_id":76561198158211423,"connected_time":269000000000,"state":"active","ping":74},{"user_id":202,"name":"TheFallenFox","steam_id":76561199074190919,"connected_time":563000000000,"state":"active","ping":155},{"user_id":184,"name":"JunkYardFox","steam_id":76561199088276403,"connected_time":1378000000000,"state":"active","ping":76},{"user_id":192,"name":"Eden","steam_id":76561198075587475,"connected_time":911000000000,"state":"active","ping":70},{"user_id":196,"name":"DannyM","steam_id":76561198351165570,"connected_time":708000000000,"state":"active","ping":41},{"user_id":197,"name":"Derpking16","steam_id":76561198308275568,"connected_time":705000000000,"state":"active","ping":63},{"user_id":203,"name":"genezackary88#savetf2","steam_id":76561198027653386,"connected_time":533000000000,"state":"active","ping":74},{"user_id":204,"name":"RetroWave Enjoyer","steam_id":76561198354078799,"connected_time":531000000000,"state":"active","ping":72},{"user_id":190,"name":"Balerion the Black Dread","steam_id":76561198003728369,"connected_time":1109000000000,"state":"active","ping":84},{"user_id":200,"name":"frank","steam_id":76561198045436159,"connected_time":681000000000,"state":"active","ping":91},{"user_id":177,"name":"PileofPolygons","steam_id":76561199321343460,"connected_time":1790000000000,"state":"active","ping":69},{"user_id":47,"name":"LEGACYYYYYYYYYYYYYYYYYYYYYY","steam_id":76561198172421881,"connected_time":10317000000000,"state":"active","ping":82},{"user_id":201,"name":"saald","steam_id":76561198119022385,"connected_time":676000000000,"state":"active","ping":89},{"user_id":133,"name":"greenpeace","steam_id":76561197983221708,"connected_time":5179000000000,"state":"active","ping":104},{"user_id":205,"name":"General Jimbo","steam_id":76561198075426735,"connected_time":468000000000,"state":"active","ping":104},{"user_id":182,"name":"Indicative","steam_id":76561199076612537,"connected_time":1557000000000,"state":"active","ping":60}]},{"server_id":5,"name":"Uncletopia | Frankfurt | 1 | All Maps","name_short":"frk-1","host":"frk-1.de.uncletopia.com","port":27015,"enabled":true,"region":"eu","cc":"de","latitude":50.110924,"longitude":8.682127,"reserved":0,"last_update":"0001-01-01T00:00:00Z","name_a2s":"Uncletopia | Frankfurt | 1 | All Maps","protocol":17,"map":"pl_badwater","folder":"tf","game":"Team Fortress","app_id":440,"player_count":24,"max_players":24,"Bots":0,"server_type":"Dedicated","server_os":"Linux","password":true,"vac":true,"version":"7757534","steam_id":85568392924469989,"keywords":["nocrits","nodmgspread","payload","uncletopia"],"game_id":440,"stv_port":27016,"stv_name":"Uncletopia | Frankfurt | 1 | All Maps | STV","players":[{"user_id":574,"name":"Er Pomata","steam_id":76561198133085347,"connected_time":2099000000000,"state":"active","ping":53},{"user_id":575,"name":"HOT LOIS","steam_id":76561198302623594,"connected_time":2094000000000,"state":"active","ping":92},{"user_id":586,"name":"Gnarville","steam_id":76561198006373329,"connected_time":1833000000000,"state":"active","ping":60},{"user_id":534,"name":"Adrenaline","steam_id":76561197970852048,"connected_time":3987000000000,"state":"active","ping":63},{"user_id":578,"name":"1990 mazda miata mx-5","steam_id":76561198272809526,"connected_time":2003000000000,"state":"active","ping":57},{"user_id":579,"name":"zwarp112","steam_id":76561199089921282,"connected_time":1982000000000,"state":"active","ping":59},{"user_id":605,"name":"Bob Burger","steam_id":76561197996149548,"connected_time":778000000000,"state":"active","ping":62},{"user_id":608,"name":"graveflowerr","steam_id":76561198038288237,"connected_time":682000000000,"state":"active","ping":144},{"user_id":598,"name":"roaddog","steam_id":76561197960601225,"connected_time":939000000000,"state":"active","ping":66},{"user_id":612,"name":"Youtube/FrostSnail","steam_id":76561197989859175,"connected_time":37000000000,"state":"active","ping":59},{"user_id":581,"name":"w presser","steam_id":76561197994600818,"connected_time":1971000000000,"state":"active","ping":46},{"user_id":609,"name":"EL BICHO","steam_id":76561198146112263,"connected_time":648000000000,"state":"active","ping":82},{"user_id":599,"name":"a Regurar Barroon","steam_id":76561198834913692,"connected_time":930000000000,"state":"active","ping":70},{"user_id":542,"name":"ASer1982","steam_id":76561197998146109,"connected_time":3553000000000,"state":"active","ping":85},{"user_id":602,"name":"Max Andrew","steam_id":76561198158955194,"connected_time":895000000000,"state":"active","ping":85},{"user_id":583,"name":"Ged","steam_id":76561198079288943,"connected_time":1930000000000,"state":"active","ping":98},{"user_id":554,"name":"cof","steam_id":76561199128417805,"connected_time":3191000000000,"state":"active","ping":71},{"user_id":597,"name":"Cocane Concho","steam_id":76561198139690063,"connected_time":1176000000000,"state":"active","ping":52},{"user_id":610,"name":"the catboy","steam_id":76561198236015506,"connected_time":597000000000,"state":"active","ping":102},{"user_id":604,"name":"and that's on Gek","steam_id":76561198104896547,"connected_time":839000000000,"state":"active","ping":71},{"user_id":587,"name":"You slumber","steam_id":76561198344639692,"connected_time":1817000000000,"state":"active","ping":91},{"user_id":611,"name":"Ab0nis","steam_id":76561197977179613,"connected_time":103000000000,"state":"active","ping":73},{"user_id":588,"name":"Endi","steam_id":76561198914938199,"connected_time":1812000000000,"state":"active","ping":87},{"user_id":589,"name":"Dag!","steam_id":76561198030147941,"connected_time":1806000000000,"state":"active","ping":67}]},{"server_id":110,"name":"Uncletopia | Frankfurt | 2 | All Maps","name_short":"frk-2","host":"frk-1.de.uncletopia.com","port":27025,"enabled":true,"region":"eu","cc":"de","latitude":50.110924,"longitude":8.682127,"reserved":0,"last_update":"0001-01-01T00:00:00Z","name_a2s":"Uncletopia | Frankfurt | 2 | All Maps","protocol":17,"map":"pl_swiftwater_final1","folder":"tf","game":"Team Fortress","app_id":440,"player_count":24,"max_players":24,"Bots":0,"server_type":"Dedicated","server_os":"Linux","password":true,"vac":true,"version":"7757534","steam_id":85568392924469990,"keywords":["nocrits","nodmgspread","payload","uncletopia"],"game_id":440,"stv_port":27026,"stv_name":"Uncletopia | Frankfurt | 2 | All Maps | STV","players":[{"user_id":117,"name":"Bulgur","steam_id":76561198015064675,"connected_time":480000000000,"state":"active","ping":59},{"user_id":20,"name":"soppaset√§ | trade.tf","steam_id":76561198800563349,"connected_time":7254000000000,"state":"active","ping":97},{"user_id":22,"name":"Robsu235","steam_id":76561198387475345,"connected_time":7163000000000,"state":"active","ping":103},{"user_id":105,"name":"[No Class]","steam_id":76561199019412162,"connected_time":1327000000000,"state":"active","ping":62},{"user_id":109,"name":"Watson","steam_id":76561197974362869,"connected_time":1084000000000,"state":"active","ping":67},{"user_id":102,"name":"1112","steam_id":76561198172046813,"connected_time":1388000000000,"state":"active","ping":74},{"user_id":98,"name":"Joy","steam_id":76561198155314925,"connected_time":1726000000000,"state":"active","ping":65},{"user_id":28,"name":"Klifton","steam_id":76561198803743443,"connected_time":6707000000000,"state":"active","ping":76},{"user_id":118,"name":"Bulyto","steam_id":76561198043205202,"connected_time":479000000000,"state":"active","ping":60},{"user_id":99,"name":"Someone","steam_id":76561199030195879,"connected_time":1721000000000,"state":"active","ping":56},{"user_id":114,"name":"Vidrox #savetf2","steam_id":76561199217854983,"connected_time":657000000000,"state":"active","ping":93},{"user_id":95,"name":"nytronytronytro","steam_id":76561198080496833,"connected_time":2134000000000,"state":"active","ping":60},{"user_id":87,"name":"hud_saytext_time 0","steam_id":76561198010327228,"connected_time":2539000000000,"state":"active","ping":68},{"user_id":119,"name":"Tobey Wan Kenobi","steam_id":76561198201249363,"connected_time":457000000000,"state":"active","ping":108},{"user_id":73,"name":"–î–û–í–ò–¢–û–§–§","steam_id":76561198313372925,"connected_time":3573000000000,"state":"active","ping":70},{"user_id":121,"name":"Hoks","steam_id":76561198126442242,"connected_time":387000000000,"state":"active","ping":115},{"user_id":115,"name":"Tafrum","steam_id":76561198053868147,"connected_time":625000000000,"state":"active","ping":80},{"user_id":84,"name":"bromine drinker","steam_id":76561199209895540,"connected_time":2690000000000,"state":"active","ping":77},{"user_id":104,"name":"Cotton Eye Joe","steam_id":76561198080594207,"connected_time":1369000000000,"state":"active","ping":69},{"user_id":111,"name":"boofing prozac","steam_id":76561198851157897,"connected_time":895000000000,"state":"active","ping":76},{"user_id":69,"name":"Itai","steam_id":76561198804555329,"connected_time":3743000000000,"state":"active","ping":112},{"user_id":116,"name":"Filleman","steam_id":76561198159386946,"connected_time":533000000000,"state":"active","ping":63},{"user_id":120,"name":"adamŒî","steam_id":76561199007826093,"connected_time":452000000000,"state":"active","ping":67},{"user_id":101,"name":"TidB","steam_id":76561198055342304,"connected_time":1464000000000,"state":"active","ping":59}]},{"server_id":308,"name":"Uncletopia | Frankfurt | 3 | All Maps","name_short":"frk-3","host":"frk-1.de.uncletopia.com","port":27035,"enabled":true,"region":"eu","cc":"de","latitude":50.110924,"longitude":8.682127,"reserved":0,"last_update":"0001-01-01T00:00:00Z","name_a2s":"Uncletopia | Frankfurt | 3 | All Maps","protocol":17,"map":"pl_upward","folder":"tf","game":"Team Fortress","app_id":440,"player_count":24,"max_players":24,"Bots":0,"server_type":"Dedicated","server_os":"Linux","password":true,"vac":true,"version":"7757534","steam_id":85568392924504274,"keywords":["nocrits","nodmgspread","payload","uncletopia"],"game_id":440,"stv_port":27036,"stv_name":"Uncletopia | Frankfurt | 3 | All Maps | STV","players":[{"user_id":147,"name":"üÉî Nugg1t(sme/lly)","steam_id":76561198065652251,"connected_time":64000000000,"state":"spawning","ping":36},{"user_id":114,"name":"Dagda","steam_id":76561198871136698,"connected_time":2522000000000,"state":"active","ping":54},{"user_id":148,"name":"Deacon Dracul","steam_id":76561198046880663,"connected_time":63000000000,"state":"active","ping":95},{"user_id":121,"name":"etc","steam_id":76561197998394797,"connected_time":2048000000000,"state":"active","ping":52},{"user_id":125,"name":"plepek","steam_id":76561198042959598,"connected_time":1726000000000,"state":"active","ping":75},{"user_id":119,"name":"Piteras","steam_id":76561198858532207,"connected_time":2435000000000,"state":"active","ping":75},{"user_id":103,"name":"sloppy transgirl toppy","steam_id":76561198057092208,"connected_time":3019000000000,"state":"active","ping":60},{"user_id":143,"name":"Michael","steam_id":76561198003146906,"connected_time":549000000000,"state":"active","ping":52},{"user_id":136,"name":"Tyra","steam_id":76561198043739064,"connected_time":941000000000,"state":"active","ping":67},{"user_id":149,"name":"Xerp","steam_id":76561198325049769,"connected_time":51000000000,"state":"active","ping":50},{"user_id":132,"name":"Ohad","steam_id":76561198067989324,"connected_time":1454000000000,"state":"active","ping":115},{"user_id":104,"name":"Zombi3","steam_id":76561198326290621,"connected_time":2953000000000,"state":"active","ping":69},{"user_id":86,"name":"citronous","steam_id":76561198093290934,"connected_time":3359000000000,"state":"active","ping":49},{"user_id":70,"name":"Combat Wombat","steam_id":76561197994720068,"connected_time":3976000000000,"state":"active","ping":71},{"user_id":117,"name":"The Coom Assassin","steam_id":76561198437070985,"connected_time":2513000000000,"state":"active","ping":61},{"user_id":129,"name":"Wiki","steam_id":76561198106666604,"connected_time":1584000000000,"state":"active","ping":68},{"user_id":118,"name":"big hoops","steam_id":76561198004703799,"connected_time":2469000000000,"state":"active","ping":52},{"user_id":145,"name":"dollar foot long","steam_id":76561199250808808,"connected_time":98000000000,"state":"active","ping":75},{"user_id":76,"name":"Average","steam_id":76561198158411479,"connected_time":3866000000000,"state":"active","ping":76},{"user_id":124,"name":"Honest Tom's Discount Beef","steam_id":76561198029971392,"connected_time":1926000000000,"state":"active","ping":62},{"user_id":126,"name":"benifis163","steam_id":76561198420973492,"connected_time":1642000000000,"state":"active","ping":106},{"user_id":127,"name":"The 4th Doctor","steam_id":76561198191516706,"connected_time":1622000000000,"state":"active","ping":67},{"user_id":140,"name":"Breizbuc","steam_id":76561198118220633,"connected_time":774000000000,"state":"active","ping":67},{"user_id":150,"name":"Rudy","steam_id":76561198089227368,"connected_time":50000000000,"state":"active","ping":347}]},{"server_id":309,"name":"Uncletopia | Frankfurt | 4 | All Maps","name_short":"frk-4","host":"frk-1.de.uncletopia.com","port":27045,"enabled":true,"region":"eu","cc":"de","latitude":50.110924,"longitude":8.682127,"reserved":0,"last_update":"0001-01-01T00:00:00Z","name_a2s":"Uncletopia | Frankfurt | 4 | All Maps","protocol":17,"map":"cp_mountainlab","folder":"tf","game":"Team Fortress","app_id":440,"player_count":0,"max_players":24,"Bots":0,"server_type":"Dedicated","server_os":"Linux","password":true,"vac":true,"version":"7757534","steam_id":85568392924504275,"keywords":["cp","nocrits","nodmgspread","uncletopia"],"game_id":440,"stv_port":27046,"stv_name":"Uncletopia | Frankfurt | 4 | All Maps | STV","players":null},{"server_id":310,"name":"Uncletopia | Frankfurt | 5 | All Maps","name_short":"frk-5","host":"frk-1.de.uncletopia.com","port":27055,"enabled":true,"region":"eu","cc":"de","latitude":50.110924,"longitude":8.682127,"reserved":0,"last_update":"0001-01-01T00:00:00Z","name_a2s":"Uncletopia | Frankfurt | 5 | All Maps","protocol":17,"map":"koth_lakeside_final","folder":"tf","game":"Team Fortress","app_id":440,"player_count":0,"max_players":24,"Bots":0,"server_type":"Dedicated","server_os":"Linux","password":true,"vac":true,"version":"7757534","steam_id":85568392924504277,"keywords":["cp","nocrits","nodmgspread","uncletopia"],"game_id":440,"stv_port":27056,"stv_name":"Uncletopia | Frankfurt | 5 | All Maps | STV","players":null},{"server_id":311,"name":"Uncletopia | Frankfurt | 6 | All Maps","name_short":"frk-6","host":"frk-1.de.uncletopia.com","port":27065,"enabled":true,"region":"eu","cc":"de","latitude":50.110924,"longitude":8.682127,"reserved":0,"last_update":"0001-01-01T00:00:00Z","name_a2s":"Uncletopia | Frankfurt | 6 | All Maps","protocol":17,"map":"pl_pier","folder":"tf","game":"Team Fortress","app_id":440,"player_count":24,"max_players":24,"Bots":0,"server_type":"Dedicated","server_os":"Linux","password":true,"vac":true,"version":"7757534","steam_id":85568392924504278,"keywords":["nocrits","nodmgspread","payload","uncletopia"],"game_id":440,"stv_port":27066,"stv_name":"Uncletopia | Frankfurt | 6 | All Maps | STV","players":[{"user_id":576,"name":"Sparky","steam_id":76561198036754195,"connected_time":884000000000,"state":"active","ping":41},{"user_id":581,"name":"Sh1n","steam_id":76561199012155377,"connected_time":541000000000,"state":"active","ping":44},{"user_id":585,"name":"decommandpro","steam_id":76561198971647041,"connected_time":497000000000,"state":"active","ping":76},{"user_id":582,"name":"3L","steam_id":76561198007208996,"connected_time":525000000000,"state":"active","ping":45},{"user_id":544,"name":"onion knight","steam_id":76561198328543549,"connected_time":3644000000000,"state":"active","ping":85},{"user_id":583,"name":"Doriian","steam_id":76561198071438810,"connected_time":516000000000,"state":"active","ping":81},{"user_id":592,"name":"Trebox78","steam_id":76561198071963357,"connected_time":215000000000,"state":"active","ping":84},{"user_id":551,"name":"Cabbch","steam_id":76561198045955679,"connected_time":2931000000000,"state":"active","ping":57},{"user_id":593,"name":"FoOzTV","steam_id":76561197998636728,"connected_time":86000000000,"state":"active","ping":74},{"user_id":565,"name":"Octoroller","steam_id":76561198065313043,"connected_time":2303000000000,"state":"active","ping":71},{"user_id":587,"name":"AUDI A3 8L LPG","steam_id":76561198157836996,"connected_time":465000000000,"state":"active","ping":80},{"user_id":490,"name":"Fran","steam_id":76561199070516960,"connected_time":6581000000000,"state":"active","ping":68},{"user_id":588,"name":"dumblecunt","steam_id":76561198003513438,"connected_time":448000000000,"state":"active","ping":63},{"user_id":591,"name":"GEP Gun","steam_id":76561197981821003,"connected_time":223000000000,"state":"active","ping":75},{"user_id":549,"name":"terrorist fireman","steam_id":76561199109194825,"connected_time":3056000000000,"state":"active","ping":90},{"user_id":589,"name":"mt","steam_id":76561197961319303,"connected_time":448000000000,"state":"active","ping":59},{"user_id":554,"name":"tqla","steam_id":76561198073092585,"connected_time":2769000000000,"state":"active","ping":96},{"user_id":575,"name":"IONYCH","steam_id":76561198378350040,"connected_time":1373000000000,"state":"active","ping":81},{"user_id":564,"name":"medium rare chicken enjoyer","steam_id":76561198050214002,"connected_time":2429000000000,"state":"active","ping":60},{"user_id":568,"name":"DraGOs512","steam_id":76561198438519964,"connected_time":1815000000000,"state":"active","ping":88},{"user_id":557,"name":"Carrot Arc","steam_id":76561198164957006,"connected_time":2682000000000,"state":"active","ping":86},{"user_id":559,"name":"Beni ü¶ßüçå","steam_id":76561198011340227,"connected_time":2651000000000,"state":"active","ping":63},{"user_id":590,"name":"benibachi","steam_id":76561198190816499,"connected_time":440000000000,"state":"active","ping":69},{"user_id":520,"name":"Carry Krypl","steam_id":76561198136938121,"connected_time":5746000000000,"state":"active","ping":58}]},{"server_id":23,"name":"Uncletopia | Frankfurt | 7 | Stopwatch Beta","name_short":"frk-7","host":"frk-1.de.uncletopia.com","port":27075,"enabled":true,"region":"eu","cc":"de","latitude":50.110924,"longitude":8.682127,"reserved":0,"last_update":"0001-01-01T00:00:00Z","name_a2s":"Uncletopia | Frankfurt | 7 | Stopwatch Beta","protocol":17,"map":"workshop/koth_ramjam_rc1.ugc459778887","folder":"tf","game":"Team Fortress","app_id":440,"player_count":0,"max_players":24,"Bots":0,"server_type":"Dedicated","server_os":"Linux","password":true,"vac":true,"version":"7757534","steam_id":85568392924742827,"keywords":["cp","nocrits","nodmgspread","uncletopia"],"game_id":440,"stv_port":27076,"stv_name":"Uncletopia | Frankfurt | 7 | Stopwatch Beta | STV","players":null},{"server_id":24,"name":"Uncletopia | Frankfurt | 8 | Community","name_short":"frk-8","host":"frk-1.de.uncletopia.com","port":27085,"enabled":true,"region":"eu","cc":"de","latitude":50.110924,"longitude":8.682127,"reserved":0,"last_update":"0001-01-01T00:00:00Z","name_a2s":"Uncletopia | Frankfurt | 8 | Community","protocol":17,"map":"workshop/pl_divulgence_b4b.ugc2884808746","folder":"tf","game":"Team Fortress","app_id":440,"player_count":24,"max_players":24,"Bots":0,"server_type":"Dedicated","server_os":"Linux","password":true,"vac":true,"version":"7757534","steam_id":85568392924742828,"keywords":["nocrits","nodmgspread","payload","uncletopia"],"game_id":440,"stv_port":27086,"stv_name":"Uncletopia | Frankfurt | 8 | Community | STV","players":[{"user_id":320,"name":"Kriba","steam_id":76561198392985993,"connected_time":69000000000,"state":"active","ping":68},{"user_id":311,"name":"Paulie 'Walnuts' Atreides","steam_id":76561198146194820,"connected_time":1470000000000,"state":"active","ping":53},{"user_id":272,"name":"PizzaPete123","steam_id":76561198089478290,"connected_time":4293000000000,"state":"active","ping":54},{"user_id":316,"name":"NO LOVE DEEP WEB","steam_id":76561199013457963,"connected_time":1135000000000,"state":"active","ping":60},{"user_id":277,"name":"Irbynx","steam_id":76561197980421195,"connected_time":4254000000000,"state":"active","ping":86},{"user_id":291,"name":"player","steam_id":76561198054474684,"connected_time":2904000000000,"state":"active","ping":77},{"user_id":269,"name":"static","steam_id":76561198836825741,"connected_time":4775000000000,"state":"active","ping":60},{"user_id":304,"name":"deflox","steam_id":76561198087450635,"connected_time":1964000000000,"state":"active","ping":45},{"user_id":321,"name":"Radegast the Brown","steam_id":76561198075489505,"connected_time":37000000000,"state":"spawning","ping":188},{"user_id":307,"name":"Fat Pigeon","steam_id":76561198817940142,"connected_time":1736000000000,"state":"active","ping":59},{"user_id":266,"name":"Topme","steam_id":76561198091734693,"connected_time":5006000000000,"state":"active","ping":76},{"user_id":317,"name":"Pito","steam_id":76561198013765801,"connected_time":1089000000000,"state":"active","ping":58},{"user_id":322,"name":"KDOT","steam_id":76561199136405397,"connected_time":1000000000,"state":"spawning","ping":165},{"user_id":308,"name":"Kleiner Engel","steam_id":76561198009922500,"connected_time":1709000000000,"state":"active","ping":64},{"user_id":319,"name":"HLRaven","steam_id":76561198118543239,"connected_time":341000000000,"state":"active","ping":90},{"user_id":279,"name":"bANji","steam_id":76561198108898161,"connected_time":4211000000000,"state":"active","ping":39},{"user_id":314,"name":"AwterSix","steam_id":76561198042561678,"connected_time":1238000000000,"state":"active","ping":62},{"user_id":301,"name":"cracker","steam_id":76561198062107879,"connected_time":2081000000000,"state":"active","ping":88},{"user_id":280,"name":"silicon based life form","steam_id":76561199127121346,"connected_time":4210000000000,"state":"active","ping":78},{"user_id":227,"name":"the AWP player","steam_id":76561198054047446,"connected_time":7710000000000,"state":"active","ping":68},{"user_id":276,"name":"wicked","steam_id":76561198164376035,"connected_time":4265000000000,"state":"active","ping":74},{"user_id":309,"name":"Miedzan","steam_id":76561198405250516,"connected_time":1581000000000,"state":"active","ping":72},{"user_id":305,"name":"enigma","steam_id":76561198452111945,"connected_time":1943000000000,"state":"active","ping":66},{"user_id":225,"name":"acuifex","steam_id":76561198106266513,"connected_time":7733000000000,"state":"active","ping":80}]},{"server_id":202,"name":"Uncletopia | Hong Kong | 1 | All Maps","name_short":"hgk-1","host":"hgk-1.hk.uncletopia.com","port":27015,"enabled":true,"region":"asia","cc":"hk","latitude":22.302711,"longitude":114.177216,"reserved":0,"last_update":"0001-01-01T00:00:00Z","name_a2s":"Uncletopia | Hong Kong | 1 | All Maps","protocol":17,"map":"koth_highpass","folder":"tf","game":"Team Fortress","app_id":440,"player_count":0,"max_players":24,"Bots":0,"server_type":"Dedicated","server_os":"Linux","password":true,"vac":true,"version":"7757534","steam_id":85568392924494504,"keywords":["cp","nocrits","nodmgspread","uncletopia"],"game_id":440,"stv_port":27016,"stv_name":"Uncletopia | Hong Kong | 1 | All Maps | STV","players":null},{"server_id":1,"name":"Uncletopia | Los Angeles | 1 | All Maps","name_short":"lax-1","host":"lax-1.us.uncletopia.com","port":27015,"enabled":true,"region":"us-west","cc":"us","latitude":33.94279,"longitude":-118.41004,"reserved":0,"last_update":"0001-01-01T00:00:00Z","name_a2s":"Uncletopia | Los Angeles | 1 | All Maps","protocol":17,"map":"koth_lakeside_final","folder":"tf","game":"Team Fortress","app_id":440,"player_count":3,"max_players":24,"Bots":0,"server_type":"Dedicated","server_os":"Linux","password":true,"vac":true,"version":"7757534","steam_id":85568392924469991,"keywords":["cp","nocrits","nodmgspread","uncletopia"],"game_id":440,"stv_port":27016,"stv_name":"Uncletopia | Los Angeles | 1 | All Maps | STV","players":[{"user_id":8,"name":"Nibotshooter","steam_id":76561199284825579,"connected_time":494000000000,"state":"active","ping":62},{"user_id":9,"name":"PianoDeep","steam_id":76561199182813963,"connected_time":466000000000,"state":"active","ping":68},{"user_id":10,"name":"Cringys","steam_id":76561199029812838,"connected_time":11000000000,"state":"spawning","ping":50}]},{"server_id":112,"name":"Uncletopia | Los Angeles | 2 | All Maps","name_short":"lax-2","host":"lax-1.us.uncletopia.com","port":27025,"enabled":true,"region":"us-west","cc":"us","latitude":33.94279,"longitude":-118.41004,"reserved":0,"last_update":"0001-01-01T00:00:00Z","name_a2s":"Uncletopia | Los Angeles | 2 | All Maps","protocol":17,"map":"pl_snowycoast","folder":"tf","game":"Team Fortress","app_id":440,"player_count":0,"max_players":24,"Bots":0,"server_type":"Dedicated","server_os":"Linux","password":true,"vac":true,"version":"7757534","steam_id":85568392924469992,"keywords":["nocrits","nodmgspread","payload","uncletopia"],"game_id":440,"stv_port":27026,"stv_name":"Uncletopia | Los Angeles | 2 | All Maps | STV","players":null},{"server_id":324,"name":"Uncletopia | Los Angeles | 3 | All Maps","name_short":"lax-3","host":"lax-1.us.uncletopia.com","port":27035,"enabled":true,"region":"us-west","cc":"us","latitude":33.94279,"longitude":-118.41004,"reserved":0,"last_update":"0001-01-01T00:00:00Z","name_a2s":"Uncletopia | Los Angeles | 3 | All Maps","protocol":17,"map":"pl_barnblitz","folder":"tf","game":"Team Fortress","app_id":440,"player_count":0,"max_players":24,"Bots":0,"server_type":"Dedicated","server_os":"Linux","password":true,"vac":true,"version":"7757534","steam_id":85568392924510198,"keywords":["nocrits","nodmgspread","payload","uncletopia"],"game_id":440,"stv_port":27036,"stv_name":"Uncletopia | Los Angeles | 3 | All Maps | STV","players":null},{"server_id":25,"name":"Uncletopia | Los Angeles | 4 | Stopwatch Beta","name_short":"lax-4","host":"lax-1.us.uncletopia.com","port":27045,"enabled":true,"region":"us-west","cc":"us","latitude":33.94279,"longitude":-118.41004,"reserved":0,"last_update":"0001-01-01T00:00:00Z","name_a2s":"Uncletopia | Los Angeles | 4 | Stopwatch Beta","protocol":17,"map":"pl_swiftwater_final1","folder":"tf","game":"Team Fortress","app_id":440,"player_count":0,"max_players":24,"Bots":0,"server_type":"Dedicated","server_os":"Linux","password":true,"vac":true,"version":"7757534","steam_id":85568392924510199,"keywords":["nocrits","nodmgspread","payload","uncletopia"],"game_id":440,"stv_port":27046,"stv_name":"Uncletopia | Los Angeles | 4 | Stopwatch Beta | STV","players":null},{"server_id":11,"name":"Uncletopia | London | 1 | All Maps","name_short":"lon-1","host":"lon-1.uk.uncletopia.com","port":27015,"enabled":true,"region":"eu","cc":"gb","latitude":51.509865,"longitude":-0.118092,"reserved":0,"last_update":"0001-01-01T00:00:00Z","name_a2s":"Uncletopia | London | 1 | All Maps","protocol":17,"map":"pl_barnblitz","folder":"tf","game":"Team Fortress","app_id":440,"player_count":24,"max_players":24,"Bots":0,"server_type":"Dedicated","server_os":"Linux","password":true,"vac":true,"version":"7757534","steam_id":85568392924367362,"keywords":["nocrits","nodmgspread","payload","uncletopia"],"game_id":440,"stv_port":27016,"stv_name":"Uncletopia | London | 1 | All Maps | STV","players":[{"user_id":244,"name":"Varro_Sicarius","steam_id":76561198062130113,"connected_time":781000000000,"state":"active","ping":70},{"user_id":234,"name":"Oregon 1927","steam_id":76561199026097466,"connected_time":1744000000000,"state":"active","ping":73},{"user_id":222,"name":"Caerot (dont uber lol)","steam_id":76561198839000676,"connected_time":2623000000000,"state":"active","ping":70},{"user_id":251,"name":"ldshwt","steam_id":76561198090364357,"connected_time":416000000000,"state":"active","ping":60},{"user_id":252,"name":"makiverem","steam_id":76561198425866216,"connected_time":388000000000,"state":"active","ping":76},{"user_id":235,"name":"Mama Coco (Planet Destroyer)","steam_id":76561199017872113,"connected_time":1743000000000,"state":"active","ping":57},{"user_id":239,"name":"Milfshake","steam_id":76561198208740557,"connected_time":1519000000000,"state":"active","ping":60},{"user_id":253,"name":"anti","steam_id":76561198313440475,"connected_time":6000000000,"state":"active","ping":391},{"user_id":245,"name":"Jofiah/TTV","steam_id":76561197977233962,"connected_time":757000000000,"state":"active","ping":43},{"user_id":236,"name":"Ethical Cannibalism","steam_id":76561198060638325,"connected_time":1693000000000,"state":"active","ping":50},{"user_id":224,"name":"badrobot","steam_id":76561198322878356,"connected_time":2589000000000,"state":"active","ping":117},{"user_id":247,"name":"3igen3ggy","steam_id":76561197989548015,"connected_time":682000000000,"state":"active","ping":74},{"user_id":248,"name":"Favi","steam_id":76561198013236935,"connected_time":673000000000,"state":"active","ping":78},{"user_id":223,"name":"Hammann [Milca_11 Real]","steam_id":76561198848650365,"connected_time":2616000000000,"state":"active","ping":81},{"user_id":192,"name":"Space","steam_id":76561198021572167,"connected_time":5001000000000,"state":"active","ping":44},{"user_id":211,"name":"Testosterone","steam_id":76561198060012688,"connected_time":3500000000000,"state":"active","ping":58},{"user_id":237,"name":"Beef Stroganoff","steam_id":76561198005342133,"connected_time":1673000000000,"state":"active","ping":65},{"user_id":250,"name":"i deep fried my penis","steam_id":76561198034507015,"connected_time":578000000000,"state":"active","ping":72},{"user_id":242,"name":"Fofenho","steam_id":76561198436817109,"connected_time":1053000000000,"state":"active","ping":46},{"user_id":195,"name":"Gimli","steam_id":76561198004149706,"connected_time":4818000000000,"state":"active","ping":70},{"user_id":249,"name":"S'all good, man","steam_id":76561198363882056,"connected_time":652000000000,"state":"active","ping":41},{"user_id":231,"name":"RQsC FeQuR","steam_id":76561198090884017,"connected_time":1930000000000,"state":"active","ping":55},{"user_id":227,"name":"EGirlGang","steam_id":76561198257435792,"connected_time":2541000000000,"state":"active","ping":74},{"user_id":246,"name":"Kibby","steam_id":76561197990056450,"connected_time":754000000000,"state":"active","ping":56}]},{"server_id":114,"name":"Uncletopia | London | 2 | All Maps","name_short":"lon-2","host":"lon-1.uk.uncletopia.com","port":27025,"enabled":true,"region":"eu","cc":"gb","latitude":51.509865,"longitude":-0.118092,"reserved":0,"last_update":"0001-01-01T00:00:00Z","name_a2s":"Uncletopia | London | 2 | All Maps","protocol":17,"map":"pl_upward","folder":"tf","game":"Team Fortress","app_id":440,"player_count":24,"max_players":24,"Bots":0,"server_type":"Dedicated","server_os":"Linux","password":true,"vac":true,"version":"7757534","steam_id":85568392924470941,"keywords":["nocrits","nodmgspread","payload","uncletopia"],"game_id":440,"stv_port":27026,"stv_name":"Uncletopia | London | 2 | All Maps | STV","players":[{"user_id":541,"name":"‡πñAtomicskullz","steam_id":76561197970627347,"connected_time":1590000000000,"state":"active","ping":158},{"user_id":544,"name":"Dora","steam_id":76561198072207649,"connected_time":1038000000000,"state":"active","ping":76},{"user_id":545,"name":"Oak","steam_id":76561198067315672,"connected_time":1032000000000,"state":"active","ping":44},{"user_id":519,"name":"Titar Industries","steam_id":76561198143078476,"connected_time":2889000000000,"state":"active","ping":139},{"user_id":551,"name":"Lucasique","steam_id":76561198989704424,"connected_time":359000000000,"state":"active","ping":80},{"user_id":531,"name":"After8","steam_id":76561198090750865,"connected_time":2269000000000,"state":"active","ping":74},{"user_id":548,"name":"mmm delicious bullets","steam_id":76561198254664484,"connected_time":980000000000,"state":"active","ping":61},{"user_id":547,"name":"Nope.avi","steam_id":76561198396687651,"connected_time":1017000000000,"state":"active","ping":91},{"user_id":511,"name":"a straight white male","steam_id":76561198381120660,"connected_time":3180000000000,"state":"active","ping":90},{"user_id":522,"name":"USATYY [UA]","steam_id":76561198277590900,"connected_time":2838000000000,"state":"active","ping":90},{"user_id":549,"name":"Norfen Red","steam_id":76561198023610108,"connected_time":976000000000,"state":"active","ping":33},{"user_id":542,"name":"sondi","steam_id":76561198045466209,"connected_time":1464000000000,"state":"active","ping":75},{"user_id":494,"name":"Uncle Terry","steam_id":76561198396415736,"connected_time":4493000000000,"state":"active","ping":53},{"user_id":543,"name":"Vectillion","steam_id":76561198074292454,"connected_time":1441000000000,"state":"active","ping":68},{"user_id":554,"name":"Mercedes nuts","steam_id":76561198202392276,"connected_time":161000000000,"state":"active","ping":60},{"user_id":555,"name":"Bits\u0026Peices","steam_id":76561199225453607,"connected_time":67000000000,"state":"active","ping":1013},{"user_id":525,"name":"Elfie","steam_id":76561198206802255,"connected_time":2731000000000,"state":"active","ping":71},{"user_id":552,"name":"Nassu","steam_id":76561198147367577,"connected_time":347000000000,"state":"active","ping":160},{"user_id":553,"name":"WarlordsOnly","steam_id":76561199039604065,"connected_time":289000000000,"state":"active","ping":55},{"user_id":540,"name":"TerraformerBeing","steam_id":76561198281011934,"connected_time":1644000000000,"state":"active","ping":94},{"user_id":501,"name":"Testicular torsion","steam_id":76561198119547399,"connected_time":3899000000000,"state":"active","ping":69},{"user_id":534,"name":"Napole","steam_id":76561198267530436,"connected_time":2038000000000,"state":"active","ping":108},{"user_id":539,"name":"Muppburg","steam_id":76561198031070682,"connected_time":1659000000000,"state":"active","ping":61},{"user_id":557,"name":"Asda","steam_id":76561198210348121,"connected_time":61000000000,"state":"active","ping":62}]},{"server_id":320,"name":"Uncletopia | London | 3 | All Maps","name_short":"lon-3","host":"lon-1.uk.uncletopia.com","port":27035,"enabled":true,"region":"eu","cc":"gb","latitude":51.509865,"longitude":-0.118092,"reserved":0,"last_update":"0001-01-01T00:00:00Z","name_a2s":"Uncletopia | London | 3 | All Maps","protocol":17,"map":"koth_viaduct","folder":"tf","game":"Team Fortress","app_id":440,"player_count":0,"max_players":24,"Bots":0,"server_type":"Dedicated","server_os":"Linux","password":true,"vac":true,"version":"7757534","steam_id":85568392924510192,"keywords":["cp","nocrits","nodmgspread","uncletopia"],"game_id":440,"stv_port":27036,"stv_name":"Uncletopia | London | 3 | All Maps | STV","players":null},{"server_id":321,"name":"Uncletopia | London | 4 | All Maps","name_short":"lon-4","host":"lon-1.uk.uncletopia.com","port":27045,"enabled":true,"region":"eu","cc":"gb","latitude":51.509865,"longitude":-0.118092,"reserved":0,"last_update":"0001-01-01T00:00:00Z","name_a2s":"Uncletopia | London | 4 | All Maps","protocol":17,"map":"koth_cascade","folder":"tf","game":"Team Fortress","app_id":440,"player_count":0,"max_players":24,"Bots":0,"server_type":"Dedicated","server_os":"Linux","password":true,"vac":true,"version":"7757534","steam_id":85568392924510193,"keywords":["cp","nocrits","nodmgspread","uncletopia"],"game_id":440,"stv_port":27046,"stv_name":"Uncletopia | London | 4 | All Maps | STV","players":null},{"server_id":21,"name":"Uncletopia | London | 5 | All Maps","name_short":"lon-5","host":"lon-1.uk.uncletopia.com","port":27055,"enabled":true,"region":"eu","cc":"gb","latitude":51.509865,"longitude":-0.118092,"reserved":0,"last_update":"0001-01-01T00:00:00Z","name_a2s":"Uncletopia | London | 5 | All Maps","protocol":17,"map":"cp_metalworks","folder":"tf","game":"Team Fortress","app_id":440,"player_count":24,"max_players":24,"Bots":0,"server_type":"Dedicated","server_os":"Linux","password":true,"vac":true,"version":"7757534","steam_id":85568392924742829,"keywords":["cp","nocrits","nodmgspread","uncletopia"],"game_id":440,"stv_port":27056,"stv_name":"Uncletopia | London | 5 | All Maps | STV","players":[{"user_id":107,"name":"Waltcha","steam_id":76561198007691468,"connected_time":5676000000000,"state":"active","ping":74},{"user_id":191,"name":"emotrapgirlphonk88","steam_id":76561198126737859,"connected_time":117000000000,"state":"active","ping":52},{"user_id":174,"name":"Xx_YoinkySploinky_xX","steam_id":76561198151543346,"connected_time":612000000000,"state":"active","ping":159},{"user_id":125,"name":"possiblename","steam_id":76561199064350902,"connected_time":4781000000000,"state":"active","ping":106},{"user_id":162,"name":"Udinese Dion","steam_id":76561198067931573,"connected_time":1842000000000,"state":"active","ping":51},{"user_id":177,"name":"Brinier","steam_id":76561199012604288,"connected_time":538000000000,"state":"active","ping":75},{"user_id":142,"name":"dopamine overdose","steam_id":76561199032511302,"connected_time":3528000000000,"state":"active","ping":104},{"user_id":188,"name":"numanuma-hei.ei","steam_id":76561198081100918,"connected_time":237000000000,"state":"active","ping":98},{"user_id":179,"name":"sudo rm -rf /","steam_id":76561198995673730,"connected_time":483000000000,"state":"active","ping":97},{"user_id":180,"name":"skilltissues","steam_id":76561198025828664,"connected_time":479000000000,"state":"active","ping":56},{"user_id":167,"name":"Charrky","steam_id":76561198054398642,"connected_time":1462000000000,"state":"active","ping":60},{"user_id":170,"name":"Bobirulez","steam_id":76561198009125458,"connected_time":1187000000000,"state":"active","ping":73},{"user_id":185,"name":"ran is running","steam_id":76561199443185667,"connected_time":379000000000,"state":"active","ping":133},{"user_id":178,"name":"Tom Foolery","steam_id":76561198358895809,"connected_time":533000000000,"state":"active","ping":57},{"user_id":181,"name":"Yrj√∂ Koskinen Yrj√∂-Koskinen","steam_id":76561198368181145,"connected_time":469000000000,"state":"active","ping":90},{"user_id":184,"name":"P Diddy","steam_id":76561198829344838,"connected_time":412000000000,"state":"active","ping":39},{"user_id":168,"name":"xavier","steam_id":76561198076494034,"connected_time":1440000000000,"state":"active","ping":48},{"user_id":159,"name":"S√úLEYMAN √áAKIR","steam_id":76561199068170005,"connected_time":2237000000000,"state":"active","ping":99},{"user_id":182,"name":"The pusheen cat","steam_id":76561199002462516,"connected_time":436000000000,"state":"active","ping":108},{"user_id":183,"name":"Umby","steam_id":76561198166584580,"connected_time":435000000000,"state":"active","ping":38},{"user_id":186,"name":"justin_ (f2p) (real)","steam_id":76561198839843428,"connected_time":358000000000,"state":"active","ping":121},{"user_id":190,"name":"Extra-Crispy","steam_id":76561198871762093,"connected_time":180000000000,"state":"active","ping":54},{"user_id":187,"name":"D3mon","steam_id":76561198387669550,"connected_time":301000000000,"state":"active","ping":65},{"user_id":189,"name":"Ivan the Terrible","steam_id":76561198139595241,"connected_time":221000000000,"state":"active","ping":88}]},{"server_id":22,"name":"Uncletopia | London | 6 | All Maps","name_short":"lon-6","host":"lon-1.uk.uncletopia.com","port":27065,"enabled":true,"region":"eu","cc":"gb","latitude":51.509865,"longitude":-0.118092,"reserved":0,"last_update":"0001-01-01T00:00:00Z","name_a2s":"Uncletopia | London | 6 | All Maps","protocol":17,"map":"pl_pier","folder":"tf","game":"Team Fortress","app_id":440,"player_count":0,"max_players":24,"Bots":0,"server_type":"Dedicated","server_os":"Linux","password":true,"vac":true,"version":"7757534","steam_id":85568392924742830,"keywords":["nocrits","nodmgspread","payload","uncletopia"],"game_id":440,"stv_port":27066,"stv_name":"Uncletopia | London | 6 | All Maps | STV","players":null},{"server_id":40,"name":"Uncletopia | London | 7 | No Payload","name_short":"lon-7","host":"lon-1.uk.uncletopia.com","port":27075,"enabled":true,"region":"eu","cc":"gb","latitude":51.509865,"longitude":-0.118092,"reserved":0,"last_update":"0001-01-01T00:00:00Z","name_a2s":"Uncletopia | London | 7 | No Payload","protocol":17,"map":"koth_lakeside_final","folder":"tf","game":"Team Fortress","app_id":440,"player_count":0,"max_players":24,"Bots":0,"server_type":"Dedicated","server_os":"Linux","password":true,"vac":true,"version":"7757534","steam_id":85568392924964314,"keywords":["cp","nocrits","nodmgspread","uncletopia"],"game_id":440,"stv_port":27076,"stv_name":"Uncletopia | London | 7 | No Payload | STV","players":null},{"server_id":41,"name":"Uncletopia | London | 8 | Community","name_short":"lon-8","host":"lon-1.uk.uncletopia.com","port":27085,"enabled":true,"region":"eu","cc":"gb","latitude":51.509865,"longitude":-0.118092,"reserved":0,"last_update":"0001-01-01T00:00:00Z","name_a2s":"Uncletopia | London | 8 | Community","protocol":17,"map":"workshop/cp_kalinka_rc6a.ugc1272700588","folder":"tf","game":"Team Fortress","app_id":440,"player_count":15,"max_players":24,"Bots":0,"server_type":"Dedicated","server_os":"Linux","password":true,"vac":true,"version":"7757534","steam_id":85568392924964315,"keywords":["cp","nocrits","nodmgspread","uncletopia"],"game_id":440,"stv_port":27086,"stv_name":"Uncletopia | London | 8 | Community | STV","players":[{"user_id":8,"name":"TSx* Osa__PL","steam_id":76561198027016799,"connected_time":2939000000000,"state":"active","ping":78},{"user_id":34,"name":"lynceus","steam_id":76561198131209426,"connected_time":12000000000,"state":"spawning","ping":44},{"user_id":10,"name":"TSx* Naxer","steam_id":76561198011986779,"connected_time":2904000000000,"state":"active","ping":72},{"user_id":11,"name":"TSx* EmperoT","steam_id":76561198018656942,"connected_time":2902000000000,"state":"active","ping":97},{"user_id":12,"name":"TSx* Bargal","steam_id":76561198040266872,"connected_time":2873000000000,"state":"active","ping":82},{"user_id":13,"name":"TSx* Dante","steam_id":76561198139309331,"connected_time":2634000000000,"state":"active","ping":69},{"user_id":14,"name":"Frank","steam_id":76561198086672774,"connected_time":2481000000000,"state":"active","ping":44},{"user_id":28,"name":"Rhamkin","steam_id":76561198166982173,"connected_time":479000000000,"state":"active","ping":79},{"user_id":25,"name":"„Åà„Å™„Å™„Çì","steam_id":76561199427679148,"connected_time":1172000000000,"state":"active","ping":73},{"user_id":20,"name":"89384HDHSJDHU\u0026/","steam_id":76561198057833760,"connected_time":1396000000000,"state":"active","ping":83},{"user_id":22,"name":"Flying skyhigh","steam_id":76561198372971096,"connected_time":1348000000000,"state":"active","ping":66},{"user_id":26,"name":"nyanezt","steam_id":76561198253734265,"connected_time":1066000000000,"state":"active","ping":95},{"user_id":30,"name":"Furry Enjoyer","steam_id":76561198046219588,"connected_time":296000000000,"state":"active","ping":65},{"user_id":31,"name":"golben","steam_id":76561199388965842,"connected_time":203000000000,"state":"active","ping":205},{"user_id":33,"name":"S.Dust","steam_id":76561198162107119,"connected_time":95000000000,"state":"spawning","ping":1056}]},{"server_id":300,"name":"Uncletopia | Montr√©al | 1 | All Maps","name_short":"mtl-1","host":"mtl-1.ca.uncletopia.com","port":27015,"enabled":true,"region":"us-east","cc":"ca","latitude":45.50889,"longitude":-73.56167,"reserved":0,"last_update":"0001-01-01T00:00:00Z","name_a2s":"Uncletopia | Montr√©al | 1 | All Maps","protocol":17,"map":"pl_snowycoast","folder":"tf","game":"Team Fortress","app_id":440,"player_count":0,"max_players":24,"Bots":0,"server_type":"Dedicated","server_os":"Linux","password":true,"vac":true,"version":"7757534","steam_id":85568392924500087,"keywords":["nocrits","nodmgspread","payload","uncletopia"],"game_id":440,"stv_port":27016,"stv_name":"Uncletopia | Montr√©al | 1 | All Maps | STV","players":null},{"server_id":301,"name":"Uncletopia | Montr√©al | 2 | All Maps","name_short":"mtl-2","host":"mtl-1.ca.uncletopia.com","port":27025,"enabled":true,"region":"us-east","cc":"ca","latitude":45.50889,"longitude":-73.56167,"reserved":0,"last_update":"0001-01-01T00:00:00Z","name_a2s":"Uncletopia | Montr√©al | 2 | All Maps","protocol":17,"map":"pl_snowycoast","folder":"tf","game":"Team Fortress","app_id":440,"player_count":0,"max_players":24,"Bots":0,"server_type":"Dedicated","server_os":"Linux","password":true,"vac":true,"version":"7757534","steam_id":85568392924500088,"keywords":["nocrits","nodmgspread","payload","uncletopia"],"game_id":440,"stv_port":27026,"stv_name":"Uncletopia | Montr√©al | 2 | All Maps | STV","players":null},{"server_id":302,"name":"Uncletopia | Montr√©al | 3 | All Maps","name_short":"mtl-3","host":"mtl-1.ca.uncletopia.com","port":27035,"enabled":true,"region":"us-east","cc":"ca","latitude":45.50889,"longitude":-73.56167,"reserved":0,"last_update":"0001-01-01T00:00:00Z","name_a2s":"Uncletopia | Montr√©al | 3 | All Maps","protocol":17,"map":"pl_swiftwater_final1","folder":"tf","game":"Team Fortress","app_id":440,"player_count":0,"max_players":24,"Bots":0,"server_type":"Dedicated","server_os":"Linux","password":true,"vac":true,"version":"7757534","steam_id":85568392924500089,"keywords":["nocrits","nodmgspread","payload","uncletopia"],"game_id":440,"stv_port":27036,"stv_name":"Uncletopia | Montr√©al | 3 | All Maps | STV","players":null},{"server_id":303,"name":"Uncletopia | Montr√©al | 4 | No Payload","name_short":"mtl-4","host":"mtl-1.ca.uncletopia.com","port":27045,"enabled":true,"region":"us-east","cc":"ca","latitude":45.50889,"longitude":-73.56167,"reserved":0,"last_update":"0001-01-01T00:00:00Z","name_a2s":"Uncletopia | Montr√©al | 4 | No Payload","protocol":17,"map":"cp_mossrock","folder":"tf","game":"Team Fortress","app_id":440,"player_count":0,"max_players":24,"Bots":0,"server_type":"Dedicated","server_os":"Linux","password":true,"vac":true,"version":"7757534","steam_id":85568392924500090,"keywords":["cp","nocrits","nodmgspread","uncletopia"],"game_id":440,"stv_port":27046,"stv_name":"Uncletopia | Montr√©al | 4 | No Payload | STV","players":null},{"server_id":13,"name":"Uncletopia | New York City | 1 | All Maps","name_short":"nyc-1","host":"nyc-1.us.uncletopia.com","port":27015,"enabled":true,"region":"us-east","cc":"us","latitude":40.73061,"longitude":-73.93524,"reserved":0,"last_update":"0001-01-01T00:00:00Z","name_a2s":"Uncletopia | New York City | 1 | All Maps","protocol":17,"map":"pl_frontier_final","folder":"tf","game":"Team Fortress","app_id":440,"player_count":24,"max_players":24,"Bots":0,"server_type":"Dedicated","server_os":"Linux","password":true,"vac":true,"version":"7757534","steam_id":85568392924469993,"keywords":["nocrits","nodmgspread","payload","uncletopia"],"game_id":440,"stv_port":27016,"stv_name":"Uncletopia | New York City | 1 | All Maps | STV","players":[{"user_id":114,"name":"yaldabaoth","steam_id":76561198084606869,"connected_time":93000000000,"state":"active","ping":59},{"user_id":48,"name":"Waffle Wannabe","steam_id":76561198064510650,"connected_time":5957000000000,"state":"active","ping":33},{"user_id":117,"name":"Lexiss","steam_id":76561198086211346,"connected_time":43000000000,"state":"active","ping":150},{"user_id":90,"name":"Gumthrax‚Ñ¢","steam_id":76561198047286282,"connected_time":2955000000000,"state":"active","ping":70},{"user_id":101,"name":"Tommy Wright III","steam_id":76561197974720148,"connected_time":1422000000000,"state":"active","ping":120},{"user_id":47,"name":"Trusty","steam_id":76561198035444237,"connected_time":6029000000000,"state":"active","ping":56},{"user_id":87,"name":"Asher","steam_id":76561198218499636,"connected_time":3378000000000,"state":"active","ping":39},{"user_id":109,"name":"turd ferguson","steam_id":76561198071620782,"connected_time":937000000000,"state":"active","ping":69},{"user_id":78,"name":"Dad 2","steam_id":76561198138546187,"connected_time":3805000000000,"state":"active","ping":57},{"user_id":30,"name":"cheapdisplay","steam_id":76561199206448493,"connected_time":7198000000000,"state":"active","ping":70},{"user_id":94,"name":"Kasane","steam_id":76561198209006780,"connected_time":2597000000000,"state":"active","ping":87},{"user_id":96,"name":"Code","steam_id":76561198121528534,"connected_time":2201000000000,"state":"active","ping":56},{"user_id":82,"name":"TrinnerToast","steam_id":76561199026887450,"connected_time":3703000000000,"state":"active","ping":156},{"user_id":102,"name":"Lost CS player","steam_id":76561198892387723,"connected_time":1420000000000,"state":"active","ping":56},{"user_id":79,"name":"a 1930s robber","steam_id":76561198125237406,"connected_time":3800000000000,"state":"active","ping":63},{"user_id":103,"name":"4 Itchy Tasty","steam_id":76561198009869383,"connected_time":1391000000000,"state":"active","ping":75},{"user_id":115,"name":"poiuytrewqwqwqwqwqwqwqwqwqwqwqw","steam_id":76561199105253001,"connected_time":93000000000,"state":"active","ping":50},{"user_id":105,"name":"a table","steam_id":76561198158461279,"connected_time":1223000000000,"state":"active","ping":72},{"user_id":113,"name":"„ÇØ„É¨„Ç™„É©","steam_id":76561198000830794,"connected_time":123000000000,"state":"active","ping":100},{"user_id":116,"name":"Bill Carr","steam_id":76561198110033943,"connected_time":63000000000,"state":"active","ping":106},{"user_id":104,"name":"A Rhino with Coronavirus","steam_id":76561197999451366,"connected_time":1335000000000,"state":"active","ping":84},{"user_id":110,"name":"Bee","steam_id":76561198074681324,"connected_time":519000000000,"state":"active","ping":48},{"user_id":44,"name":"Arcader","steam_id":76561198109860110,"connected_time":6601000000000,"state":"active","ping":129},{"user_id":107,"name":"craf","steam_id":76561198163535075,"connected_time":1174000000000,"state":"active","ping":52}]},{"server_id":14,"name":"Uncletopia | New York City | 2 | All Maps","name_short":"nyc-2","host":"nyc-1.us.uncletopia.com","port":27025,"enabled":true,"region":"us-east","cc":"us","latitude":40.73061,"longitude":-73.93524,"reserved":0,"last_update":"0001-01-01T00:00:00Z","name_a2s":"Uncletopia | New York City | 2 | All Maps","protocol":17,"map":"cp_steel","folder":"tf","game":"Team Fortress","app_id":440,"player_count":23,"max_players":24,"Bots":0,"server_type":"Dedicated","server_os":"Linux","password":true,"vac":true,"version":"7757534","steam_id":85568392924469994,"keywords":["cp","nocrits","nodmgspread","uncletopia"],"game_id":440,"stv_port":27026,"stv_name":"Uncletopia | New York City | 2 | All Maps | STV","players":[{"user_id":236,"name":"Tails The Fox uwu","steam_id":76561198999384275,"connected_time":4386000000000,"state":"active","ping":171},{"user_id":293,"name":"CHINESE SPY BALLOON OF DEATH","steam_id":76561197975975364,"connected_time":325000000000,"state":"active","ping":72},{"user_id":297,"name":"I can't heal","steam_id":76561198039763676,"connected_time":157000000000,"state":"active","ping":67},{"user_id":286,"name":"Tallyden","steam_id":76561197998572962,"connected_time":1046000000000,"state":"active","ping":76},{"user_id":276,"name":"Garfield","steam_id":76561198447358116,"connected_time":1556000000000,"state":"active","ping":52},{"user_id":302,"name":"pvzgwacc","steam_id":76561199207299985,"connected_time":88000000000,"state":"active","ping":98},{"user_id":300,"name":"Gaminglast","steam_id":76561198362927765,"connected_time":118000000000,"state":"active","ping":123},{"user_id":303,"name":"alset333","steam_id":76561198405345260,"connected_time":56000000000,"state":"active","ping":45},{"user_id":283,"name":"RekTek249","steam_id":76561198118901719,"connected_time":1266000000000,"state":"active","ping":68},{"user_id":294,"name":"Cousin Balki","steam_id":76561198070496395,"connected_time":305000000000,"state":"active","ping":83},{"user_id":291,"name":"Daggz","steam_id":76561198821879886,"connected_time":400000000000,"state":"active","ping":76},{"user_id":295,"name":"Cobajonicle","steam_id":76561198045119791,"connected_time":205000000000,"state":"active","ping":132},{"user_id":299,"name":"Katzenwerfer","steam_id":76561198345464748,"connected_time":131000000000,"state":"active","ping":103},{"user_id":301,"name":"GoblinSoup","steam_id":76561198888203067,"connected_time":115000000000,"state":"active","ping":97},{"user_id":254,"name":"keffers","steam_id":76561198202338796,"connected_time":3145000000000,"state":"active","ping":84},{"user_id":289,"name":"Pow","steam_id":76561198417295769,"connected_time":741000000000,"state":"active","ping":85},{"user_id":292,"name":"Gape Newell","steam_id":76561198028797155,"connected_time":358000000000,"state":"active","ping":85},{"user_id":304,"name":"ttv/potty_trained","steam_id":76561198141557766,"connected_time":45000000000,"state":"active","ping":81},{"user_id":256,"name":"bruh2","steam_id":76561198046055673,"connected_time":3127000000000,"state":"active","ping":60},{"user_id":287,"name":"Magic Man Marley","steam_id":76561198094612859,"connected_time":795000000000,"state":"active","ping":79},{"user_id":305,"name":"Huachi-Kun","steam_id":76561198878018320,"connected_time":33000000000,"state":"active","ping":91},{"user_id":274,"name":"SEGNO","steam_id":76561198102780113,"connected_time":2159000000000,"state":"active","ping":81},{"user_id":271,"name":"Pussy Slambasket","steam_id":76561198093694322,"connected_time":2258000000000,"state":"active","ping":75}]},{"server_id":15,"name":"Uncletopia | New York City | 3 | Stopwatch Beta","name_short":"nyc-3","host":"nyc-1.us.uncletopia.com","port":27035,"enabled":true,"region":"us-east","cc":"us","latitude":40.73061,"longitude":-73.93524,"reserved":0,"last_update":"0001-01-01T00:00:00Z","name_a2s":"Uncletopia | New York City | 3 | Stopwatch Beta","protocol":17,"map":"pl_upward","folder":"tf","game":"Team Fortress","app_id":440,"player_count":0,"max_players":24,"Bots":0,"server_type":"Dedicated","server_os":"Linux","password":true,"vac":true,"version":"7757534","steam_id":85568392924742820,"keywords":["nocrits","nodmgspread","payload","uncletopia"],"game_id":440,"stv_port":27036,"stv_name":"Uncletopia | New York City | 3 | Stopwatch Beta | STV","players":null},{"server_id":16,"name":"Uncletopia | New York City | 4 | Community","name_short":"nyc-4","host":"nyc-1.us.uncletopia.com","port":27045,"enabled":true,"region":"us-east","cc":"us","latitude":40.73061,"longitude":-73.93524,"reserved":0,"last_update":"0001-01-01T00:00:00Z","name_a2s":"Uncletopia | New York City | 4 | Community","protocol":17,"map":"pl_swiftwater_final1","folder":"tf","game":"Team Fortress","app_id":440,"player_count":0,"max_players":24,"Bots":0,"server_type":"Dedicated","server_os":"Linux","password":true,"vac":true,"version":"7757534","steam_id":85568392924742821,"keywords":["nocrits","nodmgspread","payload","uncletopia"],"game_id":440,"stv_port":27046,"stv_name":"Uncletopia | New York City | 4 | Community | STV","players":null},{"server_id":142,"name":"Uncletopia | S√£o Paulo | 1 | All Maps","name_short":"sao-1","host":"sao-1.br.uncletopia.com","port":27015,"enabled":true,"region":"sa","cc":"br","latitude":-23.533773,"longitude":-46.62529,"reserved":0,"last_update":"0001-01-01T00:00:00Z","name_a2s":"Uncletopia | S√£o Paulo | 1 | All Maps","protocol":17,"map":"koth_lakeside_final","folder":"tf","game":"Team Fortress","app_id":440,"player_count":0,"max_players":24,"Bots":0,"server_type":"Dedicated","server_os":"Linux","password":true,"vac":true,"version":"7757534","steam_id":85568392924469996,"keywords":["cp","nocrits","nodmgspread","uncletopia"],"game_id":440,"stv_port":27016,"stv_name":"Uncletopia | S√£o Paulo | 1 | All Maps | STV","players":null},{"server_id":143,"name":"Uncletopia | S√£o Paulo | 2 | All Maps","name_short":"sao-2","host":"sao-2.br.uncletopia.com","port":27015,"enabled":true,"region":"sa","cc":"br","latitude":-23.533773,"longitude":-46.62529,"reserved":0,"last_update":"0001-01-01T00:00:00Z","name_a2s":"Uncletopia | S√£o Paulo | 2 | All Maps","protocol":17,"map":"pl_pier","folder":"tf","game":"Team Fortress","app_id":440,"player_count":0,"max_players":24,"Bots":0,"server_type":"Dedicated","server_os":"Linux","password":true,"vac":true,"version":"7757534","steam_id":85568392924485349,"keywords":["nocrits","nodmgspread","payload","uncletopia"],"game_id":440,"stv_port":27016,"stv_name":"Uncletopia | S√£o Paulo | 2 | All Maps | STV","players":null},{"server_id":7,"name":"Uncletopia | Seattle | 1 | All Maps","name_short":"sea-1","host":"sea-1.us.uncletopia.com","port":27015,"enabled":true,"region":"us-west","cc":"us","latitude":47.608013,"longitude":-122.33517,"reserved":0,"last_update":"0001-01-01T00:00:00Z","name_a2s":"Uncletopia | Seattle | 1 | All Maps","protocol":17,"map":"pl_frontier_final","folder":"tf","game":"Team Fortress","app_id":440,"player_count":23,"max_players":24,"Bots":0,"server_type":"Dedicated","server_os":"Linux","password":true,"vac":true,"version":"7757534","steam_id":85568392924469997,"keywords":["nocrits","nodmgspread","payload","uncletopia"],"game_id":440,"stv_port":27016,"stv_name":"Uncletopia | Seattle | 1 | All Maps | STV","players":[{"user_id":188,"name":"fancyfreak","steam_id":76561198326466375,"connected_time":8171000000000,"state":"active","ping":78},{"user_id":256,"name":"a footnote in sounding history","steam_id":76561198063064857,"connected_time":4275000000000,"state":"active","ping":123},{"user_id":277,"name":"Raniel Dicciardo","steam_id":76561198053859538,"connected_time":1397000000000,"state":"active","ping":81},{"user_id":255,"name":"Keamy","steam_id":76561199471434875,"connected_time":4336000000000,"state":"active","ping":41},{"user_id":288,"name":"john (real)","steam_id":76561199122787640,"connected_time":590000000000,"state":"active","ping":85},{"user_id":289,"name":"Mr. Sweet-and-Awful","steam_id":76561198352544325,"connected_time":572000000000,"state":"active","ping":86},{"user_id":297,"name":"-iG.f","steam_id":76561198215559840,"connected_time":76000000000,"state":"active","ping":112},{"user_id":261,"name":"Gay Porn Stuntman","steam_id":76561198844362758,"connected_time":3541000000000,"state":"active","ping":112},{"user_id":236,"name":"Mignyanne :3","steam_id":76561198048754056,"connected_time":5844000000000,"state":"active","ping":66},{"user_id":290,"name":"BiohazardSr","steam_id":76561198067241095,"connected_time":479000000000,"state":"active","ping":86},{"user_id":291,"name":"PopcornBucketGames","steam_id":76561199089562026,"connected_time":472000000000,"state":"active","ping":52},{"user_id":150,"name":"Tommy Pickles (Very Cool)","steam_id":76561198391261463,"connected_time":10245000000000,"state":"active","ping":99},{"user_id":259,"name":"Fh","steam_id":76561198000903511,"connected_time":3711000000000,"state":"active","ping":65},{"user_id":253,"name":"McSpazatron","steam_id":76561198955942148,"connected_time":4534000000000,"state":"active","ping":69},{"user_id":276,"name":"Nolan","steam_id":76561198169648081,"connected_time":1770000000000,"state":"active","ping":112},{"user_id":285,"name":"Neowudan","steam_id":76561198136850867,"connected_time":981000000000,"state":"active","ping":104},{"user_id":246,"name":"rustyorion","steam_id":76561198439186347,"connected_time":5218000000000,"state":"active","ping":56},{"user_id":269,"name":"They/Them Rattussy","steam_id":76561198238186628,"connected_time":2255000000000,"state":"active","ping":82},{"user_id":263,"name":"Holiest_Warden","steam_id":76561198335360028,"connected_time":3441000000000,"state":"active","ping":125},{"user_id":292,"name":"gopnik gaming","steam_id":76561198064194222,"connected_time":359000000000,"state":"active","ping":67},{"user_id":260,"name":"toes","steam_id":76561198221151676,"connected_time":3706000000000,"state":"active","ping":58},{"user_id":293,"name":"gloobern","steam_id":76561198341190679,"connected_time":341000000000,"state":"active","ping":66},{"user_id":296,"name":"hakken","steam_id":76561199102391736,"connected_time":122000000000,"state":"active","ping":76}]},{"server_id":119,"name":"Uncletopia | Seattle | 2 | All Maps","name_short":"sea-2","host":"sea-1.us.uncletopia.com","port":27025,"enabled":true,"region":"us-west","cc":"us","latitude":47.608013,"longitude":-122.33517,"reserved":0,"last_update":"0001-01-01T00:00:00Z","name_a2s":"Uncletopia | Seattle | 2 | All Maps","protocol":17,"map":"pl_barnblitz","folder":"tf","game":"Team Fortress","app_id":440,"player_count":24,"max_players":24,"Bots":0,"server_type":"Dedicated","server_os":"Linux","password":true,"vac":true,"version":"7757534","steam_id":85568392924469998,"keywords":["nocrits","nodmgspread","payload","uncletopia"],"game_id":440,"stv_port":27026,"stv_name":"Uncletopia | Seattle | 2 | All Maps | STV","players":[{"user_id":50,"name":"crumbles","steam_id":76561198168707036,"connected_time":1285000000000,"state":"active","ping":56},{"user_id":46,"name":"Sgt Autmn","steam_id":76561198072047939,"connected_time":1372000000000,"state":"active","ping":45},{"user_id":25,"name":"flameblocks","steam_id":76561198797076481,"connected_time":2326000000000,"state":"active","ping":117},{"user_id":12,"name":"toodles","steam_id":76561198025463883,"connected_time":3123000000000,"state":"active","ping":55},{"user_id":34,"name":"Foof","steam_id":76561198068996707,"connected_time":1672000000000,"state":"active","ping":100},{"user_id":35,"name":"BMB","steam_id":76561198254205844,"connected_time":1664000000000,"state":"active","ping":117},{"user_id":36,"name":"kodynotcody","steam_id":76561198340685758,"connected_time":1663000000000,"state":"active","ping":61},{"user_id":64,"name":"bodie._.","steam_id":76561198079474904,"connected_time":229000000000,"state":"active","ping":60},{"user_id":19,"name":"Nandemo","steam_id":76561198339944049,"connected_time":2619000000000,"state":"active","ping":129},{"user_id":56,"name":"BBL Sponsor","steam_id":76561199093733603,"connected_time":914000000000,"state":"active","ping":84},{"user_id":38,"name":"M.L.JEW","steam_id":76561198997375055,"connected_time":1605000000000,"state":"active","ping":126},{"user_id":66,"name":"Buswolley","steam_id":76561197995205571,"connected_time":150000000000,"state":"active","ping":71},{"user_id":29,"name":"Lesbian Futa Mommy","steam_id":76561198130479030,"connected_time":2160000000000,"state":"active","ping":59},{"user_id":63,"name":"sleepy","steam_id":76561198064149348,"connected_time":380000000000,"state":"active","ping":77},{"user_id":65,"name":"worlds scariest profile picture","steam_id":76561198133360797,"connected_time":162000000000,"state":"active","ping":90},{"user_id":60,"name":"Jaydyn","steam_id":76561198140326797,"connected_time":612000000000,"state":"active","ping":129},{"user_id":42,"name":"Dargoos","steam_id":76561198366212046,"connected_time":1532000000000,"state":"active","ping":72},{"user_id":67,"name":"Best Western","steam_id":76561198138958126,"connected_time":146000000000,"state":"active","ping":139},{"user_id":61,"name":"Hazeyboi","steam_id":76561198130687838,"connected_time":558000000000,"state":"active","ping":94},{"user_id":49,"name":"your gay lover","steam_id":76561198840429685,"connected_time":1336000000000,"state":"active","ping":94},{"user_id":53,"name":"SLENDERMAN'S BRO","steam_id":76561198145231115,"connected_time":1249000000000,"state":"active","ping":76},{"user_id":54,"name":"maniacaltoonz","steam_id":76561198795657236,"connected_time":1200000000000,"state":"active","ping":113},{"user_id":55,"name":"Crustacean Daddy","steam_id":76561198993807061,"connected_time":1174000000000,"state":"active","ping":79},{"user_id":58,"name":"27 blends","steam_id":76561197997100185,"connected_time":745000000000,"state":"active","ping":81}]},{"server_id":406,"name":"Uncletopia | Seattle | 3 | Stopwatch Beta","name_short":"sea-3","host":"sea-1.us.uncletopia.com","port":27035,"enabled":true,"region":"us-west","cc":"us","latitude":47.608013,"longitude":-122.33517,"reserved":0,"last_update":"0001-01-01T00:00:00Z","name_a2s":"Uncletopia | Seattle | 3 | Stopwatch Beta","protocol":17,"map":"koth_lakeside_final","folder":"tf","game":"Team Fortress","app_id":440,"player_count":0,"max_players":24,"Bots":0,"server_type":"Dedicated","server_os":"Linux","password":true,"vac":true,"version":"7757534","steam_id":85568392924515217,"keywords":["cp","nocrits","nodmgspread","uncletopia"],"game_id":440,"stv_port":27036,"stv_name":"Uncletopia | Seattle | 3 | Stopwatch Beta | STV","players":null},{"server_id":17,"name":"Uncletopia | San Francisco | 1 | All Maps","name_short":"sfo-1","host":"sfo-1.us.uncletopia.com","port":27015,"enabled":true,"region":"us-west","cc":"us","latitude":37.77397,"longitude":-122.4313,"reserved":0,"last_update":"0001-01-01T00:00:00Z","name_a2s":"Uncletopia | San Francisco | 1 | All Maps","protocol":17,"map":"pl_badwater","folder":"tf","game":"Team Fortress","app_id":440,"player_count":0,"max_players":24,"Bots":0,"server_type":"Dedicated","server_os":"Linux","password":true,"vac":true,"version":"7757534","steam_id":85568392924469999,"keywords":["nocrits","nodmgspread","payload","uncletopia"],"game_id":440,"stv_port":27016,"stv_name":"Uncletopia | San Francisco | 1 | All Maps | STV","players":null},{"server_id":18,"name":"Uncletopia | San Francisco | 2 | All Maps","name_short":"sfo-2","host":"sfo-1.us.uncletopia.com","port":27025,"enabled":true,"region":"us-west","cc":"us","latitude":37.77397,"longitude":-122.4313,"reserved":0,"last_update":"0001-01-01T00:00:00Z","name_a2s":"Uncletopia | San Francisco | 2 | All Maps","protocol":17,"map":"koth_highpass","folder":"tf","game":"Team Fortress","app_id":440,"player_count":0,"max_players":24,"Bots":0,"server_type":"Dedicated","server_os":"Linux","password":true,"vac":true,"version":"7757534","steam_id":85568392924470000,"keywords":["cp","nocrits","nodmgspread","uncletopia"],"game_id":440,"stv_port":27026,"stv_name":"Uncletopia | San Francisco | 2 | All Maps | STV","players":null},{"server_id":19,"name":"Uncletopia | San Francisco | 3 | Stopwatch Beta","name_short":"sfo-3","host":"sfo-1.us.uncletopia.com","port":27035,"enabled":true,"region":"us-west","cc":"us","latitude":37.77397,"longitude":-122.4313,"reserved":0,"last_update":"0001-01-01T00:00:00Z","name_a2s":"Uncletopia | San Francisco | 3 | Stopwatch Beta","protocol":17,"map":"koth_lakeside_final","folder":"tf","game":"Team Fortress","app_id":440,"player_count":0,"max_players":24,"Bots":0,"server_type":"Dedicated","server_os":"Linux","password":true,"vac":true,"version":"7757534","steam_id":85568392924742824,"keywords":["cp","nocrits","nodmgspread","uncletopia"],"game_id":440,"stv_port":27036,"stv_name":"Uncletopia | San Francisco | 3 | Stopwatch Beta | STV","players":null},{"server_id":20,"name":"Uncletopia | San Francisco | 4 | Community","name_short":"sfo-4","host":"sfo-1.us.uncletopia.com","port":27045,"enabled":true,"region":"us-west","cc":"us","latitude":37.77397,"longitude":-122.4313,"reserved":0,"last_update":"0001-01-01T00:00:00Z","name_a2s":"Uncletopia | San Francisco | 4 | Community","protocol":17,"map":"cp_altitude","folder":"tf","game":"Team Fortress","app_id":440,"player_count":0,"max_players":24,"Bots":0,"server_type":"Dedicated","server_os":"Linux","password":true,"vac":true,"version":"7757534","steam_id":85568392924742826,"keywords":["cp","nocrits","nodmgspread","uncletopia"],"game_id":440,"stv_port":27046,"stv_name":"Uncletopia | San Francisco | 4 | Community | STV","players":null},{"server_id":141,"name":"Uncletopia | Sydney | 1 | All Maps","name_short":"syd-1","host":"syd-1.au.uncletopia.com","port":27015,"enabled":true,"region":"au","cc":"au","latitude":-33.865143,"longitude":151.2099,"reserved":0,"last_update":"0001-01-01T00:00:00Z","name_a2s":"Uncletopia | Sydney | 1 | All Maps","protocol":17,"map":"koth_viaduct","folder":"tf","game":"Team Fortress","app_id":440,"player_count":0,"max_players":24,"Bots":0,"server_type":"Dedicated","server_os":"Linux","password":true,"vac":true,"version":"7757534","steam_id":85568392924470001,"keywords":["cp","nocrits","nodmgspread","uncletopia"],"game_id":440,"stv_port":27016,"stv_name":"Uncletopia | Sydney | 1 | All Maps | STV","players":null},{"server_id":123,"name":"Uncletopia | Sydney | 2 | All Maps","name_short":"syd-2","host":"syd-1.au.uncletopia.com","port":27025,"enabled":true,"region":"au","cc":"au","latitude":-33.865143,"longitude":151.2099,"reserved":0,"last_update":"0001-01-01T00:00:00Z","name_a2s":"Uncletopia | Sydney | 2 | All Maps","protocol":17,"map":"cp_process_final","folder":"tf","game":"Team Fortress","app_id":440,"player_count":0,"max_players":24,"Bots":0,"server_type":"Dedicated","server_os":"Linux","password":true,"vac":true,"version":"7757534","steam_id":85568392924470002,"keywords":["cp","nocrits","nodmgspread","uncletopia"],"game_id":440,"stv_port":27026,"stv_name":"Uncletopia | Sydney | 2 | All Maps | STV","players":null},{"server_id":395,"name":"Uncletopia | Sydney | 3 | All Maps","name_short":"syd-3","host":"syd-1.au.uncletopia.com","port":27035,"enabled":true,"region":"au","cc":"au","latitude":-33.865143,"longitude":151.2099,"reserved":0,"last_update":"0001-01-01T00:00:00Z","name_a2s":"Uncletopia | Sydney | 3 | All Maps","protocol":17,"map":"pl_swiftwater_final1","folder":"tf","game":"Team Fortress","app_id":440,"player_count":0,"max_players":24,"Bots":0,"server_type":"Dedicated","server_os":"Linux","password":true,"vac":true,"version":"7757534","steam_id":85568392925194467,"keywords":["nocrits","nodmgspread","payload","uncletopia"],"game_id":440,"stv_port":27036,"stv_name":"Uncletopia | Sydney | 3 | All Maps | STV","players":null},{"server_id":396,"name":"Uncletopia | Sydney | 4 | All Maps","name_short":"syd-4","host":"syd-1.au.uncletopia.com","port":27045,"enabled":true,"region":"au","cc":"au","latitude":-33.865143,"longitude":151.2099,"reserved":0,"last_update":"0001-01-01T00:00:00Z","name_a2s":"Uncletopia | Sydney | 4 | All Maps","protocol":17,"map":"koth_highpass","folder":"tf","game":"Team Fortress","app_id":440,"player_count":0,"max_players":24,"Bots":0,"server_type":"Dedicated","server_os":"Linux","password":true,"vac":true,"version":"7757534","steam_id":85568392925397958,"keywords":["cp","nocrits","nodmgspread","uncletopia"],"game_id":440,"stv_port":27046,"stv_name":"Uncletopia | Sydney | 4 | All Maps | STV","players":null},{"server_id":58,"name":"Uncletopia | Sydney | 5 | Stopwatch Beta","name_short":"syd-5","host":"syd-1.au.uncletopia.com","port":27055,"enabled":true,"region":"au","cc":"au","latitude":-33.865143,"longitude":151.2099,"reserved":0,"last_update":"0001-01-01T00:00:00Z","name_a2s":"Uncletopia | Sydney | 5 | Stopwatch Beta","protocol":17,"map":"koth_cascade","folder":"tf","game":"Team Fortress","app_id":440,"player_count":0,"max_players":24,"Bots":0,"server_type":"Dedicated","server_os":"Linux","password":true,"vac":true,"version":"7757534","steam_id":85568392925397959,"keywords":["cp","nocrits","nodmgspread","uncletopia"],"game_id":440,"stv_port":27056,"stv_name":"Uncletopia | Sydney | 5 | Stopwatch Beta | STV","players":null},{"server_id":59,"name":"Uncletopia | Sydney | 6 | Community","name_short":"syd-6","host":"syd-1.au.uncletopia.com","port":27065,"enabled":true,"region":"au","cc":"au","latitude":-33.865143,"longitude":151.2099,"reserved":0,"last_update":"0001-01-01T00:00:00Z","name_a2s":"Uncletopia | Sydney | 6 | Community","protocol":17,"map":"cp_snakewater_final1","folder":"tf","game":"Team Fortress","app_id":440,"player_count":0,"max_players":24,"Bots":0,"server_type":"Dedicated","server_os":"Linux","password":true,"vac":true,"version":"7757534","steam_id":85568392925397960,"keywords":["cp","nocrits","nodmgspread","uncletopia"],"game_id":440,"stv_port":27066,"stv_name":"Uncletopia | Sydney | 6 | Community | STV","players":null},{"server_id":49,"name":"Uncletopia | Warsaw | 1 | All Maps","name_short":"waw-1","host":"waw-1.pl.uncletopia.com","port":27015,"enabled":true,"region":"eu","cc":"pl","latitude":52.2297,"longitude":21.017532,"reserved":0,"last_update":"0001-01-01T00:00:00Z","name_a2s":"","protocol":0,"map":"","folder":"","game":"","app_id":0,"player_count":0,"max_players":0,"Bots":0,"server_type":"","server_os":"","password":false,"vac":false,"version":"","steam_id":0,"keywords":null,"game_id":0,"stv_port":0,"stv_name":"","players":null},{"server_id":50,"name":"Uncletopia | Warsaw | 2 | All Maps","name_short":"waw-2","host":"waw-1.pl.uncletopia.com","port":27025,"enabled":true,"region":"eu","cc":"pl","latitude":52.2297,"longitude":21.017532,"reserved":0,"last_update":"0001-01-01T00:00:00Z","name_a2s":"Uncletopia | Warsaw | 2 | All Maps","protocol":17,"map":"koth_viaduct","folder":"tf","game":"Team Fortress","app_id":440,"player_count":0,"max_players":24,"Bots":0,"server_type":"Dedicated","server_os":"Linux","password":true,"vac":true,"version":"7757534","steam_id":85568392925397851,"keywords":["cp","nocrits","nodmgspread","uncletopia"],"game_id":440,"stv_port":27026,"stv_name":"Uncletopia | Warsaw | 2 | All Maps | STV","players":null},{"server_id":51,"name":"Uncletopia | Warsaw | 3 | All Maps","name_short":"waw-3","host":"waw-1.pl.uncletopia.com","port":27035,"enabled":true,"region":"eu","cc":"pl","latitude":52.2297,"longitude":21.017532,"reserved":0,"last_update":"0001-01-01T00:00:00Z","name_a2s":"Uncletopia | Warsaw | 3 | All Maps","protocol":17,"map":"koth_lakeside_final","folder":"tf","game":"Team Fortress","app_id":440,"player_count":0,"max_players":24,"Bots":0,"server_type":"Dedicated","server_os":"Linux","password":true,"vac":true,"version":"7757534","steam_id":85568392925397852,"keywords":["cp","nocrits","nodmgspread","uncletopia"],"game_id":440,"stv_port":27036,"stv_name":"Uncletopia | Warsaw | 3 | All Maps | STV","players":null},{"server_id":52,"name":"Uncletopia | Warsaw | 4 | All Maps","name_short":"waw-4","host":"waw-1.pl.uncletopia.com","port":27045,"enabled":true,"region":"eu","cc":"pl","latitude":52.2297,"longitude":21.017532,"reserved":0,"last_update":"0001-01-01T00:00:00Z","name_a2s":"Uncletopia | Warsaw | 4 | All Maps","protocol":17,"map":"koth_lakeside_final","folder":"tf","game":"Team Fortress","app_id":440,"player_count":0,"max_players":24,"Bots":0,"server_type":"Dedicated","server_os":"Linux","password":true,"vac":true,"version":"7757534","steam_id":85568392925397853,"keywords":["cp","nocrits","nodmgspread","uncletopia"],"game_id":440,"stv_port":27046,"stv_name":"Uncletopia | Warsaw | 4 | All Maps | STV","players":null},{"server_id":53,"name":"Uncletopia | Warsaw | 5 | Stopwatch Beta","name_short":"waw-5","host":"waw-1.pl.uncletopia.com","port":27055,"enabled":true,"region":"eu","cc":"pl","latitude":52.2297,"longitude":21.017532,"reserved":0,"last_update":"0001-01-01T00:00:00Z","name_a2s":"Uncletopia | Warsaw | 5 | Stopwatch Beta","protocol":17,"map":"pl_borneo","folder":"tf","game":"Team Fortress","app_id":440,"player_count":0,"max_players":24,"Bots":0,"server_type":"Dedicated","server_os":"Linux","password":true,"vac":true,"version":"7757534","steam_id":85568392925397854,"keywords":["nocrits","nodmgspread","payload","uncletopia"],"game_id":440,"stv_port":27056,"stv_name":"Uncletopia | Warsaw | 5 | Stopwatch Beta | STV","players":null},{"server_id":54,"name":"Uncletopia | Warsaw | 6 | Community","name_short":"waw-6","host":"waw-1.pl.uncletopia.com","port":27065,"enabled":true,"region":"eu","cc":"pl","latitude":52.2297,"longitude":21.017532,"reserved":0,"last_update":"0001-01-01T00:00:00Z","name_a2s":"Uncletopia | Warsaw | 6 | Community","protocol":17,"map":"workshop/koth_kemptown_rc1.ugc767410655","folder":"tf","game":"Team Fortress","app_id":440,"player_count":0,"max_players":24,"Bots":0,"server_type":"Dedicated","server_os":"Linux","password":true,"vac":true,"version":"7757534","steam_id":85568392925397856,"keywords":["cp","nocrits","nodmgspread","uncletopia"],"game_id":440,"stv_port":27066,"stv_name":"Uncletopia | Warsaw | 6 | Community | STV","players":null}]}