{"status":true,"message":"","result":[{"server_id":9,"name":"Uncletopia | Atlanta | 1 | All Maps","name_short":"atl-1","host":"atl-1.us.uncletopia.com","port":27015,"enabled":true,"region":"us-east","cc":"us","latitude":33.753746,"longitude":-84.38633,"reserved":0,"last_update":"0001-01-01T00:00:00Z","name_a2s":"Uncletopia | Atlanta | 1 | All Maps","protocol":17,"map":"pl_borneo","folder":"tf","game":"Team Fortress","app_id":440,"player_count":24,"max_players":24,"Bots":0,"server_type":"Dedicated","server_os":"Linux","password":true,"vac":true,"version":"7757534","steam_id":85568392924469982,"keywords":["nocrits","nodmgspread","payload","uncletopia"],"game_id":440,"stv_port":27016,"stv_name":"Uncletopia | Atlanta | 1 | All Maps | STV","players":[{"user_id":36,"name":"BigBubble42","steam_id":76561198136286123,"connected_time":701000000000,"state":"active","ping":45},{"user_id":18,"name":"nUwUb","steam_id":76561198164984099,"connected_time":1208000000000,"state":"active","ping":82},{"user_id":14,"name":"Karlsson","steam_id":76561198334515873,"connected_time":1341000000000,"state":"active","ping":114},{"user_id":32,"name":"KhorneBread ︻デ 一","steam_id":76561198097069958,"connected_time":878000000000,"state":"active","ping":76},{"user_id":19,"name":"Rexavier ぺこ","steam_id":76561198165699034,"connected_time":1185000000000,"state":"active","ping":74},{"user_id":20,"name":"waffen's kid","steam_id":76561197972661434,"connected_time":1184000000000,"state":"active","ping":76},{"user_id":21,"name":"Gargoyle sex","steam_id":76561198031610532,"connected_time":1151000000000,"state":"active","ping":112},{"user_id":22,"name":"Walmart Employee","steam_id":76561198840373909,"connected_time":1092000000000,"state":"active","ping":77},{"user_id":49,"name":"Anji's onlyfans","steam_id":76561198353160282,"connected_time":158000000000,"state":"active","ping":70},{"user_id":34,"name":"DiscoTraveler","steam_id":76561199240168088,"connected_time":738000000000,"state":"active","ping":55},{"user_id":25,"name":"Rapture","steam_id":76561198022596423,"connected_time":998000000000,"state":"active","ping":72},{"user_id":51,"name":"hubert","steam_id":76561198999159056,"connected_time":47000000000,"state":"active","ping":71},{"user_id":50,"name":"battle clown","steam_id":76561198045788371,"connected_time":60000000000,"state":"active","ping":82},{"user_id":29,"name":"lukethepumpkin","steam_id":76561198204158335,"connected_time":919000000000,"state":"active","ping":78},{"user_id":31,"name":"Sweet Baby Zain","steam_id":76561198046392267,"connected_time":892000000000,"state":"active","ping":72},{"user_id":35,"name":"poopyfart","steam_id":76561199091762246,"connected_time":731000000000,"state":"active","ping":68},{"user_id":37,"name":"mos","steam_id":76561198146126212,"connected_time":659000000000,"state":"active","ping":55},{"user_id":44,"name":"Freeza","steam_id":76561198050341005,"connected_time":423000000000,"state":"active","ping":99},{"user_id":39,"name":"FrostGoatVEVO","steam_id":76561199172237459,"connected_time":595000000000,"state":"active","ping":118},{"user_id":48,"name":"e","steam_id":76561198131245396,"connected_time":270000000000,"state":"active","ping":65},{"user_id":47,"name":"hannahburger @RGB LAN","steam_id":76561198094801861,"connected_time":347000000000,"state":"active","ping":59},{"user_id":42,"name":"Demoman With One Joke","steam_id":76561197993467034,"connected_time":472000000000,"state":"active","ping":69},{"user_id":43,"name":"Strigby","steam_id":76561198004116353,"connected_time":457000000000,"state":"active","ping":81},{"user_id":45,"name":"Taco","steam_id":76561198158621392,"connected_time":418000000000,"state":"active","ping":79}]},{"server_id":400,"name":"Uncletopia | Atlanta | 3 | Community","name_short":"atl-3","host":"atl-1.us.uncletopia.com","port":27035,"enabled":true,"region":"us-east","cc":"us","latitude":33.753746,"longitude":-84.38633,"reserved":0,"last_update":"0001-01-01T00:00:00Z","name_a2s":"Uncletopia | Atlanta | 3 | Community","protocol":17,"map":"pl_swiftwater_final1","folder":"tf","game":"Team Fortress","app_id":440,"player_count":0,"max_players":24,"Bots":0,"server_type":"Dedicated","server_os":"Linux","password":true,"vac":true,"version":"7757534","steam_id":85568392924515187,"keywords":["nocrits","nodmgspread","payload","uncletopia"],"game_id":440,"stv_port":27036,"stv_name":"Uncletopia | Atlanta | 3 | Community | STV","players":null},{"server_id":401,"name":"Uncletopia | Atlanta | 4 | No Payload","name_short":"atl-4","host":"atl-1.us.uncletopia.com","port":27045,"enabled":true,"region":"us-east","cc":"us","latitude":33.753746,"longitude":-84.38633,"reserved":0,"last_update":"0001-01-01T00:00:00Z","name_a2s":"","protocol":0,"map":"","folder":"","game":"","app_id":0,"player_count":0,"max_players":0,"Bots":0,"server_type":"","server_os":"","password":false,"vac":false,"version":"","steam_id":0,"keywords":null,"game_id":0,"stv_port":0,"stv_name":"","players":null},{"server_id":2,"name":"Uncletopia | Chicago | 1 | All Maps","name_short":"chi-1","host":"chi-1.us.uncletopia.com","port":27015,"enabled":true,"region":"us-central","cc":"us","latitude":41.881832,"longitude":-87.62318,"reserved":0,"last_update":"0001-01-01T00:00:00Z","name_a2s":"Uncletopia | Chicago | 1 | All Maps","protocol":17,"map":"cp_dustbowl","folder":"tf","game":"Team Fortress","app_id":440,"player_count":23,"max_players":24,"Bots":0,"server_type":"Dedicated","server_os":"Linux","password":true,"vac":true,"version":"7757534","steam_id":85568392924469984,"keywords":["cp","nocrits","nodmgspread","uncletopia"],"game_id":440,"stv_port":27016,"stv_name":"Uncletopia | Chicago | 1 | All Maps | STV","players":[{"user_id":331,"name":"fancyfreak","steam_id":76561198326466375,"connected_time":803000000000,"state":"active","ping":101},{"user_id":339,"name":"Obamacare","steam_id":76561198018894553,"connected_time":461000000000,"state":"active","ping":91},{"user_id":316,"name":"Mythikal ツ","steam_id":76561198032883071,"connected_time":1594000000000,"state":"active","ping":90},{"user_id":338,"name":"Brown_Dream","steam_id":76561198975766145,"connected_time":559000000000,"state":"active","ping":83},{"user_id":332,"name":"luxin","steam_id":76561198399383047,"connected_time":771000000000,"state":"active","ping":69},{"user_id":340,"name":"Skbonesin","steam_id":76561198180513878,"connected_time":229000000000,"state":"active","ping":92},{"user_id":309,"name":"dtnk","steam_id":76561199007189876,"connected_time":2229000000000,"state":"active","ping":56},{"user_id":317,"name":"abed","steam_id":76561198072856511,"connected_time":1591000000000,"state":"active","ping":82},{"user_id":198,"name":"khalil","steam_id":76561199008085020,"connected_time":10103000000000,"state":"active","ping":88},{"user_id":305,"name":"Macko","steam_id":76561198452005461,"connected_time":2674000000000,"state":"active","ping":92},{"user_id":301,"name":"Astoriae!","steam_id":76561199090168858,"connected_time":3387000000000,"state":"active","ping":64},{"user_id":328,"name":"kametro4","steam_id":76561198835430429,"connected_time":1185000000000,"state":"active","ping":77},{"user_id":341,"name":"brett","steam_id":76561198799740059,"connected_time":81000000000,"state":"active","ping":68},{"user_id":288,"name":"Raniel Dicciardo","steam_id":76561198053859538,"connected_time":4180000000000,"state":"active","ping":73},{"user_id":325,"name":"sam!!! :)","steam_id":76561198217362968,"connected_time":1342000000000,"state":"active","ping":71},{"user_id":342,"name":"PeopleOrderOurPatties","steam_id":76561198323144922,"connected_time":50000000000,"state":"active","ping":56},{"user_id":306,"name":"thundermuffin","steam_id":76561198067770965,"connected_time":2487000000000,"state":"active","ping":46},{"user_id":326,"name":"Abbashea","steam_id":76561199182136969,"connected_time":1342000000000,"state":"active","ping":88},{"user_id":299,"name":"BangusHonkle","steam_id":76561198218887511,"connected_time":3558000000000,"state":"active","ping":89},{"user_id":334,"name":"Mr.beast","steam_id":76561199445491246,"connected_time":769000000000,"state":"active","ping":93},{"user_id":343,"name":"Milo","steam_id":76561198967085448,"connected_time":33000000000,"state":"active","ping":75},{"user_id":330,"name":"Sentry","steam_id":76561198275326569,"connected_time":913000000000,"state":"active","ping":162},{"user_id":314,"name":"Mister Mundy","steam_id":76561198145675134,"connected_time":2086000000000,"state":"active","ping":61}]},{"server_id":106,"name":"Uncletopia | Chicago | 2 | All Maps","name_short":"chi-2","host":"chi-1.us.uncletopia.com","port":27025,"enabled":true,"region":"us-central","cc":"us","latitude":41.881832,"longitude":-87.62318,"reserved":0,"last_update":"0001-01-01T00:00:00Z","name_a2s":"Uncletopia | Chicago | 2 | All Maps","protocol":17,"map":"koth_viaduct","folder":"tf","game":"Team Fortress","app_id":440,"player_count":0,"max_players":24,"Bots":0,"server_type":"Dedicated","server_os":"Linux","password":true,"vac":true,"version":"7757534","steam_id":85568392924469985,"keywords":["cp","nocrits","nodmgspread","uncletopia"],"game_id":440,"stv_port":27026,"stv_name":"Uncletopia | Chicago | 2 | All Maps | STV","players":null},{"server_id":402,"name":"Uncletopia | Chicago | 3 | All Maps","name_short":"chi-3","host":"chi-1.us.uncletopia.com","port":27035,"enabled":true,"region":"us-central","cc":"us","latitude":41.881832,"longitude":-87.62318,"reserved":0,"last_update":"0001-01-01T00:00:00Z","name_a2s":"Uncletopia | Chicago | 3 | All Maps","protocol":17,"map":"koth_lakeside_final","folder":"tf","game":"Team Fortress","app_id":440,"player_count":0,"max_players":24,"Bots":0,"server_type":"Dedicated","server_os":"Linux","password":true,"vac":true,"version":"7757534","steam_id":85568392924515191,"keywords":["cp","nocrits","nodmgspread","uncletopia"],"game_id":440,"stv_port":27036,"stv_name":"Uncletopia | Chicago | 3 | All Maps | STV","players":null},{"server_id":403,"name":"Uncletopia | Chicago | 4 | All Maps","name_short":"chi-4","host":"chi-1.us.uncletopia.com","port":27045,"enabled":true,"region":"us-central","cc":"us","latitude":41.881832,"longitude":-87.62318,"reserved":0,"last_update":"0001-01-01T00:00:00Z","name_a2s":"Uncletopia | Chicago | 4 | All Maps","protocol":17,"map":"pl_borneo","folder":"tf","game":"Team Fortress","app_id":440,"player_count":21,"max_players":24,"Bots":0,"server_type":"Dedicated","server_os":"Linux","password":true,"vac":true,"version":"7757534","steam_id":85568392924515193,"keywords":["nocrits","nodmgspread","payload","uncletopia"],"game_id":440,"stv_port":27046,"stv_name":"Uncletopia | Chicago | 4 | All Maps | STV","players":[{"user_id":173,"name":"I_made_cummy","steam_id":76561198086107548,"connected_time":4002000000000,"state":"active","ping":74},{"user_id":169,"name":"sweppy","steam_id":76561198035457667,"connected_time":4089000000000,"state":"active","ping":62},{"user_id":222,"name":"Tomoscones","steam_id":76561198813586588,"connected_time":167000000000,"state":"active","ping":107},{"user_id":221,"name":"A Black Square","steam_id":76561198043570320,"connected_time":183000000000,"state":"active","ping":66},{"user_id":218,"name":"victordead121","steam_id":76561199180843121,"connected_time":315000000000,"state":"active","ping":128},{"user_id":202,"name":"no","steam_id":76561198069065342,"connected_time":1869000000000,"state":"active","ping":84},{"user_id":223,"name":"Cornflakes","steam_id":76561199151899684,"connected_time":154000000000,"state":"active","ping":79},{"user_id":212,"name":"I'm Only 4 Inches","steam_id":76561198055542546,"connected_time":1458000000000,"state":"active","ping":56},{"user_id":224,"name":"AjProductions","steam_id":76561198217950125,"connected_time":144000000000,"state":"active","ping":113},{"user_id":225,"name":"My Screensavers Are Kittens","steam_id":76561198055083642,"connected_time":114000000000,"state":"active","ping":75},{"user_id":220,"name":"SlurmKing","steam_id":76561197998371133,"connected_time":214000000000,"state":"active","ping":77},{"user_id":217,"name":"Rein","steam_id":76561198300340427,"connected_time":416000000000,"state":"active","ping":60},{"user_id":226,"name":"Wizard Piss","steam_id":76561198041977499,"connected_time":94000000000,"state":"active","ping":110},{"user_id":227,"name":"1000 Ping","steam_id":76561198098330939,"connected_time":75000000000,"state":"active","ping":122},{"user_id":142,"name":"ShadBad","steam_id":76561198248287390,"connected_time":5895000000000,"state":"active","ping":107},{"user_id":228,"name":"Zenabie","steam_id":76561198088372680,"connected_time":61000000000,"state":"active","ping":101},{"user_id":179,"name":"Delicate Steve","steam_id":76561198063582381,"connected_time":3697000000000,"state":"active","ping":77},{"user_id":43,"name":"mind controller","steam_id":76561198141198352,"connected_time":14071000000000,"state":"active","ping":45},{"user_id":229,"name":"the stinky finger bandit","steam_id":76561198190323610,"connected_time":57000000000,"state":"active","ping":89},{"user_id":230,"name":"Jayrizzle","steam_id":76561198094464257,"connected_time":47000000000,"state":"active","ping":70},{"user_id":211,"name":"tree","steam_id":76561198116885731,"connected_time":1640000000000,"state":"active","ping":50}]},{"server_id":36,"name":"Uncletopia | Chicago | 5 | All Maps","name_short":"chi-5","host":"chi-2.us.uncletopia.com","port":27015,"enabled":true,"region":"us-central","cc":"us","latitude":41.881832,"longitude":-87.62318,"reserved":0,"last_update":"0001-01-01T00:00:00Z","name_a2s":"Uncletopia | Chicago | 5 | All Maps","protocol":17,"map":"koth_cascade","folder":"tf","game":"Team Fortress","app_id":440,"player_count":0,"max_players":24,"Bots":0,"server_type":"Dedicated","server_os":"Linux","password":true,"vac":true,"version":"7757534","steam_id":85568392924866362,"keywords":["cp","nocrits","nodmgspread","uncletopia"],"game_id":440,"stv_port":27016,"stv_name":"Uncletopia | Chicago | 5 | All Maps | STV","players":null},{"server_id":37,"name":"Uncletopia | Chicago | 6 | All Maps","name_short":"chi-6","host":"chi-2.us.uncletopia.com","port":27025,"enabled":true,"region":"us-central","cc":"us","latitude":41.881832,"longitude":-87.62318,"reserved":0,"last_update":"0001-01-01T00:00:00Z","name_a2s":"Uncletopia | Chicago | 6 | All Maps","protocol":17,"map":"pl_snowycoast","folder":"tf","game":"Team Fortress","app_id":440,"player_count":20,"max_players":24,"Bots":0,"server_type":"Dedicated","server_os":"Linux","password":true,"vac":true,"version":"7757534","steam_id":85568392924866363,"keywords":["nocrits","nodmgspread","payload","uncletopia"],"game_id":440,"stv_port":27026,"stv_name":"Uncletopia | Chicago | 6 | All Maps | STV","players":[{"user_id":211,"name":"Faith (Star_Dust)","steam_id":76561199122856280,"connected_time":120000000000,"state":"active","ping":44},{"user_id":200,"name":"Zizen","steam_id":76561199011832069,"connected_time":983000000000,"state":"active","ping":110},{"user_id":168,"name":"BearAteMahoney","steam_id":76561198020439356,"connected_time":3149000000000,"state":"active","ping":65},{"user_id":165,"name":"horace","steam_id":76561198035613413,"connected_time":3289000000000,"state":"active","ping":71},{"user_id":192,"name":"The Rambler","steam_id":76561198109648603,"connected_time":2210000000000,"state":"active","ping":82},{"user_id":199,"name":"starfungus","steam_id":76561198158312789,"connected_time":1179000000000,"state":"active","ping":121},{"user_id":212,"name":"YNSxii","steam_id":76561198246975252,"connected_time":114000000000,"state":"active","ping":75},{"user_id":138,"name":"defs98","steam_id":76561198134813102,"connected_time":5054000000000,"state":"active","ping":58},{"user_id":196,"name":"dmdr1969","steam_id":76561198080469611,"connected_time":1772000000000,"state":"active","ping":74},{"user_id":207,"name":"pim","steam_id":76561198095163441,"connected_time":825000000000,"state":"active","ping":67},{"user_id":188,"name":"TATARA","steam_id":76561199098759517,"connected_time":2334000000000,"state":"active","ping":134},{"user_id":213,"name":"Khallaria","steam_id":76561198000706490,"connected_time":111000000000,"state":"active","ping":118},{"user_id":160,"name":"Silvercoat's Stargazer","steam_id":76561198399525329,"connected_time":4289000000000,"state":"active","ping":81},{"user_id":183,"name":"Gato","steam_id":76561198063521721,"connected_time":2549000000000,"state":"active","ping":74},{"user_id":189,"name":"Can we get much dumber?(jack)","steam_id":76561198044762365,"connected_time":2302000000000,"state":"active","ping":52},{"user_id":208,"name":"level 1 pyro","steam_id":76561198281197072,"connected_time":824000000000,"state":"active","ping":57},{"user_id":193,"name":"roma","steam_id":76561198028811916,"connected_time":2076000000000,"state":"active","ping":67},{"user_id":182,"name":"gretchling","steam_id":76561198046111695,"connected_time":2617000000000,"state":"active","ping":65},{"user_id":197,"name":"M4 Sherman","steam_id":76561198126990820,"connected_time":1694000000000,"state":"active","ping":94},{"user_id":155,"name":"Regina Phoca (She/Her)","steam_id":76561199317584594,"connected_time":4505000000000,"state":"active","ping":71}]},{"server_id":38,"name":"Uncletopia | Chicago | 7 | Stopwatch Beta","name_short":"chi-7","host":"chi-2.us.uncletopia.com","port":27035,"enabled":true,"region":"us-central","cc":"us","latitude":41.881832,"longitude":-87.62318,"reserved":0,"last_update":"0001-01-01T00:00:00Z","name_a2s":"Uncletopia | Chicago | 7 | Stopwatch Beta","protocol":17,"map":"pl_upward","folder":"tf","game":"Team Fortress","app_id":440,"player_count":0,"max_players":24,"Bots":0,"server_type":"Dedicated","server_os":"Linux","password":true,"vac":true,"version":"7757534","steam_id":85568392924866364,"keywords":["nocrits","nodmgspread","payload","uncletopia"],"game_id":440,"stv_port":27036,"stv_name":"Uncletopia | Chicago | 7 | Stopwatch Beta | STV","players":null},{"server_id":39,"name":"Uncletopia | Chicago | 8 | Community","name_short":"chi-8","host":"chi-2.us.uncletopia.com","port":27045,"enabled":true,"region":"us-central","cc":"us","latitude":41.881832,"longitude":-87.62318,"reserved":0,"last_update":"0001-01-01T00:00:00Z","name_a2s":"Uncletopia | Chicago | 8 | Community","protocol":17,"map":"workshop/pl_eruption_b9a.ugc2807898013","folder":"tf","game":"Team Fortress","app_id":440,"player_count":0,"max_players":24,"Bots":0,"server_type":"Dedicated","server_os":"Linux","password":true,"vac":true,"version":"7757534","steam_id":85568392924866365,"keywords":["nocrits","nodmgspread","payload","uncletopia"],"game_id":440,"stv_port":27046,"stv_name":"Uncletopia | Chicago | 8 | Community | STV","players":null},{"server_id":8,"name":"Uncletopia | Dallas | 1 | All Maps","name_short":"dal-1","host":"dal-1.us.uncletopia.com","port":27015,"enabled":true,"region":"us-central","cc":"us","latitude":32.779167,"longitude":-96.80889,"reserved":0,"last_update":"0001-01-01T00:00:00Z","name_a2s":"Uncletopia | Dallas | 1 | All Maps","protocol":17,"map":"pl_barnblitz","folder":"tf","game":"Team Fortress","app_id":440,"player_count":24,"max_players":24,"Bots":0,"server_type":"Dedicated","server_os":"Linux","password":true,"vac":true,"version":"7757534","steam_id":85568392924469986,"keywords":["nocrits","nodmgspread","payload","uncletopia"],"game_id":440,"stv_port":27016,"stv_name":"Uncletopia | Dallas | 1 | All Maps | STV","players":[{"user_id":7,"name":"epic","steam_id":76561198353171475,"connected_time":2893000000000,"state":"active","ping":89},{"user_id":8,"name":"Medic","steam_id":76561198023443251,"connected_time":2684000000000,"state":"active","ping":105},{"user_id":50,"name":"Foomfa","steam_id":76561198007033616,"connected_time":79000000000,"state":"active","ping":63},{"user_id":38,"name":"dadcop3","steam_id":76561198044189447,"connected_time":1317000000000,"state":"active","ping":68},{"user_id":36,"name":"chowder908","steam_id":76561198075858535,"connected_time":1531000000000,"state":"active","ping":76},{"user_id":12,"name":"BRAND NEW 911","steam_id":76561198111259720,"connected_time":2534000000000,"state":"active","ping":80},{"user_id":45,"name":"｡*✧Phencyclidine✧*｡","steam_id":76561199200969139,"connected_time":866000000000,"state":"active","ping":108},{"user_id":40,"name":"watamelon","steam_id":76561197978282744,"connected_time":1243000000000,"state":"active","ping":75},{"user_id":15,"name":"tsaide","steam_id":76561198384120999,"connected_time":2181000000000,"state":"active","ping":96},{"user_id":20,"name":"überfrau","steam_id":76561198262579376,"connected_time":1746000000000,"state":"active","ping":111},{"user_id":37,"name":"DerpFamous","steam_id":76561198046167888,"connected_time":1491000000000,"state":"active","ping":66},{"user_id":21,"name":"actual schizo","steam_id":76561198060252032,"connected_time":1730000000000,"state":"active","ping":61},{"user_id":22,"name":"real scammer","steam_id":76561198063619558,"connected_time":1727000000000,"state":"active","ping":74},{"user_id":23,"name":"FUNKY TOWN SLAYER","steam_id":76561198119489292,"connected_time":1723000000000,"state":"active","ping":114},{"user_id":24,"name":"Cepheid","steam_id":76561198093333511,"connected_time":1715000000000,"state":"active","ping":73},{"user_id":48,"name":"Pyro410","steam_id":76561199241277109,"connected_time":289000000000,"state":"active","ping":78},{"user_id":46,"name":"Bad Hombre","steam_id":76561198046559176,"connected_time":744000000000,"state":"active","ping":65},{"user_id":30,"name":"DannyM","steam_id":76561198351165570,"connected_time":1630000000000,"state":"active","ping":39},{"user_id":29,"name":"Zymiren","steam_id":76561198054985471,"connected_time":1653000000000,"state":"active","ping":104},{"user_id":31,"name":"keffers","steam_id":76561198202338796,"connected_time":1625000000000,"state":"active","ping":75},{"user_id":47,"name":"cheeks","steam_id":76561197993371179,"connected_time":632000000000,"state":"active","ping":77},{"user_id":43,"name":"mr. nine","steam_id":76561198097599414,"connected_time":1231000000000,"state":"active","ping":99},{"user_id":34,"name":"ramalama ding dong","steam_id":76561198321264704,"connected_time":1548000000000,"state":"active","ping":83},{"user_id":35,"name":"Boxxed","steam_id":76561198255787237,"connected_time":1543000000000,"state":"active","ping":49}]},{"server_id":108,"name":"Uncletopia | Dallas | 2 | All Maps","name_short":"dal-2","host":"dal-1.us.uncletopia.com","port":27025,"enabled":true,"region":"us-central","cc":"us","latitude":32.779167,"longitude":-96.80889,"reserved":0,"last_update":"0001-01-01T00:00:00Z","name_a2s":"Uncletopia | Dallas | 2 | All Maps","protocol":17,"map":"koth_highpass","folder":"tf","game":"Team Fortress","app_id":440,"player_count":0,"max_players":24,"Bots":0,"server_type":"Dedicated","server_os":"Linux","password":true,"vac":true,"version":"7757534","steam_id":85568392924469988,"keywords":["cp","nocrits","nodmgspread","uncletopia"],"game_id":440,"stv_port":27026,"stv_name":"Uncletopia | Dallas | 2 | All Maps | STV","players":null},{"server_id":5,"name":"Uncletopia | Frankfurt | 1 | All Maps","name_short":"frk-1","host":"frk-1.de.uncletopia.com","port":27015,"enabled":true,"region":"eu","cc":"de","latitude":50.110924,"longitude":8.682127,"reserved":0,"last_update":"0001-01-01T00:00:00Z","name_a2s":"Uncletopia | Frankfurt | 1 | All Maps","protocol":17,"map":"pl_badwater","folder":"tf","game":"Team Fortress","app_id":440,"player_count":24,"max_players":24,"Bots":0,"server_type":"Dedicated","server_os":"Linux","password":true,"vac":true,"version":"7757534","steam_id":85568392924469989,"keywords":["nocrits","nodmgspread","payload","uncletopia"],"game_id":440,"stv_port":27016,"stv_name":"Uncletopia | Frankfurt | 1 | All Maps | STV","players":[{"user_id":255,"name":"MoistMomMauler","steam_id":76561198069359049,"connected_time":3772000000000,"state":"active","ping":87},{"user_id":303,"name":"hellrunner","steam_id":76561198205309695,"connected_time":1571000000000,"state":"active","ping":85},{"user_id":276,"name":"PrimeTarget","steam_id":76561198046409289,"connected_time":3172000000000,"state":"active","ping":79},{"user_id":271,"name":"Nykristen nykterist","steam_id":76561198106133548,"connected_time":3225000000000,"state":"active","ping":60},{"user_id":300,"name":"guiseppe","steam_id":76561198046129681,"connected_time":1619000000000,"state":"active","ping":97},{"user_id":302,"name":"fifty hoes","steam_id":76561198097712283,"connected_time":1588000000000,"state":"active","ping":99},{"user_id":297,"name":"playing while wearing crocs.","steam_id":76561198139404261,"connected_time":1893000000000,"state":"active","ping":67},{"user_id":312,"name":"Bobo","steam_id":76561198052308399,"connected_time":621000000000,"state":"active","ping":59},{"user_id":261,"name":"nike-al jackson","steam_id":76561198023211417,"connected_time":3610000000000,"state":"active","ping":63},{"user_id":308,"name":"better call selo","steam_id":76561198976793469,"connected_time":1341000000000,"state":"active","ping":92},{"user_id":315,"name":"FWDTRKR","steam_id":76561198060369427,"connected_time":491000000000,"state":"active","ping":137},{"user_id":318,"name":"Doriian","steam_id":76561198071438810,"connected_time":297000000000,"state":"active","ping":76},{"user_id":262,"name":"holy nikege","steam_id":76561198256619964,"connected_time":3605000000000,"state":"active","ping":80},{"user_id":295,"name":"Clitorina","steam_id":76561198077570815,"connected_time":1947000000000,"state":"active","ping":59},{"user_id":313,"name":"pineappleguy05","steam_id":76561199144546264,"connected_time":516000000000,"state":"active","ping":85},{"user_id":316,"name":"продажный сын шл\ufffd","steam_id":76561198163244605,"connected_time":488000000000,"state":"active","ping":70},{"user_id":293,"name":"M.L.JEW","steam_id":76561198997375055,"connected_time":2038000000000,"state":"active","ping":180},{"user_id":305,"name":"Chikapu Xek #savetf2","steam_id":76561198428023493,"connected_time":1485000000000,"state":"active","ping":88},{"user_id":319,"name":"「◆Raku• 」","steam_id":76561198059283183,"connected_time":190000000000,"state":"active","ping":75},{"user_id":212,"name":"Conan the Librarian","steam_id":76561198007224654,"connected_time":7042000000000,"state":"active","ping":55},{"user_id":294,"name":"Marty™","steam_id":76561198060073673,"connected_time":1983000000000,"state":"active","ping":65},{"user_id":317,"name":"BROOMSTER","steam_id":76561198344833818,"connected_time":479000000000,"state":"active","ping":86},{"user_id":291,"name":"FiricelSolos123","steam_id":76561198901014065,"connected_time":2332000000000,"state":"active","ping":83},{"user_id":307,"name":"Mad Cat Kivima","steam_id":76561198028959678,"connected_time":1421000000000,"state":"active","ping":97}]},{"server_id":110,"name":"Uncletopia | Frankfurt | 2 | All Maps","name_short":"frk-2","host":"frk-1.de.uncletopia.com","port":27025,"enabled":true,"region":"eu","cc":"de","latitude":50.110924,"longitude":8.682127,"reserved":0,"last_update":"0001-01-01T00:00:00Z","name_a2s":"Uncletopia | Frankfurt | 2 | All Maps","protocol":17,"map":"koth_lakeside_final","folder":"tf","game":"Team Fortress","app_id":440,"player_count":9,"max_players":24,"Bots":0,"server_type":"Dedicated","server_os":"Linux","password":true,"vac":true,"version":"7757534","steam_id":85568392924469990,"keywords":["cp","nocrits","nodmgspread","uncletopia"],"game_id":440,"stv_port":27026,"stv_name":"Uncletopia | Frankfurt | 2 | All Maps | STV","players":[{"user_id":41,"name":"fried","steam_id":76561198307522022,"connected_time":1973000000000,"state":"active","ping":46},{"user_id":42,"name":"JoueurFrançais","steam_id":76561198108081068,"connected_time":1038000000000,"state":"active","ping":66},{"user_id":43,"name":"Snortman","steam_id":76561199012566222,"connected_time":1025000000000,"state":"active","ping":49},{"user_id":44,"name":"SisuUkko","steam_id":76561198321850428,"connected_time":762000000000,"state":"active","ping":93},{"user_id":45,"name":"Mata","steam_id":76561198308191713,"connected_time":739000000000,"state":"active","ping":56},{"user_id":46,"name":"Pixel_Flamex","steam_id":76561198398929110,"connected_time":610000000000,"state":"active","ping":134},{"user_id":47,"name":"Garden Freeman","steam_id":76561199073314677,"connected_time":539000000000,"state":"active","ping":73},{"user_id":48,"name":"SirNeeco \u003c3","steam_id":76561198103014203,"connected_time":507000000000,"state":"active","ping":47},{"user_id":50,"name":"Uriri","steam_id":76561198085588686,"connected_time":267000000000,"state":"active","ping":83}]},{"server_id":308,"name":"Uncletopia | Frankfurt | 3 | All Maps","name_short":"frk-3","host":"frk-1.de.uncletopia.com","port":27035,"enabled":true,"region":"eu","cc":"de","latitude":50.110924,"longitude":8.682127,"reserved":0,"last_update":"0001-01-01T00:00:00Z","name_a2s":"Uncletopia | Frankfurt | 3 | All Maps","protocol":17,"map":"pl_snowycoast","folder":"tf","game":"Team Fortress","app_id":440,"player_count":24,"max_players":24,"Bots":0,"server_type":"Dedicated","server_os":"Linux","password":true,"vac":true,"version":"7757534","steam_id":85568392924504274,"keywords":["nocrits","nodmgspread","payload","uncletopia"],"game_id":440,"stv_port":27036,"stv_name":"Uncletopia | Frankfurt | 3 | All Maps | STV","players":[{"user_id":162,"name":"󠀡󠀡","steam_id":76561198015585266,"connected_time":4564000000000,"state":"active","ping":76},{"user_id":187,"name":"remove trains","steam_id":76561199433578516,"connected_time":2110000000000,"state":"active","ping":76},{"user_id":188,"name":"I AM DISTRAUGHT","steam_id":76561198101030386,"connected_time":2102000000000,"state":"active","ping":80},{"user_id":189,"name":"xenia","steam_id":76561198062107879,"connected_time":2097000000000,"state":"active","ping":75},{"user_id":203,"name":"(wm) Das Fleisch","steam_id":76561198001250715,"connected_time":1492000000000,"state":"active","ping":55},{"user_id":205,"name":"skiety","steam_id":76561198126524735,"connected_time":1328000000000,"state":"active","ping":74},{"user_id":197,"name":"TSx* Osa__PL","steam_id":76561198027016799,"connected_time":1850000000000,"state":"active","ping":69},{"user_id":168,"name":"aksu","steam_id":76561198083955517,"connected_time":4091000000000,"state":"active","ping":74},{"user_id":190,"name":"Steen","steam_id":76561198122992510,"connected_time":2036000000000,"state":"active","ping":45},{"user_id":153,"name":"Seb, Comrade","steam_id":76561198040279587,"connected_time":4960000000000,"state":"active","ping":89},{"user_id":204,"name":"XeniasPimp","steam_id":76561198126398022,"connected_time":1355000000000,"state":"active","ping":71},{"user_id":213,"name":"cowboy","steam_id":76561198080361351,"connected_time":397000000000,"state":"active","ping":59},{"user_id":206,"name":"TSx* {Demon-Angel}","steam_id":76561198151486463,"connected_time":1069000000000,"state":"active","ping":80},{"user_id":184,"name":"Big Trader","steam_id":76561197992364667,"connected_time":2736000000000,"state":"active","ping":78},{"user_id":183,"name":"Rimx","steam_id":76561198053034840,"connected_time":3233000000000,"state":"active","ping":93},{"user_id":208,"name":"DN77","steam_id":76561199121396324,"connected_time":1043000000000,"state":"active","ping":102},{"user_id":195,"name":"LeP0tato","steam_id":76561198077615937,"connected_time":1868000000000,"state":"active","ping":58},{"user_id":86,"name":"Ach Wheesht","steam_id":76561197996993222,"connected_time":9905000000000,"state":"active","ping":60},{"user_id":186,"name":"medicinal man","steam_id":76561198202668788,"connected_time":2640000000000,"state":"active","ping":56},{"user_id":212,"name":"beurgeur","steam_id":76561198872426314,"connected_time":557000000000,"state":"active","ping":45},{"user_id":199,"name":"TSx* Naxer","steam_id":76561198011986779,"connected_time":1829000000000,"state":"active","ping":68},{"user_id":200,"name":"Motley_","steam_id":76561198116057976,"connected_time":1828000000000,"state":"active","ping":53},{"user_id":209,"name":"upisfree","steam_id":76561198064037857,"connected_time":1040000000000,"state":"active","ping":137},{"user_id":167,"name":"SocialistBacon","steam_id":76561198055872267,"connected_time":4386000000000,"state":"active","ping":68}]},{"server_id":309,"name":"Uncletopia | Frankfurt | 4 | All Maps","name_short":"frk-4","host":"frk-1.de.uncletopia.com","port":27045,"enabled":true,"region":"eu","cc":"de","latitude":50.110924,"longitude":8.682127,"reserved":0,"last_update":"0001-01-01T00:00:00Z","name_a2s":"Uncletopia | Frankfurt | 4 | All Maps","protocol":17,"map":"koth_highpass","folder":"tf","game":"Team Fortress","app_id":440,"player_count":21,"max_players":24,"Bots":0,"server_type":"Dedicated","server_os":"Linux","password":true,"vac":true,"version":"7757534","steam_id":85568392924504275,"keywords":["cp","nocrits","nodmgspread","uncletopia"],"game_id":440,"stv_port":27046,"stv_name":"Uncletopia | Frankfurt | 4 | All Maps | STV","players":[{"user_id":74,"name":"BigZZZ","steam_id":76561197998461614,"connected_time":2708000000000,"state":"active","ping":77},{"user_id":102,"name":"Mugelzz","steam_id":76561198048528709,"connected_time":1668000000000,"state":"active","ping":117},{"user_id":110,"name":"AfroCookie","steam_id":76561198138362851,"connected_time":1050000000000,"state":"active","ping":90},{"user_id":120,"name":"thebananabomb00","steam_id":76561198296409283,"connected_time":170000000000,"state":"active","ping":77},{"user_id":100,"name":"scrumpyknight tf2","steam_id":76561199165355017,"connected_time":1755000000000,"state":"active","ping":104},{"user_id":116,"name":"Blanx","steam_id":76561198013732787,"connected_time":502000000000,"state":"active","ping":57},{"user_id":111,"name":"Trilrok","steam_id":76561198066609321,"connected_time":966000000000,"state":"active","ping":121},{"user_id":119,"name":"Kuntmeister","steam_id":76561198016076012,"connected_time":389000000000,"state":"active","ping":128},{"user_id":108,"name":"Torttu","steam_id":76561198013980029,"connected_time":1266000000000,"state":"active","ping":60},{"user_id":126,"name":"Soulman25 (FIN)","steam_id":76561198103611974,"connected_time":17000000000,"state":"active","ping":98},{"user_id":107,"name":"nibs","steam_id":76561198040099538,"connected_time":1614000000000,"state":"active","ping":85},{"user_id":127,"name":"hater","steam_id":76561199433913089,"connected_time":9000000000,"state":"spawning","ping":74},{"user_id":122,"name":"MatesThePlayer","steam_id":76561198066156449,"connected_time":111000000000,"state":"active","ping":53},{"user_id":123,"name":"loveless","steam_id":76561198142256651,"connected_time":92000000000,"state":"active","ping":90},{"user_id":124,"name":"twitch.tv/awoolensleevelet","steam_id":76561198051476520,"connected_time":67000000000,"state":"active","ping":60},{"user_id":75,"name":"used dog salesman","steam_id":76561198047828651,"connected_time":2697000000000,"state":"active","ping":66},{"user_id":114,"name":"Cristiano Ronaldo Jr","steam_id":76561199472168464,"connected_time":627000000000,"state":"active","ping":129},{"user_id":92,"name":"Fishpower5","steam_id":76561198194742647,"connected_time":2068000000000,"state":"active","ping":64},{"user_id":118,"name":"kotamine","steam_id":76561198068907991,"connected_time":408000000000,"state":"active","ping":72},{"user_id":115,"name":"panakid","steam_id":76561198364121077,"connected_time":617000000000,"state":"active","ping":99},{"user_id":95,"name":"kornetov.vitalya","steam_id":76561199286034833,"connected_time":2052000000000,"state":"active","ping":109}]},{"server_id":310,"name":"Uncletopia | Frankfurt | 5 | All Maps","name_short":"frk-5","host":"frk-1.de.uncletopia.com","port":27055,"enabled":true,"region":"eu","cc":"de","latitude":50.110924,"longitude":8.682127,"reserved":0,"last_update":"0001-01-01T00:00:00Z","name_a2s":"Uncletopia | Frankfurt | 5 | All Maps","protocol":17,"map":"pl_borneo","folder":"tf","game":"Team Fortress","app_id":440,"player_count":24,"max_players":24,"Bots":0,"server_type":"Dedicated","server_os":"Linux","password":true,"vac":true,"version":"7757534","steam_id":85568392924504277,"keywords":["nocrits","nodmgspread","payload","uncletopia"],"game_id":440,"stv_port":27056,"stv_name":"Uncletopia | Frankfurt | 5 | All Maps | STV","players":[{"user_id":271,"name":"malebranch","steam_id":76561198171177823,"connected_time":493000000000,"state":"active","ping":90},{"user_id":259,"name":"ant753","steam_id":76561198103458889,"connected_time":1322000000000,"state":"active","ping":75},{"user_id":265,"name":"XavierSweet","steam_id":76561198091781913,"connected_time":1021000000000,"state":"active","ping":80},{"user_id":244,"name":"Kotlin","steam_id":76561198443331716,"connected_time":1696000000000,"state":"active","ping":132},{"user_id":245,"name":"miami","steam_id":76561198452111945,"connected_time":1680000000000,"state":"active","ping":69},{"user_id":262,"name":"KajaStorm","steam_id":76561199215842872,"connected_time":1234000000000,"state":"active","ping":153},{"user_id":246,"name":"luckyastroman","steam_id":76561199027500574,"connected_time":1675000000000,"state":"active","ping":76},{"user_id":272,"name":"its me hi im the problem","steam_id":76561198097507847,"connected_time":489000000000,"state":"active","ping":74},{"user_id":247,"name":"L.M.","steam_id":76561198836754631,"connected_time":1674000000000,"state":"active","ping":84},{"user_id":250,"name":"Dispenser (Lopata)","steam_id":76561198820264239,"connected_time":1664000000000,"state":"active","ping":89},{"user_id":248,"name":"static","steam_id":76561198836825741,"connected_time":1673000000000,"state":"active","ping":77},{"user_id":238,"name":"Athomix","steam_id":76561198170108402,"connected_time":1920000000000,"state":"active","ping":90},{"user_id":251,"name":"• Valles","steam_id":76561198963625196,"connected_time":1659000000000,"state":"active","ping":83},{"user_id":133,"name":"Penis Contortionist","steam_id":76561198073663784,"connected_time":9855000000000,"state":"active","ping":49},{"user_id":239,"name":"minespweper ☆","steam_id":76561199096919345,"connected_time":1916000000000,"state":"active","ping":72},{"user_id":264,"name":"Tataffe","steam_id":76561198042048259,"connected_time":1213000000000,"state":"active","ping":68},{"user_id":226,"name":"benifis163","steam_id":76561198420973492,"connected_time":2956000000000,"state":"active","ping":106},{"user_id":253,"name":"/hm/","steam_id":76561199213268288,"connected_time":1618000000000,"state":"active","ping":75},{"user_id":254,"name":"Fat Pigeon","steam_id":76561198817940142,"connected_time":1563000000000,"state":"active","ping":55},{"user_id":235,"name":"Arcader","steam_id":76561198109860110,"connected_time":2554000000000,"state":"active","ping":55},{"user_id":232,"name":"Landsknecht","steam_id":76561199293036742,"connected_time":2869000000000,"state":"active","ping":51},{"user_id":241,"name":"ali.","steam_id":76561198148359093,"connected_time":1913000000000,"state":"active","ping":50},{"user_id":255,"name":"Mussolini","steam_id":76561198218384865,"connected_time":1546000000000,"state":"active","ping":107},{"user_id":267,"name":"Gabys","steam_id":76561198282892553,"connected_time":982000000000,"state":"active","ping":75}]},{"server_id":311,"name":"Uncletopia | Frankfurt | 6 | All Maps","name_short":"frk-6","host":"frk-1.de.uncletopia.com","port":27065,"enabled":true,"region":"eu","cc":"de","latitude":50.110924,"longitude":8.682127,"reserved":0,"last_update":"0001-01-01T00:00:00Z","name_a2s":"Uncletopia | Frankfurt | 6 | All Maps","protocol":17,"map":"cp_gullywash_final1","folder":"tf","game":"Team Fortress","app_id":440,"player_count":24,"max_players":24,"Bots":0,"server_type":"Dedicated","server_os":"Linux","password":true,"vac":true,"version":"7757534","steam_id":85568392924504278,"keywords":["cp","nocrits","nodmgspread","uncletopia"],"game_id":440,"stv_port":27066,"stv_name":"Uncletopia | Frankfurt | 6 | All Maps | STV","players":[{"user_id":190,"name":"Fragirl","steam_id":76561198323411853,"connected_time":338000000000,"state":"active","ping":74},{"user_id":151,"name":"Orochi","steam_id":76561198265192382,"connected_time":2978000000000,"state":"active","ping":64},{"user_id":176,"name":"Laki","steam_id":76561198126078953,"connected_time":1333000000000,"state":"active","ping":133},{"user_id":182,"name":"Deckard","steam_id":76561198004704647,"connected_time":481000000000,"state":"active","ping":81},{"user_id":188,"name":"kag","steam_id":76561198059813166,"connected_time":386000000000,"state":"active","ping":64},{"user_id":160,"name":"Silva_mlon","steam_id":76561199310242047,"connected_time":2305000000000,"state":"active","ping":71},{"user_id":184,"name":"The Witch-Finder General","steam_id":76561198375599872,"connected_time":455000000000,"state":"active","ping":79},{"user_id":161,"name":"d u k k i","steam_id":76561198071807437,"connected_time":2294000000000,"state":"active","ping":86},{"user_id":150,"name":"NaN","steam_id":76561198071098413,"connected_time":3008000000000,"state":"active","ping":49},{"user_id":128,"name":"Nick","steam_id":76561198036109469,"connected_time":5233000000000,"state":"active","ping":83},{"user_id":185,"name":"EchoHunter","steam_id":76561199165491231,"connected_time":422000000000,"state":"active","ping":162},{"user_id":192,"name":"eToro investor","steam_id":76561199045301003,"connected_time":217000000000,"state":"active","ping":99},{"user_id":193,"name":"The Wolf Leader","steam_id":76561198038007462,"connected_time":181000000000,"state":"active","ping":64},{"user_id":164,"name":"Hermit_","steam_id":76561198013807290,"connected_time":2226000000000,"state":"active","ping":174},{"user_id":178,"name":"Joeseph Gobble Dick","steam_id":76561199011576146,"connected_time":958000000000,"state":"active","ping":99},{"user_id":173,"name":"KeanuCheems","steam_id":76561198145580689,"connected_time":1930000000000,"state":"active","ping":71},{"user_id":180,"name":"Michael","steam_id":76561198003146906,"connected_time":643000000000,"state":"active","ping":66},{"user_id":187,"name":"chainsmoking behind the subway","steam_id":76561198101292843,"connected_time":398000000000,"state":"active","ping":46},{"user_id":189,"name":"the guy","steam_id":76561199471131298,"connected_time":380000000000,"state":"active","ping":89},{"user_id":169,"name":"zek","steam_id":76561198862763731,"connected_time":2199000000000,"state":"active","ping":57},{"user_id":175,"name":"Himmelsstürmer","steam_id":76561198012699793,"connected_time":1470000000000,"state":"active","ping":87},{"user_id":142,"name":"雲","steam_id":76561198111134021,"connected_time":4087000000000,"state":"active","ping":111},{"user_id":170,"name":"After8","steam_id":76561198090750865,"connected_time":2195000000000,"state":"active","ping":62},{"user_id":191,"name":"makiverem","steam_id":76561198425866216,"connected_time":315000000000,"state":"active","ping":84}]},{"server_id":23,"name":"Uncletopia | Frankfurt | 7 | Stopwatch Beta","name_short":"frk-7","host":"frk-1.de.uncletopia.com","port":27075,"enabled":true,"region":"eu","cc":"de","latitude":50.110924,"longitude":8.682127,"reserved":0,"last_update":"0001-01-01T00:00:00Z","name_a2s":"Uncletopia | Frankfurt | 7 | Stopwatch Beta","protocol":17,"map":"workshop/koth_clearcut_b15.ugc2107050255","folder":"tf","game":"Team Fortress","app_id":440,"player_count":2,"max_players":24,"Bots":0,"server_type":"Dedicated","server_os":"Linux","password":true,"vac":true,"version":"7757534","steam_id":85568392924742827,"keywords":["cp","nocrits","nodmgspread","uncletopia"],"game_id":440,"stv_port":27076,"stv_name":"Uncletopia | Frankfurt | 7 | Stopwatch Beta | STV","players":[{"user_id":55,"name":"BookKouy","steam_id":76561199446431633,"connected_time":1076000000000,"state":"active","ping":66},{"user_id":49,"name":"old birb man","steam_id":76561199410269097,"connected_time":3270000000000,"state":"active","ping":229}]},{"server_id":24,"name":"Uncletopia | Frankfurt | 8 | Community","name_short":"frk-8","host":"frk-1.de.uncletopia.com","port":27085,"enabled":true,"region":"eu","cc":"de","latitude":50.110924,"longitude":8.682127,"reserved":0,"last_update":"0001-01-01T00:00:00Z","name_a2s":"Uncletopia | Frankfurt | 8 | Community","protocol":17,"map":"workshop/pl_shoreleave_rc1.ugc1238849347","folder":"tf","game":"Team Fortress","app_id":440,"player_count":0,"max_players":24,"Bots":0,"server_type":"Dedicated","server_os":"Linux","password":true,"vac":true,"version":"7757534","steam_id":85568392924742828,"keywords":["nocrits","nodmgspread","payload","uncletopia"],"game_id":440,"stv_port":27086,"stv_name":"Uncletopia | Frankfurt | 8 | Community | STV","players":null},{"server_id":202,"name":"Uncletopia | Hong Kong | 1 | All Maps","name_short":"hgk-1","host":"hgk-1.hk.uncletopia.com","port":27015,"enabled":true,"region":"asia","cc":"hk","latitude":22.302711,"longitude":114.177216,"reserved":0,"last_update":"0001-01-01T00:00:00Z","name_a2s":"Uncletopia | Hong Kong | 1 | All Maps","protocol":17,"map":"koth_cascade","folder":"tf","game":"Team Fortress","app_id":440,"player_count":0,"max_players":24,"Bots":0,"server_type":"Dedicated","server_os":"Linux","password":true,"vac":true,"version":"7757534","steam_id":85568392924494504,"keywords":["cp","nocrits","nodmgspread","uncletopia"],"game_id":440,"stv_port":27016,"stv_name":"Uncletopia | Hong Kong | 1 | All Maps | STV","players":null},{"server_id":1,"name":"Uncletopia | Los Angeles | 1 | All Maps","name_short":"lax-1","host":"lax-1.us.uncletopia.com","port":27015,"enabled":true,"region":"us-west","cc":"us","latitude":33.94279,"longitude":-118.41004,"reserved":0,"last_update":"0001-01-01T00:00:00Z","name_a2s":"Uncletopia | Los Angeles | 1 | All Maps","protocol":17,"map":"koth_lakeside_final","folder":"tf","game":"Team Fortress","app_id":440,"player_count":0,"max_players":24,"Bots":0,"server_type":"Dedicated","server_os":"Linux","password":true,"vac":true,"version":"7757534","steam_id":85568392924469991,"keywords":["cp","nocrits","nodmgspread","uncletopia"],"game_id":440,"stv_port":27016,"stv_name":"Uncletopia | Los Angeles | 1 | All Maps | STV","players":null},{"server_id":112,"name":"Uncletopia | Los Angeles | 2 | All Maps","name_short":"lax-2","host":"lax-1.us.uncletopia.com","port":27025,"enabled":true,"region":"us-west","cc":"us","latitude":33.94279,"longitude":-118.41004,"reserved":0,"last_update":"0001-01-01T00:00:00Z","name_a2s":"Uncletopia | Los Angeles | 2 | All Maps","protocol":17,"map":"koth_cascade","folder":"tf","game":"Team Fortress","app_id":440,"player_count":0,"max_players":24,"Bots":0,"server_type":"Dedicated","server_os":"Linux","password":true,"vac":true,"version":"7757534","steam_id":85568392924469992,"keywords":["cp","nocrits","nodmgspread","uncletopia"],"game_id":440,"stv_port":27026,"stv_name":"Uncletopia | Los Angeles | 2 | All Maps | STV","players":null},{"server_id":324,"name":"Uncletopia | Los Angeles | 3 | All Maps","name_short":"lax-3","host":"lax-1.us.uncletopia.com","port":27035,"enabled":true,"region":"us-west","cc":"us","latitude":33.94279,"longitude":-118.41004,"reserved":0,"last_update":"0001-01-01T00:00:00Z","name_a2s":"Uncletopia | Los Angeles | 3 | All Maps","protocol":17,"map":"pl_pier","folder":"tf","game":"Team Fortress","app_id":440,"player_count":0,"max_players":24,"Bots":0,"server_type":"Dedicated","server_os":"Linux","password":true,"vac":true,"version":"7757534","steam_id":85568392924510198,"keywords":["nocrits","nodmgspread","payload","uncletopia"],"game_id":440,"stv_port":27036,"stv_name":"Uncletopia | Los Angeles | 3 | All Maps | STV","players":null},{"server_id":25,"name":"Uncletopia | Los Angeles | 4 | Stopwatch Beta","name_short":"lax-4","host":"lax-1.us.uncletopia.com","port":27045,"enabled":true,"region":"us-west","cc":"us","latitude":33.94279,"longitude":-118.41004,"reserved":0,"last_update":"0001-01-01T00:00:00Z","name_a2s":"Uncletopia | Los Angeles | 4 | Stopwatch Beta","protocol":17,"map":"pl_frontier_final","folder":"tf","game":"Team Fortress","app_id":440,"player_count":0,"max_players":24,"Bots":0,"server_type":"Dedicated","server_os":"Linux","password":true,"vac":true,"version":"7757534","steam_id":85568392924510199,"keywords":["nocrits","nodmgspread","payload","uncletopia"],"game_id":440,"stv_port":27046,"stv_name":"Uncletopia | Los Angeles | 4 | Stopwatch Beta | STV","players":null},{"server_id":11,"name":"Uncletopia | London | 1 | All Maps","name_short":"lon-1","host":"lon-1.uk.uncletopia.com","port":27015,"enabled":true,"region":"eu","cc":"gb","latitude":51.509865,"longitude":-0.118092,"reserved":0,"last_update":"0001-01-01T00:00:00Z","name_a2s":"Uncletopia | London | 1 | All Maps","protocol":17,"map":"pl_badwater","folder":"tf","game":"Team Fortress","app_id":440,"player_count":25,"max_players":24,"Bots":0,"server_type":"Dedicated","server_os":"Linux","password":true,"vac":true,"version":"7757534","steam_id":85568392924367362,"keywords":["nocrits","nodmgspread","payload","uncletopia"],"game_id":440,"stv_port":27016,"stv_name":"Uncletopia | London | 1 | All Maps | STV","players":[{"user_id":424,"name":"Dolcelatte","steam_id":76561198038501770,"connected_time":3007000000000,"state":"active","ping":61},{"user_id":407,"name":"Yassine","steam_id":76561198140565712,"connected_time":3622000000000,"state":"active","ping":58},{"user_id":440,"name":"dongus","steam_id":76561198042774930,"connected_time":1516000000000,"state":"active","ping":69},{"user_id":452,"name":"TheKlin","steam_id":76561198032331453,"connected_time":437000000000,"state":"active","ping":86},{"user_id":429,"name":"nils","steam_id":76561198254882979,"connected_time":2589000000000,"state":"active","ping":63},{"user_id":454,"name":"テイルス","steam_id":76561198022403271,"connected_time":422000000000,"state":"active","ping":53},{"user_id":457,"name":"goktwoxd","steam_id":76561198065114415,"connected_time":353000000000,"state":"active","ping":90},{"user_id":448,"name":"duchess abigail","steam_id":76561198166953966,"connected_time":707000000000,"state":"active","ping":73},{"user_id":376,"name":"V FOR VLASOV","steam_id":76561198306663190,"connected_time":5783000000000,"state":"active","ping":119},{"user_id":442,"name":"FairlyFatFungus","steam_id":76561199152828854,"connected_time":1387000000000,"state":"active","ping":51},{"user_id":387,"name":"Lessoz","steam_id":76561199211572036,"connected_time":5339000000000,"state":"active","ping":95},{"user_id":449,"name":"Gio'sMonkey","steam_id":76561198892432223,"connected_time":702000000000,"state":"active","ping":92},{"user_id":433,"name":"Michi ❀","steam_id":76561198972047944,"connected_time":2376000000000,"state":"active","ping":50},{"user_id":416,"name":"Farpy","steam_id":76561199215689154,"connected_time":3511000000000,"state":"active","ping":60},{"user_id":451,"name":"etc","steam_id":76561197998394797,"connected_time":457000000000,"state":"active","ping":63},{"user_id":458,"name":"just a cat","steam_id":76561198328023740,"connected_time":342000000000,"state":"active","ping":62},{"user_id":450,"name":"Dirt Road","steam_id":76561198210372012,"connected_time":702000000000,"state":"active","ping":138},{"user_id":445,"name":"Shimo","steam_id":76561199061086990,"connected_time":1062000000000,"state":"active","ping":74},{"user_id":447,"name":"walking plane","steam_id":76561198146779559,"connected_time":969000000000,"state":"active","ping":104},{"user_id":431,"name":"frosty","steam_id":76561198094560834,"connected_time":2531000000000,"state":"active","ping":51},{"user_id":435,"name":"Alpha","steam_id":76561198109061012,"connected_time":2211000000000,"state":"active","ping":73},{"user_id":459,"name":"Leapinglionz11","steam_id":76561199216740065,"connected_time":171000000000,"state":"active","ping":149},{"user_id":456,"name":"OmR","steam_id":76561198015792609,"connected_time":401000000000,"state":"active","ping":68},{"user_id":463,"name":"american soldier","steam_id":76561198248881736,"connected_time":0,"state":"spawning","ping":0},{"user_id":406,"name":"Bone","steam_id":76561198073117364,"connected_time":3639000000000,"state":"active","ping":149}]},{"server_id":114,"name":"Uncletopia | London | 2 | All Maps","name_short":"lon-2","host":"lon-1.uk.uncletopia.com","port":27025,"enabled":true,"region":"eu","cc":"gb","latitude":51.509865,"longitude":-0.118092,"reserved":0,"last_update":"0001-01-01T00:00:00Z","name_a2s":"Uncletopia | London | 2 | All Maps","protocol":17,"map":"pl_badwater","folder":"tf","game":"Team Fortress","app_id":440,"player_count":18,"max_players":24,"Bots":0,"server_type":"Dedicated","server_os":"Linux","password":true,"vac":true,"version":"7757534","steam_id":85568392924470941,"keywords":["nocrits","nodmgspread","payload","uncletopia"],"game_id":440,"stv_port":27026,"stv_name":"Uncletopia | London | 2 | All Maps | STV","players":[{"user_id":444,"name":"rabbitface26","steam_id":76561198327540113,"connected_time":29000000000,"state":"active","ping":290},{"user_id":429,"name":"Coup de Grass","steam_id":76561198011643226,"connected_time":2290000000000,"state":"active","ping":120},{"user_id":434,"name":"Uncle Owen","steam_id":76561198157999291,"connected_time":1472000000000,"state":"active","ping":80},{"user_id":231,"name":"Spajro","steam_id":76561198257383813,"connected_time":13585000000000,"state":"active","ping":60},{"user_id":419,"name":"KFC Enjoyer","steam_id":76561198840259819,"connected_time":3093000000000,"state":"active","ping":61},{"user_id":433,"name":"British Rage","steam_id":76561198009585209,"connected_time":1492000000000,"state":"active","ping":52},{"user_id":319,"name":"Autumnsky","steam_id":76561198055161203,"connected_time":8907000000000,"state":"active","ping":73},{"user_id":436,"name":"frenchie","steam_id":76561198178298931,"connected_time":1437000000000,"state":"active","ping":36},{"user_id":391,"name":"Not Friends","steam_id":76561198043775605,"connected_time":4893000000000,"state":"active","ping":98},{"user_id":406,"name":"punchmypotatoes","steam_id":76561198091255731,"connected_time":3659000000000,"state":"active","ping":53},{"user_id":405,"name":"Mr_Pulse_","steam_id":76561198095001602,"connected_time":3995000000000,"state":"active","ping":116},{"user_id":420,"name":"Oak","steam_id":76561198067315672,"connected_time":3089000000000,"state":"active","ping":45},{"user_id":443,"name":"Swedish Vegan","steam_id":76561198042775020,"connected_time":452000000000,"state":"active","ping":85},{"user_id":401,"name":"wasto-/-™","steam_id":76561198102888038,"connected_time":4265000000000,"state":"active","ping":73},{"user_id":440,"name":"Robbie","steam_id":76561198017504503,"connected_time":902000000000,"state":"active","ping":40},{"user_id":438,"name":"Snokie Boi","steam_id":76561198081126247,"connected_time":1152000000000,"state":"active","ping":67},{"user_id":423,"name":"he's not even good xd","steam_id":76561198148115584,"connected_time":3022000000000,"state":"active","ping":75},{"user_id":287,"name":"def","steam_id":76561198857396812,"connected_time":10429000000000,"state":"active","ping":63}]},{"server_id":320,"name":"Uncletopia | London | 3 | All Maps","name_short":"lon-3","host":"lon-1.uk.uncletopia.com","port":27035,"enabled":true,"region":"eu","cc":"gb","latitude":51.509865,"longitude":-0.118092,"reserved":0,"last_update":"0001-01-01T00:00:00Z","name_a2s":"Uncletopia | London | 3 | All Maps","protocol":17,"map":"pl_pier","folder":"tf","game":"Team Fortress","app_id":440,"player_count":23,"max_players":24,"Bots":0,"server_type":"Dedicated","server_os":"Linux","password":true,"vac":true,"version":"7757534","steam_id":85568392924510192,"keywords":["nocrits","nodmgspread","payload","uncletopia"],"game_id":440,"stv_port":27036,"stv_name":"Uncletopia | London | 3 | All Maps | STV","players":[{"user_id":298,"name":"Gnarville","steam_id":76561198006373329,"connected_time":6155000000000,"state":"active","ping":50},{"user_id":407,"name":"Valoxi","steam_id":76561197995042938,"connected_time":693000000000,"state":"active","ping":77},{"user_id":415,"name":"Setter Ball Gaul","steam_id":76561198130427881,"connected_time":417000000000,"state":"active","ping":182},{"user_id":400,"name":"DigyB","steam_id":76561198014442345,"connected_time":1297000000000,"state":"active","ping":59},{"user_id":391,"name":"kilikia","steam_id":76561198350261670,"connected_time":1603000000000,"state":"active","ping":105},{"user_id":381,"name":"your sister","steam_id":76561198154734428,"connected_time":1788000000000,"state":"active","ping":107},{"user_id":417,"name":"BONK-TEC!","steam_id":76561198272667029,"connected_time":263000000000,"state":"active","ping":53},{"user_id":330,"name":"Rubi","steam_id":76561198139410003,"connected_time":4834000000000,"state":"active","ping":91},{"user_id":379,"name":"Grim the lemon","steam_id":76561199083433988,"connected_time":1851000000000,"state":"active","ping":52},{"user_id":401,"name":"Joseph Stalin","steam_id":76561198033199746,"connected_time":1294000000000,"state":"active","ping":53},{"user_id":411,"name":"Certified Hood pybro (ua)","steam_id":76561198970562699,"connected_time":541000000000,"state":"active","ping":59},{"user_id":404,"name":"Sza","steam_id":76561198022132105,"connected_time":805000000000,"state":"active","ping":77},{"user_id":418,"name":"The Empire Ant","steam_id":76561198082466790,"connected_time":232000000000,"state":"active","ping":66},{"user_id":329,"name":"DrauconeTMDS","steam_id":76561198083510257,"connected_time":4846000000000,"state":"active","ping":55},{"user_id":360,"name":"Blacksheep","steam_id":76561198019621063,"connected_time":2863000000000,"state":"active","ping":52},{"user_id":378,"name":"Bisago!","steam_id":76561198181794353,"connected_time":1906000000000,"state":"active","ping":45},{"user_id":395,"name":"Kaishakunin","steam_id":76561198028123874,"connected_time":1510000000000,"state":"active","ping":104},{"user_id":409,"name":"hut hut","steam_id":76561198088426580,"connected_time":622000000000,"state":"active","ping":62},{"user_id":410,"name":"Komputer1310","steam_id":76561198870066614,"connected_time":596000000000,"state":"active","ping":86},{"user_id":293,"name":"JonTurn","steam_id":76561198128323383,"connected_time":6831000000000,"state":"active","ping":44},{"user_id":412,"name":"profreshional cactus","steam_id":76561198837919828,"connected_time":540000000000,"state":"active","ping":117},{"user_id":337,"name":"Sgreff","steam_id":76561198036304365,"connected_time":4762000000000,"state":"active","ping":45},{"user_id":393,"name":"rock bottom revisited","steam_id":76561198051852765,"connected_time":1569000000000,"state":"active","ping":78}]},{"server_id":321,"name":"Uncletopia | London | 4 | All Maps","name_short":"lon-4","host":"lon-1.uk.uncletopia.com","port":27045,"enabled":true,"region":"eu","cc":"gb","latitude":51.509865,"longitude":-0.118092,"reserved":0,"last_update":"0001-01-01T00:00:00Z","name_a2s":"Uncletopia | London | 4 | All Maps","protocol":17,"map":"koth_viaduct","folder":"tf","game":"Team Fortress","app_id":440,"player_count":0,"max_players":24,"Bots":0,"server_type":"Dedicated","server_os":"Linux","password":true,"vac":true,"version":"7757534","steam_id":85568392924510193,"keywords":["cp","nocrits","nodmgspread","uncletopia"],"game_id":440,"stv_port":27046,"stv_name":"Uncletopia | London | 4 | All Maps | STV","players":null},{"server_id":21,"name":"Uncletopia | London | 5 | All Maps","name_short":"lon-5","host":"lon-1.uk.uncletopia.com","port":27055,"enabled":true,"region":"eu","cc":"gb","latitude":51.509865,"longitude":-0.118092,"reserved":0,"last_update":"0001-01-01T00:00:00Z","name_a2s":"Uncletopia | London | 5 | All Maps","protocol":17,"map":"cp_process_final","folder":"tf","game":"Team Fortress","app_id":440,"player_count":18,"max_players":24,"Bots":0,"server_type":"Dedicated","server_os":"Linux","password":true,"vac":true,"version":"7757534","steam_id":85568392924742829,"keywords":["cp","nocrits","nodmgspread","uncletopia"],"game_id":440,"stv_port":27056,"stv_name":"Uncletopia | London | 5 | All Maps | STV","players":[{"user_id":647,"name":"Dwevy","steam_id":76561198090379437,"connected_time":321000000000,"state":"active","ping":54},{"user_id":616,"name":"ArikMor","steam_id":76561199124472513,"connected_time":2179000000000,"state":"active","ping":122},{"user_id":631,"name":"Anax Alter","steam_id":76561198110249546,"connected_time":1489000000000,"state":"active","ping":111},{"user_id":652,"name":"MR DADDY","steam_id":76561198350794663,"connected_time":16000000000,"state":"spawning","ping":121},{"user_id":624,"name":"Brass beast heavy","steam_id":76561198274197623,"connected_time":2038000000000,"state":"active","ping":73},{"user_id":649,"name":"shmilk man","steam_id":76561199415811716,"connected_time":244000000000,"state":"active","ping":156},{"user_id":563,"name":"Kotlet schabowy","steam_id":76561198048983509,"connected_time":5246000000000,"state":"active","ping":94},{"user_id":630,"name":"snki","steam_id":76561198324048855,"connected_time":1552000000000,"state":"active","ping":45},{"user_id":634,"name":"gibb (official)","steam_id":76561198074097655,"connected_time":1222000000000,"state":"active","ping":30},{"user_id":548,"name":"lumiukko","steam_id":76561199103891073,"connected_time":5822000000000,"state":"active","ping":93},{"user_id":638,"name":"dochris.2","steam_id":76561198026478625,"connected_time":703000000000,"state":"active","ping":55},{"user_id":556,"name":"tqla","steam_id":76561198073092585,"connected_time":5549000000000,"state":"active","ping":99},{"user_id":586,"name":"Miczu555PL","steam_id":76561198058500895,"connected_time":4394000000000,"state":"active","ping":73},{"user_id":646,"name":"Deva Path","steam_id":76561198085763542,"connected_time":414000000000,"state":"active","ping":85},{"user_id":643,"name":"ethan","steam_id":76561198119495513,"connected_time":630000000000,"state":"active","ping":34},{"user_id":641,"name":"que movida","steam_id":76561197966125354,"connected_time":683000000000,"state":"active","ping":70},{"user_id":642,"name":"sareena","steam_id":76561198810194062,"connected_time":681000000000,"state":"active","ping":75},{"user_id":637,"name":"quickfast","steam_id":76561199438900919,"connected_time":929000000000,"state":"active","ping":43}]},{"server_id":22,"name":"Uncletopia | London | 6 | All Maps","name_short":"lon-6","host":"lon-1.uk.uncletopia.com","port":27065,"enabled":true,"region":"eu","cc":"gb","latitude":51.509865,"longitude":-0.118092,"reserved":0,"last_update":"0001-01-01T00:00:00Z","name_a2s":"Uncletopia | London | 6 | All Maps","protocol":17,"map":"koth_cascade","folder":"tf","game":"Team Fortress","app_id":440,"player_count":4,"max_players":24,"Bots":0,"server_type":"Dedicated","server_os":"Linux","password":true,"vac":true,"version":"7757534","steam_id":85568392924742830,"keywords":["cp","nocrits","nodmgspread","uncletopia"],"game_id":440,"stv_port":27066,"stv_name":"Uncletopia | London | 6 | All Maps | STV","players":[{"user_id":16,"name":"Natsuki Titties","steam_id":76561198917121313,"connected_time":1298000000000,"state":"active","ping":112},{"user_id":17,"name":"Maxior","steam_id":76561199229343642,"connected_time":1265000000000,"state":"active","ping":60},{"user_id":19,"name":"Cypher","steam_id":76561199023619899,"connected_time":917000000000,"state":"active","ping":56},{"user_id":21,"name":"Garfailed The Dumbass","steam_id":76561198979140645,"connected_time":769000000000,"state":"active","ping":64}]},{"server_id":40,"name":"Uncletopia | London | 7 | No Payload","name_short":"lon-7","host":"lon-1.uk.uncletopia.com","port":27075,"enabled":true,"region":"eu","cc":"gb","latitude":51.509865,"longitude":-0.118092,"reserved":0,"last_update":"0001-01-01T00:00:00Z","name_a2s":"Uncletopia | London | 7 | No Payload","protocol":17,"map":"plr_bananabay","folder":"tf","game":"Team Fortress","app_id":440,"player_count":0,"max_players":24,"Bots":0,"server_type":"Dedicated","server_os":"Linux","password":true,"vac":true,"version":"7757534","steam_id":85568392924964314,"keywords":["nocrits","nodmgspread","payload","uncletopia"],"game_id":440,"stv_port":27076,"stv_name":"Uncletopia | London | 7 | No Payload | STV","players":null},{"server_id":41,"name":"Uncletopia | London | 8 | Community","name_short":"lon-8","host":"lon-1.uk.uncletopia.com","port":27085,"enabled":true,"region":"eu","cc":"gb","latitude":51.509865,"longitude":-0.118092,"reserved":0,"last_update":"0001-01-01T00:00:00Z","name_a2s":"Uncletopia | London | 8 | Community","protocol":17,"map":"workshop/pl_badwater_pro_v12.ugc2142942074","folder":"tf","game":"Team Fortress","app_id":440,"player_count":0,"max_players":24,"Bots":0,"server_type":"Dedicated","server_os":"Linux","password":true,"vac":true,"version":"7757534","steam_id":85568392924964315,"keywords":["nocrits","nodmgspread","payload","uncletopia"],"game_id":440,"stv_port":27086,"stv_name":"Uncletopia | London | 8 | Community | STV","players":null},{"server_id":300,"name":"Uncletopia | Montréal | 1 | All Maps","name_short":"mtl-1","host":"mtl-1.ca.uncletopia.com","port":27015,"enabled":true,"region":"us-east","cc":"ca","latitude":45.50889,"longitude":-73.56167,"reserved":0,"last_update":"0001-01-01T00:00:00Z","name_a2s":"Uncletopia | Montréal | 1 | All Maps","protocol":17,"map":"pl_snowycoast","folder":"tf","game":"Team Fortress","app_id":440,"player_count":0,"max_players":24,"Bots":0,"server_type":"Dedicated","server_os":"Linux","password":true,"vac":true,"version":"7757534","steam_id":85568392924500087,"keywords":["nocrits","nodmgspread","payload","uncletopia"],"game_id":440,"stv_port":27016,"stv_name":"Uncletopia | Montréal | 1 | All Maps | STV","players":null},{"server_id":301,"name":"Uncletopia | Montréal | 2 | All Maps","name_short":"mtl-2","host":"mtl-1.ca.uncletopia.com","port":27025,"enabled":true,"region":"us-east","cc":"ca","latitude":45.50889,"longitude":-73.56167,"reserved":0,"last_update":"0001-01-01T00:00:00Z","name_a2s":"Uncletopia | Montréal | 2 | All Maps","protocol":17,"map":"pl_snowycoast","folder":"tf","game":"Team Fortress","app_id":440,"player_count":0,"max_players":24,"Bots":0,"server_type":"Dedicated","server_os":"Linux","password":true,"vac":true,"version":"7757534","steam_id":85568392924500088,"keywords":["nocrits","nodmgspread","payload","uncletopia"],"game_id":440,"stv_port":27026,"stv_name":"Uncletopia | Montréal | 2 | All Maps | STV","players":null},{"server_id":302,"name":"Uncletopia | Montréal | 3 | All Maps","name_short":"mtl-3","host":"mtl-1.ca.uncletopia.com","port":27035,"enabled":true,"region":"us-east","cc":"ca","latitude":45.50889,"longitude":-73.56167,"reserved":0,"last_update":"0001-01-01T00:00:00Z","name_a2s":"Uncletopia | Montréal | 3 | All Maps","protocol":17,"map":"cp_snakewater_final1","folder":"tf","game":"Team Fortress","app_id":440,"player_count":0,"max_players":24,"Bots":0,"server_type":"Dedicated","server_os":"Linux","password":true,"vac":true,"version":"7757534","steam_id":85568392924500089,"keywords":["cp","nocrits","nodmgspread","uncletopia"],"game_id":440,"stv_port":27036,"stv_name":"Uncletopia | Montréal | 3 | All Maps | STV","players":null},{"server_id":303,"name":"Uncletopia | Montréal | 4 | No Payload","name_short":"mtl-4","host":"mtl-1.ca.uncletopia.com","port":27045,"enabled":true,"region":"us-east","cc":"ca","latitude":45.50889,"longitude":-73.56167,"reserved":0,"last_update":"0001-01-01T00:00:00Z","name_a2s":"Uncletopia | Montréal | 4 | No Payload","protocol":17,"map":"pl_borneo","folder":"tf","game":"Team Fortress","app_id":440,"player_count":0,"max_players":24,"Bots":0,"server_type":"Dedicated","server_os":"Linux","password":true,"vac":true,"version":"7757534","steam_id":85568392924500090,"keywords":["nocrits","nodmgspread","payload","uncletopia"],"game_id":440,"stv_port":27046,"stv_name":"Uncletopia | Montréal | 4 | No Payload | STV","players":null},{"server_id":13,"name":"Uncletopia | New York City | 1 | All Maps","name_short":"nyc-1","host":"nyc-1.us.uncletopia.com","port":27015,"enabled":true,"region":"us-east","cc":"us","latitude":40.73061,"longitude":-73.93524,"reserved":0,"last_update":"0001-01-01T00:00:00Z","name_a2s":"Uncletopia | New York City | 1 | All Maps","protocol":17,"map":"koth_viaduct","folder":"tf","game":"Team Fortress","app_id":440,"player_count":0,"max_players":24,"Bots":0,"server_type":"Dedicated","server_os":"Linux","password":true,"vac":true,"version":"7757534","steam_id":85568392924469993,"keywords":["cp","nocrits","nodmgspread","uncletopia"],"game_id":440,"stv_port":27016,"stv_name":"Uncletopia | New York City | 1 | All Maps | STV","players":null},{"server_id":14,"name":"Uncletopia | New York City | 2 | All Maps","name_short":"nyc-2","host":"nyc-1.us.uncletopia.com","port":27025,"enabled":true,"region":"us-east","cc":"us","latitude":40.73061,"longitude":-73.93524,"reserved":0,"last_update":"0001-01-01T00:00:00Z","name_a2s":"Uncletopia | New York City | 2 | All Maps","protocol":17,"map":"koth_highpass","folder":"tf","game":"Team Fortress","app_id":440,"player_count":0,"max_players":24,"Bots":0,"server_type":"Dedicated","server_os":"Linux","password":true,"vac":true,"version":"7757534","steam_id":85568392924469994,"keywords":["cp","nocrits","nodmgspread","uncletopia"],"game_id":440,"stv_port":27026,"stv_name":"Uncletopia | New York City | 2 | All Maps | STV","players":null},{"server_id":15,"name":"Uncletopia | New York City | 3 | Stopwatch Beta","name_short":"nyc-3","host":"nyc-1.us.uncletopia.com","port":27035,"enabled":true,"region":"us-east","cc":"us","latitude":40.73061,"longitude":-73.93524,"reserved":0,"last_update":"0001-01-01T00:00:00Z","name_a2s":"Uncletopia | New York City | 3 | Stopwatch Beta","protocol":17,"map":"workshop/cp_process_f12.ugc2302948105","folder":"tf","game":"Team Fortress","app_id":440,"player_count":21,"max_players":24,"Bots":0,"server_type":"Dedicated","server_os":"Linux","password":true,"vac":true,"version":"7757534","steam_id":85568392924742820,"keywords":["cp","nocrits","nodmgspread","uncletopia"],"game_id":440,"stv_port":27036,"stv_name":"Uncletopia | New York City | 3 | Stopwatch Beta | STV","players":[{"user_id":128,"name":"Lost CS player","steam_id":76561198892387723,"connected_time":1480000000000,"state":"active","ping":54},{"user_id":129,"name":"Acro Banwagon","steam_id":76561198092451804,"connected_time":1250000000000,"state":"active","ping":74},{"user_id":140,"name":"rlty","steam_id":76561198009395055,"connected_time":617000000000,"state":"active","ping":48},{"user_id":133,"name":"athletesfoot","steam_id":76561197997331867,"connected_time":738000000000,"state":"active","ping":34},{"user_id":146,"name":"Infinity","steam_id":76561199134919099,"connected_time":69000000000,"state":"active","ping":45},{"user_id":142,"name":"jooce","steam_id":76561198129069834,"connected_time":411000000000,"state":"active","ping":74},{"user_id":147,"name":"Hypno_Flower","steam_id":76561199225893185,"connected_time":0,"state":"spawning","ping":45},{"user_id":122,"name":"citrus","steam_id":76561198294606679,"connected_time":2090000000000,"state":"active","ping":49},{"user_id":141,"name":"Nightfall","steam_id":76561198169718867,"connected_time":542000000000,"state":"active","ping":111},{"user_id":113,"name":"bubblegum kk","steam_id":76561198108685037,"connected_time":2528000000000,"state":"active","ping":85},{"user_id":137,"name":"Nova","steam_id":76561198201444213,"connected_time":677000000000,"state":"active","ping":69},{"user_id":117,"name":"mu","steam_id":76561197997530228,"connected_time":2372000000000,"state":"active","ping":120},{"user_id":144,"name":"Dave The Sloth","steam_id":76561199135831355,"connected_time":315000000000,"state":"active","ping":129},{"user_id":131,"name":"JoBesity","steam_id":76561198036504161,"connected_time":846000000000,"state":"active","ping":111},{"user_id":40,"name":"uVeins","steam_id":76561198067445528,"connected_time":5995000000000,"state":"active","ping":48},{"user_id":145,"name":"ADHDking","steam_id":76561198116099017,"connected_time":298000000000,"state":"active","ping":45},{"user_id":93,"name":"epitome","steam_id":76561198834412436,"connected_time":3911000000000,"state":"active","ping":60},{"user_id":116,"name":"Bother","steam_id":76561198336750909,"connected_time":2439000000000,"state":"active","ping":45},{"user_id":138,"name":"A Trigger Happy Chipmunk","steam_id":76561198013608736,"connected_time":662000000000,"state":"active","ping":55},{"user_id":124,"name":"hot pockets in your area","steam_id":76561198052988988,"connected_time":1972000000000,"state":"active","ping":61},{"user_id":95,"name":"Pine Tree","steam_id":76561198112323877,"connected_time":3864000000000,"state":"active","ping":90}]},{"server_id":16,"name":"Uncletopia | New York City | 4 | Community","name_short":"nyc-4","host":"nyc-1.us.uncletopia.com","port":27045,"enabled":true,"region":"us-east","cc":"us","latitude":40.73061,"longitude":-73.93524,"reserved":0,"last_update":"0001-01-01T00:00:00Z","name_a2s":"Uncletopia | New York City | 4 | Community","protocol":17,"map":"workshop/cp_sulfur_rc2.ugc619869471","folder":"tf","game":"Team Fortress","app_id":440,"player_count":1,"max_players":24,"Bots":0,"server_type":"Dedicated","server_os":"Linux","password":true,"vac":true,"version":"7757534","steam_id":85568392924742821,"keywords":["cp","nocrits","nodmgspread","uncletopia"],"game_id":440,"stv_port":27046,"stv_name":"Uncletopia | New York City | 4 | Community | STV","players":[{"user_id":10,"name":"lizard dancing to lady by hmt","steam_id":76561199447681710,"connected_time":332000000000,"state":"active","ping":75}]},{"server_id":142,"name":"Uncletopia | São Paulo | 1 | All Maps","name_short":"sao-1","host":"sao-1.br.uncletopia.com","port":27015,"enabled":true,"region":"sa","cc":"br","latitude":-23.533773,"longitude":-46.62529,"reserved":0,"last_update":"0001-01-01T00:00:00Z","name_a2s":"Uncletopia | São Paulo | 1 | All Maps","protocol":17,"map":"pl_barnblitz","folder":"tf","game":"Team Fortress","app_id":440,"player_count":1,"max_players":24,"Bots":0,"server_type":"Dedicated","server_os":"Linux","password":true,"vac":true,"version":"7757534","steam_id":85568392924469996,"keywords":["nocrits","nodmgspread","payload","uncletopia"],"game_id":440,"stv_port":27016,"stv_name":"Uncletopia | São Paulo | 1 | All Maps | STV","players":[{"user_id":6,"name":"Kotalbuluc","steam_id":76561199090188453,"connected_time":67000000000,"state":"active","ping":50}]},{"server_id":143,"name":"Uncletopia | São Paulo | 2 | All Maps","name_short":"sao-2","host":"sao-2.br.uncletopia.com","port":27015,"enabled":true,"region":"sa","cc":"br","latitude":-23.533773,"longitude":-46.62529,"reserved":0,"last_update":"0001-01-01T00:00:00Z","name_a2s":"Uncletopia | São Paulo | 2 | All Maps","protocol":17,"map":"pl_swiftwater_final1","folder":"tf","game":"Team Fortress","app_id":440,"player_count":0,"max_players":24,"Bots":0,"server_type":"Dedicated","server_os":"Linux","password":true,"vac":true,"version":"7757534","steam_id":85568392924485349,"keywords":["nocrits","nodmgspread","payload","uncletopia"],"game_id":440,"stv_port":27016,"stv_name":"Uncletopia | São Paulo | 2 | All Maps | STV","players":null},{"server_id":7,"name":"Uncletopia | Seattle | 1 | All Maps","name_short":"sea-1","host":"sea-1.us.uncletopia.com","port":27015,"enabled":true,"region":"us-west","cc":"us","latitude":47.608013,"longitude":-122.33517,"reserved":0,"last_update":"0001-01-01T00:00:00Z","name_a2s":"Uncletopia | Seattle | 1 | All Maps","protocol":17,"map":"koth_viaduct","folder":"tf","game":"Team Fortress","app_id":440,"player_count":0,"max_players":24,"Bots":0,"server_type":"Dedicated","server_os":"Linux","password":true,"vac":true,"version":"7757534","steam_id":85568392924469997,"keywords":["cp","nocrits","nodmgspread","uncletopia"],"game_id":440,"stv_port":27016,"stv_name":"Uncletopia | Seattle | 1 | All Maps | STV","players":null},{"server_id":119,"name":"Uncletopia | Seattle | 2 | All Maps","name_short":"sea-2","host":"sea-1.us.uncletopia.com","port":27025,"enabled":true,"region":"us-west","cc":"us","latitude":47.608013,"longitude":-122.33517,"reserved":0,"last_update":"0001-01-01T00:00:00Z","name_a2s":"Uncletopia | Seattle | 2 | All Maps","protocol":17,"map":"cp_mountainlab","folder":"tf","game":"Team Fortress","app_id":440,"player_count":0,"max_players":24,"Bots":0,"server_type":"Dedicated","server_os":"Linux","password":true,"vac":true,"version":"7757534","steam_id":85568392924469998,"keywords":["cp","nocrits","nodmgspread","uncletopia"],"game_id":440,"stv_port":27026,"stv_name":"Uncletopia | Seattle | 2 | All Maps | STV","players":null},{"server_id":406,"name":"Uncletopia | Seattle | 3 | Stopwatch Beta","name_short":"sea-3","host":"sea-1.us.uncletopia.com","port":27035,"enabled":true,"region":"us-west","cc":"us","latitude":47.608013,"longitude":-122.33517,"reserved":0,"last_update":"0001-01-01T00:00:00Z","name_a2s":"Uncletopia | Seattle | 3 | Stopwatch Beta","protocol":17,"map":"pl_barnblitz","folder":"tf","game":"Team Fortress","app_id":440,"player_count":0,"max_players":24,"Bots":0,"server_type":"Dedicated","server_os":"Linux","password":true,"vac":true,"version":"7757534","steam_id":85568392924515217,"keywords":["nocrits","nodmgspread","payload","uncletopia"],"game_id":440,"stv_port":27036,"stv_name":"Uncletopia | Seattle | 3 | Stopwatch Beta | STV","players":null},{"server_id":17,"name":"Uncletopia | San Francisco | 1 | All Maps","name_short":"sfo-1","host":"sfo-1.us.uncletopia.com","port":27015,"enabled":true,"region":"us-west","cc":"us","latitude":37.77397,"longitude":-122.4313,"reserved":0,"last_update":"0001-01-01T00:00:00Z","name_a2s":"Uncletopia | San Francisco | 1 | All Maps","protocol":17,"map":"pl_pier","folder":"tf","game":"Team Fortress","app_id":440,"player_count":23,"max_players":24,"Bots":0,"server_type":"Dedicated","server_os":"Linux","password":true,"vac":true,"version":"7757534","steam_id":85568392924469999,"keywords":["nocrits","nodmgspread","payload","uncletopia"],"game_id":440,"stv_port":27016,"stv_name":"Uncletopia | San Francisco | 1 | All Maps | STV","players":[{"user_id":241,"name":"Frogzilla","steam_id":76561198077657538,"connected_time":114000000000,"state":"active","ping":78},{"user_id":179,"name":"Mignyanne :3","steam_id":76561198048754056,"connected_time":5163000000000,"state":"active","ping":46},{"user_id":207,"name":"Gull","steam_id":76561198161560332,"connected_time":3062000000000,"state":"active","ping":72},{"user_id":240,"name":"Also UbeR","steam_id":76561198166926843,"connected_time":183000000000,"state":"active","ping":49},{"user_id":215,"name":"ORANGE","steam_id":76561198000401769,"connected_time":2435000000000,"state":"active","ping":65},{"user_id":234,"name":"Çօƒƒҽҽ","steam_id":76561198168096301,"connected_time":586000000000,"state":"active","ping":73},{"user_id":32,"name":"IzzyHoP","steam_id":76561197995927883,"connected_time":16591000000000,"state":"active","ping":68},{"user_id":211,"name":"EOAW","steam_id":76561198310451639,"connected_time":2735000000000,"state":"active","ping":74},{"user_id":202,"name":"Satori Komeiji","steam_id":76561198158211423,"connected_time":3421000000000,"state":"active","ping":51},{"user_id":208,"name":"Dimple","steam_id":76561198980324190,"connected_time":3062000000000,"state":"active","ping":65},{"user_id":235,"name":"danchen104912","steam_id":76561198210314003,"connected_time":581000000000,"state":"active","ping":73},{"user_id":232,"name":"Buswolley","steam_id":76561197995205571,"connected_time":1228000000000,"state":"active","ping":46},{"user_id":180,"name":"Miramar","steam_id":76561198022057653,"connected_time":5122000000000,"state":"active","ping":123},{"user_id":236,"name":"BionicApe","steam_id":76561198154637711,"connected_time":536000000000,"state":"active","ping":57},{"user_id":217,"name":"BLU3","steam_id":76561198059652670,"connected_time":2380000000000,"state":"active","ping":60},{"user_id":237,"name":"b3afy","steam_id":76561198084208649,"connected_time":522000000000,"state":"active","ping":65},{"user_id":231,"name":"Shnakes","steam_id":76561198201649518,"connected_time":1309000000000,"state":"active","ping":74},{"user_id":228,"name":"Protoshake","steam_id":76561198840276176,"connected_time":1976000000000,"state":"active","ping":71},{"user_id":220,"name":"Anyar","steam_id":76561198160174097,"connected_time":2300000000000,"state":"active","ping":82},{"user_id":238,"name":"aon135","steam_id":76561197966931637,"connected_time":346000000000,"state":"active","ping":79},{"user_id":186,"name":"Perfume Department","steam_id":76561198128299594,"connected_time":4562000000000,"state":"active","ping":60},{"user_id":212,"name":"Daz","steam_id":76561198041431938,"connected_time":2638000000000,"state":"active","ping":113},{"user_id":233,"name":"Milotic","steam_id":76561198047995713,"connected_time":1106000000000,"state":"active","ping":72}]},{"server_id":18,"name":"Uncletopia | San Francisco | 2 | All Maps","name_short":"sfo-2","host":"sfo-1.us.uncletopia.com","port":27025,"enabled":true,"region":"us-west","cc":"us","latitude":37.77397,"longitude":-122.4313,"reserved":0,"last_update":"0001-01-01T00:00:00Z","name_a2s":"Uncletopia | San Francisco | 2 | All Maps","protocol":17,"map":"koth_viaduct","folder":"tf","game":"Team Fortress","app_id":440,"player_count":0,"max_players":24,"Bots":0,"server_type":"Dedicated","server_os":"Linux","password":true,"vac":true,"version":"7757534","steam_id":85568392924470000,"keywords":["cp","nocrits","nodmgspread","uncletopia"],"game_id":440,"stv_port":27026,"stv_name":"Uncletopia | San Francisco | 2 | All Maps | STV","players":null},{"server_id":19,"name":"Uncletopia | San Francisco | 3 | Stopwatch Beta","name_short":"sfo-3","host":"sfo-1.us.uncletopia.com","port":27035,"enabled":true,"region":"us-west","cc":"us","latitude":37.77397,"longitude":-122.4313,"reserved":0,"last_update":"0001-01-01T00:00:00Z","name_a2s":"Uncletopia | San Francisco | 3 | Stopwatch Beta","protocol":17,"map":"pl_borneo","folder":"tf","game":"Team Fortress","app_id":440,"player_count":0,"max_players":24,"Bots":0,"server_type":"Dedicated","server_os":"Linux","password":true,"vac":true,"version":"7757534","steam_id":85568392924742824,"keywords":["nocrits","nodmgspread","payload","uncletopia"],"game_id":440,"stv_port":27036,"stv_name":"Uncletopia | San Francisco | 3 | Stopwatch Beta | STV","players":null},{"server_id":20,"name":"Uncletopia | San Francisco | 4 | Community","name_short":"sfo-4","host":"sfo-1.us.uncletopia.com","port":27045,"enabled":true,"region":"us-west","cc":"us","latitude":37.77397,"longitude":-122.4313,"reserved":0,"last_update":"0001-01-01T00:00:00Z","name_a2s":"Uncletopia | San Francisco | 4 | Community","protocol":17,"map":"koth_highpass","folder":"tf","game":"Team Fortress","app_id":440,"player_count":0,"max_players":24,"Bots":0,"server_type":"Dedicated","server_os":"Linux","password":true,"vac":true,"version":"7757534","steam_id":85568392924742826,"keywords":["cp","nocrits","nodmgspread","uncletopia"],"game_id":440,"stv_port":27046,"stv_name":"Uncletopia | San Francisco | 4 | Community | STV","players":null},{"server_id":141,"name":"Uncletopia | Sydney | 1 | All Maps","name_short":"syd-1","host":"syd-1.au.uncletopia.com","port":27015,"enabled":true,"region":"au","cc":"au","latitude":-33.865143,"longitude":151.2099,"reserved":0,"last_update":"0001-01-01T00:00:00Z","name_a2s":"Uncletopia | Sydney | 1 | All Maps","protocol":17,"map":"pl_pier","folder":"tf","game":"Team Fortress","app_id":440,"player_count":0,"max_players":24,"Bots":0,"server_type":"Dedicated","server_os":"Linux","password":true,"vac":true,"version":"7757534","steam_id":85568392924470001,"keywords":["nocrits","nodmgspread","payload","uncletopia"],"game_id":440,"stv_port":27016,"stv_name":"Uncletopia | Sydney | 1 | All Maps | STV","players":null},{"server_id":123,"name":"Uncletopia | Sydney | 2 | All Maps","name_short":"syd-2","host":"syd-1.au.uncletopia.com","port":27025,"enabled":true,"region":"au","cc":"au","latitude":-33.865143,"longitude":151.2099,"reserved":0,"last_update":"0001-01-01T00:00:00Z","name_a2s":"Uncletopia | Sydney | 2 | All Maps","protocol":17,"map":"cp_process_final","folder":"tf","game":"Team Fortress","app_id":440,"player_count":0,"max_players":24,"Bots":0,"server_type":"Dedicated","server_os":"Linux","password":true,"vac":true,"version":"7757534","steam_id":85568392924470002,"keywords":["cp","nocrits","nodmgspread","uncletopia"],"game_id":440,"stv_port":27026,"stv_name":"Uncletopia | Sydney | 2 | All Maps | STV","players":null},{"server_id":395,"name":"Uncletopia | Sydney | 3 | All Maps","name_short":"syd-3","host":"syd-1.au.uncletopia.com","port":27035,"enabled":true,"region":"au","cc":"au","latitude":-33.865143,"longitude":151.2099,"reserved":0,"last_update":"0001-01-01T00:00:00Z","name_a2s":"Uncletopia | Sydney | 3 | All Maps","protocol":17,"map":"cp_snakewater_final1","folder":"tf","game":"Team Fortress","app_id":440,"player_count":0,"max_players":24,"Bots":0,"server_type":"Dedicated","server_os":"Linux","password":true,"vac":true,"version":"7757534","steam_id":85568392925194467,"keywords":["cp","nocrits","nodmgspread","uncletopia"],"game_id":440,"stv_port":27036,"stv_name":"Uncletopia | Sydney | 3 | All Maps | STV","players":null},{"server_id":396,"name":"Uncletopia | Sydney | 4 | All Maps","name_short":"syd-4","host":"syd-1.au.uncletopia.com","port":27045,"enabled":true,"region":"au","cc":"au","latitude":-33.865143,"longitude":151.2099,"reserved":0,"last_update":"0001-01-01T00:00:00Z","name_a2s":"Uncletopia | Sydney | 4 | All Maps","protocol":17,"map":"koth_cascade","folder":"tf","game":"Team Fortress","app_id":440,"player_count":0,"max_players":24,"Bots":0,"server_type":"Dedicated","server_os":"Linux","password":true,"vac":true,"version":"7757534","steam_id":85568392925397958,"keywords":["cp","nocrits","nodmgspread","uncletopia"],"game_id":440,"stv_port":27046,"stv_name":"Uncletopia | Sydney | 4 | All Maps | STV","players":null},{"server_id":58,"name":"Uncletopia | Sydney | 5 | Stopwatch Beta","name_short":"syd-5","host":"syd-1.au.uncletopia.com","port":27055,"enabled":true,"region":"au","cc":"au","latitude":-33.865143,"longitude":151.2099,"reserved":0,"last_update":"0001-01-01T00:00:00Z","name_a2s":"Uncletopia | Sydney | 5 | Stopwatch Beta","protocol":17,"map":"pl_upward","folder":"tf","game":"Team Fortress","app_id":440,"player_count":0,"max_players":24,"Bots":0,"server_type":"Dedicated","server_os":"Linux","password":true,"vac":true,"version":"7757534","steam_id":85568392925397959,"keywords":["nocrits","nodmgspread","payload","uncletopia"],"game_id":440,"stv_port":27056,"stv_name":"Uncletopia | Sydney | 5 | Stopwatch Beta | STV","players":null},{"server_id":59,"name":"Uncletopia | Sydney | 6 | Community","name_short":"syd-6","host":"syd-1.au.uncletopia.com","port":27065,"enabled":true,"region":"au","cc":"au","latitude":-33.865143,"longitude":151.2099,"reserved":0,"last_update":"0001-01-01T00:00:00Z","name_a2s":"Uncletopia | Sydney | 6 | Community","protocol":17,"map":"workshop/cp_kalinka_rc6a.ugc1272700588","folder":"tf","game":"Team Fortress","app_id":440,"player_count":0,"max_players":24,"Bots":0,"server_type":"Dedicated","server_os":"Linux","password":true,"vac":true,"version":"7757534","steam_id":85568392925397960,"keywords":["cp","nocrits","nodmgspread","uncletopia"],"game_id":440,"stv_port":27066,"stv_name":"Uncletopia | Sydney | 6 | Community | STV","players":null},{"server_id":49,"name":"Uncletopia | Warsaw | 1 | All Maps","name_short":"waw-1","host":"waw-1.pl.uncletopia.com","port":27015,"enabled":true,"region":"eu","cc":"pl","latitude":52.2297,"longitude":21.017532,"reserved":0,"last_update":"0001-01-01T00:00:00Z","name_a2s":"","protocol":0,"map":"","folder":"","game":"","app_id":0,"player_count":0,"max_players":0,"Bots":0,"server_type":"","server_os":"","password":false,"vac":false,"version":"","steam_id":0,"keywords":null,"game_id":0,"stv_port":0,"stv_name":"","players":null},{"server_id":50,"name":"Uncletopia | Warsaw | 2 | All Maps","name_short":"waw-2","host":"waw-1.pl.uncletopia.com","port":27025,"enabled":true,"region":"eu","cc":"pl","latitude":52.2297,"longitude":21.017532,"reserved":0,"last_update":"0001-01-01T00:00:00Z","name_a2s":"Uncletopia | Warsaw | 2 | All Maps","protocol":17,"map":"pl_badwater","folder":"tf","game":"Team Fortress","app_id":440,"player_count":0,"max_players":24,"Bots":0,"server_type":"Dedicated","server_os":"Linux","password":true,"vac":true,"version":"7757534","steam_id":85568392925397851,"keywords":["nocrits","nodmgspread","payload","uncletopia"],"game_id":440,"stv_port":27026,"stv_name":"Uncletopia | Warsaw | 2 | All Maps | STV","players":null},{"server_id":51,"name":"Uncletopia | Warsaw | 3 | All Maps","name_short":"waw-3","host":"waw-1.pl.uncletopia.com","port":27035,"enabled":true,"region":"eu","cc":"pl","latitude":52.2297,"longitude":21.017532,"reserved":0,"last_update":"0001-01-01T00:00:00Z","name_a2s":"Uncletopia | Warsaw | 3 | All Maps","protocol":17,"map":"koth_cascade","folder":"tf","game":"Team Fortress","app_id":440,"player_count":0,"max_players":24,"Bots":0,"server_type":"Dedicated","server_os":"Linux","password":true,"vac":true,"version":"7757534","steam_id":85568392925397852,"keywords":["cp","nocrits","nodmgspread","uncletopia"],"game_id":440,"stv_port":27036,"stv_name":"Uncletopia | Warsaw | 3 | All Maps | STV","players":null},{"server_id":52,"name":"Uncletopia | Warsaw | 4 | All Maps","name_short":"waw-4","host":"waw-1.pl.uncletopia.com","port":27045,"enabled":true,"region":"eu","cc":"pl","latitude":52.2297,"longitude":21.017532,"reserved":0,"last_update":"0001-01-01T00:00:00Z","name_a2s":"Uncletopia | Warsaw | 4 | All Maps","protocol":17,"map":"pl_barnblitz","folder":"tf","game":"Team Fortress","app_id":440,"player_count":24,"max_players":24,"Bots":0,"server_type":"Dedicated","server_os":"Linux","password":true,"vac":true,"version":"7757534","steam_id":85568392925397853,"keywords":["nocrits","nodmgspread","payload","uncletopia"],"game_id":440,"stv_port":27046,"stv_name":"Uncletopia | Warsaw | 4 | All Maps | STV","players":[{"user_id":74,"name":"jko","steam_id":76561198009460743,"connected_time":387000000000,"state":"active","ping":84},{"user_id":81,"name":"TerraformerBeing","steam_id":76561198281011934,"connected_time":208000000000,"state":"active","ping":110},{"user_id":63,"name":"TTV/pablo_ricco","steam_id":76561198279839318,"connected_time":948000000000,"state":"active","ping":101},{"user_id":48,"name":"yer_nerd","steam_id":76561199435454093,"connected_time":1748000000000,"state":"active","ping":155},{"user_id":64,"name":"BΣNZOIC","steam_id":76561198875665995,"connected_time":898000000000,"state":"active","ping":93},{"user_id":67,"name":"Monsteh","steam_id":76561198325898181,"connected_time":784000000000,"state":"active","ping":91},{"user_id":82,"name":"vertigo philosopher","steam_id":76561198034514694,"connected_time":199000000000,"state":"active","ping":122},{"user_id":68,"name":"hxcrry","steam_id":76561199452047896,"connected_time":774000000000,"state":"active","ping":82},{"user_id":83,"name":"Puro ♥","steam_id":76561198039016765,"connected_time":156000000000,"state":"active","ping":64},{"user_id":36,"name":"gerge","steam_id":76561199160149960,"connected_time":2639000000000,"state":"active","ping":104},{"user_id":39,"name":"Jimmy","steam_id":76561198133680783,"connected_time":2498000000000,"state":"active","ping":82},{"user_id":71,"name":"Name One TF2 Item","steam_id":76561199446125892,"connected_time":549000000000,"state":"active","ping":80},{"user_id":77,"name":"Eeshie","steam_id":76561198054816169,"connected_time":325000000000,"state":"active","ping":105},{"user_id":84,"name":"Дядя Геймер","steam_id":76561198053440057,"connected_time":152000000000,"state":"active","ping":102},{"user_id":53,"name":"BlueBlueFox","steam_id":76561198053817230,"connected_time":1453000000000,"state":"active","ping":58},{"user_id":75,"name":"Rashid Besythe","steam_id":76561198081477129,"connected_time":367000000000,"state":"active","ping":48},{"user_id":76,"name":"Elfie","steam_id":76561198206802255,"connected_time":354000000000,"state":"active","ping":81},{"user_id":78,"name":"T.A.G.","steam_id":76561198086638189,"connected_time":318000000000,"state":"active","ping":53},{"user_id":58,"name":"Rat","steam_id":76561198245250798,"connected_time":1231000000000,"state":"active","ping":93},{"user_id":59,"name":"HeresyMan","steam_id":76561198169154183,"connected_time":1186000000000,"state":"active","ping":51},{"user_id":60,"name":"CrabboStabbo","steam_id":76561198105660937,"connected_time":1175000000000,"state":"active","ping":96},{"user_id":61,"name":"azeglo","steam_id":76561198243197980,"connected_time":1115000000000,"state":"active","ping":176},{"user_id":79,"name":"101 000 tuns of democracy","steam_id":76561198218257120,"connected_time":307000000000,"state":"active","ping":74},{"user_id":80,"name":"napole","steam_id":76561198267530436,"connected_time":250000000000,"state":"active","ping":131}]},{"server_id":53,"name":"Uncletopia | Warsaw | 5 | Stopwatch Beta","name_short":"waw-5","host":"waw-1.pl.uncletopia.com","port":27055,"enabled":true,"region":"eu","cc":"pl","latitude":52.2297,"longitude":21.017532,"reserved":0,"last_update":"0001-01-01T00:00:00Z","name_a2s":"Uncletopia | Warsaw | 5 | Stopwatch Beta","protocol":17,"map":"pl_barnblitz","folder":"tf","game":"Team Fortress","app_id":440,"player_count":0,"max_players":24,"Bots":0,"server_type":"Dedicated","server_os":"Linux","password":true,"vac":true,"version":"7757534","steam_id":85568392925397854,"keywords":["nocrits","nodmgspread","payload","uncletopia"],"game_id":440,"stv_port":27056,"stv_name":"Uncletopia | Warsaw | 5 | Stopwatch Beta | STV","players":null},{"server_id":54,"name":"Uncletopia | Warsaw | 6 | Community","name_short":"waw-6","host":"waw-1.pl.uncletopia.com","port":27065,"enabled":true,"region":"eu","cc":"pl","latitude":52.2297,"longitude":21.017532,"reserved":0,"last_update":"0001-01-01T00:00:00Z","name_a2s":"Uncletopia | Warsaw | 6 | Community","protocol":17,"map":"workshop/pl_divulgence_b4b.ugc2884808746","folder":"tf","game":"Team Fortress","app_id":440,"player_count":0,"max_players":24,"Bots":0,"server_type":"Dedicated","server_os":"Linux","password":true,"vac":true,"version":"7757534","steam_id":85568392925397856,"keywords":["nocrits","nodmgspread","payload","uncletopia"],"game_id":440,"stv_port":27066,"stv_name":"Uncletopia | Warsaw | 6 | Community | STV","players":null}]}