{"status":true,"message":"","result":[{"server_id":9,"name":"Uncletopia | Atlanta | 1 | All Maps","name_short":"atl-1","host":"atl-1.us.uncletopia.com","port":27015,"enabled":true,"region":"us-east","cc":"us","latitude":33.753746,"longitude":-84.38633,"reserved":0,"last_update":"0001-01-01T00:00:00Z","name_a2s":"Uncletopia | Atlanta | 1 | All Maps","protocol":17,"map":"pl_snowycoast","folder":"tf","game":"Team Fortress","app_id":440,"player_count":24,"max_players":24,"Bots":0,"server_type":"Dedicated","server_os":"Linux","password":true,"vac":true,"version":"7961495","steam_id":85568392924469982,"keywords":["nocrits","nodmgspread","payload","uncletopia"],"game_id":440,"stv_port":27016,"stv_name":"Uncletopia | Atlanta | 1 | All Maps | STV","players":[{"user_id":88,"name":"joyeuxnoelle","steam_id":76561198062423120,"connected_time":3610000000000,"state":"active","ping":59},{"user_id":6,"name":"Obelisk","steam_id":76561198049416866,"connected_time":10413000000000,"state":"active","ping":48},{"user_id":122,"name":"ATL1 | to4st","steam_id":76561198981009008,"connected_time":176000000000,"state":"active","ping":75},{"user_id":98,"name":"Carrotman64","steam_id":76561198991848337,"connected_time":2362000000000,"state":"active","ping":102},{"user_id":77,"name":"Underscorn","steam_id":76561198374209415,"connected_time":5601000000000,"state":"active","ping":75},{"user_id":106,"name":"lilscot","steam_id":76561198099212453,"connected_time":1556000000000,"state":"active","ping":77},{"user_id":117,"name":"napstagbo","steam_id":76561198119378766,"connected_time":817000000000,"state":"active","ping":151},{"user_id":93,"name":"metalfan666","steam_id":76561198386344068,"connected_time":3452000000000,"state":"active","ping":77},{"user_id":45,"name":"Peter griffin","steam_id":76561198277602752,"connected_time":8287000000000,"state":"active","ping":157},{"user_id":78,"name":"Le4n!!!","steam_id":76561198045522596,"connected_time":4888000000000,"state":"active","ping":67},{"user_id":17,"name":"Mr. Trolle Gaming","steam_id":76561199162533951,"connected_time":9821000000000,"state":"active","ping":58},{"user_id":110,"name":"sansa musa","steam_id":76561198163723555,"connected_time":996000000000,"state":"active","ping":70},{"user_id":100,"name":"lu","steam_id":76561198080731872,"connected_time":2168000000000,"state":"active","ping":75},{"user_id":44,"name":"Gimme your Teeth","steam_id":76561198240523882,"connected_time":8366000000000,"state":"active","ping":106},{"user_id":99,"name":"GG.KexruTv","steam_id":76561198374399876,"connected_time":2210000000000,"state":"active","ping":56},{"user_id":118,"name":"✪ Whales","steam_id":76561198064458078,"connected_time":778000000000,"state":"active","ping":76},{"user_id":111,"name":"dipp","steam_id":76561198395577807,"connected_time":959000000000,"state":"active","ping":80},{"user_id":97,"name":"Maestro","steam_id":76561198157325020,"connected_time":2860000000000,"state":"active","ping":66},{"user_id":120,"name":"burly","steam_id":76561198823384084,"connected_time":245000000000,"state":"active","ping":64},{"user_id":113,"name":"Rhutebeer","steam_id":76561198018302761,"connected_time":857000000000,"state":"active","ping":77},{"user_id":105,"name":"shaderoses","steam_id":76561198070800500,"connected_time":1567000000000,"state":"active","ping":64},{"user_id":115,"name":"Sous-Chef","steam_id":76561198075705827,"connected_time":839000000000,"state":"active","ping":59},{"user_id":102,"name":"Ghost","steam_id":76561198110914180,"connected_time":2081000000000,"state":"active","ping":186},{"user_id":76,"name":"LLLFarm2012","steam_id":76561199199786915,"connected_time":5641000000000,"state":"active","ping":116}]},{"server_id":104,"name":"Uncletopia | Atlanta | 2 | All Maps","name_short":"atl-2","host":"atl-1.us.uncletopia.com","port":27025,"enabled":true,"region":"us-east","cc":"us","latitude":33.753746,"longitude":-84.38633,"reserved":0,"last_update":"0001-01-01T00:00:00Z","name_a2s":"Uncletopia | Atlanta | 2 | All Maps","protocol":17,"map":"koth_lakeside_final","folder":"tf","game":"Team Fortress","app_id":440,"player_count":0,"max_players":24,"Bots":0,"server_type":"Dedicated","server_os":"Linux","password":true,"vac":true,"version":"7961495","steam_id":85568392924469983,"keywords":["cp","nocrits","nodmgspread","uncletopia"],"game_id":440,"stv_port":27026,"stv_name":"Uncletopia | Atlanta | 2 | All Maps | STV","players":null},{"server_id":400,"name":"Uncletopia | Atlanta | 3 | Stopwatch","name_short":"atl-3","host":"atl-1.us.uncletopia.com","port":27035,"enabled":true,"region":"us-east","cc":"us","latitude":33.753746,"longitude":-84.38633,"reserved":0,"last_update":"0001-01-01T00:00:00Z","name_a2s":"Uncletopia | Atlanta | 3 | Stopwatch","protocol":17,"map":"workshop/koth_ashville_final.ugc2130459942","folder":"tf","game":"Team Fortress","app_id":440,"player_count":0,"max_players":24,"Bots":0,"server_type":"Dedicated","server_os":"Linux","password":true,"vac":true,"version":"7961495","steam_id":85568392924515187,"keywords":["cp","nocrits","nodmgspread","uncletopia"],"game_id":440,"stv_port":27036,"stv_name":"Uncletopia | Atlanta | 3 | Stopwatch | STV","players":null},{"server_id":401,"name":"Uncletopia | Atlanta | 4 | Community","name_short":"atl-4","host":"atl-1.us.uncletopia.com","port":27045,"enabled":true,"region":"us-east","cc":"us","latitude":33.753746,"longitude":-84.38633,"reserved":0,"last_update":"0001-01-01T00:00:00Z","name_a2s":"Uncletopia | Atlanta | 4 | Community","protocol":17,"map":"workshop/cp_glassworks_rc7a.ugc454118349","folder":"tf","game":"Team Fortress","app_id":440,"player_count":23,"max_players":24,"Bots":0,"server_type":"Dedicated","server_os":"Linux","password":true,"vac":true,"version":"7961495","steam_id":85568392924515188,"keywords":["cp","nocrits","nodmgspread","uncletopia"],"game_id":440,"stv_port":27046,"stv_name":"Uncletopia | Atlanta | 4 | Community | STV","players":[{"user_id":22,"name":"PyroTechno","steam_id":76561198060929872,"connected_time":1177000000000,"state":"active","ping":38},{"user_id":9,"name":"VoidVector","steam_id":76561198859329398,"connected_time":2083000000000,"state":"spawning","ping":146},{"user_id":21,"name":"Supa Dupt","steam_id":76561198166666289,"connected_time":1289000000000,"state":"active","ping":48},{"user_id":50,"name":"Whisk","steam_id":76561198137228550,"connected_time":99000000000,"state":"active","ping":181},{"user_id":14,"name":"ugly.","steam_id":76561198016826181,"connected_time":1896000000000,"state":"active","ping":61},{"user_id":19,"name":"crox","steam_id":76561199024792831,"connected_time":1405000000000,"state":"active","ping":61},{"user_id":35,"name":"YES, SANDVICH!","steam_id":76561199405972725,"connected_time":485000000000,"state":"active","ping":147},{"user_id":25,"name":"jr_blind","steam_id":76561198313937899,"connected_time":885000000000,"state":"active","ping":169},{"user_id":26,"name":"Alchemist84","steam_id":76561198166625404,"connected_time":860000000000,"state":"active","ping":56},{"user_id":27,"name":"Pato_Platino24","steam_id":76561198393885221,"connected_time":709000000000,"state":"active","ping":91},{"user_id":43,"name":"Phat Cat","steam_id":76561198123017274,"connected_time":280000000000,"state":"active","ping":57},{"user_id":30,"name":"FranckyFox2468","steam_id":76561198037679126,"connected_time":661000000000,"state":"active","ping":77},{"user_id":37,"name":"BB Lorexav","steam_id":76561198207565988,"connected_time":384000000000,"state":"active","ping":61},{"user_id":34,"name":"Licensed to Chill","steam_id":76561198008863433,"connected_time":510000000000,"state":"active","ping":70},{"user_id":38,"name":"Lovedaddy","steam_id":76561198006569710,"connected_time":383000000000,"state":"active","ping":77},{"user_id":39,"name":"Wizops","steam_id":76561198907030448,"connected_time":354000000000,"state":"active","ping":77},{"user_id":40,"name":"Phoenix","steam_id":76561198138589482,"connected_time":347000000000,"state":"spawning","ping":283},{"user_id":41,"name":"Glitchy","steam_id":76561198101925500,"connected_time":307000000000,"state":"spawning","ping":336},{"user_id":49,"name":"blorbo","steam_id":76561199116184558,"connected_time":234000000000,"state":"spawning","ping":239},{"user_id":44,"name":"Pannington","steam_id":76561198138707710,"connected_time":278000000000,"state":"spawning","ping":162},{"user_id":45,"name":"bloons","steam_id":76561198025497597,"connected_time":277000000000,"state":"active","ping":137},{"user_id":46,"name":"Satori Komeiji","steam_id":76561198158211423,"connected_time":262000000000,"state":"active","ping":82},{"user_id":48,"name":"Alice","steam_id":76561198040365065,"connected_time":246000000000,"state":"active","ping":143}]},{"server_id":2,"name":"Uncletopia | Chicago | 1 | All Maps","name_short":"chi-1","host":"chi-1.us.uncletopia.com","port":27015,"enabled":true,"region":"us-central","cc":"us","latitude":41.881832,"longitude":-87.62318,"reserved":0,"last_update":"0001-01-01T00:00:00Z","name_a2s":"Uncletopia | Chicago | 1 | All Maps","protocol":17,"map":"plr_nightfall_final","folder":"tf","game":"Team Fortress","app_id":440,"player_count":24,"max_players":24,"Bots":0,"server_type":"Dedicated","server_os":"Linux","password":true,"vac":true,"version":"7961495","steam_id":85568392924469984,"keywords":["nocrits","nodmgspread","payload","uncletopia"],"game_id":440,"stv_port":27016,"stv_name":"Uncletopia | Chicago | 1 | All Maps | STV","players":[{"user_id":349,"name":"Fiebs","steam_id":76561198073881842,"connected_time":3626000000000,"state":"active","ping":72},{"user_id":373,"name":"Gremsheker","steam_id":76561198068025153,"connected_time":1967000000000,"state":"active","ping":63},{"user_id":384,"name":"Retro","steam_id":76561198414744723,"connected_time":1204000000000,"state":"active","ping":60},{"user_id":403,"name":"YYYIIIPPPPEEEEEE","steam_id":76561199309106011,"connected_time":18000000000,"state":"active","ping":69},{"user_id":401,"name":"Toxic-Fluid","steam_id":76561198115530353,"connected_time":44000000000,"state":"active","ping":58},{"user_id":389,"name":"Child Incinerator","steam_id":76561198115707039,"connected_time":1162000000000,"state":"active","ping":46},{"user_id":400,"name":"Lord Cutler Beckett","steam_id":76561198091356047,"connected_time":122000000000,"state":"active","ping":46},{"user_id":381,"name":"Pelham Bay Rat","steam_id":76561198096692107,"connected_time":1222000000000,"state":"active","ping":61},{"user_id":363,"name":"WorldsWorstGamer","steam_id":76561199126634917,"connected_time":2924000000000,"state":"active","ping":45},{"user_id":361,"name":"bath","steam_id":76561197969993352,"connected_time":2996000000000,"state":"active","ping":67},{"user_id":385,"name":"Bi0llante","steam_id":76561198291007860,"connected_time":1186000000000,"state":"active","ping":106},{"user_id":397,"name":"(She/Her)ChaméniTheá","steam_id":76561198114244051,"connected_time":304000000000,"state":"active","ping":69},{"user_id":364,"name":"Zodyxajon","steam_id":76561198165561581,"connected_time":2850000000000,"state":"active","ping":71},{"user_id":392,"name":"Argo","steam_id":76561198353725622,"connected_time":1003000000000,"state":"active","ping":87},{"user_id":366,"name":"TheMutantSpaceDancer","steam_id":76561198271908122,"connected_time":2636000000000,"state":"active","ping":71},{"user_id":304,"name":"Kirby.exe","steam_id":76561198242714582,"connected_time":6488000000000,"state":"active","ping":62},{"user_id":402,"name":"JohnFMX","steam_id":76561198175608097,"connected_time":29000000000,"state":"spawning","ping":74},{"user_id":387,"name":"The Demoman from Team Fortress ","steam_id":76561199031241776,"connected_time":1178000000000,"state":"active","ping":77},{"user_id":393,"name":"Sentry Gun (American)","steam_id":76561198313770809,"connected_time":858000000000,"state":"active","ping":45},{"user_id":376,"name":"ol' musty","steam_id":76561198081075865,"connected_time":1839000000000,"state":"active","ping":60},{"user_id":382,"name":"subdromeda","steam_id":76561198884351860,"connected_time":1220000000000,"state":"active","ping":62},{"user_id":388,"name":"1920","steam_id":76561198111669774,"connected_time":1172000000000,"state":"active","ping":47},{"user_id":394,"name":"Cousin Greg","steam_id":76561198176546065,"connected_time":750000000000,"state":"active","ping":77},{"user_id":395,"name":"ButtFrick","steam_id":76561198238864304,"connected_time":513000000000,"state":"active","ping":60}]},{"server_id":106,"name":"Uncletopia | Chicago | 2 | All Maps","name_short":"chi-2","host":"chi-1.us.uncletopia.com","port":27025,"enabled":true,"region":"us-central","cc":"us","latitude":41.881832,"longitude":-87.62318,"reserved":0,"last_update":"0001-01-01T00:00:00Z","name_a2s":"Uncletopia | Chicago | 2 | All Maps","protocol":17,"map":"cp_gorge","folder":"tf","game":"Team Fortress","app_id":440,"player_count":0,"max_players":24,"Bots":0,"server_type":"Dedicated","server_os":"Linux","password":true,"vac":true,"version":"7961495","steam_id":85568392924469985,"keywords":["cp","nocrits","nodmgspread","uncletopia"],"game_id":440,"stv_port":27026,"stv_name":"Uncletopia | Chicago | 2 | All Maps | STV","players":null},{"server_id":402,"name":"Uncletopia | Chicago | 3 | All Maps","name_short":"chi-3","host":"chi-1.us.uncletopia.com","port":27035,"enabled":true,"region":"us-central","cc":"us","latitude":41.881832,"longitude":-87.62318,"reserved":0,"last_update":"0001-01-01T00:00:00Z","name_a2s":"Uncletopia | Chicago | 3 | All Maps","protocol":17,"map":"koth_viaduct","folder":"tf","game":"Team Fortress","app_id":440,"player_count":0,"max_players":24,"Bots":0,"server_type":"Dedicated","server_os":"Linux","password":true,"vac":true,"version":"7961495","steam_id":85568392924515191,"keywords":["cp","nocrits","nodmgspread","uncletopia"],"game_id":440,"stv_port":27036,"stv_name":"Uncletopia | Chicago | 3 | All Maps | STV","players":null},{"server_id":403,"name":"Uncletopia | Chicago | 4 | All Maps","name_short":"chi-4","host":"chi-1.us.uncletopia.com","port":27045,"enabled":true,"region":"us-central","cc":"us","latitude":41.881832,"longitude":-87.62318,"reserved":0,"last_update":"0001-01-01T00:00:00Z","name_a2s":"Uncletopia | Chicago | 4 | All Maps","protocol":17,"map":"cp_mountainlab","folder":"tf","game":"Team Fortress","app_id":440,"player_count":24,"max_players":24,"Bots":0,"server_type":"Dedicated","server_os":"Linux","password":true,"vac":true,"version":"7961495","steam_id":85568392924515193,"keywords":["cp","nocrits","nodmgspread","uncletopia"],"game_id":440,"stv_port":27046,"stv_name":"Uncletopia | Chicago | 4 | All Maps | STV","players":[{"user_id":288,"name":"Kidzbopsicle","steam_id":76561198047660691,"connected_time":15000000000,"state":"active","ping":61},{"user_id":239,"name":"scot","steam_id":76561199097866312,"connected_time":3617000000000,"state":"active","ping":114},{"user_id":194,"name":"ThatGamingKiwi","steam_id":76561199170522237,"connected_time":5378000000000,"state":"active","ping":61},{"user_id":256,"name":"Terra Mater","steam_id":76561198069735882,"connected_time":2021000000000,"state":"active","ping":73},{"user_id":275,"name":"Officer Chef","steam_id":76561198310658990,"connected_time":904000000000,"state":"active","ping":126},{"user_id":273,"name":"zoinks","steam_id":76561198127238003,"connected_time":954000000000,"state":"active","ping":91},{"user_id":260,"name":"yes daddy","steam_id":76561198166100997,"connected_time":1773000000000,"state":"active","ping":90},{"user_id":270,"name":"izanami","steam_id":76561198219531223,"connected_time":994000000000,"state":"active","ping":154},{"user_id":271,"name":"On The Bright Side...","steam_id":76561198168785883,"connected_time":987000000000,"state":"active","ping":46},{"user_id":274,"name":"That Darned Imp","steam_id":76561198854501307,"connected_time":952000000000,"state":"active","ping":48},{"user_id":225,"name":"galaxy_nova379","steam_id":76561199004274122,"connected_time":3918000000000,"state":"active","ping":52},{"user_id":252,"name":"ParchedPigeon9","steam_id":76561198257204226,"connected_time":2240000000000,"state":"active","ping":62},{"user_id":280,"name":"iUseDvorak","steam_id":76561198064439037,"connected_time":742000000000,"state":"active","ping":66},{"user_id":282,"name":"9gon Danmar33","steam_id":76561198056453091,"connected_time":618000000000,"state":"active","ping":50},{"user_id":259,"name":"Chadmander","steam_id":76561197974136337,"connected_time":1821000000000,"state":"active","ping":40},{"user_id":248,"name":"４０ ＦＰＳ","steam_id":76561198272394965,"connected_time":2442000000000,"state":"active","ping":135},{"user_id":253,"name":"chen","steam_id":76561198064872330,"connected_time":2228000000000,"state":"active","ping":74},{"user_id":276,"name":"The janitor(El coyote)","steam_id":76561198414300607,"connected_time":883000000000,"state":"active","ping":97},{"user_id":277,"name":"The Idiot","steam_id":76561198049837377,"connected_time":845000000000,"state":"active","ping":49},{"user_id":287,"name":"Mr. Luggy","steam_id":76561198072723392,"connected_time":201000000000,"state":"active","ping":91},{"user_id":267,"name":"11","steam_id":76561198037518646,"connected_time":1012000000000,"state":"active","ping":60},{"user_id":286,"name":"TheGrayMann","steam_id":76561198084203796,"connected_time":460000000000,"state":"active","ping":44},{"user_id":254,"name":"Mury","steam_id":76561198069743049,"connected_time":2221000000000,"state":"active","ping":105},{"user_id":284,"name":"Cherry Juice","steam_id":76561198366570108,"connected_time":517000000000,"state":"active","ping":65}]},{"server_id":36,"name":"Uncletopia | Chicago | 5 | All Maps","name_short":"chi-5","host":"chi-2.us.uncletopia.com","port":27015,"enabled":true,"region":"us-central","cc":"us","latitude":41.881832,"longitude":-87.62318,"reserved":0,"last_update":"0001-01-01T00:00:00Z","name_a2s":"Uncletopia | Chicago | 5 | All Maps","protocol":17,"map":"koth_lakeside_final","folder":"tf","game":"Team Fortress","app_id":440,"player_count":21,"max_players":24,"Bots":0,"server_type":"Dedicated","server_os":"Linux","password":true,"vac":true,"version":"7961495","steam_id":85568392924866362,"keywords":["cp","nocrits","nodmgspread","uncletopia"],"game_id":440,"stv_port":27016,"stv_name":"Uncletopia | Chicago | 5 | All Maps | STV","players":[{"user_id":45,"name":"draining to stay happy","steam_id":76561198797823116,"connected_time":2035000000000,"state":"connecting","ping":75},{"user_id":50,"name":"Scarecrow","steam_id":76561198045870511,"connected_time":1990000000000,"state":"connecting","ping":59},{"user_id":5,"name":"Warlock With a Glock","steam_id":76561198271415834,"connected_time":3758000000000,"state":"connecting","ping":72},{"user_id":6,"name":"mdb02","steam_id":76561198118921536,"connected_time":3740000000000,"state":"connecting","ping":90},{"user_id":58,"name":"CyborgHexapus4","steam_id":76561198160335724,"connected_time":1366000000000,"state":"connecting","ping":100},{"user_id":44,"name":"Clamps","steam_id":76561197993540982,"connected_time":2068000000000,"state":"connecting","ping":79},{"user_id":57,"name":"Ninjoth","steam_id":76561198038611753,"connected_time":1396000000000,"state":"connecting","ping":94},{"user_id":14,"name":"beyonder","steam_id":76561198045844070,"connected_time":3034000000000,"state":"connecting","ping":88},{"user_id":15,"name":"menonamed","steam_id":76561198199564382,"connected_time":3010000000000,"state":"connecting","ping":71},{"user_id":17,"name":"BreakfastTacos","steam_id":76561198847620442,"connected_time":2961000000000,"state":"connecting","ping":90},{"user_id":59,"name":"Harpua","steam_id":76561197988020228,"connected_time":519000000000,"state":"connecting","ping":91},{"user_id":26,"name":"BRONY POWER","steam_id":76561198075510786,"connected_time":2722000000000,"state":"connecting","ping":76},{"user_id":21,"name":"Splexiey","steam_id":76561199122155213,"connected_time":2794000000000,"state":"connecting","ping":105},{"user_id":29,"name":"Megatronn","steam_id":76561198796716496,"connected_time":2702000000000,"state":"connecting","ping":93},{"user_id":60,"name":"SmugCoffeeMan","steam_id":76561198040765030,"connected_time":218000000000,"state":"connecting","ping":63},{"user_id":33,"name":"3 femboys in a trench coat","steam_id":76561198837586838,"connected_time":2649000000000,"state":"connecting","ping":174},{"user_id":53,"name":"Knockonwood0","steam_id":76561198062635137,"connected_time":1948000000000,"state":"connecting","ping":63}]},{"server_id":37,"name":"Uncletopia | Chicago | 6 | All Maps","name_short":"chi-6","host":"chi-2.us.uncletopia.com","port":27025,"enabled":true,"region":"us-central","cc":"us","latitude":41.881832,"longitude":-87.62318,"reserved":0,"last_update":"0001-01-01T00:00:00Z","name_a2s":"Uncletopia | Chicago | 6 | All Maps","protocol":17,"map":"cp_gorge","folder":"tf","game":"Team Fortress","app_id":440,"player_count":0,"max_players":24,"Bots":0,"server_type":"Dedicated","server_os":"Linux","password":true,"vac":true,"version":"7961495","steam_id":85568392924866363,"keywords":["cp","nocrits","nodmgspread","uncletopia"],"game_id":440,"stv_port":27026,"stv_name":"Uncletopia | Chicago | 6 | All Maps | STV","players":null},{"server_id":38,"name":"Uncletopia | Chicago | 7 | Stopwatch","name_short":"chi-7","host":"chi-2.us.uncletopia.com","port":27035,"enabled":true,"region":"us-central","cc":"us","latitude":41.881832,"longitude":-87.62318,"reserved":0,"last_update":"0001-01-01T00:00:00Z","name_a2s":"Uncletopia | Chicago | 7 | Stopwatch","protocol":17,"map":"workshop/koth_clearcut_b15.ugc2107050255","folder":"tf","game":"Team Fortress","app_id":440,"player_count":0,"max_players":24,"Bots":0,"server_type":"Dedicated","server_os":"Linux","password":true,"vac":true,"version":"7961495","steam_id":85568392924866364,"keywords":["cp","nocrits","nodmgspread","uncletopia"],"game_id":440,"stv_port":27036,"stv_name":"Uncletopia | Chicago | 7 | Stopwatch | STV","players":null},{"server_id":39,"name":"Uncletopia | Chicago | 8 | Community","name_short":"chi-8","host":"chi-2.us.uncletopia.com","port":27045,"enabled":true,"region":"us-central","cc":"us","latitude":41.881832,"longitude":-87.62318,"reserved":0,"last_update":"0001-01-01T00:00:00Z","name_a2s":"Uncletopia | Chicago | 8 | Community","protocol":17,"map":"workshop/koth_slaughter_rc1.ugc1712845210","folder":"tf","game":"Team Fortress","app_id":440,"player_count":0,"max_players":24,"Bots":0,"server_type":"Dedicated","server_os":"Linux","password":true,"vac":true,"version":"7961495","steam_id":85568392924866365,"keywords":["cp","nocrits","nodmgspread","uncletopia"],"game_id":440,"stv_port":27046,"stv_name":"Uncletopia | Chicago | 8 | Community | STV","players":null},{"server_id":8,"name":"Uncletopia | Dallas | 1 | All Maps","name_short":"dal-1","host":"dal-1.us.uncletopia.com","port":27015,"enabled":true,"region":"us-central","cc":"us","latitude":32.779167,"longitude":-96.80889,"reserved":0,"last_update":"0001-01-01T00:00:00Z","name_a2s":"Uncletopia | Dallas | 1 | All Maps","protocol":17,"map":"koth_lakeside_final","folder":"tf","game":"Team Fortress","app_id":440,"player_count":24,"max_players":24,"Bots":0,"server_type":"Dedicated","server_os":"Linux","password":true,"vac":true,"version":"7961495","steam_id":85568392924469986,"keywords":["cp","nocrits","nodmgspread","uncletopia"],"game_id":440,"stv_port":27016,"stv_name":"Uncletopia | Dallas | 1 | All Maps | STV","players":[{"user_id":244,"name":"Pixelated Pussy","steam_id":76561198002511088,"connected_time":3930000000000,"state":"active","ping":70},{"user_id":278,"name":"PageBoiSkull","steam_id":76561198237353578,"connected_time":871000000000,"state":"active","ping":83},{"user_id":257,"name":"ttv/firepow10 #1fan","steam_id":76561199035458926,"connected_time":3330000000000,"state":"active","ping":92},{"user_id":243,"name":"inshallah","steam_id":76561198165212575,"connected_time":3999000000000,"state":"active","ping":76},{"user_id":285,"name":"retinal bloom","steam_id":76561198132803810,"connected_time":423000000000,"state":"active","ping":59},{"user_id":277,"name":"FiddyFoMike","steam_id":76561198057072581,"connected_time":907000000000,"state":"active","ping":88},{"user_id":273,"name":"rocket1714","steam_id":76561198255152396,"connected_time":963000000000,"state":"active","ping":62},{"user_id":286,"name":"FluttyPutty","steam_id":76561198218446556,"connected_time":237000000000,"state":"active","ping":66},{"user_id":279,"name":"A Low-Hanging Ceiling","steam_id":76561198894586082,"connected_time":853000000000,"state":"active","ping":82},{"user_id":252,"name":"transfem atsuko kagari","steam_id":76561198217402847,"connected_time":3574000000000,"state":"active","ping":76},{"user_id":287,"name":"Karma","steam_id":76561198320530905,"connected_time":236000000000,"state":"active","ping":50},{"user_id":288,"name":"Sir Iasis","steam_id":76561198035666760,"connected_time":126000000000,"state":"active","ping":70},{"user_id":260,"name":"ttv/ shouleil","steam_id":76561198970370243,"connected_time":3065000000000,"state":"active","ping":75},{"user_id":261,"name":"PowerGem3000","steam_id":76561198944644691,"connected_time":2812000000000,"state":"active","ping":63},{"user_id":265,"name":"mkl","steam_id":76561197986401685,"connected_time":2680000000000,"state":"active","ping":51},{"user_id":256,"name":"ttv/firepow10","steam_id":76561198111259720,"connected_time":3473000000000,"state":"active","ping":88},{"user_id":275,"name":"Gabeyboy321","steam_id":76561199379213615,"connected_time":929000000000,"state":"active","ping":45},{"user_id":281,"name":"PapaSmurf","steam_id":76561199201107408,"connected_time":822000000000,"state":"active","ping":72},{"user_id":232,"name":"bulbasaur890","steam_id":76561198093443639,"connected_time":5063000000000,"state":"active","ping":60},{"user_id":248,"name":"Kk","steam_id":76561198197211135,"connected_time":3766000000000,"state":"active","ping":56},{"user_id":276,"name":"Powerup_L","steam_id":76561199276774191,"connected_time":927000000000,"state":"active","ping":50},{"user_id":225,"name":"Nostic","steam_id":76561199508767541,"connected_time":5586000000000,"state":"active","ping":60},{"user_id":268,"name":"TF2C | fac","steam_id":76561198009818412,"connected_time":1842000000000,"state":"active","ping":59},{"user_id":233,"name":"Certified Hood Classic","steam_id":76561199086159354,"connected_time":4842000000000,"state":"active","ping":54}]},{"server_id":108,"name":"Uncletopia | Dallas | 2 | All Maps","name_short":"dal-2","host":"dal-1.us.uncletopia.com","port":27025,"enabled":true,"region":"us-central","cc":"us","latitude":32.779167,"longitude":-96.80889,"reserved":0,"last_update":"0001-01-01T00:00:00Z","name_a2s":"Uncletopia | Dallas | 2 | All Maps","protocol":17,"map":"koth_harvest_final","folder":"tf","game":"Team Fortress","app_id":440,"player_count":0,"max_players":24,"Bots":0,"server_type":"Dedicated","server_os":"Linux","password":true,"vac":true,"version":"7961495","steam_id":85568392924469988,"keywords":["cp","nocrits","nodmgspread","uncletopia"],"game_id":440,"stv_port":27026,"stv_name":"Uncletopia | Dallas | 2 | All Maps | STV","players":null},{"server_id":404,"name":"Uncletopia | Dallas | 3 | All Maps","name_short":"dal-3","host":"dal-1.us.uncletopia.com","port":27035,"enabled":true,"region":"us-central","cc":"us","latitude":32.779167,"longitude":-96.80889,"reserved":0,"last_update":"0001-01-01T00:00:00Z","name_a2s":"Uncletopia | Dallas | 3 | All Maps","protocol":17,"map":"pl_borneo","folder":"tf","game":"Team Fortress","app_id":440,"player_count":0,"max_players":24,"Bots":0,"server_type":"Dedicated","server_os":"Linux","password":true,"vac":true,"version":"7961495","steam_id":85568392924515219,"keywords":["nocrits","nodmgspread","payload","uncletopia"],"game_id":440,"stv_port":27036,"stv_name":"Uncletopia | Dallas | 3 | All Maps | STV","players":null},{"server_id":405,"name":"Uncletopia | Dallas | 4 | Community","name_short":"dal-4","host":"dal-1.us.uncletopia.com","port":27045,"enabled":true,"region":"us-central","cc":"us","latitude":32.779167,"longitude":-96.80889,"reserved":0,"last_update":"0001-01-01T00:00:00Z","name_a2s":"Uncletopia | Dallas | 4 | Community","protocol":17,"map":"workshop/koth_synthetic_rc6a.ugc1549817316","folder":"tf","game":"Team Fortress","app_id":440,"player_count":1,"max_players":24,"Bots":0,"server_type":"Dedicated","server_os":"Linux","password":true,"vac":true,"version":"7961495","steam_id":85568392924515220,"keywords":["cp","nocrits","nodmgspread","uncletopia"],"game_id":440,"stv_port":27046,"stv_name":"Uncletopia | Dallas | 4 | Community | STV","players":[{"user_id":10,"name":"AB","steam_id":76561199487899460,"connected_time":379000000000,"state":"active","ping":321}]},{"server_id":5,"name":"Uncletopia | Frankfurt | 1 | All Maps","name_short":"frk-1","host":"frk-1.de.uncletopia.com","port":27015,"enabled":true,"region":"eu","cc":"de","latitude":50.110924,"longitude":8.682127,"reserved":0,"last_update":"0001-01-01T00:00:00Z","name_a2s":"Uncletopia | Frankfurt | 1 | All Maps","protocol":17,"map":"cp_sunshine","folder":"tf","game":"Team Fortress","app_id":440,"player_count":24,"max_players":24,"Bots":0,"server_type":"Dedicated","server_os":"Linux","password":true,"vac":true,"version":"7961495","steam_id":85568392924469989,"keywords":["cp","nocrits","nodmgspread","uncletopia"],"game_id":440,"stv_port":27016,"stv_name":"Uncletopia | Frankfurt | 1 | All Maps | STV","players":[{"user_id":433,"name":"öööö✪","steam_id":76561198181645822,"connected_time":2628000000000,"state":"active","ping":71},{"user_id":453,"name":"SPONGE","steam_id":76561198040933472,"connected_time":1091000000000,"state":"active","ping":57},{"user_id":440,"name":"bella","steam_id":76561198367634211,"connected_time":1952000000000,"state":"active","ping":68},{"user_id":460,"name":"nanc","steam_id":76561198823042579,"connected_time":912000000000,"state":"active","ping":109},{"user_id":446,"name":"JC","steam_id":76561198029213352,"connected_time":1613000000000,"state":"active","ping":50},{"user_id":411,"name":"AidenQG","steam_id":76561198864678536,"connected_time":4796000000000,"state":"active","ping":55},{"user_id":465,"name":"Udinese Dion","steam_id":76561198067931573,"connected_time":357000000000,"state":"active","ping":67},{"user_id":376,"name":"n-ski","steam_id":76561198020550849,"connected_time":6836000000000,"state":"active","ping":75},{"user_id":416,"name":"Pilaarius","steam_id":76561198120273212,"connected_time":3877000000000,"state":"active","ping":91},{"user_id":414,"name":"Gen","steam_id":76561198021775885,"connected_time":4233000000000,"state":"active","ping":50},{"user_id":449,"name":"джегеми хэпкингс","steam_id":76561198131531394,"connected_time":1472000000000,"state":"active","ping":89},{"user_id":434,"name":"fuzzymanboob12321","steam_id":76561199043933182,"connected_time":2627000000000,"state":"active","ping":141},{"user_id":466,"name":"Solymr ibn Wali Barad","steam_id":76561198044008976,"connected_time":228000000000,"state":"active","ping":71},{"user_id":458,"name":"dermatite seborroica","steam_id":76561198066071855,"connected_time":941000000000,"state":"active","ping":56},{"user_id":461,"name":"pablo","steam_id":76561198087800030,"connected_time":872000000000,"state":"active","ping":47},{"user_id":448,"name":"Ar|es","steam_id":76561198819160313,"connected_time":1561000000000,"state":"active","ping":70},{"user_id":454,"name":"HelwiiHill","steam_id":76561198066730552,"connected_time":1068000000000,"state":"active","ping":90},{"user_id":456,"name":"MatesThePlayer","steam_id":76561198066156449,"connected_time":968000000000,"state":"active","ping":58},{"user_id":435,"name":"goop","steam_id":76561198190073005,"connected_time":2622000000000,"state":"active","ping":56},{"user_id":464,"name":"GGlut","steam_id":76561198034281473,"connected_time":678000000000,"state":"active","ping":32},{"user_id":437,"name":"acetamiprid","steam_id":76561198058012525,"connected_time":2548000000000,"state":"active","ping":55},{"user_id":462,"name":"scramble, scramble","steam_id":76561199103959197,"connected_time":757000000000,"state":"active","ping":75},{"user_id":419,"name":"ozz-man","steam_id":76561198084676522,"connected_time":3735000000000,"state":"active","ping":104},{"user_id":374,"name":"Быдла вой","steam_id":76561198041371314,"connected_time":6863000000000,"state":"active","ping":111}]},{"server_id":110,"name":"Uncletopia | Frankfurt | 2 | All Maps","name_short":"frk-2","host":"frk-1.de.uncletopia.com","port":27025,"enabled":true,"region":"eu","cc":"de","latitude":50.110924,"longitude":8.682127,"reserved":0,"last_update":"0001-01-01T00:00:00Z","name_a2s":"Uncletopia | Frankfurt | 2 | All Maps","protocol":17,"map":"pl_barnblitz","folder":"tf","game":"Team Fortress","app_id":440,"player_count":24,"max_players":24,"Bots":0,"server_type":"Dedicated","server_os":"Linux","password":true,"vac":true,"version":"7961495","steam_id":85568392924469990,"keywords":["nocrits","nodmgspread","payload","uncletopia"],"game_id":440,"stv_port":27026,"stv_name":"Uncletopia | Frankfurt | 2 | All Maps | STV","players":[{"user_id":667,"name":"Jortand","steam_id":76561198066057807,"connected_time":28000000000,"state":"active","ping":58},{"user_id":542,"name":"Jone","steam_id":76561198955248352,"connected_time":8947000000000,"state":"active","ping":69},{"user_id":663,"name":"LivEssense","steam_id":76561198052476979,"connected_time":464000000000,"state":"active","ping":75},{"user_id":653,"name":"NALA","steam_id":76561198039806469,"connected_time":1485000000000,"state":"active","ping":71},{"user_id":655,"name":"Keroz1n","steam_id":76561197998681491,"connected_time":1302000000000,"state":"active","ping":60},{"user_id":660,"name":"DummyTheGreat","steam_id":76561198329636375,"connected_time":584000000000,"state":"active","ping":96},{"user_id":659,"name":"Sigma Gregory","steam_id":76561199040010283,"connected_time":880000000000,"state":"active","ping":75},{"user_id":662,"name":"domek","steam_id":76561198048447632,"connected_time":470000000000,"state":"active","ping":60},{"user_id":654,"name":"monkey enjoyer","steam_id":76561198164911027,"connected_time":1394000000000,"state":"active","ping":81},{"user_id":652,"name":"AbuMshMsh","steam_id":76561198291184871,"connected_time":1511000000000,"state":"active","ping":120},{"user_id":638,"name":"lexa","steam_id":76561198153381971,"connected_time":2202000000000,"state":"active","ping":60},{"user_id":643,"name":"I-I","steam_id":76561198267969436,"connected_time":1738000000000,"state":"active","ping":53},{"user_id":637,"name":"Lynx","steam_id":76561199263102150,"connected_time":2239000000000,"state":"active","ping":51},{"user_id":644,"name":"Towercat","steam_id":76561198013141793,"connected_time":1724000000000,"state":"active","ping":57},{"user_id":665,"name":"finbar","steam_id":76561198056812396,"connected_time":371000000000,"state":"active","ping":77},{"user_id":664,"name":"Miku.Hatsune.2007","steam_id":76561198199687607,"connected_time":446000000000,"state":"active","ping":70},{"user_id":668,"name":"K3nza","steam_id":76561198180128410,"connected_time":21000000000,"state":"spawning","ping":58},{"user_id":669,"name":"MarieM1","steam_id":76561199243795791,"connected_time":21000000000,"state":"spawning","ping":101},{"user_id":658,"name":"BOLAXA","steam_id":76561198228406008,"connected_time":1106000000000,"state":"active","ping":82},{"user_id":614,"name":"Doctor Mobius","steam_id":76561197971281806,"connected_time":3822000000000,"state":"active","ping":48},{"user_id":629,"name":"vurtun","steam_id":76561198857395274,"connected_time":2528000000000,"state":"active","ping":38},{"user_id":649,"name":"charlotte","steam_id":76561198451460637,"connected_time":1597000000000,"state":"active","ping":57},{"user_id":633,"name":"Mischail","steam_id":76561198016127010,"connected_time":2412000000000,"state":"active","ping":74},{"user_id":636,"name":"aaa","steam_id":76561198322459156,"connected_time":2263000000000,"state":"active","ping":59}]},{"server_id":308,"name":"Uncletopia | Frankfurt | 3 | All Maps","name_short":"frk-3","host":"frk-1.de.uncletopia.com","port":27035,"enabled":true,"region":"eu","cc":"de","latitude":50.110924,"longitude":8.682127,"reserved":0,"last_update":"0001-01-01T00:00:00Z","name_a2s":"Uncletopia | Frankfurt | 3 | All Maps","protocol":17,"map":"koth_viaduct","folder":"tf","game":"Team Fortress","app_id":440,"player_count":0,"max_players":24,"Bots":0,"server_type":"Dedicated","server_os":"Linux","password":true,"vac":true,"version":"7961495","steam_id":85568392924504274,"keywords":["cp","nocrits","nodmgspread","uncletopia"],"game_id":440,"stv_port":27036,"stv_name":"Uncletopia | Frankfurt | 3 | All Maps | STV","players":null},{"server_id":309,"name":"Uncletopia | Frankfurt | 4 | All Maps","name_short":"frk-4","host":"frk-1.de.uncletopia.com","port":27045,"enabled":true,"region":"eu","cc":"de","latitude":50.110924,"longitude":8.682127,"reserved":0,"last_update":"0001-01-01T00:00:00Z","name_a2s":"Uncletopia | Frankfurt | 4 | All Maps","protocol":17,"map":"cp_snakewater_final1","folder":"tf","game":"Team Fortress","app_id":440,"player_count":25,"max_players":24,"Bots":0,"server_type":"Dedicated","server_os":"Linux","password":true,"vac":true,"version":"7961495","steam_id":85568392924504275,"keywords":["cp","nocrits","nodmgspread","uncletopia"],"game_id":440,"stv_port":27046,"stv_name":"Uncletopia | Frankfurt | 4 | All Maps | STV","players":[{"user_id":433,"name":"NatP","steam_id":76561198012083811,"connected_time":3683000000000,"state":"active","ping":74},{"user_id":455,"name":"cecko","steam_id":76561198798721254,"connected_time":1464000000000,"state":"active","ping":69},{"user_id":468,"name":"rooliman","steam_id":76561198107767058,"connected_time":1348000000000,"state":"active","ping":74},{"user_id":499,"name":"cwasòn the croissant","steam_id":76561198317643652,"connected_time":360000000000,"state":"active","ping":53},{"user_id":393,"name":"cister0","steam_id":76561198130195469,"connected_time":6941000000000,"state":"active","ping":70},{"user_id":425,"name":"slippin jimmy","steam_id":76561198090788590,"connected_time":4796000000000,"state":"active","ping":59},{"user_id":435,"name":"Xx_LudZip_xX","steam_id":76561198321008764,"connected_time":3469000000000,"state":"active","ping":53},{"user_id":449,"name":"Ebling Mis","steam_id":76561198977948250,"connected_time":2057000000000,"state":"active","ping":69},{"user_id":454,"name":"69JoséFortnite42 El Gamer777","steam_id":76561198435666326,"connected_time":1479000000000,"state":"active","ping":107},{"user_id":457,"name":"Francis of the Filth","steam_id":76561198241794316,"connected_time":1421000000000,"state":"active","ping":70},{"user_id":443,"name":"HayLeX","steam_id":76561198130997343,"connected_time":3325000000000,"state":"active","ping":75},{"user_id":456,"name":"StarDoc2222","steam_id":76561199389114520,"connected_time":1455000000000,"state":"active","ping":140},{"user_id":419,"name":"6a6kin","steam_id":76561198020106655,"connected_time":5149000000000,"state":"active","ping":76},{"user_id":488,"name":"salmonander","steam_id":76561198104577052,"connected_time":730000000000,"state":"active","ping":102},{"user_id":424,"name":"Qwertuss","steam_id":76561198026305366,"connected_time":4952000000000,"state":"active","ping":51},{"user_id":450,"name":"wiserclub6","steam_id":76561198312144351,"connected_time":1957000000000,"state":"active","ping":80},{"user_id":442,"name":"✪Beer☭","steam_id":76561198129884760,"connected_time":3388000000000,"state":"active","ping":61},{"user_id":340,"name":"❤Speedbump❤","steam_id":76561198388690313,"connected_time":10279000000000,"state":"active","ping":50},{"user_id":511,"name":"thia","steam_id":76561198186366599,"connected_time":14000000000,"state":"spawning","ping":95},{"user_id":474,"name":"Xx_ElprojugadorM4ri0Fornite09_x","steam_id":76561198275946276,"connected_time":1221000000000,"state":"active","ping":87},{"user_id":496,"name":"shoras","steam_id":76561198019680159,"connected_time":501000000000,"state":"active","ping":90},{"user_id":446,"name":"Laru","steam_id":76561197998838438,"connected_time":3078000000000,"state":"active","ping":75},{"user_id":466,"name":"Шапка #TF2Center","steam_id":76561198368792603,"connected_time":1392000000000,"state":"active","ping":65},{"user_id":447,"name":"Prototype M.A.K","steam_id":76561198416932796,"connected_time":2663000000000,"state":"active","ping":67},{"user_id":467,"name":"Zazou","steam_id":76561198028076362,"connected_time":1376000000000,"state":"active","ping":60}]},{"server_id":310,"name":"Uncletopia | Frankfurt | 5 | All Maps","name_short":"frk-5","host":"frk-1.de.uncletopia.com","port":27055,"enabled":true,"region":"eu","cc":"de","latitude":50.110924,"longitude":8.682127,"reserved":0,"last_update":"0001-01-01T00:00:00Z","name_a2s":"Uncletopia | Frankfurt | 5 | All Maps","protocol":17,"map":"pl_barnblitz","folder":"tf","game":"Team Fortress","app_id":440,"player_count":24,"max_players":24,"Bots":0,"server_type":"Dedicated","server_os":"Linux","password":true,"vac":true,"version":"7961495","steam_id":85568392924504277,"keywords":["nocrits","nodmgspread","payload","uncletopia"],"game_id":440,"stv_port":27056,"stv_name":"Uncletopia | Frankfurt | 5 | All Maps | STV","players":[{"user_id":772,"name":"pfear","steam_id":76561197999207328,"connected_time":943000000000,"state":"active","ping":75},{"user_id":753,"name":"Doruk Küçükduman","steam_id":76561198399815628,"connected_time":1601000000000,"state":"active","ping":73},{"user_id":757,"name":"Xens","steam_id":76561198208839507,"connected_time":1505000000000,"state":"active","ping":97},{"user_id":759,"name":"LiterallyRyanGosling","steam_id":76561199017856691,"connected_time":1355000000000,"state":"active","ping":63},{"user_id":779,"name":"bAdmon","steam_id":76561197961785793,"connected_time":257000000000,"state":"active","ping":58},{"user_id":758,"name":"The flying Drunksman","steam_id":76561198966358094,"connected_time":1414000000000,"state":"active","ping":52},{"user_id":784,"name":"5tv^","steam_id":76561198063129586,"connected_time":17000000000,"state":"spawning","ping":61},{"user_id":752,"name":"Yonio","steam_id":76561198408428132,"connected_time":1664000000000,"state":"active","ping":70},{"user_id":677,"name":"t0ksi","steam_id":76561198107240798,"connected_time":5807000000000,"state":"active","ping":67},{"user_id":782,"name":"Grimprr","steam_id":76561198275816797,"connected_time":87000000000,"state":"active","ping":143},{"user_id":718,"name":"ramedlaV^^","steam_id":76561198074352339,"connected_time":2904000000000,"state":"active","ping":73},{"user_id":780,"name":"Tyren","steam_id":76561198993747516,"connected_time":242000000000,"state":"active","ping":66},{"user_id":641,"name":"fish","steam_id":76561198092096689,"connected_time":8896000000000,"state":"active","ping":46},{"user_id":777,"name":"SuperBob103","steam_id":76561199175360012,"connected_time":308000000000,"state":"active","ping":68},{"user_id":785,"name":"deez","steam_id":76561198831476915,"connected_time":15000000000,"state":"active","ping":49},{"user_id":768,"name":"Chris Teh Clue","steam_id":76561197980045278,"connected_time":1197000000000,"state":"active","ping":57},{"user_id":681,"name":"sAmasam","steam_id":76561198114953928,"connected_time":5572000000000,"state":"active","ping":57},{"user_id":771,"name":"SebDev","steam_id":76561199175679235,"connected_time":1037000000000,"state":"active","ping":55},{"user_id":774,"name":"ArcProto","steam_id":76561198882555493,"connected_time":428000000000,"state":"active","ping":55},{"user_id":751,"name":"riaron","steam_id":76561198187637390,"connected_time":1687000000000,"state":"active","ping":67},{"user_id":683,"name":"Crazy Duck","steam_id":76561198091149178,"connected_time":5207000000000,"state":"active","ping":88},{"user_id":781,"name":"m4tt","steam_id":76561198267909813,"connected_time":236000000000,"state":"active","ping":65},{"user_id":760,"name":"nori","steam_id":76561198099077097,"connected_time":1349000000000,"state":"active","ping":92},{"user_id":712,"name":"★poyo★","steam_id":76561198150078959,"connected_time":3046000000000,"state":"active","ping":76}]},{"server_id":311,"name":"Uncletopia | Frankfurt | 6 | All Maps","name_short":"frk-6","host":"frk-1.de.uncletopia.com","port":27065,"enabled":true,"region":"eu","cc":"de","latitude":50.110924,"longitude":8.682127,"reserved":0,"last_update":"0001-01-01T00:00:00Z","name_a2s":"Uncletopia | Frankfurt | 6 | All Maps","protocol":17,"map":"pl_badwater","folder":"tf","game":"Team Fortress","app_id":440,"player_count":24,"max_players":24,"Bots":0,"server_type":"Dedicated","server_os":"Linux","password":true,"vac":true,"version":"7961495","steam_id":85568392924504278,"keywords":["nocrits","nodmgspread","payload","uncletopia"],"game_id":440,"stv_port":27066,"stv_name":"Uncletopia | Frankfurt | 6 | All Maps | STV","players":[{"user_id":389,"name":"Zank Frappa","steam_id":76561199227624104,"connected_time":622000000000,"state":"active","ping":59},{"user_id":392,"name":"ooPLASToo","steam_id":76561198217364445,"connected_time":164000000000,"state":"active","ping":102},{"user_id":316,"name":"Swayer","steam_id":76561198056192460,"connected_time":6734000000000,"state":"active","ping":64},{"user_id":393,"name":"aaris123","steam_id":76561198845303952,"connected_time":72000000000,"state":"active","ping":84},{"user_id":370,"name":"Doktor Glas","steam_id":76561198075963840,"connected_time":2436000000000,"state":"active","ping":45},{"user_id":384,"name":"LEGEND FUMO.","steam_id":76561198061033903,"connected_time":1574000000000,"state":"active","ping":51},{"user_id":386,"name":"balder","steam_id":76561198796325635,"connected_time":1244000000000,"state":"active","ping":90},{"user_id":368,"name":"jones","steam_id":76561198044434971,"connected_time":2564000000000,"state":"active","ping":57},{"user_id":320,"name":"roblan11","steam_id":76561198066839258,"connected_time":6667000000000,"state":"active","ping":44},{"user_id":322,"name":"Jethro Tull","steam_id":76561199034041634,"connected_time":6534000000000,"state":"active","ping":55},{"user_id":383,"name":"Frazzles","steam_id":76561199228009586,"connected_time":1807000000000,"state":"active","ping":59},{"user_id":388,"name":"Echo","steam_id":76561199165491231,"connected_time":888000000000,"state":"active","ping":145},{"user_id":351,"name":"Marty™","steam_id":76561198060073673,"connected_time":4188000000000,"state":"active","ping":61},{"user_id":363,"name":"monocle chicken","steam_id":76561199020106029,"connected_time":3109000000000,"state":"active","ping":80},{"user_id":394,"name":"mp1mp2mp3","steam_id":76561198088967665,"connected_time":68000000000,"state":"active","ping":82},{"user_id":333,"name":"Jesus","steam_id":76561199106262610,"connected_time":5533000000000,"state":"active","ping":53},{"user_id":380,"name":"Zerfesh","steam_id":76561198117534358,"connected_time":1839000000000,"state":"active","ping":81},{"user_id":371,"name":"TheBeardedM1G","steam_id":76561198040208946,"connected_time":2423000000000,"state":"active","ping":60},{"user_id":365,"name":"Mega Man Legends 3","steam_id":76561198014110199,"connected_time":3003000000000,"state":"active","ping":45},{"user_id":387,"name":"Random","steam_id":76561199079951047,"connected_time":1158000000000,"state":"active","ping":103},{"user_id":356,"name":"haha A-10 Warthog go bbrrrrrrrr","steam_id":76561198247954030,"connected_time":3684000000000,"state":"active","ping":84},{"user_id":391,"name":"Ecton","steam_id":76561198025103720,"connected_time":571000000000,"state":"active","ping":60},{"user_id":360,"name":"keleos82","steam_id":76561198123916013,"connected_time":3615000000000,"state":"active","ping":44},{"user_id":358,"name":"slime ( ,'' w'' )","steam_id":76561198198984282,"connected_time":3657000000000,"state":"active","ping":148}]},{"server_id":23,"name":"Uncletopia | Frankfurt | 7 | Stopwatch","name_short":"frk-7","host":"frk-1.de.uncletopia.com","port":27075,"enabled":true,"region":"eu","cc":"de","latitude":50.110924,"longitude":8.682127,"reserved":0,"last_update":"0001-01-01T00:00:00Z","name_a2s":"Uncletopia | Frankfurt | 7 | Stopwatch","protocol":17,"map":"workshop/cp_process_f12.ugc2302948105","folder":"tf","game":"Team Fortress","app_id":440,"player_count":3,"max_players":24,"Bots":0,"server_type":"Dedicated","server_os":"Linux","password":true,"vac":true,"version":"7961495","steam_id":85568392924742827,"keywords":["cp","nocrits","nodmgspread","uncletopia"],"game_id":440,"stv_port":27076,"stv_name":"Uncletopia | Frankfurt | 7 | Stopwatch | STV","players":[{"user_id":73,"name":"DeterminedXD[HUN]","steam_id":76561199469006453,"connected_time":341000000000,"state":"active","ping":80},{"user_id":48,"name":"fire","steam_id":76561198063674613,"connected_time":3177000000000,"state":"active","ping":42},{"user_id":74,"name":"✚Чыж✚","steam_id":76561198273074492,"connected_time":100000000000,"state":"spawning","ping":126}]},{"server_id":24,"name":"Uncletopia | Frankfurt | 8 | Community","name_short":"frk-8","host":"frk-1.de.uncletopia.com","port":27085,"enabled":true,"region":"eu","cc":"de","latitude":50.110924,"longitude":8.682127,"reserved":0,"last_update":"0001-01-01T00:00:00Z","name_a2s":"Uncletopia | Frankfurt | 8 | Community","protocol":17,"map":"workshop/pl_fifthcurve_rc1.ugc648227046","folder":"tf","game":"Team Fortress","app_id":440,"player_count":0,"max_players":24,"Bots":0,"server_type":"Dedicated","server_os":"Linux","password":true,"vac":true,"version":"7961495","steam_id":85568392924742828,"keywords":["nocrits","nodmgspread","payload","uncletopia"],"game_id":440,"stv_port":27086,"stv_name":"Uncletopia | Frankfurt | 8 | Community | STV","players":null},{"server_id":202,"name":"Uncletopia | Hong Kong | 1 | All Maps","name_short":"hgk-1","host":"hgk-1.hk.uncletopia.com","port":27015,"enabled":true,"region":"asia","cc":"hk","latitude":22.302711,"longitude":114.177216,"reserved":0,"last_update":"0001-01-01T00:00:00Z","name_a2s":"Uncletopia | Hong Kong | 1 | All Maps","protocol":17,"map":"pl_barnblitz","folder":"tf","game":"Team Fortress","app_id":440,"player_count":0,"max_players":24,"Bots":0,"server_type":"Dedicated","server_os":"Linux","password":true,"vac":true,"version":"7961495","steam_id":85568392924494504,"keywords":["nocrits","nodmgspread","payload","uncletopia"],"game_id":440,"stv_port":27016,"stv_name":"Uncletopia | Hong Kong | 1 | All Maps | STV","players":null},{"server_id":1,"name":"Uncletopia | Los Angeles | 1 | All Maps","name_short":"lax-1","host":"lax-1.us.uncletopia.com","port":27015,"enabled":true,"region":"us-west","cc":"us","latitude":33.94279,"longitude":-118.41004,"reserved":0,"last_update":"0001-01-01T00:00:00Z","name_a2s":"Uncletopia | Los Angeles | 1 | All Maps","protocol":17,"map":"cp_gorge","folder":"tf","game":"Team Fortress","app_id":440,"player_count":0,"max_players":24,"Bots":0,"server_type":"Dedicated","server_os":"Linux","password":true,"vac":true,"version":"7961495","steam_id":85568392924469991,"keywords":["cp","nocrits","nodmgspread","uncletopia"],"game_id":440,"stv_port":27016,"stv_name":"Uncletopia | Los Angeles | 1 | All Maps | STV","players":null},{"server_id":112,"name":"Uncletopia | Los Angeles | 2 | All Maps","name_short":"lax-2","host":"lax-1.us.uncletopia.com","port":27025,"enabled":true,"region":"us-west","cc":"us","latitude":33.94279,"longitude":-118.41004,"reserved":0,"last_update":"0001-01-01T00:00:00Z","name_a2s":"Uncletopia | Los Angeles | 2 | All Maps","protocol":17,"map":"koth_cascade","folder":"tf","game":"Team Fortress","app_id":440,"player_count":0,"max_players":24,"Bots":0,"server_type":"Dedicated","server_os":"Linux","password":true,"vac":true,"version":"7961495","steam_id":85568392924469992,"keywords":["cp","nocrits","nodmgspread","uncletopia"],"game_id":440,"stv_port":27026,"stv_name":"Uncletopia | Los Angeles | 2 | All Maps | STV","players":null},{"server_id":324,"name":"Uncletopia | Los Angeles | 3 | All Maps","name_short":"lax-3","host":"lax-1.us.uncletopia.com","port":27035,"enabled":true,"region":"us-west","cc":"us","latitude":33.94279,"longitude":-118.41004,"reserved":0,"last_update":"0001-01-01T00:00:00Z","name_a2s":"Uncletopia | Los Angeles | 3 | All Maps","protocol":17,"map":"koth_nucleus","folder":"tf","game":"Team Fortress","app_id":440,"player_count":16,"max_players":24,"Bots":0,"server_type":"Dedicated","server_os":"Linux","password":true,"vac":true,"version":"7961495","steam_id":85568392924510198,"keywords":["cp","nocrits","nodmgspread","uncletopia"],"game_id":440,"stv_port":27036,"stv_name":"Uncletopia | Los Angeles | 3 | All Maps | STV","players":[{"user_id":169,"name":"hamza","steam_id":76561198996539622,"connected_time":387000000000,"state":"active","ping":50},{"user_id":159,"name":"limbos","steam_id":76561198028289585,"connected_time":714000000000,"state":"active","ping":86},{"user_id":174,"name":"nanoboosts","steam_id":76561199500861337,"connected_time":159000000000,"state":"active","ping":45},{"user_id":160,"name":"｢Antrix｣","steam_id":76561198375881040,"connected_time":679000000000,"state":"active","ping":44},{"user_id":175,"name":"just took estrogen ama :3","steam_id":76561198039225492,"connected_time":65000000000,"state":"active","ping":48},{"user_id":93,"name":"Larry Cañonga","steam_id":76561198081053203,"connected_time":6205000000000,"state":"active","ping":71},{"user_id":170,"name":"Foyold","steam_id":76561198121024729,"connected_time":362000000000,"state":"active","ping":46},{"user_id":177,"name":"Kia_the_car","steam_id":76561198882171095,"connected_time":51000000000,"state":"active","ping":70},{"user_id":165,"name":"jello_hey","steam_id":76561199176327650,"connected_time":622000000000,"state":"active","ping":91},{"user_id":158,"name":"TacoMan4Life","steam_id":76561198832562728,"connected_time":1047000000000,"state":"active","ping":49},{"user_id":171,"name":"riSygneD","steam_id":76561198331618687,"connected_time":236000000000,"state":"active","ping":37},{"user_id":172,"name":"Wiggee","steam_id":76561197972792989,"connected_time":186000000000,"state":"active","ping":71},{"user_id":173,"name":"ComputerFritz","steam_id":76561198368730970,"connected_time":170000000000,"state":"active","ping":77},{"user_id":178,"name":"Freaking_EmailsTTV","steam_id":76561198836919458,"connected_time":36000000000,"state":"spawning","ping":107},{"user_id":83,"name":"the keebler","steam_id":76561199486326945,"connected_time":6593000000000,"state":"active","ping":97},{"user_id":148,"name":"Rommel2007","steam_id":76561198041744631,"connected_time":2336000000000,"state":"active","ping":65}]},{"server_id":25,"name":"Uncletopia | Los Angeles | 4 | Stopwatch","name_short":"lax-4","host":"lax-1.us.uncletopia.com","port":27045,"enabled":true,"region":"us-west","cc":"us","latitude":33.94279,"longitude":-118.41004,"reserved":0,"last_update":"0001-01-01T00:00:00Z","name_a2s":"Uncletopia | Los Angeles | 4 | Stopwatch","protocol":17,"map":"workshop/koth_product_final.ugc454272353","folder":"tf","game":"Team Fortress","app_id":440,"player_count":0,"max_players":24,"Bots":0,"server_type":"Dedicated","server_os":"Linux","password":true,"vac":true,"version":"7961495","steam_id":85568392924510199,"keywords":["cp","nocrits","nodmgspread","uncletopia"],"game_id":440,"stv_port":27046,"stv_name":"Uncletopia | Los Angeles | 4 | Stopwatch | STV","players":null},{"server_id":11,"name":"Uncletopia | London | 1 | All Maps","name_short":"lon-1","host":"lon-1.uk.uncletopia.com","port":27015,"enabled":true,"region":"eu","cc":"gb","latitude":51.509865,"longitude":-0.118092,"reserved":0,"last_update":"0001-01-01T00:00:00Z","name_a2s":"Uncletopia | London | 1 | All Maps","protocol":17,"map":"pl_upward","folder":"tf","game":"Team Fortress","app_id":440,"player_count":24,"max_players":24,"Bots":0,"server_type":"Dedicated","server_os":"Linux","password":true,"vac":true,"version":"7961495","steam_id":85568392924367362,"keywords":["nocrits","nodmgspread","payload","uncletopia"],"game_id":440,"stv_port":27016,"stv_name":"Uncletopia | London | 1 | All Maps | STV","players":[{"user_id":443,"name":"Fran","steam_id":76561199070516960,"connected_time":6171000000000,"state":"active","ping":75},{"user_id":517,"name":"whimsy.","steam_id":76561198878171763,"connected_time":797000000000,"state":"active","ping":52},{"user_id":433,"name":"hqdefault.png","steam_id":76561198106049954,"connected_time":6373000000000,"state":"active","ping":81},{"user_id":499,"name":"Tomboy Mold","steam_id":76561198106455841,"connected_time":1896000000000,"state":"active","ping":52},{"user_id":484,"name":"mertefe","steam_id":76561199237126613,"connected_time":3190000000000,"state":"active","ping":80},{"user_id":505,"name":"Spinosaurus","steam_id":76561199086481600,"connected_time":1264000000000,"state":"active","ping":47},{"user_id":486,"name":"Kahvi","steam_id":76561198723244199,"connected_time":3162000000000,"state":"active","ping":85},{"user_id":468,"name":"Aaron","steam_id":76561197990046953,"connected_time":4665000000000,"state":"active","ping":59},{"user_id":526,"name":"Levis Saltator","steam_id":76561198035945247,"connected_time":52000000000,"state":"active","ping":236},{"user_id":473,"name":"Lyra","steam_id":76561198043601838,"connected_time":4278000000000,"state":"active","ping":60},{"user_id":504,"name":"Jam","steam_id":76561198090409013,"connected_time":1319000000000,"state":"active","ping":85},{"user_id":507,"name":"ber.","steam_id":76561197993892057,"connected_time":1248000000000,"state":"active","ping":89},{"user_id":456,"name":"Lux","steam_id":76561198060417740,"connected_time":5385000000000,"state":"active","ping":45},{"user_id":521,"name":"Yelowchy","steam_id":76561198199416121,"connected_time":517000000000,"state":"active","ping":72},{"user_id":518,"name":"Mea","steam_id":76561198353496134,"connected_time":723000000000,"state":"active","ping":49},{"user_id":516,"name":"doktor spiele","steam_id":76561199057953617,"connected_time":808000000000,"state":"active","ping":66},{"user_id":520,"name":"[KZ] TenGr1_G4m3r","steam_id":76561198107460765,"connected_time":622000000000,"state":"active","ping":46},{"user_id":523,"name":"AI | Davidoscki","steam_id":76561198129166046,"connected_time":388000000000,"state":"active","ping":82},{"user_id":525,"name":"warforge3","steam_id":76561199276024310,"connected_time":171000000000,"state":"active","ping":94},{"user_id":494,"name":"hoe","steam_id":76561198078902326,"connected_time":1973000000000,"state":"active","ping":45},{"user_id":498,"name":"wtabs","steam_id":76561198831766743,"connected_time":1934000000000,"state":"active","ping":87},{"user_id":514,"name":"Leviin_","steam_id":76561198066978511,"connected_time":979000000000,"state":"active","ping":49},{"user_id":495,"name":"Five Finger Discount","steam_id":76561197994556857,"connected_time":1972000000000,"state":"active","ping":71},{"user_id":481,"name":"Son Goku","steam_id":76561199383437138,"connected_time":3573000000000,"state":"active","ping":116}]},{"server_id":114,"name":"Uncletopia | London | 2 | All Maps","name_short":"lon-2","host":"lon-1.uk.uncletopia.com","port":27025,"enabled":true,"region":"eu","cc":"gb","latitude":51.509865,"longitude":-0.118092,"reserved":0,"last_update":"0001-01-01T00:00:00Z","name_a2s":"Uncletopia | London | 2 | All Maps","protocol":17,"map":"pl_thundermountain","folder":"tf","game":"Team Fortress","app_id":440,"player_count":24,"max_players":24,"Bots":0,"server_type":"Dedicated","server_os":"Linux","password":true,"vac":true,"version":"7961495","steam_id":85568392924470941,"keywords":["nocrits","nodmgspread","payload","uncletopia"],"game_id":440,"stv_port":27026,"stv_name":"Uncletopia | London | 2 | All Maps | STV","players":[{"user_id":225,"name":"Nerdy","steam_id":76561198113844379,"connected_time":679000000000,"state":"active","ping":94},{"user_id":202,"name":"Scr0b ʕᵔᴥᵔʔ","steam_id":76561198100855323,"connected_time":3109000000000,"state":"active","ping":60},{"user_id":223,"name":"wormburnerturner","steam_id":76561198143607463,"connected_time":829000000000,"state":"active","ping":144},{"user_id":173,"name":"Random Bagel","steam_id":76561198047213821,"connected_time":4427000000000,"state":"active","ping":69},{"user_id":227,"name":"Wellink","steam_id":76561198854204494,"connected_time":535000000000,"state":"active","ping":74},{"user_id":211,"name":"Dispenser(Dispenser)","steam_id":76561199211831658,"connected_time":2485000000000,"state":"active","ping":52},{"user_id":228,"name":"Fish","steam_id":76561198811811405,"connected_time":389000000000,"state":"active","ping":55},{"user_id":229,"name":"Piquesque","steam_id":76561198286763046,"connected_time":383000000000,"state":"active","ping":104},{"user_id":195,"name":"zvekan","steam_id":76561198381101196,"connected_time":3578000000000,"state":"active","ping":70},{"user_id":217,"name":"2006 Mitsubishi Lancer","steam_id":76561198036632498,"connected_time":2331000000000,"state":"active","ping":38},{"user_id":235,"name":"goku ピップ・ペタル","steam_id":76561198147668373,"connected_time":280000000000,"state":"active","ping":70},{"user_id":219,"name":"Gaxkang","steam_id":76561198125768571,"connected_time":1453000000000,"state":"active","ping":49},{"user_id":234,"name":"Kokas","steam_id":76561197996786353,"connected_time":299000000000,"state":"active","ping":66},{"user_id":233,"name":"ILoveKey2","steam_id":76561198814559564,"connected_time":365000000000,"state":"active","ping":78},{"user_id":222,"name":"Assassin+","steam_id":76561197994310420,"connected_time":987000000000,"state":"active","ping":70},{"user_id":215,"name":"Royal Puker","steam_id":76561198039978105,"connected_time":2390000000000,"state":"active","ping":49},{"user_id":236,"name":"Hannü","steam_id":76561197969886128,"connected_time":269000000000,"state":"active","ping":45},{"user_id":194,"name":"❤ [HoneyBe_] ❤","steam_id":76561198288930154,"connected_time":3769000000000,"state":"active","ping":59},{"user_id":203,"name":"Egor Pomidor","steam_id":76561199175688390,"connected_time":3102000000000,"state":"active","ping":88},{"user_id":205,"name":"shr1mple","steam_id":76561198173537027,"connected_time":3046000000000,"state":"active","ping":82},{"user_id":237,"name":"housing crisis#savetf2","steam_id":76561198119984382,"connected_time":268000000000,"state":"active","ping":49},{"user_id":144,"name":"Vanilla Autismotron","steam_id":76561198278604277,"connected_time":6209000000000,"state":"active","ping":44},{"user_id":238,"name":"JetPackM","steam_id":76561199496973010,"connected_time":258000000000,"state":"active","ping":51},{"user_id":224,"name":"Destinys","steam_id":76561198056132894,"connected_time":712000000000,"state":"active","ping":62}]},{"server_id":320,"name":"Uncletopia | London | 3 | All Maps","name_short":"lon-3","host":"lon-1.uk.uncletopia.com","port":27035,"enabled":true,"region":"eu","cc":"gb","latitude":51.509865,"longitude":-0.118092,"reserved":0,"last_update":"0001-01-01T00:00:00Z","name_a2s":"Uncletopia | London | 3 | All Maps","protocol":17,"map":"koth_lakeside_final","folder":"tf","game":"Team Fortress","app_id":440,"player_count":2,"max_players":24,"Bots":0,"server_type":"Dedicated","server_os":"Linux","password":true,"vac":true,"version":"7961495","steam_id":85568392924510192,"keywords":["cp","nocrits","nodmgspread","uncletopia"],"game_id":440,"stv_port":27036,"stv_name":"Uncletopia | London | 3 | All Maps | STV","players":[{"user_id":29,"name":"not my season","steam_id":76561198083588151,"connected_time":104000000000,"state":"active","ping":65},{"user_id":30,"name":"medick","steam_id":76561199380849468,"connected_time":81000000000,"state":"active","ping":61}]},{"server_id":321,"name":"Uncletopia | London | 4 | All Maps","name_short":"lon-4","host":"lon-1.uk.uncletopia.com","port":27045,"enabled":true,"region":"eu","cc":"gb","latitude":51.509865,"longitude":-0.118092,"reserved":0,"last_update":"0001-01-01T00:00:00Z","name_a2s":"Uncletopia | London | 4 | All Maps","protocol":17,"map":"cp_altitude","folder":"tf","game":"Team Fortress","app_id":440,"player_count":24,"max_players":24,"Bots":0,"server_type":"Dedicated","server_os":"Linux","password":true,"vac":true,"version":"7961495","steam_id":85568392924510193,"keywords":["cp","nocrits","nodmgspread","uncletopia"],"game_id":440,"stv_port":27046,"stv_name":"Uncletopia | London | 4 | All Maps | STV","players":[{"user_id":335,"name":"AKKUPORAKONE","steam_id":76561198379904093,"connected_time":700000000000,"state":"active","ping":65},{"user_id":339,"name":"silicon based life form","steam_id":76561199127121346,"connected_time":610000000000,"state":"active","ping":49},{"user_id":337,"name":"nibs","steam_id":76561198040099538,"connected_time":634000000000,"state":"active","ping":60},{"user_id":331,"name":"Bzd","steam_id":76561198204521956,"connected_time":874000000000,"state":"active","ping":82},{"user_id":319,"name":"mary","steam_id":76561198014828037,"connected_time":1114000000000,"state":"active","ping":57},{"user_id":308,"name":"gagalak","steam_id":76561198089979108,"connected_time":2558000000000,"state":"active","ping":133},{"user_id":327,"name":"[SpA]Scatterbrain","steam_id":76561197998639769,"connected_time":1001000000000,"state":"active","ping":56},{"user_id":341,"name":"Letko","steam_id":76561198022416006,"connected_time":596000000000,"state":"active","ping":72},{"user_id":342,"name":"Vinnidict","steam_id":76561198037087000,"connected_time":593000000000,"state":"active","ping":60},{"user_id":292,"name":"Goose","steam_id":76561198072261497,"connected_time":3261000000000,"state":"active","ping":66},{"user_id":344,"name":"Darkraven","steam_id":76561198024651491,"connected_time":525000000000,"state":"active","ping":60},{"user_id":340,"name":"real greepy","steam_id":76561198412357143,"connected_time":607000000000,"state":"active","ping":108},{"user_id":322,"name":"Rezzy","steam_id":76561198410598772,"connected_time":1084000000000,"state":"active","ping":45},{"user_id":333,"name":"Torttu","steam_id":76561198013980029,"connected_time":794000000000,"state":"active","ping":74},{"user_id":311,"name":"Warrior555MainsGanon","steam_id":76561198388627786,"connected_time":2287000000000,"state":"active","ping":69},{"user_id":300,"name":"ксюшаш ашлось","steam_id":76561199149307190,"connected_time":2942000000000,"state":"active","ping":82},{"user_id":330,"name":"Spooky Pumpkin","steam_id":76561198044060723,"connected_time":919000000000,"state":"active","ping":149},{"user_id":323,"name":"japjao","steam_id":76561199230386527,"connected_time":1070000000000,"state":"active","ping":43},{"user_id":343,"name":"boxing heavy","steam_id":76561199166644202,"connected_time":559000000000,"state":"active","ping":82},{"user_id":345,"name":"Hosenbrunzer","steam_id":76561198331151538,"connected_time":516000000000,"state":"active","ping":60},{"user_id":325,"name":"joni","steam_id":76561198413766717,"connected_time":1059000000000,"state":"active","ping":67},{"user_id":326,"name":"Mizuklee","steam_id":76561198097350408,"connected_time":1047000000000,"state":"active","ping":60},{"user_id":347,"name":"jewish mafia","steam_id":76561198088512662,"connected_time":466000000000,"state":"active","ping":45},{"user_id":304,"name":"misterwondo","steam_id":76561198187934110,"connected_time":2800000000000,"state":"active","ping":65}]},{"server_id":21,"name":"Uncletopia | London | 5 | All Maps","name_short":"lon-5","host":"lon-1.uk.uncletopia.com","port":27055,"enabled":true,"region":"eu","cc":"gb","latitude":51.509865,"longitude":-0.118092,"reserved":0,"last_update":"0001-01-01T00:00:00Z","name_a2s":"Uncletopia | London | 5 | All Maps","protocol":17,"map":"cp_dustbowl","folder":"tf","game":"Team Fortress","app_id":440,"player_count":24,"max_players":24,"Bots":0,"server_type":"Dedicated","server_os":"Linux","password":true,"vac":true,"version":"7961495","steam_id":85568392924742829,"keywords":["cp","nocrits","nodmgspread","uncletopia"],"game_id":440,"stv_port":27056,"stv_name":"Uncletopia | London | 5 | All Maps | STV","players":[{"user_id":207,"name":"Raccoon","steam_id":76561199189494190,"connected_time":265000000000,"state":"active","ping":122},{"user_id":208,"name":"moseley519","steam_id":76561198045485374,"connected_time":232000000000,"state":"active","ping":45},{"user_id":206,"name":"Froenzi","steam_id":76561198168841723,"connected_time":313000000000,"state":"active","ping":50},{"user_id":215,"name":"BIG BOI SPICE","steam_id":76561198194862277,"connected_time":22000000000,"state":"active","ping":55},{"user_id":184,"name":"DXD Tech","steam_id":76561198358379587,"connected_time":1493000000000,"state":"active","ping":65},{"user_id":174,"name":"Tort","steam_id":76561198329646769,"connected_time":1708000000000,"state":"active","ping":49},{"user_id":168,"name":"child cruncher","steam_id":76561199376433147,"connected_time":2035000000000,"state":"active","ping":38},{"user_id":171,"name":"Oak","steam_id":76561198067315672,"connected_time":1726000000000,"state":"active","ping":45},{"user_id":195,"name":"Woad Raider","steam_id":76561198215485788,"connected_time":1075000000000,"state":"active","ping":63},{"user_id":160,"name":"Ozzie","steam_id":76561197992915315,"connected_time":2596000000000,"state":"active","ping":59},{"user_id":210,"name":"Lammet","steam_id":76561198149409729,"connected_time":221000000000,"state":"active","ping":74},{"user_id":170,"name":"Chish n' Fips","steam_id":76561198012300440,"connected_time":1826000000000,"state":"active","ping":46},{"user_id":197,"name":"Jude!","steam_id":76561197983597798,"connected_time":1049000000000,"state":"active","ping":40},{"user_id":211,"name":"Spinerx7","steam_id":76561198987597383,"connected_time":219000000000,"state":"active","ping":143},{"user_id":203,"name":"Chalky Blue","steam_id":76561199053378029,"connected_time":392000000000,"state":"active","ping":36},{"user_id":201,"name":"Gilb3rt","steam_id":76561199022953557,"connected_time":930000000000,"state":"active","ping":30},{"user_id":186,"name":"XxCuppaTeaxX","steam_id":76561199094598071,"connected_time":1455000000000,"state":"active","ping":41},{"user_id":192,"name":"Яemбlex","steam_id":76561198080379805,"connected_time":1167000000000,"state":"active","ping":45},{"user_id":212,"name":"Goldblade","steam_id":76561198382997614,"connected_time":209000000000,"state":"active","ping":68},{"user_id":213,"name":"CallMeUnoriginal","steam_id":76561198977528294,"connected_time":206000000000,"state":"active","ping":47},{"user_id":188,"name":"emag live","steam_id":76561198047164140,"connected_time":1451000000000,"state":"active","ping":68},{"user_id":135,"name":"they/them pussy enjoyer","steam_id":76561199071718151,"connected_time":4078000000000,"state":"active","ping":53},{"user_id":193,"name":"rogan, joe the III","steam_id":76561198152138707,"connected_time":1166000000000,"state":"active","ping":45},{"user_id":214,"name":"Ve stylu","steam_id":76561198218257120,"connected_time":204000000000,"state":"active","ping":74}]},{"server_id":22,"name":"Uncletopia | London | 6 | All Maps","name_short":"lon-6","host":"lon-1.uk.uncletopia.com","port":27065,"enabled":true,"region":"eu","cc":"gb","latitude":51.509865,"longitude":-0.118092,"reserved":0,"last_update":"0001-01-01T00:00:00Z","name_a2s":"Uncletopia | London | 6 | All Maps","protocol":17,"map":"pl_pier","folder":"tf","game":"Team Fortress","app_id":440,"player_count":24,"max_players":24,"Bots":0,"server_type":"Dedicated","server_os":"Linux","password":true,"vac":true,"version":"7961495","steam_id":85568392924742830,"keywords":["nocrits","nodmgspread","payload","uncletopia"],"game_id":440,"stv_port":27066,"stv_name":"Uncletopia | London | 6 | All Maps | STV","players":[{"user_id":22,"name":"DankDuck","steam_id":76561198160086418,"connected_time":1679000000000,"state":"active","ping":82},{"user_id":23,"name":"Çanak yalayıcı","steam_id":76561198113677852,"connected_time":1674000000000,"state":"active","ping":85},{"user_id":24,"name":"Käärijä","steam_id":76561199121336976,"connected_time":1643000000000,"state":"active","ping":90},{"user_id":50,"name":"that shit got me middle handed","steam_id":76561198010239925,"connected_time":323000000000,"state":"active","ping":45},{"user_id":26,"name":"Walrusッ","steam_id":76561198126622911,"connected_time":1617000000000,"state":"active","ping":93},{"user_id":47,"name":"the undertaker","steam_id":76561197991269785,"connected_time":439000000000,"state":"active","ping":60},{"user_id":29,"name":"mud","steam_id":76561198141497461,"connected_time":1014000000000,"state":"active","ping":69},{"user_id":30,"name":"dum","steam_id":76561198053386482,"connected_time":1010000000000,"state":"active","ping":119},{"user_id":31,"name":"Sevek","steam_id":76561198086388963,"connected_time":792000000000,"state":"active","ping":96},{"user_id":32,"name":"ThatSiegeKid","steam_id":76561198368037656,"connected_time":789000000000,"state":"active","ping":43},{"user_id":34,"name":"Hagi","steam_id":76561198011192902,"connected_time":713000000000,"state":"active","ping":104},{"user_id":35,"name":"「CrossNgen」","steam_id":76561198007631382,"connected_time":709000000000,"state":"active","ping":96},{"user_id":36,"name":"moss","steam_id":76561198970737500,"connected_time":707000000000,"state":"active","ping":75},{"user_id":37,"name":"Kentucky Fried Crab","steam_id":76561198035586715,"connected_time":699000000000,"state":"active","ping":129},{"user_id":45,"name":"Tá prátaí go maith","steam_id":76561198372536459,"connected_time":553000000000,"state":"active","ping":57},{"user_id":39,"name":"Kevin","steam_id":76561198021280093,"connected_time":642000000000,"state":"active","ping":100},{"user_id":40,"name":"6mwtd","steam_id":76561198038583386,"connected_time":629000000000,"state":"active","ping":42},{"user_id":51,"name":"armadillo","steam_id":76561198324656652,"connected_time":312000000000,"state":"active","ping":48},{"user_id":42,"name":"kUHASZ","steam_id":76561198843896414,"connected_time":610000000000,"state":"active","ping":95},{"user_id":49,"name":"Milk","steam_id":76561198125876588,"connected_time":360000000000,"state":"active","ping":41},{"user_id":46,"name":"Sholunan","steam_id":76561198062435739,"connected_time":472000000000,"state":"active","ping":55},{"user_id":48,"name":"triple h","steam_id":76561198066656865,"connected_time":434000000000,"state":"active","ping":60},{"user_id":52,"name":"you will shit bricks","steam_id":76561198139303045,"connected_time":311000000000,"state":"active","ping":91},{"user_id":53,"name":"Witor","steam_id":76561198127584681,"connected_time":308000000000,"state":"active","ping":78}]},{"server_id":40,"name":"Uncletopia | London | 7 | Stopwatch","name_short":"lon-7","host":"lon-1.uk.uncletopia.com","port":27075,"enabled":true,"region":"eu","cc":"gb","latitude":51.509865,"longitude":-0.118092,"reserved":0,"last_update":"0001-01-01T00:00:00Z","name_a2s":"Uncletopia | London | 7 | Stopwatch","protocol":17,"map":"workshop/koth_ashville_final.ugc2130459942","folder":"tf","game":"Team Fortress","app_id":440,"player_count":0,"max_players":24,"Bots":0,"server_type":"Dedicated","server_os":"Linux","password":true,"vac":true,"version":"7961495","steam_id":85568392924964314,"keywords":["cp","nocrits","nodmgspread","uncletopia"],"game_id":440,"stv_port":27076,"stv_name":"Uncletopia | London | 7 | Stopwatch | STV","players":null},{"server_id":41,"name":"Uncletopia | London | 8 | Community","name_short":"lon-8","host":"lon-1.uk.uncletopia.com","port":27085,"enabled":true,"region":"eu","cc":"gb","latitude":51.509865,"longitude":-0.118092,"reserved":0,"last_update":"0001-01-01T00:00:00Z","name_a2s":"Uncletopia | London | 8 | Community","protocol":17,"map":"workshop/pl_boundary_final1.ugc456799153","folder":"tf","game":"Team Fortress","app_id":440,"player_count":0,"max_players":24,"Bots":0,"server_type":"Dedicated","server_os":"Linux","password":true,"vac":true,"version":"7961495","steam_id":85568392924964315,"keywords":["nocrits","nodmgspread","payload","uncletopia"],"game_id":440,"stv_port":27086,"stv_name":"Uncletopia | London | 8 | Community | STV","players":null},{"server_id":300,"name":"Uncletopia | Montréal | 1 | One Thousand Uncles","name_short":"mtl-1","host":"mtl-1.ca.uncletopia.com","port":27015,"enabled":true,"region":"us-east","cc":"ca","latitude":45.50889,"longitude":-73.56167,"reserved":0,"last_update":"0001-01-01T00:00:00Z","name_a2s":"Uncletopia | Montréal | 1 | One Thousand Uncles","protocol":17,"map":"pl_chilly","folder":"tf","game":"Team Fortress","app_id":440,"player_count":0,"max_players":32,"Bots":0,"server_type":"Dedicated","server_os":"Linux","password":true,"vac":true,"version":"7961495","steam_id":85568392924500087,"keywords":["alltalk","danepve","increased_maxplayers","norespawntime","payload","uncletopia"],"game_id":440,"stv_port":0,"stv_name":"","players":null},{"server_id":301,"name":"Uncletopia | Montréal | 2 | One Thousand Uncles","name_short":"mtl-2","host":"mtl-1.ca.uncletopia.com","port":27025,"enabled":true,"region":"us-east","cc":"ca","latitude":45.50889,"longitude":-73.56167,"reserved":0,"last_update":"0001-01-01T00:00:00Z","name_a2s":"Uncletopia | Montréal | 2 | One Thousand Uncles","protocol":17,"map":"pl_snowycoast","folder":"tf","game":"Team Fortress","app_id":440,"player_count":0,"max_players":32,"Bots":0,"server_type":"Dedicated","server_os":"Linux","password":true,"vac":true,"version":"7961495","steam_id":85568392924500088,"keywords":["alltalk","danepve","increased_maxplayers","norespawntime","payload","uncletopia"],"game_id":440,"stv_port":0,"stv_name":"","players":null},{"server_id":302,"name":"Uncletopia | Montréal | 3 | One Thousand Uncles","name_short":"mtl-3","host":"mtl-1.ca.uncletopia.com","port":27035,"enabled":true,"region":"us-east","cc":"ca","latitude":45.50889,"longitude":-73.56167,"reserved":0,"last_update":"0001-01-01T00:00:00Z","name_a2s":"Uncletopia | Montréal | 3 | One Thousand Uncles","protocol":17,"map":"pl_upward","folder":"tf","game":"Team Fortress","app_id":440,"player_count":0,"max_players":32,"Bots":0,"server_type":"Dedicated","server_os":"Linux","password":true,"vac":true,"version":"7961495","steam_id":85568392924500089,"keywords":["alltalk","danepve","increased_maxplayers","norespawntime","payload","uncletopia"],"game_id":440,"stv_port":0,"stv_name":"","players":null},{"server_id":13,"name":"Uncletopia | New York City | 1 | All Maps","name_short":"nyc-1","host":"nyc-1.us.uncletopia.com","port":27015,"enabled":true,"region":"us-east","cc":"us","latitude":40.73061,"longitude":-73.93524,"reserved":0,"last_update":"0001-01-01T00:00:00Z","name_a2s":"Uncletopia | New York City | 1 | All Maps","protocol":17,"map":"pl_badwater","folder":"tf","game":"Team Fortress","app_id":440,"player_count":23,"max_players":24,"Bots":0,"server_type":"Dedicated","server_os":"Linux","password":true,"vac":true,"version":"7961495","steam_id":85568392924469993,"keywords":["nocrits","nodmgspread","payload","uncletopia"],"game_id":440,"stv_port":27016,"stv_name":"Uncletopia | New York City | 1 | All Maps | STV","players":[{"user_id":62,"name":"ｓｋｏｏｐｓ　ョッょ","steam_id":76561198083276946,"connected_time":4874000000000,"state":"active","ping":59},{"user_id":126,"name":"Braided ass-hair","steam_id":76561198041623428,"connected_time":693000000000,"state":"active","ping":88},{"user_id":124,"name":"Boter","steam_id":76561198035572821,"connected_time":941000000000,"state":"active","ping":44},{"user_id":121,"name":"GirlGoneMad0564","steam_id":76561198372552602,"connected_time":1093000000000,"state":"active","ping":117},{"user_id":131,"name":"Eugene Porter","steam_id":76561198834556559,"connected_time":515000000000,"state":"active","ping":60},{"user_id":134,"name":"p1zza","steam_id":76561197967631939,"connected_time":449000000000,"state":"active","ping":59},{"user_id":137,"name":"comfy.","steam_id":76561198008818346,"connected_time":232000000000,"state":"active","ping":55},{"user_id":104,"name":"mEch114","steam_id":76561198236936060,"connected_time":1868000000000,"state":"active","ping":65},{"user_id":76,"name":"Rexost","steam_id":76561198038520125,"connected_time":3481000000000,"state":"active","ping":62},{"user_id":130,"name":"Seller of Waffles","steam_id":76561198296018138,"connected_time":568000000000,"state":"active","ping":75},{"user_id":105,"name":"Fredrick","steam_id":76561197981419964,"connected_time":1861000000000,"state":"active","ping":44},{"user_id":110,"name":"astrobob911","steam_id":76561199099110654,"connected_time":1752000000000,"state":"active","ping":70},{"user_id":108,"name":"TreeGuy","steam_id":76561198026191469,"connected_time":1807000000000,"state":"active","ping":54},{"user_id":133,"name":"The Undead Knight","steam_id":76561198010654500,"connected_time":476000000000,"state":"active","ping":76},{"user_id":117,"name":"Mint Jelly","steam_id":76561197991286751,"connected_time":1285000000000,"state":"active","ping":60},{"user_id":122,"name":"Fishing for Kisses","steam_id":76561198306965757,"connected_time":1092000000000,"state":"active","ping":97},{"user_id":72,"name":"yall boots hats??","steam_id":76561198097396447,"connected_time":3562000000000,"state":"active","ping":120},{"user_id":138,"name":"W1LL14M 64M3","steam_id":76561199121691540,"connected_time":61000000000,"state":"active","ping":52},{"user_id":136,"name":"alopez","steam_id":76561199070225059,"connected_time":259000000000,"state":"active","ping":39},{"user_id":120,"name":"dadgummit","steam_id":76561198005806915,"connected_time":1184000000000,"state":"active","ping":74},{"user_id":74,"name":"Honolulu","steam_id":76561198106381764,"connected_time":3558000000000,"state":"active","ping":70},{"user_id":123,"name":"Ignalis","steam_id":76561198025662927,"connected_time":1017000000000,"state":"active","ping":51},{"user_id":116,"name":"Admiral Angry","steam_id":76561198058199206,"connected_time":1337000000000,"state":"active","ping":74}]},{"server_id":14,"name":"Uncletopia | New York City | 2 | All Maps","name_short":"nyc-2","host":"nyc-1.us.uncletopia.com","port":27025,"enabled":true,"region":"us-east","cc":"us","latitude":40.73061,"longitude":-73.93524,"reserved":0,"last_update":"0001-01-01T00:00:00Z","name_a2s":"Uncletopia | New York City | 2 | All Maps","protocol":17,"map":"cp_process_final","folder":"tf","game":"Team Fortress","app_id":440,"player_count":24,"max_players":24,"Bots":0,"server_type":"Dedicated","server_os":"Linux","password":true,"vac":true,"version":"7961495","steam_id":85568392924469994,"keywords":["cp","nocrits","nodmgspread","uncletopia"],"game_id":440,"stv_port":27026,"stv_name":"Uncletopia | New York City | 2 | All Maps | STV","players":[{"user_id":245,"name":"取名叫做忍","steam_id":76561198278282836,"connected_time":339000000000,"state":"active","ping":52},{"user_id":191,"name":"DualiTea","steam_id":76561198081733870,"connected_time":5079000000000,"state":"active","ping":70},{"user_id":238,"name":"DanikVelocity","steam_id":76561199015911962,"connected_time":1399000000000,"state":"active","ping":62},{"user_id":242,"name":"Shrebbie","steam_id":76561198875230824,"connected_time":710000000000,"state":"active","ping":42},{"user_id":205,"name":"Coke Himmy","steam_id":76561198397459211,"connected_time":4190000000000,"state":"active","ping":50},{"user_id":246,"name":"Harry S. Truman","steam_id":76561197993339757,"connected_time":315000000000,"state":"active","ping":49},{"user_id":228,"name":"BaguetteThief","steam_id":76561197962257656,"connected_time":1694000000000,"state":"active","ping":67},{"user_id":222,"name":"Smartchicken","steam_id":76561198037744517,"connected_time":2482000000000,"state":"active","ping":46},{"user_id":243,"name":"checkswing","steam_id":76561198999816132,"connected_time":688000000000,"state":"active","ping":75},{"user_id":231,"name":"leumas","steam_id":76561198240408540,"connected_time":1634000000000,"state":"active","ping":60},{"user_id":208,"name":"fried rice","steam_id":76561198928939100,"connected_time":4029000000000,"state":"active","ping":90},{"user_id":248,"name":"Madame Meow Meow","steam_id":76561198111399111,"connected_time":25000000000,"state":"spawning","ping":52},{"user_id":167,"name":"That's So Raven! [Dexgod]","steam_id":76561198017130786,"connected_time":6301000000000,"state":"active","ping":58},{"user_id":160,"name":"Season Leaf","steam_id":76561198133121805,"connected_time":6695000000000,"state":"active","ping":79},{"user_id":125,"name":"the","steam_id":76561199140679685,"connected_time":9109000000000,"state":"active","ping":30},{"user_id":241,"name":"Leroy","steam_id":76561199013064727,"connected_time":1334000000000,"state":"active","ping":109},{"user_id":233,"name":"nathaniel","steam_id":76561199059985265,"connected_time":1584000000000,"state":"active","ping":46},{"user_id":177,"name":"starfungus","steam_id":76561198158312789,"connected_time":6054000000000,"state":"active","ping":71},{"user_id":200,"name":"chiswola","steam_id":76561198046920142,"connected_time":4560000000000,"state":"active","ping":80},{"user_id":237,"name":"Jeremiah Finch","steam_id":76561198046899113,"connected_time":1475000000000,"state":"active","ping":69},{"user_id":244,"name":"DolphiN | RGL.gg","steam_id":76561198048614515,"connected_time":403000000000,"state":"active","ping":44},{"user_id":227,"name":"Obelix","steam_id":76561198274715109,"connected_time":1991000000000,"state":"active","ping":60},{"user_id":147,"name":"Sly","steam_id":76561198046116172,"connected_time":7427000000000,"state":"active","ping":60},{"user_id":236,"name":"9Bendy9","steam_id":76561198164023601,"connected_time":1504000000000,"state":"active","ping":140}]},{"server_id":15,"name":"Uncletopia | New York City | 3 | Stopwatch","name_short":"nyc-3","host":"nyc-1.us.uncletopia.com","port":27035,"enabled":true,"region":"us-east","cc":"us","latitude":40.73061,"longitude":-73.93524,"reserved":0,"last_update":"0001-01-01T00:00:00Z","name_a2s":"Uncletopia | New York City | 3 | Stopwatch","protocol":17,"map":"koth_lakeside_final","folder":"tf","game":"Team Fortress","app_id":440,"player_count":0,"max_players":24,"Bots":0,"server_type":"Dedicated","server_os":"Linux","password":true,"vac":true,"version":"7961495","steam_id":85568392924742820,"keywords":["cp","nocrits","nodmgspread","uncletopia"],"game_id":440,"stv_port":27036,"stv_name":"Uncletopia | New York City | 3 | Stopwatch | STV","players":null},{"server_id":16,"name":"Uncletopia | New York City | 4 | Community","name_short":"nyc-4","host":"nyc-1.us.uncletopia.com","port":27045,"enabled":true,"region":"us-east","cc":"us","latitude":40.73061,"longitude":-73.93524,"reserved":0,"last_update":"0001-01-01T00:00:00Z","name_a2s":"Uncletopia | New York City | 4 | Community","protocol":17,"map":"workshop/cp_indulge.ugc528106646","folder":"tf","game":"Team Fortress","app_id":440,"player_count":0,"max_players":24,"Bots":0,"server_type":"Dedicated","server_os":"Linux","password":true,"vac":true,"version":"7961495","steam_id":85568392924742821,"keywords":["cp","nocrits","nodmgspread","uncletopia"],"game_id":440,"stv_port":27046,"stv_name":"Uncletopia | New York City | 4 | Community | STV","players":null},{"server_id":142,"name":"Uncletopia | São Paulo | 1 | All Maps","name_short":"sao-1","host":"sao-1.br.uncletopia.com","port":27015,"enabled":true,"region":"sa","cc":"br","latitude":-23.533773,"longitude":-46.62529,"reserved":0,"last_update":"0001-01-01T00:00:00Z","name_a2s":"Uncletopia | São Paulo | 1 | All Maps","protocol":17,"map":"koth_highpass","folder":"tf","game":"Team Fortress","app_id":440,"player_count":0,"max_players":24,"Bots":0,"server_type":"Dedicated","server_os":"Linux","password":true,"vac":true,"version":"7961495","steam_id":85568392924469996,"keywords":["cp","nocrits","nodmgspread","uncletopia"],"game_id":440,"stv_port":27016,"stv_name":"Uncletopia | São Paulo | 1 | All Maps | STV","players":null},{"server_id":143,"name":"Uncletopia | São Paulo | 2 | Community","name_short":"sao-2","host":"sao-2.br.uncletopia.com","port":27015,"enabled":true,"region":"sa","cc":"br","latitude":-23.533773,"longitude":-46.62529,"reserved":0,"last_update":"0001-01-01T00:00:00Z","name_a2s":"Uncletopia | São Paulo | 2 | Community","protocol":17,"map":"workshop/koth_jamram_rc1a.ugc2964065613","folder":"tf","game":"Team Fortress","app_id":440,"player_count":1,"max_players":24,"Bots":0,"server_type":"Dedicated","server_os":"Linux","password":true,"vac":true,"version":"7961495","steam_id":85568392924485349,"keywords":["cp","nocrits","nodmgspread","uncletopia"],"game_id":440,"stv_port":27016,"stv_name":"Uncletopia | São Paulo | 2 | Community | STV","players":[{"user_id":4,"name":"bob","steam_id":76561199186769400,"connected_time":127000000000,"state":"active","ping":89}]},{"server_id":7,"name":"Uncletopia | Seattle | 1 | All Maps","name_short":"sea-1","host":"sea-1.us.uncletopia.com","port":27015,"enabled":true,"region":"us-west","cc":"us","latitude":47.608013,"longitude":-122.33517,"reserved":0,"last_update":"0001-01-01T00:00:00Z","name_a2s":"Uncletopia | Seattle | 1 | All Maps","protocol":17,"map":"cp_mountainlab","folder":"tf","game":"Team Fortress","app_id":440,"player_count":0,"max_players":24,"Bots":0,"server_type":"Dedicated","server_os":"Linux","password":true,"vac":true,"version":"7961495","steam_id":85568392924469997,"keywords":["cp","nocrits","nodmgspread","uncletopia"],"game_id":440,"stv_port":27016,"stv_name":"Uncletopia | Seattle | 1 | All Maps | STV","players":null},{"server_id":119,"name":"Uncletopia | Seattle | 2 | All Maps","name_short":"sea-2","host":"sea-1.us.uncletopia.com","port":27025,"enabled":true,"region":"us-west","cc":"us","latitude":47.608013,"longitude":-122.33517,"reserved":0,"last_update":"0001-01-01T00:00:00Z","name_a2s":"Uncletopia | Seattle | 2 | All Maps","protocol":17,"map":"cp_altitude","folder":"tf","game":"Team Fortress","app_id":440,"player_count":24,"max_players":24,"Bots":0,"server_type":"Dedicated","server_os":"Linux","password":true,"vac":true,"version":"7961495","steam_id":85568392924469998,"keywords":["cp","nocrits","nodmgspread","uncletopia"],"game_id":440,"stv_port":27026,"stv_name":"Uncletopia | Seattle | 2 | All Maps | STV","players":[{"user_id":92,"name":"John Calibur","steam_id":76561197999986606,"connected_time":891000000000,"state":"active","ping":71},{"user_id":97,"name":"Tom Buckle","steam_id":76561198870649125,"connected_time":226000000000,"state":"active","ping":67},{"user_id":18,"name":"dantheman","steam_id":76561199486390813,"connected_time":4157000000000,"state":"active","ping":130},{"user_id":67,"name":"Banana Milk","steam_id":76561198005156257,"connected_time":2585000000000,"state":"active","ping":178},{"user_id":84,"name":"Dr. Karl, the AUS Science Guy","steam_id":76561198031278747,"connected_time":1237000000000,"state":"active","ping":45},{"user_id":90,"name":"2 Point Tom","steam_id":76561198087617008,"connected_time":1028000000000,"state":"active","ping":80},{"user_id":98,"name":"Lily Thorn","steam_id":76561198305488625,"connected_time":17000000000,"state":"active","ping":73},{"user_id":95,"name":"McLovin","steam_id":76561198114934503,"connected_time":632000000000,"state":"active","ping":43},{"user_id":91,"name":"Keamy","steam_id":76561199471434875,"connected_time":963000000000,"state":"active","ping":45},{"user_id":96,"name":"mega","steam_id":76561198089520959,"connected_time":536000000000,"state":"active","ping":77},{"user_id":99,"name":"the rat gets the cheese","steam_id":76561199077027954,"connected_time":16000000000,"state":"spawning","ping":116},{"user_id":73,"name":"Jovo","steam_id":76561197993265970,"connected_time":2243000000000,"state":"active","ping":24},{"user_id":26,"name":"Dog Hands Phone","steam_id":76561198090419068,"connected_time":3730000000000,"state":"active","ping":60},{"user_id":75,"name":"UstuloTV","steam_id":76561198031039164,"connected_time":2174000000000,"state":"active","ping":76},{"user_id":81,"name":"Paradon","steam_id":76561198242214772,"connected_time":1986000000000,"state":"active","ping":71},{"user_id":82,"name":"Bige Rone","steam_id":76561198066718191,"connected_time":1255000000000,"state":"active","ping":45},{"user_id":79,"name":"AT✪MIC","steam_id":76561198100385184,"connected_time":2037000000000,"state":"active","ping":84},{"user_id":31,"name":"DaddyGalaxy","steam_id":76561198139697796,"connected_time":3650000000000,"state":"active","ping":52},{"user_id":56,"name":"you just got dyked on","steam_id":76561198018977723,"connected_time":2854000000000,"state":"active","ping":42},{"user_id":33,"name":"brisky","steam_id":76561198869675719,"connected_time":3619000000000,"state":"active","ping":112},{"user_id":34,"name":"MrDudeMan","steam_id":76561198959351282,"connected_time":3606000000000,"state":"active","ping":106},{"user_id":36,"name":"Tom","steam_id":76561198070630154,"connected_time":3596000000000,"state":"active","ping":61},{"user_id":37,"name":"Sudsen","steam_id":76561198370603787,"connected_time":3588000000000,"state":"active","ping":60},{"user_id":88,"name":"Banana Man","steam_id":76561199012105803,"connected_time":1218000000000,"state":"active","ping":43}]},{"server_id":406,"name":"Uncletopia | Seattle | 3 | Stopwatch","name_short":"sea-3","host":"sea-1.us.uncletopia.com","port":27035,"enabled":true,"region":"us-west","cc":"us","latitude":47.608013,"longitude":-122.33517,"reserved":0,"last_update":"0001-01-01T00:00:00Z","name_a2s":"Uncletopia | Seattle | 3 | Stopwatch","protocol":17,"map":"cp_gullywash_final1","folder":"tf","game":"Team Fortress","app_id":440,"player_count":0,"max_players":24,"Bots":0,"server_type":"Dedicated","server_os":"Linux","password":true,"vac":true,"version":"7961495","steam_id":85568392924515217,"keywords":["cp","nocrits","nodmgspread","uncletopia"],"game_id":440,"stv_port":27036,"stv_name":"Uncletopia | Seattle | 3 | Stopwatch | STV","players":null},{"server_id":17,"name":"Uncletopia | San Francisco | 1 | All Maps","name_short":"sfo-1","host":"sfo-1.us.uncletopia.com","port":27015,"enabled":true,"region":"us-west","cc":"us","latitude":37.77397,"longitude":-122.4313,"reserved":0,"last_update":"0001-01-01T00:00:00Z","name_a2s":"Uncletopia | San Francisco | 1 | All Maps","protocol":17,"map":"pl_pier","folder":"tf","game":"Team Fortress","app_id":440,"player_count":24,"max_players":24,"Bots":0,"server_type":"Dedicated","server_os":"Linux","password":true,"vac":true,"version":"7961495","steam_id":85568392924469999,"keywords":["nocrits","nodmgspread","payload","uncletopia"],"game_id":440,"stv_port":27016,"stv_name":"Uncletopia | San Francisco | 1 | All Maps | STV","players":[{"user_id":244,"name":"kyiat","steam_id":76561198043684960,"connected_time":878000000000,"state":"active","ping":94},{"user_id":232,"name":"Mr.Frundles","steam_id":76561198134559026,"connected_time":1740000000000,"state":"active","ping":80},{"user_id":188,"name":"Dim","steam_id":76561198061411324,"connected_time":5045000000000,"state":"active","ping":135},{"user_id":239,"name":"Hakuyer","steam_id":76561198098618247,"connected_time":1012000000000,"state":"active","ping":57},{"user_id":241,"name":"nat","steam_id":76561198179923093,"connected_time":912000000000,"state":"active","ping":68},{"user_id":220,"name":"The Potato","steam_id":76561198797301216,"connected_time":1963000000000,"state":"active","ping":107},{"user_id":249,"name":"Quigi","steam_id":76561198144645874,"connected_time":528000000000,"state":"active","ping":59},{"user_id":212,"name":"Coffee","steam_id":76561198154646418,"connected_time":2769000000000,"state":"active","ping":99},{"user_id":215,"name":"Sick Skeleton","steam_id":76561198097707557,"connected_time":2273000000000,"state":"active","ping":68},{"user_id":245,"name":"NOBODY","steam_id":76561198094578887,"connected_time":815000000000,"state":"active","ping":103},{"user_id":235,"name":"Finn the Dafter","steam_id":76561198004267413,"connected_time":1465000000000,"state":"active","ping":77},{"user_id":191,"name":"Ockulus","steam_id":76561199069638460,"connected_time":4799000000000,"state":"active","ping":56},{"user_id":242,"name":"Hobbes","steam_id":76561198087956236,"connected_time":908000000000,"state":"active","ping":61},{"user_id":207,"name":"Doctor Bear ʕ •ᴥ•ʔ","steam_id":76561197968103161,"connected_time":3415000000000,"state":"active","ping":104},{"user_id":237,"name":"Tyler\u0026Fingers","steam_id":76561198085154485,"connected_time":1409000000000,"state":"active","ping":112},{"user_id":223,"name":"Dwebus","steam_id":76561198086559045,"connected_time":1913000000000,"state":"active","ping":64},{"user_id":246,"name":"Sammy!","steam_id":76561198184171743,"connected_time":621000000000,"state":"active","ping":53},{"user_id":229,"name":"Nibotshooter","steam_id":76561199284825579,"connected_time":1864000000000,"state":"active","ping":66},{"user_id":238,"name":"fart","steam_id":76561198074198286,"connected_time":1209000000000,"state":"active","ping":72},{"user_id":181,"name":"Hazel The Boss Man","steam_id":76561199247095754,"connected_time":5764000000000,"state":"active","ping":65},{"user_id":243,"name":"A fucking alien","steam_id":76561198413529550,"connected_time":888000000000,"state":"active","ping":49},{"user_id":231,"name":"JebusTheSavior","steam_id":76561197970083444,"connected_time":1773000000000,"state":"active","ping":104},{"user_id":211,"name":"darkness.danny3481","steam_id":76561198132808002,"connected_time":2967000000000,"state":"active","ping":55},{"user_id":251,"name":"SD","steam_id":76561198217410988,"connected_time":503000000000,"state":"active","ping":57}]},{"server_id":18,"name":"Uncletopia | San Francisco | 2 | All Maps","name_short":"sfo-2","host":"sfo-1.us.uncletopia.com","port":27025,"enabled":true,"region":"us-west","cc":"us","latitude":37.77397,"longitude":-122.4313,"reserved":0,"last_update":"0001-01-01T00:00:00Z","name_a2s":"Uncletopia | San Francisco | 2 | All Maps","protocol":17,"map":"cp_freight_final1","folder":"tf","game":"Team Fortress","app_id":440,"player_count":0,"max_players":24,"Bots":0,"server_type":"Dedicated","server_os":"Linux","password":true,"vac":true,"version":"7961495","steam_id":85568392924470000,"keywords":["cp","nocrits","nodmgspread","uncletopia"],"game_id":440,"stv_port":27026,"stv_name":"Uncletopia | San Francisco | 2 | All Maps | STV","players":null},{"server_id":19,"name":"Uncletopia | San Francisco | 3 | Stopwatch","name_short":"sfo-3","host":"sfo-1.us.uncletopia.com","port":27035,"enabled":true,"region":"us-west","cc":"us","latitude":37.77397,"longitude":-122.4313,"reserved":0,"last_update":"0001-01-01T00:00:00Z","name_a2s":"Uncletopia | San Francisco | 3 | Stopwatch","protocol":17,"map":"workshop/koth_product_final.ugc454272353","folder":"tf","game":"Team Fortress","app_id":440,"player_count":0,"max_players":24,"Bots":0,"server_type":"Dedicated","server_os":"Linux","password":true,"vac":true,"version":"7961495","steam_id":85568392924742824,"keywords":["cp","nocrits","nodmgspread","uncletopia"],"game_id":440,"stv_port":27036,"stv_name":"Uncletopia | San Francisco | 3 | Stopwatch | STV","players":null},{"server_id":20,"name":"Uncletopia | San Francisco | 4 | Community","name_short":"sfo-4","host":"sfo-1.us.uncletopia.com","port":27045,"enabled":true,"region":"us-west","cc":"us","latitude":37.77397,"longitude":-122.4313,"reserved":0,"last_update":"0001-01-01T00:00:00Z","name_a2s":"Uncletopia | San Francisco | 4 | Community","protocol":17,"map":"workshop/pl_cactuscanyon_redux_final2.ugc2579644293","folder":"tf","game":"Team Fortress","app_id":440,"player_count":1,"max_players":24,"Bots":0,"server_type":"Dedicated","server_os":"Linux","password":true,"vac":true,"version":"7961495","steam_id":85568392924742826,"keywords":["nocrits","nodmgspread","payload","uncletopia"],"game_id":440,"stv_port":27046,"stv_name":"Uncletopia | San Francisco | 4 | Community | STV","players":[{"user_id":6,"name":"RayTrain","steam_id":76561198874299515,"connected_time":44000000000,"state":"spawning","ping":645}]},{"server_id":141,"name":"Uncletopia | Sydney | 1 | All Maps","name_short":"syd-1","host":"syd-1.au.uncletopia.com","port":27015,"enabled":true,"region":"au","cc":"au","latitude":-33.865143,"longitude":151.2099,"reserved":0,"last_update":"0001-01-01T00:00:00Z","name_a2s":"Uncletopia | Sydney | 1 | All Maps","protocol":17,"map":"cp_sunshine","folder":"tf","game":"Team Fortress","app_id":440,"player_count":0,"max_players":24,"Bots":0,"server_type":"Dedicated","server_os":"Linux","password":true,"vac":true,"version":"7961495","steam_id":85568392924470001,"keywords":["cp","nocrits","nodmgspread","uncletopia"],"game_id":440,"stv_port":27016,"stv_name":"Uncletopia | Sydney | 1 | All Maps | STV","players":null},{"server_id":123,"name":"Uncletopia | Sydney | 2 | All Maps","name_short":"syd-2","host":"syd-1.au.uncletopia.com","port":27025,"enabled":true,"region":"au","cc":"au","latitude":-33.865143,"longitude":151.2099,"reserved":0,"last_update":"0001-01-01T00:00:00Z","name_a2s":"Uncletopia | Sydney | 2 | All Maps","protocol":17,"map":"koth_cascade","folder":"tf","game":"Team Fortress","app_id":440,"player_count":0,"max_players":24,"Bots":0,"server_type":"Dedicated","server_os":"Linux","password":true,"vac":true,"version":"7961495","steam_id":85568392924470002,"keywords":["cp","nocrits","nodmgspread","uncletopia"],"game_id":440,"stv_port":27026,"stv_name":"Uncletopia | Sydney | 2 | All Maps | STV","players":null},{"server_id":395,"name":"Uncletopia | Sydney | 3 | All Maps","name_short":"syd-3","host":"syd-1.au.uncletopia.com","port":27035,"enabled":true,"region":"au","cc":"au","latitude":-33.865143,"longitude":151.2099,"reserved":0,"last_update":"0001-01-01T00:00:00Z","name_a2s":"Uncletopia | Sydney | 3 | All Maps","protocol":17,"map":"cp_mountainlab","folder":"tf","game":"Team Fortress","app_id":440,"player_count":0,"max_players":24,"Bots":0,"server_type":"Dedicated","server_os":"Linux","password":true,"vac":true,"version":"7961495","steam_id":85568392925194467,"keywords":["cp","nocrits","nodmgspread","uncletopia"],"game_id":440,"stv_port":27036,"stv_name":"Uncletopia | Sydney | 3 | All Maps | STV","players":null},{"server_id":396,"name":"Uncletopia | Sydney | 4 | All Maps","name_short":"syd-4","host":"syd-1.au.uncletopia.com","port":27045,"enabled":true,"region":"au","cc":"au","latitude":-33.865143,"longitude":151.2099,"reserved":0,"last_update":"0001-01-01T00:00:00Z","name_a2s":"Uncletopia | Sydney | 4 | All Maps","protocol":17,"map":"koth_lakeside_final","folder":"tf","game":"Team Fortress","app_id":440,"player_count":0,"max_players":24,"Bots":0,"server_type":"Dedicated","server_os":"Linux","password":true,"vac":true,"version":"7961495","steam_id":85568392925397958,"keywords":["cp","nocrits","nodmgspread","uncletopia"],"game_id":440,"stv_port":27046,"stv_name":"Uncletopia | Sydney | 4 | All Maps | STV","players":null},{"server_id":58,"name":"Uncletopia | Sydney | 5 | Stopwatch","name_short":"syd-5","host":"syd-1.au.uncletopia.com","port":27055,"enabled":true,"region":"au","cc":"au","latitude":-33.865143,"longitude":151.2099,"reserved":0,"last_update":"0001-01-01T00:00:00Z","name_a2s":"Uncletopia | Sydney | 5 | Stopwatch","protocol":17,"map":"workshop/pl_summercoast_rc8e.ugc1761528829","folder":"tf","game":"Team Fortress","app_id":440,"player_count":0,"max_players":24,"Bots":0,"server_type":"Dedicated","server_os":"Linux","password":true,"vac":true,"version":"7961495","steam_id":85568392925397959,"keywords":["nocrits","nodmgspread","payload","uncletopia"],"game_id":440,"stv_port":27056,"stv_name":"Uncletopia | Sydney | 5 | Stopwatch | STV","players":null},{"server_id":59,"name":"Uncletopia | Sydney | 6 | Community","name_short":"syd-6","host":"syd-1.au.uncletopia.com","port":27065,"enabled":true,"region":"au","cc":"au","latitude":-33.865143,"longitude":151.2099,"reserved":0,"last_update":"0001-01-01T00:00:00Z","name_a2s":"Uncletopia | Sydney | 6 | Community","protocol":17,"map":"workshop/koth_trenchfoot_ab1.ugc731436616","folder":"tf","game":"Team Fortress","app_id":440,"player_count":0,"max_players":24,"Bots":0,"server_type":"Dedicated","server_os":"Linux","password":true,"vac":true,"version":"7961495","steam_id":85568392925397960,"keywords":["cp","nocrits","nodmgspread","uncletopia"],"game_id":440,"stv_port":27066,"stv_name":"Uncletopia | Sydney | 6 | Community | STV","players":null},{"server_id":49,"name":"Uncletopia | Warsaw | 1 | One Thousand Uncles","name_short":"waw-1","host":"waw-1.pl.uncletopia.com","port":27015,"enabled":true,"region":"eu","cc":"pl","latitude":52.2297,"longitude":21.017532,"reserved":0,"last_update":"0001-01-01T00:00:00Z","name_a2s":"Uncletopia | Warsaw | 1 | One Thousand Uncles","protocol":17,"map":"pl_upward","folder":"tf","game":"Team Fortress","app_id":440,"player_count":23,"max_players":32,"Bots":16,"server_type":"Dedicated","server_os":"Linux","password":true,"vac":true,"version":"7961495","steam_id":85568392925397850,"keywords":["alltalk","bots","danepve","increased_maxplayers","norespawntime","payload","uncletopia"],"game_id":440,"stv_port":0,"stv_name":"","players":[{"user_id":657,"name":"7","steam_id":76561198086304421,"connected_time":1904000000000,"state":"active","ping":81},{"user_id":683,"name":"tyroksi :D","steam_id":76561198103875245,"connected_time":85000000000,"state":"active","ping":114},{"user_id":522,"name":"G.L.O.R.I.","steam_id":76561198134414380,"connected_time":11412000000000,"state":"active","ping":78},{"user_id":677,"name":"turknaskooyun","steam_id":76561199222306117,"connected_time":532000000000,"state":"active","ping":117},{"user_id":675,"name":"Jeremy Pinkman","steam_id":76561198345967214,"connected_time":760000000000,"state":"active","ping":91},{"user_id":676,"name":"0scr_","steam_id":76561198042631352,"connected_time":603000000000,"state":"active","ping":83},{"user_id":678,"name":"krembergs","steam_id":76561198329728890,"connected_time":489000000000,"state":"active","ping":87}]},{"server_id":50,"name":"Uncletopia | Warsaw | 2 | One Thousand Uncles","name_short":"waw-2","host":"waw-1.pl.uncletopia.com","port":27025,"enabled":true,"region":"eu","cc":"pl","latitude":52.2297,"longitude":21.017532,"reserved":0,"last_update":"0001-01-01T00:00:00Z","name_a2s":"Uncletopia | Warsaw | 2 | One Thousand Uncles","protocol":17,"map":"pl_goldrush","folder":"tf","game":"Team Fortress","app_id":440,"player_count":20,"max_players":32,"Bots":16,"server_type":"Dedicated","server_os":"Linux","password":true,"vac":true,"version":"7961495","steam_id":85568392925397851,"keywords":["alltalk","bots","danepve","increased_maxplayers","norespawntime","payload","uncletopia"],"game_id":440,"stv_port":0,"stv_name":"","players":[{"user_id":256,"name":"barbecuesteve","steam_id":76561198048819671,"connected_time":320000000000,"state":"active","ping":162},{"user_id":244,"name":"Boy Killer","steam_id":76561198083265858,"connected_time":3709000000000,"state":"active","ping":75},{"user_id":245,"name":"Baby Killer","steam_id":76561197977822608,"connected_time":3682000000000,"state":"active","ping":61},{"user_id":246,"name":"TUROK","steam_id":76561199231065766,"connected_time":3666000000000,"state":"active","ping":74}]},{"server_id":51,"name":"Uncletopia | Warsaw | 3 | All Maps","name_short":"waw-3","host":"waw-1.pl.uncletopia.com","port":27035,"enabled":true,"region":"eu","cc":"pl","latitude":52.2297,"longitude":21.017532,"reserved":0,"last_update":"0001-01-01T00:00:00Z","name_a2s":"Uncletopia | Warsaw | 3 | All Maps","protocol":17,"map":"pl_frontier_final","folder":"tf","game":"Team Fortress","app_id":440,"player_count":1,"max_players":24,"Bots":0,"server_type":"Dedicated","server_os":"Linux","password":true,"vac":true,"version":"7961495","steam_id":85568392925397852,"keywords":["nocrits","nodmgspread","payload","uncletopia"],"game_id":440,"stv_port":27036,"stv_name":"Uncletopia | Warsaw | 3 | All Maps | STV","players":[{"user_id":61,"name":"mokau","steam_id":76561199150622722,"connected_time":560000000000,"state":"active","ping":296}]},{"server_id":52,"name":"Uncletopia | Warsaw | 4 | All Maps","name_short":"waw-4","host":"waw-1.pl.uncletopia.com","port":27045,"enabled":true,"region":"eu","cc":"pl","latitude":52.2297,"longitude":21.017532,"reserved":0,"last_update":"0001-01-01T00:00:00Z","name_a2s":"Uncletopia | Warsaw | 4 | All Maps","protocol":17,"map":"koth_lakeside_final","folder":"tf","game":"Team Fortress","app_id":440,"player_count":0,"max_players":24,"Bots":0,"server_type":"Dedicated","server_os":"Linux","password":true,"vac":true,"version":"7961495","steam_id":85568392925397853,"keywords":["cp","nocrits","nodmgspread","uncletopia"],"game_id":440,"stv_port":27046,"stv_name":"Uncletopia | Warsaw | 4 | All Maps | STV","players":null},{"server_id":53,"name":"Uncletopia | Warsaw | 5 | Stopwatch","name_short":"waw-5","host":"waw-1.pl.uncletopia.com","port":27055,"enabled":true,"region":"eu","cc":"pl","latitude":52.2297,"longitude":21.017532,"reserved":0,"last_update":"0001-01-01T00:00:00Z","name_a2s":"Uncletopia | Warsaw | 5 | Stopwatch","protocol":17,"map":"workshop/koth_bagel_rc6.ugc2514036946","folder":"tf","game":"Team Fortress","app_id":440,"player_count":0,"max_players":24,"Bots":0,"server_type":"Dedicated","server_os":"Linux","password":true,"vac":true,"version":"7961495","steam_id":85568392925397854,"keywords":["cp","nocrits","nodmgspread","uncletopia"],"game_id":440,"stv_port":27056,"stv_name":"Uncletopia | Warsaw | 5 | Stopwatch | STV","players":null},{"server_id":54,"name":"Uncletopia | Warsaw | 6 | Community","name_short":"waw-6","host":"waw-1.pl.uncletopia.com","port":27065,"enabled":true,"region":"eu","cc":"pl","latitude":52.2297,"longitude":21.017532,"reserved":0,"last_update":"0001-01-01T00:00:00Z","name_a2s":"Uncletopia | Warsaw | 6 | Community","protocol":17,"map":"workshop/rd_asteroid_redux_b1.ugc2154902912","folder":"tf","game":"Team Fortress","app_id":440,"player_count":0,"max_players":24,"Bots":0,"server_type":"Dedicated","server_os":"Linux","password":true,"vac":true,"version":"7961495","steam_id":85568392925397856,"keywords":["beta","nocrits","nodmgspread","rd","uncletopia"],"game_id":440,"stv_port":27066,"stv_name":"Uncletopia | Warsaw | 6 | Community | STV","players":null}]}