{"status":true,"message":"","result":[{"server_id":9,"name":"Uncletopia | Atlanta | 1 | All Maps","name_short":"atl-1","host":"atl-1.us.uncletopia.com","port":27015,"enabled":true,"region":"us-east","cc":"us","latitude":33.753746,"longitude":-84.38633,"reserved":0,"last_update":"0001-01-01T00:00:00Z","name_a2s":"Uncletopia | Atlanta | 1 | All Maps","protocol":17,"map":"pl_badwater","folder":"tf","game":"Team Fortress","app_id":440,"player_count":24,"max_players":24,"Bots":0,"server_type":"Dedicated","server_os":"Linux","password":true,"vac":true,"version":"7757534","steam_id":85568392924469982,"keywords":["nocrits","nodmgspread","payload","uncletopia"],"game_id":440,"stv_port":27016,"stv_name":"Uncletopia | Atlanta | 1 | All Maps | STV","players":[{"user_id":142,"name":"❤♡･ﾟBubbles･ﾟ♡❤","steam_id":76561198041057042,"connected_time":1459000000000,"state":"active","ping":83},{"user_id":152,"name":"Uncle____Bob","steam_id":76561198246201500,"connected_time":460000000000,"state":"active","ping":82},{"user_id":148,"name":"powerofsalad","steam_id":76561197998214476,"connected_time":672000000000,"state":"active","ping":67},{"user_id":141,"name":"MyamE","steam_id":76561198133278462,"connected_time":1517000000000,"state":"active","ping":72},{"user_id":145,"name":"RED1 | mayhem","steam_id":76561199246637881,"connected_time":721000000000,"state":"active","ping":55},{"user_id":103,"name":"schizophrenic with a gun","steam_id":76561198016121536,"connected_time":3663000000000,"state":"active","ping":77},{"user_id":149,"name":"Argot","steam_id":76561199048626201,"connected_time":671000000000,"state":"active","ping":66},{"user_id":144,"name":"RED1 | Mug","steam_id":76561199282207802,"connected_time":1207000000000,"state":"active","ping":78},{"user_id":146,"name":"lil hog","steam_id":76561199230929836,"connected_time":720000000000,"state":"active","ping":83},{"user_id":154,"name":"roma","steam_id":76561198028811916,"connected_time":406000000000,"state":"active","ping":53},{"user_id":68,"name":"--_Cook_--","steam_id":76561198080855748,"connected_time":5392000000000,"state":"active","ping":46},{"user_id":118,"name":"kametro4","steam_id":76561198835430429,"connected_time":2813000000000,"state":"active","ping":105},{"user_id":136,"name":"bash -lc ./asshat.sh","steam_id":76561198004584315,"connected_time":1916000000000,"state":"active","ping":86},{"user_id":143,"name":"Gheeotine","steam_id":76561198010181698,"connected_time":1428000000000,"state":"active","ping":85},{"user_id":153,"name":"Warlock","steam_id":76561198801747883,"connected_time":408000000000,"state":"active","ping":790},{"user_id":111,"name":"Adventurematt","steam_id":76561199302420877,"connected_time":3072000000000,"state":"active","ping":86},{"user_id":133,"name":"viscodolante","steam_id":76561198013650292,"connected_time":2079000000000,"state":"active","ping":92},{"user_id":150,"name":"AKconner","steam_id":76561198312569787,"connected_time":659000000000,"state":"active","ping":89},{"user_id":134,"name":"CyberZayne","steam_id":76561198002351356,"connected_time":1965000000000,"state":"active","ping":98},{"user_id":156,"name":"RED1 | snoops","steam_id":76561197986760351,"connected_time":56000000000,"state":"active","ping":79},{"user_id":121,"name":"squaggles!","steam_id":76561197994995011,"connected_time":2397000000000,"state":"active","ping":32},{"user_id":155,"name":"Crossing Jupiter","steam_id":76561198030126031,"connected_time":400000000000,"state":"active","ping":59},{"user_id":117,"name":"100,000 rabid chihuahuas in Ohi","steam_id":76561198130772096,"connected_time":2884000000000,"state":"active","ping":45},{"user_id":140,"name":"Ashes!","steam_id":76561197998475441,"connected_time":1550000000000,"state":"active","ping":92}]},{"server_id":400,"name":"Uncletopia | Atlanta | 3 | Community","name_short":"atl-3","host":"atl-1.us.uncletopia.com","port":27035,"enabled":true,"region":"us-east","cc":"us","latitude":33.753746,"longitude":-84.38633,"reserved":0,"last_update":"0001-01-01T00:00:00Z","name_a2s":"Uncletopia | Atlanta | 3 | Community","protocol":17,"map":"workshop/koth_trenchfoot_b1a.ugc731436616","folder":"tf","game":"Team Fortress","app_id":440,"player_count":0,"max_players":32,"Bots":0,"server_type":"Dedicated","server_os":"Linux","password":true,"vac":true,"version":"7757534","steam_id":85568392924515187,"keywords":["cp","increased_maxplayers","nocrits","nodmgspread","uncletopia"],"game_id":440,"stv_port":27036,"stv_name":"Uncletopia | Atlanta | 3 | Community | STV","players":null},{"server_id":401,"name":"Uncletopia | Atlanta | 4 | No Payload","name_short":"atl-4","host":"atl-1.us.uncletopia.com","port":27045,"enabled":true,"region":"us-east","cc":"us","latitude":33.753746,"longitude":-84.38633,"reserved":0,"last_update":"0001-01-01T00:00:00Z","name_a2s":"","protocol":0,"map":"","folder":"","game":"","app_id":0,"player_count":0,"max_players":0,"Bots":0,"server_type":"","server_os":"","password":false,"vac":false,"version":"","steam_id":0,"keywords":null,"game_id":0,"stv_port":0,"stv_name":"","players":null},{"server_id":2,"name":"Uncletopia | Chicago | 1 | All Maps","name_short":"chi-1","host":"chi-1.us.uncletopia.com","port":27015,"enabled":true,"region":"us-central","cc":"us","latitude":41.881832,"longitude":-87.62318,"reserved":0,"last_update":"0001-01-01T00:00:00Z","name_a2s":"Uncletopia | Chicago | 1 | All Maps","protocol":17,"map":"pl_badwater","folder":"tf","game":"Team Fortress","app_id":440,"player_count":24,"max_players":24,"Bots":0,"server_type":"Dedicated","server_os":"Linux","password":true,"vac":true,"version":"7757534","steam_id":85568392924469984,"keywords":["nocrits","nodmgspread","payload","uncletopia"],"game_id":440,"stv_port":27016,"stv_name":"Uncletopia | Chicago | 1 | All Maps | STV","players":[{"user_id":111,"name":"gaming elliptical","steam_id":76561198013456569,"connected_time":9179000000000,"state":"active","ping":45},{"user_id":204,"name":"Kasey","steam_id":76561198055510230,"connected_time":1834000000000,"state":"active","ping":60},{"user_id":225,"name":"WM1 PYRO","steam_id":76561198045893896,"connected_time":133000000000,"state":"active","ping":86},{"user_id":221,"name":"peggle fan","steam_id":76561198117181511,"connected_time":409000000000,"state":"active","ping":57},{"user_id":208,"name":"PKBEAST_7","steam_id":76561198177136537,"connected_time":1698000000000,"state":"active","ping":85},{"user_id":144,"name":"no way","steam_id":76561198082496000,"connected_time":6197000000000,"state":"active","ping":82},{"user_id":213,"name":"A Pyro Main","steam_id":76561198421760112,"connected_time":1036000000000,"state":"active","ping":49},{"user_id":215,"name":"Wolfe","steam_id":76561197997350470,"connected_time":952000000000,"state":"active","ping":83},{"user_id":186,"name":"condom shard #27","steam_id":76561198060342804,"connected_time":2402000000000,"state":"active","ping":71},{"user_id":211,"name":"Adam (Cursed Confetti Creature)","steam_id":76561198317690197,"connected_time":1090000000000,"state":"active","ping":48},{"user_id":219,"name":"Brass beast heavy","steam_id":76561198274197623,"connected_time":469000000000,"state":"active","ping":135},{"user_id":201,"name":"Valious","steam_id":76561198119675193,"connected_time":1890000000000,"state":"active","ping":56},{"user_id":187,"name":"Andraw","steam_id":76561198057499385,"connected_time":2381000000000,"state":"active","ping":60},{"user_id":188,"name":"Comfy!","steam_id":76561198008818346,"connected_time":2339000000000,"state":"active","ping":66},{"user_id":195,"name":"Crab Rangoon","steam_id":76561198059310510,"connected_time":2123000000000,"state":"active","ping":69},{"user_id":220,"name":"КОСЪ 387","steam_id":76561198071830760,"connected_time":466000000000,"state":"active","ping":185},{"user_id":223,"name":"GREG","steam_id":76561198073021168,"connected_time":268000000000,"state":"active","ping":68},{"user_id":212,"name":"Spring Beans","steam_id":76561197978546259,"connected_time":1079000000000,"state":"active","ping":61},{"user_id":175,"name":"Big Phony","steam_id":76561199092395311,"connected_time":2981000000000,"state":"active","ping":60},{"user_id":192,"name":"Lichy","steam_id":76561198310682841,"connected_time":2275000000000,"state":"active","ping":55},{"user_id":224,"name":"HYPERBOREAN SPACE STONERS","steam_id":76561198158206236,"connected_time":232000000000,"state":"active","ping":110},{"user_id":216,"name":"eyeboogers","steam_id":76561198045499333,"connected_time":692000000000,"state":"active","ping":57},{"user_id":214,"name":"drwwby","steam_id":76561198067741339,"connected_time":984000000000,"state":"active","ping":53},{"user_id":217,"name":"Cerabond","steam_id":76561199230915333,"connected_time":678000000000,"state":"active","ping":86}]},{"server_id":106,"name":"Uncletopia | Chicago | 2 | All Maps","name_short":"chi-2","host":"chi-1.us.uncletopia.com","port":27025,"enabled":true,"region":"us-central","cc":"us","latitude":41.881832,"longitude":-87.62318,"reserved":0,"last_update":"0001-01-01T00:00:00Z","name_a2s":"Uncletopia | Chicago | 2 | All Maps","protocol":17,"map":"pl_barnblitz","folder":"tf","game":"Team Fortress","app_id":440,"player_count":24,"max_players":24,"Bots":0,"server_type":"Dedicated","server_os":"Linux","password":true,"vac":true,"version":"7757534","steam_id":85568392924469985,"keywords":["nocrits","nodmgspread","payload","uncletopia"],"game_id":440,"stv_port":27026,"stv_name":"Uncletopia | Chicago | 2 | All Maps | STV","players":[{"user_id":402,"name":"Lilac","steam_id":76561198977523626,"connected_time":1113000000000,"state":"active","ping":73},{"user_id":422,"name":"kys now","steam_id":76561199368539607,"connected_time":304000000000,"state":"active","ping":69},{"user_id":423,"name":"drizzle","steam_id":76561198099412571,"connected_time":241000000000,"state":"active","ping":61},{"user_id":413,"name":"Skins McKenzie","steam_id":76561198043160642,"connected_time":665000000000,"state":"active","ping":67},{"user_id":380,"name":"ly","steam_id":76561198062922146,"connected_time":2437000000000,"state":"active","ping":74},{"user_id":418,"name":"poompis","steam_id":76561198160850933,"connected_time":545000000000,"state":"active","ping":99},{"user_id":397,"name":"mepng","steam_id":76561199018758598,"connected_time":1211000000000,"state":"active","ping":98},{"user_id":362,"name":"[ibb™]Shadow20X6-ENGI","steam_id":76561198019292755,"connected_time":3898000000000,"state":"active","ping":103},{"user_id":398,"name":"Decimus","steam_id":76561198341781527,"connected_time":1174000000000,"state":"active","ping":70},{"user_id":415,"name":"Jim Sock","steam_id":76561198418165673,"connected_time":607000000000,"state":"active","ping":58},{"user_id":399,"name":"n00bonicPlague","steam_id":76561198040341984,"connected_time":1169000000000,"state":"active","ping":76},{"user_id":392,"name":"krueger","steam_id":76561198268654031,"connected_time":1662000000000,"state":"active","ping":55},{"user_id":400,"name":"rudy","steam_id":76561198088712799,"connected_time":1160000000000,"state":"active","ping":81},{"user_id":401,"name":"Kingmako1099","steam_id":76561199266890323,"connected_time":1131000000000,"state":"active","ping":90},{"user_id":403,"name":"Amisonist","steam_id":76561199027395054,"connected_time":1103000000000,"state":"active","ping":43},{"user_id":419,"name":"Shamaury","steam_id":76561198073773862,"connected_time":542000000000,"state":"active","ping":63},{"user_id":368,"name":"Discourse","steam_id":76561198984286678,"connected_time":3294000000000,"state":"active","ping":58},{"user_id":424,"name":"Humpty Dumpty","steam_id":76561198996703440,"connected_time":234000000000,"state":"active","ping":85},{"user_id":405,"name":"Sheev Palpatine","steam_id":76561198252332430,"connected_time":1095000000000,"state":"active","ping":68},{"user_id":426,"name":"AER0.exe","steam_id":76561198062940197,"connected_time":24000000000,"state":"active","ping":60},{"user_id":411,"name":"fallacy","steam_id":76561198057374871,"connected_time":919000000000,"state":"active","ping":69},{"user_id":425,"name":"Mr. Pink","steam_id":76561198065858172,"connected_time":200000000000,"state":"active","ping":64},{"user_id":383,"name":"Majami","steam_id":76561198054365738,"connected_time":2421000000000,"state":"active","ping":165},{"user_id":385,"name":"Glide","steam_id":76561198046011621,"connected_time":2399000000000,"state":"active","ping":59}]},{"server_id":402,"name":"Uncletopia | Chicago | 3 | All Maps","name_short":"chi-3","host":"chi-1.us.uncletopia.com","port":27035,"enabled":true,"region":"us-central","cc":"us","latitude":41.881832,"longitude":-87.62318,"reserved":0,"last_update":"0001-01-01T00:00:00Z","name_a2s":"Uncletopia | Chicago | 3 | All Maps","protocol":17,"map":"cp_powerhouse","folder":"tf","game":"Team Fortress","app_id":440,"player_count":19,"max_players":24,"Bots":0,"server_type":"Dedicated","server_os":"Linux","password":true,"vac":true,"version":"7757534","steam_id":85568392924515191,"keywords":["cp","nocrits","nodmgspread","uncletopia"],"game_id":440,"stv_port":27036,"stv_name":"Uncletopia | Chicago | 3 | All Maps | STV","players":[{"user_id":89,"name":"bad luck","steam_id":76561198983657017,"connected_time":448000000000,"state":"active","ping":80},{"user_id":59,"name":"Ballsack Shaver","steam_id":76561199011739378,"connected_time":1877000000000,"state":"active","ping":65},{"user_id":97,"name":"MenacingMekhet","steam_id":76561198053165462,"connected_time":36000000000,"state":"active","ping":54},{"user_id":92,"name":"mush","steam_id":76561198310089797,"connected_time":275000000000,"state":"active","ping":60},{"user_id":93,"name":"gaylittlemouse","steam_id":76561198819562111,"connected_time":241000000000,"state":"active","ping":74},{"user_id":91,"name":"garfield","steam_id":76561198114119308,"connected_time":370000000000,"state":"active","ping":60},{"user_id":74,"name":"economy","steam_id":76561198221128984,"connected_time":1316000000000,"state":"active","ping":89},{"user_id":83,"name":"KevCraft","steam_id":76561199000622939,"connected_time":693000000000,"state":"active","ping":69},{"user_id":95,"name":"ZekeN0Tech","steam_id":76561198042151365,"connected_time":106000000000,"state":"active","ping":47},{"user_id":94,"name":"Fresh0c0","steam_id":76561198271933283,"connected_time":205000000000,"state":"active","ping":65},{"user_id":63,"name":"NUt","steam_id":76561198031007966,"connected_time":1818000000000,"state":"active","ping":73},{"user_id":96,"name":"sk3l3man","steam_id":76561199122252891,"connected_time":88000000000,"state":"active","ping":117},{"user_id":98,"name":"Candy Sparkles","steam_id":76561198126871264,"connected_time":31000000000,"state":"active","ping":77},{"user_id":99,"name":"Amogous Supreme","steam_id":76561198025476774,"connected_time":10000000000,"state":"spawning","ping":84},{"user_id":79,"name":"the dishtv1605","steam_id":76561198061284371,"connected_time":807000000000,"state":"active","ping":44},{"user_id":27,"name":"CeigeBirb","steam_id":76561198068538473,"connected_time":3211000000000,"state":"active","ping":76},{"user_id":28,"name":"Fluffeline","steam_id":76561198352909489,"connected_time":3207000000000,"state":"active","ping":135},{"user_id":100,"name":"Pebbled","steam_id":76561199390347605,"connected_time":6000000000,"state":"spawning","ping":59},{"user_id":66,"name":"God is an awful developer","steam_id":76561198103496593,"connected_time":1811000000000,"state":"active","ping":62}]},{"server_id":403,"name":"Uncletopia | Chicago | 4 | All Maps","name_short":"chi-4","host":"chi-1.us.uncletopia.com","port":27045,"enabled":true,"region":"us-central","cc":"us","latitude":41.881832,"longitude":-87.62318,"reserved":0,"last_update":"0001-01-01T00:00:00Z","name_a2s":"Uncletopia | Chicago | 4 | All Maps","protocol":17,"map":"pl_upward","folder":"tf","game":"Team Fortress","app_id":440,"player_count":24,"max_players":24,"Bots":0,"server_type":"Dedicated","server_os":"Linux","password":true,"vac":true,"version":"7757534","steam_id":85568392924515193,"keywords":["nocrits","nodmgspread","payload","uncletopia"],"game_id":440,"stv_port":27046,"stv_name":"Uncletopia | Chicago | 4 | All Maps | STV","players":[{"user_id":160,"name":"Huevo Frito","steam_id":76561198896811394,"connected_time":928000000000,"state":"active","ping":51},{"user_id":178,"name":"Styx","steam_id":76561198104657428,"connected_time":104000000000,"state":"active","ping":65},{"user_id":153,"name":"Cuttle's Fish","steam_id":76561198280483257,"connected_time":1570000000000,"state":"active","ping":56},{"user_id":142,"name":"BardoTheBoy","steam_id":76561198146732642,"connected_time":2939000000000,"state":"active","ping":83},{"user_id":171,"name":"BurnN8or101","steam_id":76561198132668224,"connected_time":194000000000,"state":"active","ping":73},{"user_id":165,"name":"The World's Softest Sandwich","steam_id":76561198015577707,"connected_time":439000000000,"state":"active","ping":77},{"user_id":172,"name":"87","steam_id":76561198128403624,"connected_time":165000000000,"state":"active","ping":33},{"user_id":139,"name":"Big ol' Willy Gaming","steam_id":76561198048545731,"connected_time":3160000000000,"state":"active","ping":86},{"user_id":173,"name":"geoff","steam_id":76561198038448355,"connected_time":157000000000,"state":"active","ping":43},{"user_id":133,"name":"Rockcrusher","steam_id":76561199012666353,"connected_time":3334000000000,"state":"active","ping":69},{"user_id":150,"name":"windowsinfinitev2","steam_id":76561199120867639,"connected_time":1672000000000,"state":"active","ping":66},{"user_id":166,"name":"Johnny Lawrence #JohnnyMaxxing","steam_id":76561199367141671,"connected_time":429000000000,"state":"active","ping":73},{"user_id":169,"name":"Epicmullen","steam_id":76561198259850795,"connected_time":280000000000,"state":"active","ping":85},{"user_id":151,"name":"ck_rene","steam_id":76561199079260488,"connected_time":1670000000000,"state":"active","ping":61},{"user_id":174,"name":"another breloom","steam_id":76561198006938024,"connected_time":150000000000,"state":"active","ping":93},{"user_id":163,"name":"lana_del_Rei.com","steam_id":76561198172447621,"connected_time":631000000000,"state":"active","ping":93},{"user_id":147,"name":"Uttergerth000","steam_id":76561198035776269,"connected_time":1722000000000,"state":"active","ping":57},{"user_id":179,"name":"Scientaku","steam_id":76561198859412543,"connected_time":30000000000,"state":"spawning","ping":60},{"user_id":138,"name":"Corbe","steam_id":76561198353893927,"connected_time":3170000000000,"state":"active","ping":31},{"user_id":175,"name":"Crasson","steam_id":76561198034967708,"connected_time":142000000000,"state":"active","ping":138},{"user_id":177,"name":"TomTom","steam_id":76561198204620072,"connected_time":111000000000,"state":"active","ping":163},{"user_id":144,"name":"girlboss","steam_id":76561197989019617,"connected_time":2741000000000,"state":"active","ping":46},{"user_id":140,"name":"Mish","steam_id":76561198042287075,"connected_time":3143000000000,"state":"active","ping":90},{"user_id":168,"name":"The man they call Jayne","steam_id":76561198080585050,"connected_time":365000000000,"state":"active","ping":136}]},{"server_id":36,"name":"Uncletopia | Chicago | 5 | All Maps","name_short":"chi-5","host":"chi-2.us.uncletopia.com","port":27015,"enabled":true,"region":"us-central","cc":"us","latitude":41.881832,"longitude":-87.62318,"reserved":0,"last_update":"0001-01-01T00:00:00Z","name_a2s":"Uncletopia | Chicago | 5 | All Maps","protocol":17,"map":"pl_swiftwater_final1","folder":"tf","game":"Team Fortress","app_id":440,"player_count":0,"max_players":24,"Bots":0,"server_type":"Dedicated","server_os":"Linux","password":true,"vac":true,"version":"7757534","steam_id":85568392924866362,"keywords":["nocrits","nodmgspread","payload","uncletopia"],"game_id":440,"stv_port":27016,"stv_name":"Uncletopia | Chicago | 5 | All Maps | STV","players":null},{"server_id":37,"name":"Uncletopia | Chicago | 6 | All Maps","name_short":"chi-6","host":"chi-2.us.uncletopia.com","port":27025,"enabled":true,"region":"us-central","cc":"us","latitude":41.881832,"longitude":-87.62318,"reserved":0,"last_update":"0001-01-01T00:00:00Z","name_a2s":"Uncletopia | Chicago | 6 | All Maps","protocol":17,"map":"pl_borneo","folder":"tf","game":"Team Fortress","app_id":440,"player_count":0,"max_players":24,"Bots":0,"server_type":"Dedicated","server_os":"Linux","password":true,"vac":true,"version":"7757534","steam_id":85568392924866363,"keywords":["nocrits","nodmgspread","payload","uncletopia"],"game_id":440,"stv_port":27026,"stv_name":"Uncletopia | Chicago | 6 | All Maps | STV","players":null},{"server_id":38,"name":"Uncletopia | Chicago | 7 | Stopwatch Beta","name_short":"chi-7","host":"chi-2.us.uncletopia.com","port":27035,"enabled":true,"region":"us-central","cc":"us","latitude":41.881832,"longitude":-87.62318,"reserved":0,"last_update":"0001-01-01T00:00:00Z","name_a2s":"Uncletopia | Chicago | 7 | Stopwatch Beta","protocol":17,"map":"pl_upward","folder":"tf","game":"Team Fortress","app_id":440,"player_count":0,"max_players":24,"Bots":0,"server_type":"Dedicated","server_os":"Linux","password":true,"vac":true,"version":"7757534","steam_id":85568392924866364,"keywords":["nocrits","nodmgspread","payload","uncletopia"],"game_id":440,"stv_port":27036,"stv_name":"Uncletopia | Chicago | 7 | Stopwatch Beta | STV","players":null},{"server_id":39,"name":"Uncletopia | Chicago | 8 | Community","name_short":"chi-8","host":"chi-2.us.uncletopia.com","port":27045,"enabled":true,"region":"us-central","cc":"us","latitude":41.881832,"longitude":-87.62318,"reserved":0,"last_update":"0001-01-01T00:00:00Z","name_a2s":"Uncletopia | Chicago | 8 | Community","protocol":17,"map":"pl_barnblitz","folder":"tf","game":"Team Fortress","app_id":440,"player_count":0,"max_players":24,"Bots":0,"server_type":"Dedicated","server_os":"Linux","password":true,"vac":true,"version":"7757534","steam_id":85568392924866365,"keywords":["nocrits","nodmgspread","payload","uncletopia"],"game_id":440,"stv_port":27046,"stv_name":"Uncletopia | Chicago | 8 | Community | STV","players":null},{"server_id":8,"name":"Uncletopia | Dallas | 1 | All Maps","name_short":"dal-1","host":"dal-1.us.uncletopia.com","port":27015,"enabled":true,"region":"us-central","cc":"us","latitude":32.779167,"longitude":-96.80889,"reserved":0,"last_update":"0001-01-01T00:00:00Z","name_a2s":"Uncletopia | Dallas | 1 | All Maps","protocol":17,"map":"pl_borneo","folder":"tf","game":"Team Fortress","app_id":440,"player_count":24,"max_players":24,"Bots":0,"server_type":"Dedicated","server_os":"Linux","password":true,"vac":true,"version":"7757534","steam_id":85568392924469986,"keywords":["nocrits","nodmgspread","payload","uncletopia"],"game_id":440,"stv_port":27016,"stv_name":"Uncletopia | Dallas | 1 | All Maps | STV","players":[{"user_id":72,"name":"Blobulonn","steam_id":76561198247949502,"connected_time":4965000000000,"state":"active","ping":74},{"user_id":122,"name":"Young-OG","steam_id":76561198058800479,"connected_time":1454000000000,"state":"active","ping":75},{"user_id":134,"name":"❤ Ashley ❤","steam_id":76561198056428303,"connected_time":71000000000,"state":"active","ping":75},{"user_id":107,"name":"Kevin the Minion","steam_id":76561198052380794,"connected_time":2041000000000,"state":"active","ping":105},{"user_id":132,"name":"Warrel (1087)","steam_id":76561199214185936,"connected_time":271000000000,"state":"active","ping":90},{"user_id":117,"name":"Megumin Tech Tips","steam_id":76561198375650360,"connected_time":1612000000000,"state":"active","ping":81},{"user_id":128,"name":"Your Local NPR Station","steam_id":76561198143830279,"connected_time":771000000000,"state":"active","ping":58},{"user_id":110,"name":"base4","steam_id":76561198042226166,"connected_time":1953000000000,"state":"active","ping":75},{"user_id":105,"name":"Poodwaddle","steam_id":76561198060384838,"connected_time":2158000000000,"state":"active","ping":83},{"user_id":121,"name":"Bastion","steam_id":76561199133903803,"connected_time":1509000000000,"state":"active","ping":77},{"user_id":120,"name":"cremeoner","steam_id":76561198372332251,"connected_time":1541000000000,"state":"active","ping":75},{"user_id":118,"name":".tv/whowee_","steam_id":76561198269471732,"connected_time":1581000000000,"state":"active","ping":47},{"user_id":131,"name":"KaaK","steam_id":76561198152882096,"connected_time":441000000000,"state":"active","ping":95},{"user_id":70,"name":"Medic Gaming","steam_id":76561199275406250,"connected_time":5368000000000,"state":"active","ping":109},{"user_id":133,"name":"aidenmc3","steam_id":76561198062209166,"connected_time":168000000000,"state":"active","ping":45},{"user_id":119,"name":"Dietrich","steam_id":76561198028163840,"connected_time":1575000000000,"state":"active","ping":69},{"user_id":100,"name":"iluvtoust","steam_id":76561198869269207,"connected_time":2689000000000,"state":"active","ping":45},{"user_id":63,"name":"Saulen","steam_id":76561198150726407,"connected_time":5837000000000,"state":"active","ping":74},{"user_id":130,"name":"purply-ghost","steam_id":76561199204779865,"connected_time":570000000000,"state":"active","ping":45},{"user_id":123,"name":"FaultierHeart11","steam_id":76561199447172677,"connected_time":1448000000000,"state":"active","ping":80},{"user_id":86,"name":"APOTATO","steam_id":76561198118199858,"connected_time":3762000000000,"state":"active","ping":74},{"user_id":58,"name":"deech","steam_id":76561198066429444,"connected_time":6684000000000,"state":"active","ping":90},{"user_id":61,"name":"Acro Banwagon","steam_id":76561198092451804,"connected_time":6638000000000,"state":"active","ping":74},{"user_id":98,"name":"Lezabel","steam_id":76561198970753261,"connected_time":2857000000000,"state":"active","ping":74}]},{"server_id":108,"name":"Uncletopia | Dallas | 2 | All Maps","name_short":"dal-2","host":"dal-1.us.uncletopia.com","port":27025,"enabled":true,"region":"us-central","cc":"us","latitude":32.779167,"longitude":-96.80889,"reserved":0,"last_update":"0001-01-01T00:00:00Z","name_a2s":"Uncletopia | Dallas | 2 | All Maps","protocol":17,"map":"pl_pier","folder":"tf","game":"Team Fortress","app_id":440,"player_count":23,"max_players":24,"Bots":0,"server_type":"Dedicated","server_os":"Linux","password":true,"vac":true,"version":"7757534","steam_id":85568392924469988,"keywords":["nocrits","nodmgspread","payload","uncletopia"],"game_id":440,"stv_port":27026,"stv_name":"Uncletopia | Dallas | 2 | All Maps | STV","players":[{"user_id":275,"name":"Soap","steam_id":76561197994893383,"connected_time":531000000000,"state":"active","ping":65},{"user_id":181,"name":"AdorableMew","steam_id":76561198186706405,"connected_time":7602000000000,"state":"active","ping":51},{"user_id":215,"name":"Lemon Demon Enthusiast","steam_id":76561199026721822,"connected_time":4989000000000,"state":"active","ping":89},{"user_id":218,"name":"S1r Gibby","steam_id":76561198107152354,"connected_time":4874000000000,"state":"active","ping":70},{"user_id":271,"name":"Kubloo","steam_id":76561198067391168,"connected_time":818000000000,"state":"active","ping":85},{"user_id":273,"name":"Bobby Ray","steam_id":76561198044131188,"connected_time":739000000000,"state":"active","ping":75},{"user_id":241,"name":"Bullwinkle J. Moose","steam_id":76561198075977196,"connected_time":2696000000000,"state":"active","ping":60},{"user_id":251,"name":"Ghosty","steam_id":76561198985058711,"connected_time":1582000000000,"state":"active","ping":112},{"user_id":226,"name":"Undeniable","steam_id":76561198378705223,"connected_time":3827000000000,"state":"active","ping":75},{"user_id":276,"name":"-W3E- grim10465","steam_id":76561198045698581,"connected_time":487000000000,"state":"active","ping":82},{"user_id":277,"name":"banana man","steam_id":76561199385170644,"connected_time":358000000000,"state":"active","ping":82},{"user_id":262,"name":"Sh3ba Spaniel","steam_id":76561198047412394,"connected_time":1278000000000,"state":"active","ping":85},{"user_id":272,"name":"Project Dusk","steam_id":76561198193521149,"connected_time":802000000000,"state":"active","ping":71},{"user_id":259,"name":"Dragonofponies","steam_id":76561199016800803,"connected_time":1360000000000,"state":"active","ping":55},{"user_id":260,"name":"B.","steam_id":76561198040445907,"connected_time":1336000000000,"state":"active","ping":76},{"user_id":261,"name":"348 here","steam_id":76561197995110569,"connected_time":1302000000000,"state":"active","ping":74},{"user_id":263,"name":"Florence Jenkins","steam_id":76561198023894049,"connected_time":1273000000000,"state":"active","ping":103},{"user_id":264,"name":"Obamacare","steam_id":76561198018894553,"connected_time":1252000000000,"state":"active","ping":76},{"user_id":265,"name":"Hermit_    | trade.tf","steam_id":76561198013807290,"connected_time":1232000000000,"state":"active","ping":60},{"user_id":266,"name":"MeatShield 2000","steam_id":76561199375192850,"connected_time":1229000000000,"state":"active","ping":125},{"user_id":267,"name":"TheBrocklobster","steam_id":76561198039682984,"connected_time":1190000000000,"state":"active","ping":89},{"user_id":247,"name":"TarSenpai","steam_id":76561199292143353,"connected_time":2027000000000,"state":"active","ping":84},{"user_id":270,"name":"Jennifer Aniston's Nipples","steam_id":76561198086107548,"connected_time":990000000000,"state":"active","ping":49}]},{"server_id":5,"name":"Uncletopia | Frankfurt | 1 | All Maps","name_short":"frk-1","host":"frk-1.de.uncletopia.com","port":27015,"enabled":true,"region":"eu","cc":"de","latitude":50.110924,"longitude":8.682127,"reserved":0,"last_update":"0001-01-01T00:00:00Z","name_a2s":"Uncletopia | Frankfurt | 1 | All Maps","protocol":17,"map":"cp_dustbowl","folder":"tf","game":"Team Fortress","app_id":440,"player_count":19,"max_players":24,"Bots":0,"server_type":"Dedicated","server_os":"Linux","password":true,"vac":true,"version":"7757534","steam_id":85568392924469989,"keywords":["nocrits","nodmgspread","payload","uncletopia"],"game_id":440,"stv_port":27016,"stv_name":"Uncletopia | Frankfurt | 1 | All Maps | STV","players":[{"user_id":519,"name":"banyesz","steam_id":76561198152997658,"connected_time":3070000000000,"state":"connecting","ping":86},{"user_id":582,"name":"nky","steam_id":76561198086229832,"connected_time":56000000000,"state":"connecting","ping":70},{"user_id":583,"name":"v0rt3x","steam_id":76561198034695233,"connected_time":31000000000,"state":"connecting","ping":86},{"user_id":574,"name":"Squishy","steam_id":76561198124618876,"connected_time":485000000000,"state":"connecting","ping":150},{"user_id":568,"name":"IceDreamer","steam_id":76561197997569989,"connected_time":815000000000,"state":"connecting","ping":74},{"user_id":506,"name":"Marty™","steam_id":76561198060073673,"connected_time":4204000000000,"state":"connecting","ping":79},{"user_id":580,"name":"Jeeworth","steam_id":76561198797972504,"connected_time":192000000000,"state":"connecting","ping":80},{"user_id":560,"name":"1 zeptosecond no zaza","steam_id":76561198339480413,"connected_time":1184000000000,"state":"connecting","ping":73},{"user_id":539,"name":"Deacon Dracul","steam_id":76561198046880663,"connected_time":1948000000000,"state":"connecting","ping":158},{"user_id":559,"name":"4","steam_id":76561197964945192,"connected_time":1197000000000,"state":"connecting","ping":61},{"user_id":535,"name":"2 Bugatti Richh","steam_id":76561198122416996,"connected_time":2152000000000,"state":"spawning","ping":60},{"user_id":551,"name":"The2PLAYZ","steam_id":76561198352720404,"connected_time":1575000000000,"state":"spawning","ping":107},{"user_id":563,"name":"Mandrake","steam_id":76561197970852048,"connected_time":1138000000000,"state":"connecting","ping":76},{"user_id":549,"name":"Alibi","steam_id":76561198061845595,"connected_time":1671000000000,"state":"connecting","ping":70},{"user_id":547,"name":"Tramuntana","steam_id":76561198241843480,"connected_time":1699000000000,"state":"connecting","ping":98},{"user_id":573,"name":"bAdmon","steam_id":76561197961785793,"connected_time":537000000000,"state":"connecting","ping":66},{"user_id":577,"name":"EEEEEH","steam_id":76561198126717413,"connected_time":422000000000,"state":"connecting","ping":101},{"user_id":571,"name":"degu","steam_id":76561198180823942,"connected_time":683000000000,"state":"connecting","ping":104}]},{"server_id":110,"name":"Uncletopia | Frankfurt | 2 | All Maps","name_short":"frk-2","host":"frk-1.de.uncletopia.com","port":27025,"enabled":true,"region":"eu","cc":"de","latitude":50.110924,"longitude":8.682127,"reserved":0,"last_update":"0001-01-01T00:00:00Z","name_a2s":"Uncletopia | Frankfurt | 2 | All Maps","protocol":17,"map":"cp_dustbowl","folder":"tf","game":"Team Fortress","app_id":440,"player_count":24,"max_players":24,"Bots":0,"server_type":"Dedicated","server_os":"Linux","password":true,"vac":true,"version":"7757534","steam_id":85568392924469990,"keywords":["cp","nocrits","nodmgspread","uncletopia"],"game_id":440,"stv_port":27026,"stv_name":"Uncletopia | Frankfurt | 2 | All Maps | STV","players":[{"user_id":562,"name":"SirNeeco \u003c3","steam_id":76561198103014203,"connected_time":654000000000,"state":"active","ping":59},{"user_id":570,"name":"Na'vi Misato (by popular demand","steam_id":76561198130860698,"connected_time":308000000000,"state":"active","ping":60},{"user_id":552,"name":"SlaughtHunter","steam_id":76561198107410482,"connected_time":1629000000000,"state":"active","ping":74},{"user_id":525,"name":"lvl. 50 honkler","steam_id":76561198061688660,"connected_time":3093000000000,"state":"active","ping":97},{"user_id":543,"name":"spunkpunk","steam_id":76561198048852186,"connected_time":1804000000000,"state":"active","ping":79},{"user_id":534,"name":"sssam","steam_id":76561198430078799,"connected_time":2357000000000,"state":"active","ping":82},{"user_id":575,"name":"[BROBOT] Nergal","steam_id":76561198098172161,"connected_time":53000000000,"state":"active","ping":62},{"user_id":565,"name":"chinese","steam_id":76561197968097633,"connected_time":604000000000,"state":"active","ping":59},{"user_id":515,"name":"EastmoreRandoms.","steam_id":76561198048921203,"connected_time":3416000000000,"state":"active","ping":72},{"user_id":576,"name":"Abbe","steam_id":76561198066947112,"connected_time":51000000000,"state":"active","ping":60},{"user_id":544,"name":"SantiThePug #ReviveTheCaber","steam_id":76561199049615996,"connected_time":1788000000000,"state":"active","ping":70},{"user_id":572,"name":"makiverem","steam_id":76561198425866216,"connected_time":228000000000,"state":"active","ping":89},{"user_id":568,"name":"Jackiplier (real)","steam_id":76561198241772340,"connected_time":483000000000,"state":"active","ping":101},{"user_id":530,"name":"Harmony","steam_id":76561198436817109,"connected_time":2636000000000,"state":"active","ping":72},{"user_id":526,"name":"Tea","steam_id":76561198799243030,"connected_time":3011000000000,"state":"active","ping":71},{"user_id":566,"name":"Rendeto","steam_id":76561198271955247,"connected_time":585000000000,"state":"active","ping":75},{"user_id":541,"name":"Nelson Your F2p Friend","steam_id":76561198850327678,"connected_time":1854000000000,"state":"active","ping":187},{"user_id":524,"name":"HelwiiHill","steam_id":76561198066730552,"connected_time":3163000000000,"state":"active","ping":93},{"user_id":516,"name":"Legally Not Allowed To Headshot","steam_id":76561198198504762,"connected_time":3398000000000,"state":"active","ping":102},{"user_id":542,"name":"tur$turi","steam_id":76561198082954375,"connected_time":1841000000000,"state":"active","ping":91},{"user_id":560,"name":"mythrus","steam_id":76561198995953346,"connected_time":1074000000000,"state":"active","ping":79},{"user_id":567,"name":"Uriri","steam_id":76561198085588686,"connected_time":567000000000,"state":"active","ping":76},{"user_id":427,"name":"ugly","steam_id":76561199050412617,"connected_time":8370000000000,"state":"active","ping":110},{"user_id":574,"name":"vinicentus","steam_id":76561198164081318,"connected_time":63000000000,"state":"active","ping":100}]},{"server_id":308,"name":"Uncletopia | Frankfurt | 3 | All Maps","name_short":"frk-3","host":"frk-1.de.uncletopia.com","port":27035,"enabled":true,"region":"eu","cc":"de","latitude":50.110924,"longitude":8.682127,"reserved":0,"last_update":"0001-01-01T00:00:00Z","name_a2s":"Uncletopia | Frankfurt | 3 | All Maps","protocol":17,"map":"pl_frontier_final","folder":"tf","game":"Team Fortress","app_id":440,"player_count":24,"max_players":24,"Bots":0,"server_type":"Dedicated","server_os":"Linux","password":true,"vac":true,"version":"7757534","steam_id":85568392924504274,"keywords":["nocrits","nodmgspread","payload","uncletopia"],"game_id":440,"stv_port":27036,"stv_name":"Uncletopia | Frankfurt | 3 | All Maps | STV","players":[{"user_id":424,"name":"wxyz kapıcı izzet","steam_id":76561198241873438,"connected_time":3430000000000,"state":"active","ping":75},{"user_id":453,"name":"Caliban","steam_id":76561197999696839,"connected_time":1432000000000,"state":"active","ping":103},{"user_id":398,"name":"gta_sa","steam_id":76561199433578516,"connected_time":4899000000000,"state":"active","ping":75},{"user_id":459,"name":"noobdog","steam_id":76561198036486671,"connected_time":628000000000,"state":"active","ping":61},{"user_id":455,"name":"Skeletros","steam_id":76561198130969152,"connected_time":1329000000000,"state":"active","ping":139},{"user_id":464,"name":"öööö✪","steam_id":76561198181645822,"connected_time":321000000000,"state":"active","ping":86},{"user_id":467,"name":"bart","steam_id":76561198025395216,"connected_time":61000000000,"state":"active","ping":86},{"user_id":462,"name":"AmadStatistician","steam_id":76561198163654770,"connected_time":352000000000,"state":"active","ping":70},{"user_id":389,"name":"XeniasPimp","steam_id":76561198126398022,"connected_time":5705000000000,"state":"active","ping":73},{"user_id":457,"name":"tallen","steam_id":76561198061708595,"connected_time":1116000000000,"state":"active","ping":85},{"user_id":422,"name":"NaN","steam_id":76561198071098413,"connected_time":3554000000000,"state":"active","ping":52},{"user_id":381,"name":"xenia","steam_id":76561198062107879,"connected_time":5951000000000,"state":"active","ping":78},{"user_id":445,"name":"Malok","steam_id":76561198371117880,"connected_time":1728000000000,"state":"active","ping":51},{"user_id":382,"name":"skiety","steam_id":76561198126524735,"connected_time":5938000000000,"state":"active","ping":72},{"user_id":450,"name":"Yrjö Koskinen Yrjö-Koskinen","steam_id":76561198368181145,"connected_time":1556000000000,"state":"active","ping":82},{"user_id":447,"name":"Professional facestab","steam_id":76561198258721056,"connected_time":1650000000000,"state":"active","ping":52},{"user_id":396,"name":"The Proclaimers","steam_id":76561198934886665,"connected_time":5058000000000,"state":"active","ping":85},{"user_id":460,"name":"Sandvich Gaming","steam_id":76561199079493666,"connected_time":592000000000,"state":"active","ping":92},{"user_id":451,"name":"Asfreild","steam_id":76561198055901120,"connected_time":1554000000000,"state":"active","ping":75},{"user_id":466,"name":"_zipfile","steam_id":76561198066133808,"connected_time":131000000000,"state":"active","ping":87},{"user_id":458,"name":"bigwish | bmod.tf","steam_id":76561197997859723,"connected_time":656000000000,"state":"active","ping":81},{"user_id":465,"name":"Fortuit","steam_id":76561198065143703,"connected_time":288000000000,"state":"active","ping":72},{"user_id":436,"name":"JohkupohkuXD","steam_id":76561198391108762,"connected_time":2836000000000,"state":"active","ping":90},{"user_id":443,"name":"WolfmanCZ","steam_id":76561199157141414,"connected_time":1753000000000,"state":"active","ping":77}]},{"server_id":309,"name":"Uncletopia | Frankfurt | 4 | All Maps","name_short":"frk-4","host":"frk-1.de.uncletopia.com","port":27045,"enabled":true,"region":"eu","cc":"de","latitude":50.110924,"longitude":8.682127,"reserved":0,"last_update":"0001-01-01T00:00:00Z","name_a2s":"Uncletopia | Frankfurt | 4 | All Maps","protocol":17,"map":"pl_upward","folder":"tf","game":"Team Fortress","app_id":440,"player_count":24,"max_players":24,"Bots":0,"server_type":"Dedicated","server_os":"Linux","password":true,"vac":true,"version":"7757534","steam_id":85568392924504275,"keywords":["nocrits","nodmgspread","payload","uncletopia"],"game_id":440,"stv_port":27046,"stv_name":"Uncletopia | Frankfurt | 4 | All Maps | STV","players":[{"user_id":243,"name":"there is no Fred","steam_id":76561198045505082,"connected_time":511000000000,"state":"active","ping":91},{"user_id":231,"name":"youtube:Hl2_Tpal","steam_id":76561198972038742,"connected_time":2438000000000,"state":"active","ping":63},{"user_id":257,"name":"flr","steam_id":76561198249327786,"connected_time":270000000000,"state":"active","ping":66},{"user_id":238,"name":"Carol Olston","steam_id":76561198080257273,"connected_time":1457000000000,"state":"active","ping":54},{"user_id":242,"name":"Arturias","steam_id":76561198188720263,"connected_time":636000000000,"state":"active","ping":45},{"user_id":239,"name":"Wardruna96","steam_id":76561199057083828,"connected_time":1220000000000,"state":"active","ping":85},{"user_id":255,"name":"mcsm♦","steam_id":76561198850691862,"connected_time":291000000000,"state":"active","ping":98},{"user_id":204,"name":"whatever","steam_id":76561198095943461,"connected_time":3555000000000,"state":"active","ping":62},{"user_id":205,"name":"mrk","steam_id":76561198120166752,"connected_time":3516000000000,"state":"active","ping":75},{"user_id":256,"name":"pepper","steam_id":76561198059782462,"connected_time":275000000000,"state":"active","ping":50},{"user_id":234,"name":"Snokie Boi","steam_id":76561198081126247,"connected_time":2413000000000,"state":"active","ping":78},{"user_id":206,"name":"trk","steam_id":76561198079111788,"connected_time":3505000000000,"state":"active","ping":80},{"user_id":207,"name":"maKU","steam_id":76561198073943958,"connected_time":3504000000000,"state":"active","ping":57},{"user_id":224,"name":"Gr8gy","steam_id":76561198801350782,"connected_time":2660000000000,"state":"active","ping":87},{"user_id":254,"name":"Fasj.","steam_id":76561198049975379,"connected_time":294000000000,"state":"active","ping":61},{"user_id":249,"name":"☩ Knightz ☩","steam_id":76561198040936414,"connected_time":342000000000,"state":"active","ping":121},{"user_id":259,"name":"jerf","steam_id":76561199213901239,"connected_time":99000000000,"state":"active","ping":77},{"user_id":241,"name":"Segra blw.tf","steam_id":76561198441974031,"connected_time":789000000000,"state":"active","ping":68},{"user_id":222,"name":"Noodle","steam_id":76561198306486695,"connected_time":3063000000000,"state":"active","ping":57},{"user_id":250,"name":"Rops","steam_id":76561198031608011,"connected_time":342000000000,"state":"active","ping":84},{"user_id":229,"name":"DrExplosive","steam_id":76561198063678579,"connected_time":2620000000000,"state":"active","ping":74},{"user_id":217,"name":"Miloš","steam_id":76561198129684105,"connected_time":3245000000000,"state":"active","ping":65},{"user_id":245,"name":"BlinkedUp","steam_id":76561198249985618,"connected_time":425000000000,"state":"active","ping":61},{"user_id":258,"name":"sprongo","steam_id":76561198007792525,"connected_time":238000000000,"state":"active","ping":60}]},{"server_id":310,"name":"Uncletopia | Frankfurt | 5 | All Maps","name_short":"frk-5","host":"frk-1.de.uncletopia.com","port":27055,"enabled":true,"region":"eu","cc":"de","latitude":50.110924,"longitude":8.682127,"reserved":0,"last_update":"0001-01-01T00:00:00Z","name_a2s":"Uncletopia | Frankfurt | 5 | All Maps","protocol":17,"map":"pl_badwater","folder":"tf","game":"Team Fortress","app_id":440,"player_count":24,"max_players":24,"Bots":0,"server_type":"Dedicated","server_os":"Linux","password":true,"vac":true,"version":"7757534","steam_id":85568392924504277,"keywords":["nocrits","nodmgspread","payload","uncletopia"],"game_id":440,"stv_port":27056,"stv_name":"Uncletopia | Frankfurt | 5 | All Maps | STV","players":[{"user_id":512,"name":"Grønkjær","steam_id":76561198041075280,"connected_time":1586000000000,"state":"active","ping":85},{"user_id":529,"name":"etc","steam_id":76561197998394797,"connected_time":218000000000,"state":"active","ping":52},{"user_id":530,"name":"Egor Pomidor","steam_id":76561199175688390,"connected_time":214000000000,"state":"active","ping":78},{"user_id":531,"name":"bhuv_","steam_id":76561199017802612,"connected_time":212000000000,"state":"active","ping":165},{"user_id":532,"name":"xd","steam_id":76561198066523881,"connected_time":174000000000,"state":"active","ping":61},{"user_id":522,"name":"ToniGAM3S","steam_id":76561198128605351,"connected_time":1269000000000,"state":"active","ping":62},{"user_id":528,"name":"Seeker","steam_id":76561198873052772,"connected_time":376000000000,"state":"active","ping":76},{"user_id":502,"name":"Paintbrush","steam_id":76561198119987705,"connected_time":2323000000000,"state":"active","ping":66},{"user_id":524,"name":"After8","steam_id":76561198090750865,"connected_time":700000000000,"state":"active","ping":63},{"user_id":533,"name":"Dill Killem","steam_id":76561199071571354,"connected_time":158000000000,"state":"active","ping":79},{"user_id":465,"name":"darktheif54","steam_id":76561198043650119,"connected_time":3898000000000,"state":"active","ping":55},{"user_id":520,"name":"Carrot Arc","steam_id":76561198164957006,"connected_time":1289000000000,"state":"active","ping":85},{"user_id":538,"name":"GEP Gun","steam_id":76561197981821003,"connected_time":21000000000,"state":"active","ping":75},{"user_id":525,"name":"night.s","steam_id":76561198326287823,"connected_time":571000000000,"state":"active","ping":78},{"user_id":535,"name":"TendedKibbles0","steam_id":76561198320304516,"connected_time":142000000000,"state":"active","ping":153},{"user_id":536,"name":"KajaStorm","steam_id":76561199215842872,"connected_time":90000000000,"state":"active","ping":163},{"user_id":519,"name":"Charles Darwin","steam_id":76561197973496139,"connected_time":1292000000000,"state":"active","ping":63},{"user_id":537,"name":"Cheddar","steam_id":76561198094192281,"connected_time":63000000000,"state":"active","ping":68},{"user_id":457,"name":"Autumnsky","steam_id":76561198055161203,"connected_time":4415000000000,"state":"active","ping":57},{"user_id":498,"name":"TJ1212","steam_id":76561199013575313,"connected_time":2458000000000,"state":"active","ping":78},{"user_id":515,"name":"Seb, Comrade","steam_id":76561198040279587,"connected_time":1486000000000,"state":"active","ping":90},{"user_id":521,"name":"Insain Bolt!","steam_id":76561198025687726,"connected_time":1281000000000,"state":"active","ping":70},{"user_id":458,"name":"ДОВИТОФФ","steam_id":76561198313372925,"connected_time":4226000000000,"state":"active","ping":70},{"user_id":501,"name":"悪","steam_id":76561198095879087,"connected_time":2435000000000,"state":"active","ping":71}]},{"server_id":311,"name":"Uncletopia | Frankfurt | 6 | All Maps","name_short":"frk-6","host":"frk-1.de.uncletopia.com","port":27065,"enabled":true,"region":"eu","cc":"de","latitude":50.110924,"longitude":8.682127,"reserved":0,"last_update":"0001-01-01T00:00:00Z","name_a2s":"Uncletopia | Frankfurt | 6 | All Maps","protocol":17,"map":"koth_highpass","folder":"tf","game":"Team Fortress","app_id":440,"player_count":0,"max_players":24,"Bots":0,"server_type":"Dedicated","server_os":"Linux","password":true,"vac":true,"version":"7757534","steam_id":85568392924504278,"keywords":["cp","nocrits","nodmgspread","uncletopia"],"game_id":440,"stv_port":27066,"stv_name":"Uncletopia | Frankfurt | 6 | All Maps | STV","players":null},{"server_id":23,"name":"Uncletopia | Frankfurt | 7 | Stopwatch Beta","name_short":"frk-7","host":"frk-1.de.uncletopia.com","port":27075,"enabled":true,"region":"eu","cc":"de","latitude":50.110924,"longitude":8.682127,"reserved":0,"last_update":"0001-01-01T00:00:00Z","name_a2s":"Uncletopia | Frankfurt | 7 | Stopwatch Beta","protocol":17,"map":"pl_frontier_final","folder":"tf","game":"Team Fortress","app_id":440,"player_count":0,"max_players":24,"Bots":0,"server_type":"Dedicated","server_os":"Linux","password":true,"vac":true,"version":"7757534","steam_id":85568392924742827,"keywords":["nocrits","nodmgspread","payload","uncletopia"],"game_id":440,"stv_port":27076,"stv_name":"Uncletopia | Frankfurt | 7 | Stopwatch Beta | STV","players":null},{"server_id":24,"name":"Uncletopia | Frankfurt | 8 | Community","name_short":"frk-8","host":"frk-1.de.uncletopia.com","port":27085,"enabled":true,"region":"eu","cc":"de","latitude":50.110924,"longitude":8.682127,"reserved":0,"last_update":"0001-01-01T00:00:00Z","name_a2s":"Uncletopia | Frankfurt | 8 | Community","protocol":17,"map":"workshop/koth_bagel_rc5.ugc2514036946","folder":"tf","game":"Team Fortress","app_id":440,"player_count":0,"max_players":24,"Bots":0,"server_type":"Dedicated","server_os":"Linux","password":true,"vac":true,"version":"7757534","steam_id":85568392924742828,"keywords":["cp","nocrits","nodmgspread","uncletopia"],"game_id":440,"stv_port":27086,"stv_name":"Uncletopia | Frankfurt | 8 | Community | STV","players":null},{"server_id":202,"name":"Uncletopia | Hong Kong | 1 | All Maps","name_short":"hgk-1","host":"hgk-1.hk.uncletopia.com","port":27015,"enabled":true,"region":"asia","cc":"hk","latitude":22.302711,"longitude":114.177216,"reserved":0,"last_update":"0001-01-01T00:00:00Z","name_a2s":"Uncletopia | Hong Kong | 1 | All Maps","protocol":17,"map":"koth_viaduct","folder":"tf","game":"Team Fortress","app_id":440,"player_count":0,"max_players":24,"Bots":0,"server_type":"Dedicated","server_os":"Linux","password":true,"vac":true,"version":"7757534","steam_id":85568392924494504,"keywords":["cp","nocrits","nodmgspread","uncletopia"],"game_id":440,"stv_port":27016,"stv_name":"Uncletopia | Hong Kong | 1 | All Maps | STV","players":null},{"server_id":1,"name":"Uncletopia | Los Angeles | 1 | All Maps","name_short":"lax-1","host":"lax-1.us.uncletopia.com","port":27015,"enabled":true,"region":"us-west","cc":"us","latitude":33.94279,"longitude":-118.41004,"reserved":0,"last_update":"0001-01-01T00:00:00Z","name_a2s":"Uncletopia | Los Angeles | 1 | All Maps","protocol":17,"map":"pl_upward","folder":"tf","game":"Team Fortress","app_id":440,"player_count":1,"max_players":24,"Bots":0,"server_type":"Dedicated","server_os":"Linux","password":true,"vac":true,"version":"7757534","steam_id":85568392924469991,"keywords":["nocrits","nodmgspread","payload","uncletopia"],"game_id":440,"stv_port":27016,"stv_name":"Uncletopia | Los Angeles | 1 | All Maps | STV","players":[{"user_id":21,"name":"Knyfer","steam_id":76561198332783580,"connected_time":5000000000,"state":"spawning","ping":59}]},{"server_id":112,"name":"Uncletopia | Los Angeles | 2 | All Maps","name_short":"lax-2","host":"lax-1.us.uncletopia.com","port":27025,"enabled":true,"region":"us-west","cc":"us","latitude":33.94279,"longitude":-118.41004,"reserved":0,"last_update":"0001-01-01T00:00:00Z","name_a2s":"Uncletopia | Los Angeles | 2 | All Maps","protocol":17,"map":"koth_cascade","folder":"tf","game":"Team Fortress","app_id":440,"player_count":0,"max_players":24,"Bots":0,"server_type":"Dedicated","server_os":"Linux","password":true,"vac":true,"version":"7757534","steam_id":85568392924469992,"keywords":["cp","nocrits","nodmgspread","uncletopia"],"game_id":440,"stv_port":27026,"stv_name":"Uncletopia | Los Angeles | 2 | All Maps | STV","players":null},{"server_id":324,"name":"Uncletopia | Los Angeles | 3 | All Maps","name_short":"lax-3","host":"lax-1.us.uncletopia.com","port":27035,"enabled":true,"region":"us-west","cc":"us","latitude":33.94279,"longitude":-118.41004,"reserved":0,"last_update":"0001-01-01T00:00:00Z","name_a2s":"Uncletopia | Los Angeles | 3 | All Maps","protocol":17,"map":"koth_cascade","folder":"tf","game":"Team Fortress","app_id":440,"player_count":0,"max_players":24,"Bots":0,"server_type":"Dedicated","server_os":"Linux","password":true,"vac":true,"version":"7757534","steam_id":85568392924510198,"keywords":["cp","nocrits","nodmgspread","uncletopia"],"game_id":440,"stv_port":27036,"stv_name":"Uncletopia | Los Angeles | 3 | All Maps | STV","players":null},{"server_id":25,"name":"Uncletopia | Los Angeles | 4 | Stopwatch Beta","name_short":"lax-4","host":"lax-1.us.uncletopia.com","port":27045,"enabled":true,"region":"us-west","cc":"us","latitude":33.94279,"longitude":-118.41004,"reserved":0,"last_update":"0001-01-01T00:00:00Z","name_a2s":"Uncletopia | Los Angeles | 4 | Stopwatch Beta","protocol":17,"map":"pl_frontier_final","folder":"tf","game":"Team Fortress","app_id":440,"player_count":0,"max_players":24,"Bots":0,"server_type":"Dedicated","server_os":"Linux","password":true,"vac":true,"version":"7757534","steam_id":85568392924510199,"keywords":["nocrits","nodmgspread","payload","uncletopia"],"game_id":440,"stv_port":27046,"stv_name":"Uncletopia | Los Angeles | 4 | Stopwatch Beta | STV","players":null},{"server_id":11,"name":"Uncletopia | London | 1 | All Maps","name_short":"lon-1","host":"lon-1.uk.uncletopia.com","port":27015,"enabled":true,"region":"eu","cc":"gb","latitude":51.509865,"longitude":-0.118092,"reserved":0,"last_update":"0001-01-01T00:00:00Z","name_a2s":"Uncletopia | London | 1 | All Maps","protocol":17,"map":"pl_borneo","folder":"tf","game":"Team Fortress","app_id":440,"player_count":24,"max_players":24,"Bots":0,"server_type":"Dedicated","server_os":"Linux","password":true,"vac":true,"version":"7757534","steam_id":85568392924367362,"keywords":["nocrits","nodmgspread","payload","uncletopia"],"game_id":440,"stv_port":27016,"stv_name":"Uncletopia | London | 1 | All Maps | STV","players":[{"user_id":554,"name":"MtnDew","steam_id":76561199100059743,"connected_time":4813000000000,"state":"active","ping":113},{"user_id":603,"name":"Lucoa Enjoyer","steam_id":76561198842622419,"connected_time":1891000000000,"state":"active","ping":95},{"user_id":622,"name":"S'all good, man","steam_id":76561198363882056,"connected_time":441000000000,"state":"active","ping":45},{"user_id":537,"name":"KPhii","steam_id":76561198970587061,"connected_time":5751000000000,"state":"active","ping":72},{"user_id":621,"name":"ghost","steam_id":76561198189940229,"connected_time":448000000000,"state":"active","ping":57},{"user_id":626,"name":"Okean","steam_id":76561199234066970,"connected_time":234000000000,"state":"spawning","ping":43},{"user_id":601,"name":"Milosz52","steam_id":76561199060940204,"connected_time":2133000000000,"state":"active","ping":86},{"user_id":607,"name":"dr. coom","steam_id":76561198172193711,"connected_time":1499000000000,"state":"active","ping":42},{"user_id":570,"name":"Dirty Joe","steam_id":76561198142418870,"connected_time":3914000000000,"state":"active","ping":42},{"user_id":623,"name":"Utter Shit","steam_id":76561198020254869,"connected_time":441000000000,"state":"active","ping":47},{"user_id":613,"name":"BONK-TEC!","steam_id":76561198272667029,"connected_time":1365000000000,"state":"active","ping":44},{"user_id":544,"name":"astra","steam_id":76561198042980579,"connected_time":5399000000000,"state":"active","ping":63},{"user_id":557,"name":"arl","steam_id":76561198415997429,"connected_time":4726000000000,"state":"active","ping":75},{"user_id":629,"name":"Petight","steam_id":76561197999438798,"connected_time":142000000000,"state":"active","ping":30},{"user_id":625,"name":"Bonnano","steam_id":76561198124081203,"connected_time":397000000000,"state":"active","ping":70},{"user_id":606,"name":"The cost of living in the UK","steam_id":76561199000520747,"connected_time":1537000000000,"state":"active","ping":46},{"user_id":618,"name":"Aaron","steam_id":76561197990046953,"connected_time":781000000000,"state":"active","ping":73},{"user_id":581,"name":"Payload poggers","steam_id":76561198860065033,"connected_time":3039000000000,"state":"active","ping":53},{"user_id":631,"name":"nachtraaf","steam_id":76561197960473205,"connected_time":41000000000,"state":"active","ping":47},{"user_id":562,"name":"70 percent off!!!","steam_id":76561198083615367,"connected_time":4534000000000,"state":"active","ping":34},{"user_id":547,"name":"john fortress","steam_id":76561198013237629,"connected_time":5385000000000,"state":"active","ping":87},{"user_id":600,"name":"Steen","steam_id":76561198122992510,"connected_time":2168000000000,"state":"active","ping":54},{"user_id":616,"name":"Kahvi","steam_id":76561198723244199,"connected_time":1273000000000,"state":"active","ping":70},{"user_id":577,"name":"vahlorie","steam_id":76561197990007241,"connected_time":3148000000000,"state":"active","ping":54}]},{"server_id":114,"name":"Uncletopia | London | 2 | All Maps","name_short":"lon-2","host":"lon-1.uk.uncletopia.com","port":27025,"enabled":true,"region":"eu","cc":"gb","latitude":51.509865,"longitude":-0.118092,"reserved":0,"last_update":"0001-01-01T00:00:00Z","name_a2s":"Uncletopia | London | 2 | All Maps","protocol":17,"map":"pl_upward","folder":"tf","game":"Team Fortress","app_id":440,"player_count":24,"max_players":24,"Bots":0,"server_type":"Dedicated","server_os":"Linux","password":true,"vac":true,"version":"7757534","steam_id":85568392924470941,"keywords":["nocrits","nodmgspread","payload","uncletopia"],"game_id":440,"stv_port":27026,"stv_name":"Uncletopia | London | 2 | All Maps | STV","players":[{"user_id":610,"name":"Mr.Schnittlauch","steam_id":76561198295868113,"connected_time":449000000000,"state":"active","ping":71},{"user_id":599,"name":"Russian Dog","steam_id":76561198023855185,"connected_time":1193000000000,"state":"active","ping":70},{"user_id":613,"name":"7thhelden","steam_id":76561198297428761,"connected_time":46000000000,"state":"spawning","ping":134},{"user_id":486,"name":":)","steam_id":76561198039964082,"connected_time":7743000000000,"state":"active","ping":66},{"user_id":461,"name":"0xDEADBEEF","steam_id":76561199075416111,"connected_time":9315000000000,"state":"active","ping":78},{"user_id":592,"name":"leminsc8","steam_id":76561198825084995,"connected_time":1408000000000,"state":"active","ping":54},{"user_id":586,"name":"peruna","steam_id":76561198000721196,"connected_time":2154000000000,"state":"active","ping":75},{"user_id":588,"name":"Weenie Hut Jr's","steam_id":76561198050515739,"connected_time":1965000000000,"state":"active","ping":57},{"user_id":523,"name":"scantron","steam_id":76561199103959197,"connected_time":5680000000000,"state":"active","ping":116},{"user_id":611,"name":"Chicken","steam_id":76561198272541751,"connected_time":180000000000,"state":"active","ping":106},{"user_id":609,"name":"British Disapproval","steam_id":76561198001375260,"connected_time":641000000000,"state":"active","ping":75},{"user_id":370,"name":"Zerfesh","steam_id":76561198117534358,"connected_time":13832000000000,"state":"active","ping":107},{"user_id":612,"name":"Mor'du","steam_id":76561198274105878,"connected_time":167000000000,"state":"active","ping":90},{"user_id":516,"name":"Spajro","steam_id":76561198257383813,"connected_time":5850000000000,"state":"active","ping":54},{"user_id":510,"name":"Lyra","steam_id":76561198043601838,"connected_time":6029000000000,"state":"active","ping":75},{"user_id":580,"name":"dafydd","steam_id":76561198052200325,"connected_time":2930000000000,"state":"active","ping":91},{"user_id":604,"name":"Spetse","steam_id":76561197990649972,"connected_time":1078000000000,"state":"active","ping":89},{"user_id":581,"name":"Night Fury","steam_id":76561197995207032,"connected_time":2761000000000,"state":"active","ping":87},{"user_id":583,"name":"aura","steam_id":76561197991687793,"connected_time":2293000000000,"state":"active","ping":75},{"user_id":601,"name":"83TB of Genshin Impact hentai","steam_id":76561198329640236,"connected_time":1117000000000,"state":"active","ping":48},{"user_id":517,"name":"he's not even good xd","steam_id":76561198148115584,"connected_time":5840000000000,"state":"active","ping":77},{"user_id":596,"name":"MAKENTAKEN","steam_id":76561199127359587,"connected_time":1331000000000,"state":"active","ping":100},{"user_id":591,"name":"Dwevy","steam_id":76561198090379437,"connected_time":1758000000000,"state":"active","ping":55},{"user_id":562,"name":"yyny","steam_id":76561198066287297,"connected_time":4192000000000,"state":"active","ping":45}]},{"server_id":320,"name":"Uncletopia | London | 3 | All Maps","name_short":"lon-3","host":"lon-1.uk.uncletopia.com","port":27035,"enabled":true,"region":"eu","cc":"gb","latitude":51.509865,"longitude":-0.118092,"reserved":0,"last_update":"0001-01-01T00:00:00Z","name_a2s":"Uncletopia | London | 3 | All Maps","protocol":17,"map":"koth_lakeside_final","folder":"tf","game":"Team Fortress","app_id":440,"player_count":0,"max_players":24,"Bots":0,"server_type":"Dedicated","server_os":"Linux","password":true,"vac":true,"version":"7757534","steam_id":85568392924510192,"keywords":["cp","nocrits","nodmgspread","uncletopia"],"game_id":440,"stv_port":27036,"stv_name":"Uncletopia | London | 3 | All Maps | STV","players":null},{"server_id":321,"name":"Uncletopia | London | 4 | All Maps","name_short":"lon-4","host":"lon-1.uk.uncletopia.com","port":27045,"enabled":true,"region":"eu","cc":"gb","latitude":51.509865,"longitude":-0.118092,"reserved":0,"last_update":"0001-01-01T00:00:00Z","name_a2s":"Uncletopia | London | 4 | All Maps","protocol":17,"map":"koth_viaduct","folder":"tf","game":"Team Fortress","app_id":440,"player_count":0,"max_players":24,"Bots":0,"server_type":"Dedicated","server_os":"Linux","password":true,"vac":true,"version":"7757534","steam_id":85568392924510193,"keywords":["cp","nocrits","nodmgspread","uncletopia"],"game_id":440,"stv_port":27046,"stv_name":"Uncletopia | London | 4 | All Maps | STV","players":null},{"server_id":21,"name":"Uncletopia | London | 5 | All Maps","name_short":"lon-5","host":"lon-1.uk.uncletopia.com","port":27055,"enabled":true,"region":"eu","cc":"gb","latitude":51.509865,"longitude":-0.118092,"reserved":0,"last_update":"0001-01-01T00:00:00Z","name_a2s":"Uncletopia | London | 5 | All Maps","protocol":17,"map":"pl_upward","folder":"tf","game":"Team Fortress","app_id":440,"player_count":24,"max_players":24,"Bots":0,"server_type":"Dedicated","server_os":"Linux","password":true,"vac":true,"version":"7757534","steam_id":85568392924742829,"keywords":["nocrits","nodmgspread","payload","uncletopia"],"game_id":440,"stv_port":27056,"stv_name":"Uncletopia | London | 5 | All Maps | STV","players":[{"user_id":224,"name":"ᴉoio","steam_id":76561198024952144,"connected_time":906000000000,"state":"active","ping":55},{"user_id":218,"name":"henryl200","steam_id":76561198810332404,"connected_time":1247000000000,"state":"active","ping":38},{"user_id":220,"name":"Thorpho","steam_id":76561198157173867,"connected_time":976000000000,"state":"active","ping":45},{"user_id":221,"name":"M4d3l3ine_McCann","steam_id":76561198042161308,"connected_time":953000000000,"state":"active","ping":43},{"user_id":223,"name":"Cosmetic brain","steam_id":76561198055936410,"connected_time":936000000000,"state":"active","ping":86},{"user_id":225,"name":"quickfast","steam_id":76561199438900919,"connected_time":903000000000,"state":"active","ping":39},{"user_id":243,"name":"not drunk","steam_id":76561199184873889,"connected_time":441000000000,"state":"active","ping":73},{"user_id":227,"name":"SynthBox3","steam_id":76561199094075745,"connected_time":896000000000,"state":"active","ping":104},{"user_id":234,"name":"TheAsianMate","steam_id":76561198116111669,"connected_time":756000000000,"state":"active","ping":70},{"user_id":229,"name":"Speibsackerl","steam_id":76561198058135257,"connected_time":863000000000,"state":"active","ping":88},{"user_id":230,"name":"Danube501","steam_id":76561198143222686,"connected_time":839000000000,"state":"active","ping":109},{"user_id":131,"name":"neJ","steam_id":76561198003397488,"connected_time":9285000000000,"state":"active","ping":75},{"user_id":231,"name":"Dr.Sees [F2P]","steam_id":76561199219233587,"connected_time":838000000000,"state":"active","ping":89},{"user_id":201,"name":"alshep00","steam_id":76561198079585198,"connected_time":2379000000000,"state":"active","ping":54},{"user_id":244,"name":"hellrunner","steam_id":76561198205309695,"connected_time":175000000000,"state":"active","ping":106},{"user_id":235,"name":"lord-carlos","steam_id":76561198025150761,"connected_time":751000000000,"state":"active","ping":70},{"user_id":245,"name":"Alabamo","steam_id":76561198161589377,"connected_time":10000000000,"state":"active","ping":46},{"user_id":237,"name":"R A S M U S","steam_id":76561198279799226,"connected_time":724000000000,"state":"active","ping":55},{"user_id":203,"name":"pineappleguy05","steam_id":76561199144546264,"connected_time":2285000000000,"state":"active","ping":84},{"user_id":238,"name":"ran is running","steam_id":76561199443185667,"connected_time":711000000000,"state":"active","ping":142},{"user_id":214,"name":"gabagool","steam_id":76561198307111838,"connected_time":1577000000000,"state":"active","ping":45},{"user_id":239,"name":"justin_ (f2p) (real)","steam_id":76561198839843428,"connected_time":706000000000,"state":"active","ping":121},{"user_id":240,"name":"Acxsa","steam_id":76561198098979449,"connected_time":691000000000,"state":"active","ping":84},{"user_id":241,"name":"Solly [F2P]","steam_id":76561199035963737,"connected_time":681000000000,"state":"active","ping":72}]},{"server_id":22,"name":"Uncletopia | London | 6 | All Maps","name_short":"lon-6","host":"lon-1.uk.uncletopia.com","port":27065,"enabled":true,"region":"eu","cc":"gb","latitude":51.509865,"longitude":-0.118092,"reserved":0,"last_update":"0001-01-01T00:00:00Z","name_a2s":"Uncletopia | London | 6 | All Maps","protocol":17,"map":"cp_powerhouse","folder":"tf","game":"Team Fortress","app_id":440,"player_count":24,"max_players":24,"Bots":0,"server_type":"Dedicated","server_os":"Linux","password":true,"vac":true,"version":"7757534","steam_id":85568392924742830,"keywords":["cp","nocrits","nodmgspread","uncletopia"],"game_id":440,"stv_port":27066,"stv_name":"Uncletopia | London | 6 | All Maps | STV","players":[{"user_id":257,"name":"Bigg (Unofficial)","steam_id":76561198130601123,"connected_time":6114000000000,"state":"active","ping":65},{"user_id":336,"name":"LOBZIK","steam_id":76561198114830120,"connected_time":1931000000000,"state":"active","ping":79},{"user_id":367,"name":"XavierSweet","steam_id":76561198091781913,"connected_time":409000000000,"state":"active","ping":51},{"user_id":349,"name":"иван","steam_id":76561198072730591,"connected_time":1448000000000,"state":"active","ping":71},{"user_id":350,"name":"Axord","steam_id":76561199289652176,"connected_time":1438000000000,"state":"active","ping":69},{"user_id":373,"name":"Craig Crusade","steam_id":76561199225918086,"connected_time":234000000000,"state":"active","ping":56},{"user_id":263,"name":"Dr. Uberschwein","steam_id":76561198111367431,"connected_time":5826000000000,"state":"active","ping":69},{"user_id":368,"name":"happy","steam_id":76561198053141766,"connected_time":390000000000,"state":"active","ping":112},{"user_id":259,"name":"gibb (official)","steam_id":76561198074097655,"connected_time":5993000000000,"state":"active","ping":36},{"user_id":302,"name":"Fran","steam_id":76561199070516960,"connected_time":3489000000000,"state":"active","ping":75},{"user_id":360,"name":"moggers","steam_id":76561198297444796,"connected_time":1144000000000,"state":"active","ping":36},{"user_id":346,"name":"Medic","steam_id":76561198072321620,"connected_time":1601000000000,"state":"active","ping":88},{"user_id":376,"name":"TylowStar","steam_id":76561198357107806,"connected_time":64000000000,"state":"active","ping":76},{"user_id":319,"name":"Derpy Engineer HD","steam_id":76561198103184085,"connected_time":2677000000000,"state":"active","ping":74},{"user_id":340,"name":"just a cat","steam_id":76561198328023740,"connected_time":1894000000000,"state":"active","ping":61},{"user_id":377,"name":"Amandus","steam_id":76561198036281079,"connected_time":51000000000,"state":"spawning","ping":74},{"user_id":365,"name":"Something🤙","steam_id":76561198375358222,"connected_time":421000000000,"state":"active","ping":46},{"user_id":364,"name":"lomse_","steam_id":76561198146939162,"connected_time":501000000000,"state":"active","ping":54},{"user_id":358,"name":"bombo112","steam_id":76561198059743551,"connected_time":1194000000000,"state":"active","ping":86},{"user_id":370,"name":"loveless","steam_id":76561198142256651,"connected_time":356000000000,"state":"active","ping":85},{"user_id":371,"name":"M A D M A X","steam_id":76561198205304508,"connected_time":344000000000,"state":"active","ping":67},{"user_id":362,"name":"Nugget","steam_id":76561198338916407,"connected_time":1066000000000,"state":"active","ping":89},{"user_id":353,"name":"gojoel","steam_id":76561198251181946,"connected_time":1291000000000,"state":"active","ping":36},{"user_id":372,"name":"DaSzil","steam_id":76561198275605418,"connected_time":342000000000,"state":"active","ping":93}]},{"server_id":40,"name":"Uncletopia | London | 7 | No Payload","name_short":"lon-7","host":"lon-1.uk.uncletopia.com","port":27075,"enabled":true,"region":"eu","cc":"gb","latitude":51.509865,"longitude":-0.118092,"reserved":0,"last_update":"0001-01-01T00:00:00Z","name_a2s":"Uncletopia | London | 7 | No Payload","protocol":17,"map":"cp_sunshine","folder":"tf","game":"Team Fortress","app_id":440,"player_count":0,"max_players":24,"Bots":0,"server_type":"Dedicated","server_os":"Linux","password":true,"vac":true,"version":"7757534","steam_id":85568392924964314,"keywords":["cp","nocrits","nodmgspread","uncletopia"],"game_id":440,"stv_port":27076,"stv_name":"Uncletopia | London | 7 | No Payload | STV","players":null},{"server_id":41,"name":"Uncletopia | London | 8 | Community","name_short":"lon-8","host":"lon-1.uk.uncletopia.com","port":27085,"enabled":true,"region":"eu","cc":"gb","latitude":51.509865,"longitude":-0.118092,"reserved":0,"last_update":"0001-01-01T00:00:00Z","name_a2s":"Uncletopia | London | 8 | Community","protocol":17,"map":"workshop/koth_ashville_final.ugc2130459942","folder":"tf","game":"Team Fortress","app_id":440,"player_count":24,"max_players":24,"Bots":0,"server_type":"Dedicated","server_os":"Linux","password":true,"vac":true,"version":"7757534","steam_id":85568392924964315,"keywords":["cp","nocrits","nodmgspread","uncletopia"],"game_id":440,"stv_port":27086,"stv_name":"Uncletopia | London | 8 | Community | STV","players":[{"user_id":142,"name":"Toukkis","steam_id":76561198140232191,"connected_time":559000000000,"state":"active","ping":98},{"user_id":133,"name":"Laru","steam_id":76561197998838438,"connected_time":896000000000,"state":"active","ping":75},{"user_id":135,"name":"Mr Xbow","steam_id":76561198862864460,"connected_time":816000000000,"state":"active","ping":54},{"user_id":147,"name":"Dodoshka","steam_id":76561198093464840,"connected_time":325000000000,"state":"active","ping":110},{"user_id":146,"name":"Michael","steam_id":76561198003146906,"connected_time":384000000000,"state":"active","ping":50},{"user_id":132,"name":"Gio'sMonkey","steam_id":76561198892432223,"connected_time":900000000000,"state":"active","ping":85},{"user_id":148,"name":"cof","steam_id":76561199128417805,"connected_time":303000000000,"state":"active","ping":55},{"user_id":136,"name":"KFC Enjoyer","steam_id":76561198840259819,"connected_time":684000000000,"state":"active","ping":54},{"user_id":94,"name":"Duke Fishlord","steam_id":76561198079928327,"connected_time":2972000000000,"state":"active","ping":81},{"user_id":110,"name":"Sgreff","steam_id":76561198036304365,"connected_time":2440000000000,"state":"active","ping":39},{"user_id":88,"name":"Priceybay","steam_id":76561198055389492,"connected_time":3194000000000,"state":"active","ping":41},{"user_id":134,"name":"テイルス","steam_id":76561198022403271,"connected_time":895000000000,"state":"active","ping":53},{"user_id":138,"name":"raz","steam_id":76561198086124865,"connected_time":655000000000,"state":"active","ping":69},{"user_id":139,"name":"jo bidn' | ETLARTORM","steam_id":76561198869576262,"connected_time":641000000000,"state":"active","ping":116},{"user_id":84,"name":"washed up","steam_id":76561198275742101,"connected_time":3614000000000,"state":"active","ping":65},{"user_id":50,"name":"Hector","steam_id":76561198028618586,"connected_time":6149000000000,"state":"active","ping":64},{"user_id":145,"name":"limdungbeetle","steam_id":76561198026160958,"connected_time":415000000000,"state":"active","ping":65},{"user_id":52,"name":"Ma͡xim͜us","steam_id":76561197970986094,"connected_time":6135000000000,"state":"active","ping":67},{"user_id":140,"name":"sacha","steam_id":76561198098065932,"connected_time":641000000000,"state":"active","ping":49},{"user_id":103,"name":"Izzermann","steam_id":76561199100131945,"connected_time":2734000000000,"state":"active","ping":52},{"user_id":150,"name":"Hertz Donut","steam_id":76561197983040945,"connected_time":5000000000,"state":"spawning","ping":118},{"user_id":141,"name":"Masquerade queen","steam_id":76561198218299273,"connected_time":568000000000,"state":"active","ping":92},{"user_id":143,"name":"Hugz","steam_id":76561198069572147,"connected_time":558000000000,"state":"active","ping":57},{"user_id":60,"name":"Clitorina","steam_id":76561198077570815,"connected_time":5956000000000,"state":"active","ping":44}]},{"server_id":300,"name":"Uncletopia | Montréal | 1 | All Maps","name_short":"mtl-1","host":"mtl-1.ca.uncletopia.com","port":27015,"enabled":true,"region":"us-east","cc":"ca","latitude":45.50889,"longitude":-73.56167,"reserved":0,"last_update":"0001-01-01T00:00:00Z","name_a2s":"Uncletopia | Montréal | 1 | All Maps","protocol":17,"map":"pl_snowycoast","folder":"tf","game":"Team Fortress","app_id":440,"player_count":0,"max_players":24,"Bots":0,"server_type":"Dedicated","server_os":"Linux","password":true,"vac":true,"version":"7757534","steam_id":85568392924500087,"keywords":["nocrits","nodmgspread","payload","uncletopia"],"game_id":440,"stv_port":27016,"stv_name":"Uncletopia | Montréal | 1 | All Maps | STV","players":null},{"server_id":301,"name":"Uncletopia | Montréal | 2 | All Maps","name_short":"mtl-2","host":"mtl-1.ca.uncletopia.com","port":27025,"enabled":true,"region":"us-east","cc":"ca","latitude":45.50889,"longitude":-73.56167,"reserved":0,"last_update":"0001-01-01T00:00:00Z","name_a2s":"Uncletopia | Montréal | 2 | All Maps","protocol":17,"map":"pl_snowycoast","folder":"tf","game":"Team Fortress","app_id":440,"player_count":0,"max_players":24,"Bots":0,"server_type":"Dedicated","server_os":"Linux","password":true,"vac":true,"version":"7757534","steam_id":85568392924500088,"keywords":["nocrits","nodmgspread","payload","uncletopia"],"game_id":440,"stv_port":27026,"stv_name":"Uncletopia | Montréal | 2 | All Maps | STV","players":null},{"server_id":302,"name":"Uncletopia | Montréal | 3 | All Maps","name_short":"mtl-3","host":"mtl-1.ca.uncletopia.com","port":27035,"enabled":true,"region":"us-east","cc":"ca","latitude":45.50889,"longitude":-73.56167,"reserved":0,"last_update":"0001-01-01T00:00:00Z","name_a2s":"Uncletopia | Montréal | 3 | All Maps","protocol":17,"map":"pl_swiftwater_final1","folder":"tf","game":"Team Fortress","app_id":440,"player_count":0,"max_players":24,"Bots":0,"server_type":"Dedicated","server_os":"Linux","password":true,"vac":true,"version":"7757534","steam_id":85568392924500089,"keywords":["nocrits","nodmgspread","payload","uncletopia"],"game_id":440,"stv_port":27036,"stv_name":"Uncletopia | Montréal | 3 | All Maps | STV","players":null},{"server_id":303,"name":"Uncletopia | Montréal | 4 | No Payload","name_short":"mtl-4","host":"mtl-1.ca.uncletopia.com","port":27045,"enabled":true,"region":"us-east","cc":"ca","latitude":45.50889,"longitude":-73.56167,"reserved":0,"last_update":"0001-01-01T00:00:00Z","name_a2s":"Uncletopia | Montréal | 4 | No Payload","protocol":17,"map":"pl_borneo","folder":"tf","game":"Team Fortress","app_id":440,"player_count":0,"max_players":24,"Bots":0,"server_type":"Dedicated","server_os":"Linux","password":true,"vac":true,"version":"7757534","steam_id":85568392924500090,"keywords":["nocrits","nodmgspread","payload","uncletopia"],"game_id":440,"stv_port":27046,"stv_name":"Uncletopia | Montréal | 4 | No Payload | STV","players":null},{"server_id":13,"name":"Uncletopia | New York City | 1 | All Maps","name_short":"nyc-1","host":"nyc-1.us.uncletopia.com","port":27015,"enabled":true,"region":"us-east","cc":"us","latitude":40.73061,"longitude":-73.93524,"reserved":0,"last_update":"0001-01-01T00:00:00Z","name_a2s":"Uncletopia | New York City | 1 | All Maps","protocol":17,"map":"cp_dustbowl","folder":"tf","game":"Team Fortress","app_id":440,"player_count":24,"max_players":24,"Bots":0,"server_type":"Dedicated","server_os":"Linux","password":true,"vac":true,"version":"7757534","steam_id":85568392924469993,"keywords":["cp","nocrits","nodmgspread","uncletopia"],"game_id":440,"stv_port":27016,"stv_name":"Uncletopia | New York City | 1 | All Maps | STV","players":[{"user_id":111,"name":"SWAGALINI_ALDENTAE","steam_id":76561198811484457,"connected_time":742000000000,"state":"active","ping":114},{"user_id":116,"name":"JayCoBee","steam_id":76561198416058213,"connected_time":193000000000,"state":"active","ping":120},{"user_id":112,"name":"Brownser","steam_id":76561198263895597,"connected_time":347000000000,"state":"active","ping":60},{"user_id":17,"name":"Laelaps","steam_id":76561198100061416,"connected_time":6992000000000,"state":"active","ping":54},{"user_id":114,"name":"Myn","steam_id":76561198055438857,"connected_time":223000000000,"state":"active","ping":63},{"user_id":117,"name":"doctor sex","steam_id":76561199033833295,"connected_time":190000000000,"state":"active","ping":84},{"user_id":108,"name":"RustySoul","steam_id":76561198049124573,"connected_time":815000000000,"state":"active","ping":179},{"user_id":92,"name":"moodi catgirl","steam_id":76561198124028045,"connected_time":1384000000000,"state":"active","ping":79},{"user_id":120,"name":"Tapita de Lapicera Inusual","steam_id":76561199292130035,"connected_time":131000000000,"state":"active","ping":66},{"user_id":98,"name":"antwon from ghetto smosh","steam_id":76561198367019006,"connected_time":942000000000,"state":"active","ping":55},{"user_id":101,"name":"Randen","steam_id":76561198005696859,"connected_time":868000000000,"state":"active","ping":170},{"user_id":109,"name":"Heiko","steam_id":76561198074206021,"connected_time":780000000000,"state":"active","ping":160},{"user_id":119,"name":"Bocchi the Rock","steam_id":76561198025668771,"connected_time":165000000000,"state":"active","ping":135},{"user_id":28,"name":"Chechens Spotted","steam_id":76561199028910893,"connected_time":6379000000000,"state":"active","ping":102},{"user_id":103,"name":"plague","steam_id":76561198137696163,"connected_time":862000000000,"state":"active","ping":172},{"user_id":66,"name":"Jöhn Smith","steam_id":76561198996230924,"connected_time":3603000000000,"state":"active","ping":75},{"user_id":89,"name":"Citron","steam_id":76561198278687374,"connected_time":1997000000000,"state":"active","ping":45},{"user_id":121,"name":"Krusty Nut","steam_id":76561198120637924,"connected_time":78000000000,"state":"active","ping":59},{"user_id":105,"name":"penis","steam_id":76561199002864030,"connected_time":839000000000,"state":"active","ping":156},{"user_id":106,"name":"Gadget","steam_id":76561198097755258,"connected_time":838000000000,"state":"active","ping":79},{"user_id":90,"name":"Ether","steam_id":76561198054806528,"connected_time":1449000000000,"state":"active","ping":56},{"user_id":107,"name":"Dr. PeePee","steam_id":76561198024506307,"connected_time":837000000000,"state":"active","ping":166},{"user_id":64,"name":"nalezinik","steam_id":76561198030026119,"connected_time":3766000000000,"state":"active","ping":63},{"user_id":113,"name":"Рэптилия","steam_id":76561198258401816,"connected_time":233000000000,"state":"active","ping":170}]},{"server_id":14,"name":"Uncletopia | New York City | 2 | All Maps","name_short":"nyc-2","host":"nyc-1.us.uncletopia.com","port":27025,"enabled":true,"region":"us-east","cc":"us","latitude":40.73061,"longitude":-73.93524,"reserved":0,"last_update":"0001-01-01T00:00:00Z","name_a2s":"Uncletopia | New York City | 2 | All Maps","protocol":17,"map":"ctf_2fort","folder":"tf","game":"Team Fortress","app_id":440,"player_count":24,"max_players":24,"Bots":0,"server_type":"Dedicated","server_os":"Linux","password":true,"vac":true,"version":"7757534","steam_id":85568392924469994,"keywords":["ctf","nocrits","nodmgspread","uncletopia"],"game_id":440,"stv_port":27026,"stv_name":"Uncletopia | New York City | 2 | All Maps | STV","players":[{"user_id":287,"name":"Tok Hakaay","steam_id":76561199311828303,"connected_time":387000000000,"state":"active","ping":72},{"user_id":292,"name":"DiscoTraveler","steam_id":76561199240168088,"connected_time":192000000000,"state":"active","ping":46},{"user_id":291,"name":"bladee","steam_id":76561198209795841,"connected_time":254000000000,"state":"active","ping":57},{"user_id":282,"name":"64 TICK MODIFIES MY BODY","steam_id":76561198059500571,"connected_time":740000000000,"state":"active","ping":60},{"user_id":293,"name":"Spore","steam_id":76561198812128897,"connected_time":103000000000,"state":"active","ping":79},{"user_id":285,"name":"Agent D","steam_id":76561198142026469,"connected_time":703000000000,"state":"active","ping":60},{"user_id":284,"name":"Milk","steam_id":76561198175903221,"connected_time":716000000000,"state":"active","ping":63},{"user_id":227,"name":"Quansen","steam_id":76561198151594550,"connected_time":5223000000000,"state":"active","ping":69},{"user_id":256,"name":"Snugboo","steam_id":76561198147970327,"connected_time":3872000000000,"state":"active","ping":36},{"user_id":286,"name":"mata","steam_id":76561198083884120,"connected_time":654000000000,"state":"active","ping":69},{"user_id":271,"name":"PizzaPasta","steam_id":76561199125109082,"connected_time":2431000000000,"state":"active","ping":61},{"user_id":294,"name":"Tlaloc","steam_id":76561198375215983,"connected_time":76000000000,"state":"active","ping":120},{"user_id":295,"name":"Koko","steam_id":76561199227724794,"connected_time":44000000000,"state":"active","ping":101},{"user_id":260,"name":"dodge1214","steam_id":76561198020431237,"connected_time":3566000000000,"state":"active","ping":55},{"user_id":248,"name":"2006 Chevy Cobalt","steam_id":76561198211257547,"connected_time":4169000000000,"state":"active","ping":84},{"user_id":146,"name":"uVeins","steam_id":76561198067445528,"connected_time":10283000000000,"state":"active","ping":48},{"user_id":272,"name":"Joy #savetf2","steam_id":76561198073690173,"connected_time":2352000000000,"state":"active","ping":57},{"user_id":288,"name":"SpinetinglingToast","steam_id":76561198099470670,"connected_time":362000000000,"state":"active","ping":53},{"user_id":273,"name":"logg","steam_id":76561198179595013,"connected_time":2119000000000,"state":"active","ping":50},{"user_id":213,"name":"ThatGamingKiwi","steam_id":76561199170522237,"connected_time":6513000000000,"state":"active","ping":73},{"user_id":276,"name":"Lost CS player","steam_id":76561198892387723,"connected_time":1555000000000,"state":"active","ping":56},{"user_id":161,"name":"Deterrent","steam_id":76561198256763734,"connected_time":9151000000000,"state":"active","ping":61},{"user_id":259,"name":"Grify","steam_id":76561198012292317,"connected_time":3667000000000,"state":"active","ping":85},{"user_id":290,"name":"i have a anime pfp so yk im goo","steam_id":76561198201655042,"connected_time":263000000000,"state":"active","ping":88}]},{"server_id":15,"name":"Uncletopia | New York City | 3 | Stopwatch Beta","name_short":"nyc-3","host":"nyc-1.us.uncletopia.com","port":27035,"enabled":true,"region":"us-east","cc":"us","latitude":40.73061,"longitude":-73.93524,"reserved":0,"last_update":"0001-01-01T00:00:00Z","name_a2s":"Uncletopia | New York City | 3 | Stopwatch Beta","protocol":17,"map":"koth_highpass","folder":"tf","game":"Team Fortress","app_id":440,"player_count":0,"max_players":24,"Bots":0,"server_type":"Dedicated","server_os":"Linux","password":true,"vac":true,"version":"7757534","steam_id":85568392924742820,"keywords":["cp","nocrits","nodmgspread","uncletopia"],"game_id":440,"stv_port":27036,"stv_name":"Uncletopia | New York City | 3 | Stopwatch Beta | STV","players":null},{"server_id":16,"name":"Uncletopia | New York City | 4 | Community","name_short":"nyc-4","host":"nyc-1.us.uncletopia.com","port":27045,"enabled":true,"region":"us-east","cc":"us","latitude":40.73061,"longitude":-73.93524,"reserved":0,"last_update":"0001-01-01T00:00:00Z","name_a2s":"Uncletopia | New York City | 4 | Community","protocol":17,"map":"workshop/cp_hazyfort_rc6.ugc1365963729","folder":"tf","game":"Team Fortress","app_id":440,"player_count":8,"max_players":24,"Bots":0,"server_type":"Dedicated","server_os":"Linux","password":true,"vac":true,"version":"7757534","steam_id":85568392924742821,"keywords":["cp","nocrits","nodmgspread","uncletopia"],"game_id":440,"stv_port":27046,"stv_name":"Uncletopia | New York City | 4 | Community | STV","players":[{"user_id":8,"name":"cal080","steam_id":76561199406011394,"connected_time":1180000000000,"state":"active","ping":61},{"user_id":9,"name":"shreyanxing","steam_id":76561199472204297,"connected_time":1162000000000,"state":"active","ping":57},{"user_id":10,"name":"say123k","steam_id":76561199453972740,"connected_time":1126000000000,"state":"active","ping":55},{"user_id":12,"name":"devium","steam_id":76561199470217053,"connected_time":1055000000000,"state":"active","ping":55},{"user_id":14,"name":"Bread Wizard","steam_id":76561198123443402,"connected_time":431000000000,"state":"active","ping":108},{"user_id":15,"name":"walter goblin white","steam_id":76561198974901246,"connected_time":241000000000,"state":"active","ping":112},{"user_id":16,"name":"The soldier (TF2)","steam_id":76561199180661813,"connected_time":223000000000,"state":"active","ping":364},{"user_id":17,"name":"Tasteepizzapie!!!","steam_id":76561198076074855,"connected_time":222000000000,"state":"active","ping":79}]},{"server_id":142,"name":"Uncletopia | São Paulo | 1 | All Maps","name_short":"sao-1","host":"sao-1.br.uncletopia.com","port":27015,"enabled":true,"region":"sa","cc":"br","latitude":-23.533773,"longitude":-46.62529,"reserved":0,"last_update":"0001-01-01T00:00:00Z","name_a2s":"Uncletopia | São Paulo | 1 | All Maps","protocol":17,"map":"cp_snakewater_final1","folder":"tf","game":"Team Fortress","app_id":440,"player_count":0,"max_players":24,"Bots":0,"server_type":"Dedicated","server_os":"Linux","password":true,"vac":true,"version":"7757534","steam_id":85568392924469996,"keywords":["cp","nocrits","nodmgspread","uncletopia"],"game_id":440,"stv_port":27016,"stv_name":"Uncletopia | São Paulo | 1 | All Maps | STV","players":null},{"server_id":143,"name":"Uncletopia | São Paulo | 2 | All Maps","name_short":"sao-2","host":"sao-2.br.uncletopia.com","port":27015,"enabled":true,"region":"sa","cc":"br","latitude":-23.533773,"longitude":-46.62529,"reserved":0,"last_update":"0001-01-01T00:00:00Z","name_a2s":"Uncletopia | São Paulo | 2 | All Maps","protocol":17,"map":"pl_barnblitz","folder":"tf","game":"Team Fortress","app_id":440,"player_count":0,"max_players":24,"Bots":0,"server_type":"Dedicated","server_os":"Linux","password":true,"vac":true,"version":"7757534","steam_id":85568392924485349,"keywords":["nocrits","nodmgspread","payload","uncletopia"],"game_id":440,"stv_port":27016,"stv_name":"Uncletopia | São Paulo | 2 | All Maps | STV","players":null},{"server_id":7,"name":"Uncletopia | Seattle | 1 | All Maps","name_short":"sea-1","host":"sea-1.us.uncletopia.com","port":27015,"enabled":true,"region":"us-west","cc":"us","latitude":47.608013,"longitude":-122.33517,"reserved":0,"last_update":"0001-01-01T00:00:00Z","name_a2s":"Uncletopia | Seattle | 1 | All Maps","protocol":17,"map":"pl_pier","folder":"tf","game":"Team Fortress","app_id":440,"player_count":24,"max_players":24,"Bots":0,"server_type":"Dedicated","server_os":"Linux","password":true,"vac":true,"version":"7757534","steam_id":85568392924469997,"keywords":["nocrits","nodmgspread","payload","uncletopia"],"game_id":440,"stv_port":27016,"stv_name":"Uncletopia | Seattle | 1 | All Maps | STV","players":[{"user_id":220,"name":"sammy","steam_id":76561199001307670,"connected_time":5398000000000,"state":"active","ping":47},{"user_id":214,"name":"Casual Vore","steam_id":76561197999045683,"connected_time":5665000000000,"state":"active","ping":44},{"user_id":243,"name":"Egg","steam_id":76561199168122742,"connected_time":4451000000000,"state":"active","ping":116},{"user_id":263,"name":"Blank_Sicon","steam_id":76561198887041407,"connected_time":1812000000000,"state":"active","ping":91},{"user_id":276,"name":"yaldabaoth","steam_id":76561198084606869,"connected_time":322000000000,"state":"active","ping":90},{"user_id":285,"name":"A woman 🏳⚧♀♥♥♥","steam_id":76561199376578224,"connected_time":0,"state":"connecting","ping":0},{"user_id":262,"name":"dougrocks421","steam_id":76561198165063918,"connected_time":1817000000000,"state":"active","ping":44},{"user_id":272,"name":"compulsive","steam_id":76561198212421513,"connected_time":1069000000000,"state":"active","ping":77},{"user_id":277,"name":"Schaephyr","steam_id":76561199153886364,"connected_time":318000000000,"state":"active","ping":62},{"user_id":280,"name":"non_ai","steam_id":76561198270951938,"connected_time":247000000000,"state":"active","ping":116},{"user_id":258,"name":"darkness.danny3481","steam_id":76561198132808002,"connected_time":2194000000000,"state":"active","ping":77},{"user_id":244,"name":"Hassium","steam_id":76561198162541373,"connected_time":4405000000000,"state":"active","ping":60},{"user_id":259,"name":"noraneko","steam_id":76561198025418738,"connected_time":2019000000000,"state":"active","ping":49},{"user_id":257,"name":"oo","steam_id":76561198119626492,"connected_time":2382000000000,"state":"active","ping":240},{"user_id":273,"name":"Acryligoop","steam_id":76561198079850249,"connected_time":842000000000,"state":"active","ping":61},{"user_id":227,"name":"KingTinkerer","steam_id":76561198226856548,"connected_time":5131000000000,"state":"active","ping":105},{"user_id":245,"name":"the watcher","steam_id":76561198870649125,"connected_time":4391000000000,"state":"active","ping":88},{"user_id":278,"name":"Sol Goodman","steam_id":76561198289164442,"connected_time":303000000000,"state":"active","ping":99},{"user_id":279,"name":"Dacia Sandero","steam_id":76561198106762185,"connected_time":299000000000,"state":"active","ping":142},{"user_id":231,"name":"〣dust〣 -she/her-","steam_id":76561198045218909,"connected_time":5056000000000,"state":"active","ping":45},{"user_id":284,"name":"FatCuddlyBear","steam_id":76561198133613253,"connected_time":28000000000,"state":"active","ping":1021},{"user_id":274,"name":"Milotic","steam_id":76561198047995713,"connected_time":369000000000,"state":"active","ping":101},{"user_id":271,"name":"toodles","steam_id":76561198025463883,"connected_time":1133000000000,"state":"active","ping":63},{"user_id":275,"name":"Milk","steam_id":76561198796215640,"connected_time":331000000000,"state":"active","ping":57}]},{"server_id":119,"name":"Uncletopia | Seattle | 2 | All Maps","name_short":"sea-2","host":"sea-1.us.uncletopia.com","port":27025,"enabled":true,"region":"us-west","cc":"us","latitude":47.608013,"longitude":-122.33517,"reserved":0,"last_update":"0001-01-01T00:00:00Z","name_a2s":"Uncletopia | Seattle | 2 | All Maps","protocol":17,"map":"pl_swiftwater_final1","folder":"tf","game":"Team Fortress","app_id":440,"player_count":24,"max_players":24,"Bots":0,"server_type":"Dedicated","server_os":"Linux","password":true,"vac":true,"version":"7757534","steam_id":85568392924469998,"keywords":["nocrits","nodmgspread","payload","uncletopia"],"game_id":440,"stv_port":27026,"stv_name":"Uncletopia | Seattle | 2 | All Maps | STV","players":[{"user_id":240,"name":"Frostyfaucet","steam_id":76561198060524722,"connected_time":4351000000000,"state":"active","ping":43},{"user_id":131,"name":"THE NUT","steam_id":76561198067813626,"connected_time":11990000000000,"state":"active","ping":52},{"user_id":301,"name":"λ","steam_id":76561198120426683,"connected_time":443000000000,"state":"active","ping":77},{"user_id":259,"name":"Lonestar827","steam_id":76561198035533639,"connected_time":3249000000000,"state":"active","ping":54},{"user_id":302,"name":"Lazy","steam_id":76561198802747832,"connected_time":392000000000,"state":"active","ping":52},{"user_id":154,"name":"Lolxdloldx","steam_id":76561198136887125,"connected_time":9703000000000,"state":"active","ping":102},{"user_id":294,"name":"Black Mesa Scientist","steam_id":76561198064466577,"connected_time":1176000000000,"state":"active","ping":83},{"user_id":287,"name":"emerge","steam_id":76561198186882891,"connected_time":1433000000000,"state":"active","ping":116},{"user_id":288,"name":"Sir Nope (TSS)","steam_id":76561198035935649,"connected_time":1390000000000,"state":"active","ping":92},{"user_id":307,"name":"Master Of Whales","steam_id":76561198349104889,"connected_time":185000000000,"state":"active","ping":87},{"user_id":289,"name":"m1","steam_id":76561198004133638,"connected_time":1339000000000,"state":"active","ping":84},{"user_id":290,"name":"Justy","steam_id":76561198044014069,"connected_time":1264000000000,"state":"active","ping":75},{"user_id":298,"name":"Ronald \"Trickle Down\" Reagan","steam_id":76561197979471874,"connected_time":1044000000000,"state":"active","ping":55},{"user_id":291,"name":"golia","steam_id":76561198000264266,"connected_time":1242000000000,"state":"active","ping":81},{"user_id":292,"name":"TheCowledWiz","steam_id":76561198016735868,"connected_time":1222000000000,"state":"active","ping":50},{"user_id":306,"name":"Syr","steam_id":76561198144409955,"connected_time":307000000000,"state":"active","ping":61},{"user_id":303,"name":"Dr. Hashbrown","steam_id":76561198410780370,"connected_time":381000000000,"state":"active","ping":68},{"user_id":308,"name":"Noelle Deltarune","steam_id":76561199033561817,"connected_time":154000000000,"state":"active","ping":76},{"user_id":271,"name":"Tibetan Pop Star","steam_id":76561198844903984,"connected_time":2722000000000,"state":"active","ping":85},{"user_id":281,"name":"judesro","steam_id":76561198352244888,"connected_time":2156000000000,"state":"active","ping":121},{"user_id":305,"name":"Pluto","steam_id":76561199056961975,"connected_time":333000000000,"state":"active","ping":113},{"user_id":309,"name":"es","steam_id":76561198006892337,"connected_time":112000000000,"state":"active","ping":89},{"user_id":282,"name":"DrD","steam_id":76561198067266383,"connected_time":1997000000000,"state":"active","ping":39},{"user_id":285,"name":"Mr. Fart","steam_id":76561198097290717,"connected_time":1634000000000,"state":"active","ping":74}]},{"server_id":406,"name":"Uncletopia | Seattle | 3 | Stopwatch Beta","name_short":"sea-3","host":"sea-1.us.uncletopia.com","port":27035,"enabled":true,"region":"us-west","cc":"us","latitude":47.608013,"longitude":-122.33517,"reserved":0,"last_update":"0001-01-01T00:00:00Z","name_a2s":"Uncletopia | Seattle | 3 | Stopwatch Beta","protocol":17,"map":"pl_barnblitz","folder":"tf","game":"Team Fortress","app_id":440,"player_count":0,"max_players":24,"Bots":0,"server_type":"Dedicated","server_os":"Linux","password":true,"vac":true,"version":"7757534","steam_id":85568392924515217,"keywords":["nocrits","nodmgspread","payload","uncletopia"],"game_id":440,"stv_port":27036,"stv_name":"Uncletopia | Seattle | 3 | Stopwatch Beta | STV","players":null},{"server_id":17,"name":"Uncletopia | San Francisco | 1 | All Maps","name_short":"sfo-1","host":"sfo-1.us.uncletopia.com","port":27015,"enabled":true,"region":"us-west","cc":"us","latitude":37.77397,"longitude":-122.4313,"reserved":0,"last_update":"0001-01-01T00:00:00Z","name_a2s":"Uncletopia | San Francisco | 1 | All Maps","protocol":17,"map":"pl_badwater","folder":"tf","game":"Team Fortress","app_id":440,"player_count":1,"max_players":24,"Bots":0,"server_type":"Dedicated","server_os":"Linux","password":true,"vac":true,"version":"7757534","steam_id":85568392924469999,"keywords":["nocrits","nodmgspread","payload","uncletopia"],"game_id":440,"stv_port":27016,"stv_name":"Uncletopia | San Francisco | 1 | All Maps | STV","players":[{"user_id":11,"name":"Grammaring","steam_id":76561198867366139,"connected_time":229000000000,"state":"active","ping":80}]},{"server_id":18,"name":"Uncletopia | San Francisco | 2 | All Maps","name_short":"sfo-2","host":"sfo-1.us.uncletopia.com","port":27025,"enabled":true,"region":"us-west","cc":"us","latitude":37.77397,"longitude":-122.4313,"reserved":0,"last_update":"0001-01-01T00:00:00Z","name_a2s":"Uncletopia | San Francisco | 2 | All Maps","protocol":17,"map":"koth_cascade","folder":"tf","game":"Team Fortress","app_id":440,"player_count":0,"max_players":24,"Bots":0,"server_type":"Dedicated","server_os":"Linux","password":true,"vac":true,"version":"7757534","steam_id":85568392924470000,"keywords":["cp","nocrits","nodmgspread","uncletopia"],"game_id":440,"stv_port":27026,"stv_name":"Uncletopia | San Francisco | 2 | All Maps | STV","players":null},{"server_id":19,"name":"Uncletopia | San Francisco | 3 | Stopwatch Beta","name_short":"sfo-3","host":"sfo-1.us.uncletopia.com","port":27035,"enabled":true,"region":"us-west","cc":"us","latitude":37.77397,"longitude":-122.4313,"reserved":0,"last_update":"0001-01-01T00:00:00Z","name_a2s":"Uncletopia | San Francisco | 3 | Stopwatch Beta","protocol":17,"map":"pl_borneo","folder":"tf","game":"Team Fortress","app_id":440,"player_count":0,"max_players":24,"Bots":0,"server_type":"Dedicated","server_os":"Linux","password":true,"vac":true,"version":"7757534","steam_id":85568392924742824,"keywords":["nocrits","nodmgspread","payload","uncletopia"],"game_id":440,"stv_port":27036,"stv_name":"Uncletopia | San Francisco | 3 | Stopwatch Beta | STV","players":null},{"server_id":20,"name":"Uncletopia | San Francisco | 4 | Community","name_short":"sfo-4","host":"sfo-1.us.uncletopia.com","port":27045,"enabled":true,"region":"us-west","cc":"us","latitude":37.77397,"longitude":-122.4313,"reserved":0,"last_update":"0001-01-01T00:00:00Z","name_a2s":"Uncletopia | San Francisco | 4 | Community","protocol":17,"map":"koth_highpass","folder":"tf","game":"Team Fortress","app_id":440,"player_count":0,"max_players":24,"Bots":0,"server_type":"Dedicated","server_os":"Linux","password":true,"vac":true,"version":"7757534","steam_id":85568392924742826,"keywords":["cp","nocrits","nodmgspread","uncletopia"],"game_id":440,"stv_port":27046,"stv_name":"Uncletopia | San Francisco | 4 | Community | STV","players":null},{"server_id":141,"name":"Uncletopia | Sydney | 1 | All Maps","name_short":"syd-1","host":"syd-1.au.uncletopia.com","port":27015,"enabled":true,"region":"au","cc":"au","latitude":-33.865143,"longitude":151.2099,"reserved":0,"last_update":"0001-01-01T00:00:00Z","name_a2s":"Uncletopia | Sydney | 1 | All Maps","protocol":17,"map":"cp_process_final","folder":"tf","game":"Team Fortress","app_id":440,"player_count":0,"max_players":24,"Bots":0,"server_type":"Dedicated","server_os":"Linux","password":true,"vac":true,"version":"7757534","steam_id":85568392924470001,"keywords":["cp","nocrits","nodmgspread","uncletopia"],"game_id":440,"stv_port":27016,"stv_name":"Uncletopia | Sydney | 1 | All Maps | STV","players":null},{"server_id":123,"name":"Uncletopia | Sydney | 2 | All Maps","name_short":"syd-2","host":"syd-1.au.uncletopia.com","port":27025,"enabled":true,"region":"au","cc":"au","latitude":-33.865143,"longitude":151.2099,"reserved":0,"last_update":"0001-01-01T00:00:00Z","name_a2s":"Uncletopia | Sydney | 2 | All Maps","protocol":17,"map":"koth_viaduct","folder":"tf","game":"Team Fortress","app_id":440,"player_count":0,"max_players":24,"Bots":0,"server_type":"Dedicated","server_os":"Linux","password":true,"vac":true,"version":"7757534","steam_id":85568392924470002,"keywords":["cp","nocrits","nodmgspread","uncletopia"],"game_id":440,"stv_port":27026,"stv_name":"Uncletopia | Sydney | 2 | All Maps | STV","players":null},{"server_id":395,"name":"Uncletopia | Sydney | 3 | All Maps","name_short":"syd-3","host":"syd-1.au.uncletopia.com","port":27035,"enabled":true,"region":"au","cc":"au","latitude":-33.865143,"longitude":151.2099,"reserved":0,"last_update":"0001-01-01T00:00:00Z","name_a2s":"Uncletopia | Sydney | 3 | All Maps","protocol":17,"map":"pl_upward","folder":"tf","game":"Team Fortress","app_id":440,"player_count":0,"max_players":24,"Bots":0,"server_type":"Dedicated","server_os":"Linux","password":true,"vac":true,"version":"7757534","steam_id":85568392925194467,"keywords":["nocrits","nodmgspread","payload","uncletopia"],"game_id":440,"stv_port":27036,"stv_name":"Uncletopia | Sydney | 3 | All Maps | STV","players":null},{"server_id":396,"name":"Uncletopia | Sydney | 4 | All Maps","name_short":"syd-4","host":"syd-1.au.uncletopia.com","port":27045,"enabled":true,"region":"au","cc":"au","latitude":-33.865143,"longitude":151.2099,"reserved":0,"last_update":"0001-01-01T00:00:00Z","name_a2s":"Uncletopia | Sydney | 4 | All Maps","protocol":17,"map":"koth_lakeside_final","folder":"tf","game":"Team Fortress","app_id":440,"player_count":0,"max_players":24,"Bots":0,"server_type":"Dedicated","server_os":"Linux","password":true,"vac":true,"version":"7757534","steam_id":85568392925397958,"keywords":["cp","nocrits","nodmgspread","uncletopia"],"game_id":440,"stv_port":27046,"stv_name":"Uncletopia | Sydney | 4 | All Maps | STV","players":null},{"server_id":58,"name":"Uncletopia | Sydney | 5 | Stopwatch Beta","name_short":"syd-5","host":"syd-1.au.uncletopia.com","port":27055,"enabled":true,"region":"au","cc":"au","latitude":-33.865143,"longitude":151.2099,"reserved":0,"last_update":"0001-01-01T00:00:00Z","name_a2s":"Uncletopia | Sydney | 5 | Stopwatch Beta","protocol":17,"map":"koth_highpass","folder":"tf","game":"Team Fortress","app_id":440,"player_count":0,"max_players":24,"Bots":0,"server_type":"Dedicated","server_os":"Linux","password":true,"vac":true,"version":"7757534","steam_id":85568392925397959,"keywords":["cp","nocrits","nodmgspread","uncletopia"],"game_id":440,"stv_port":27056,"stv_name":"Uncletopia | Sydney | 5 | Stopwatch Beta | STV","players":null},{"server_id":59,"name":"Uncletopia | Sydney | 6 | Community","name_short":"syd-6","host":"syd-1.au.uncletopia.com","port":27065,"enabled":true,"region":"au","cc":"au","latitude":-33.865143,"longitude":151.2099,"reserved":0,"last_update":"0001-01-01T00:00:00Z","name_a2s":"Uncletopia | Sydney | 6 | Community","protocol":17,"map":"cp_sunshine","folder":"tf","game":"Team Fortress","app_id":440,"player_count":0,"max_players":24,"Bots":0,"server_type":"Dedicated","server_os":"Linux","password":true,"vac":true,"version":"7757534","steam_id":85568392925397960,"keywords":["cp","nocrits","nodmgspread","uncletopia"],"game_id":440,"stv_port":27066,"stv_name":"Uncletopia | Sydney | 6 | Community | STV","players":null},{"server_id":49,"name":"Uncletopia | Warsaw | 1 | All Maps","name_short":"waw-1","host":"waw-1.pl.uncletopia.com","port":27015,"enabled":true,"region":"eu","cc":"pl","latitude":52.2297,"longitude":21.017532,"reserved":0,"last_update":"0001-01-01T00:00:00Z","name_a2s":"","protocol":0,"map":"","folder":"","game":"","app_id":0,"player_count":0,"max_players":0,"Bots":0,"server_type":"","server_os":"","password":false,"vac":false,"version":"","steam_id":0,"keywords":null,"game_id":0,"stv_port":0,"stv_name":"","players":null},{"server_id":50,"name":"Uncletopia | Warsaw | 2 | All Maps","name_short":"waw-2","host":"waw-1.pl.uncletopia.com","port":27025,"enabled":true,"region":"eu","cc":"pl","latitude":52.2297,"longitude":21.017532,"reserved":0,"last_update":"0001-01-01T00:00:00Z","name_a2s":"Uncletopia | Warsaw | 2 | All Maps","protocol":17,"map":"koth_viaduct","folder":"tf","game":"Team Fortress","app_id":440,"player_count":0,"max_players":24,"Bots":0,"server_type":"Dedicated","server_os":"Linux","password":true,"vac":true,"version":"7757534","steam_id":85568392925397851,"keywords":["cp","nocrits","nodmgspread","uncletopia"],"game_id":440,"stv_port":27026,"stv_name":"Uncletopia | Warsaw | 2 | All Maps | STV","players":null},{"server_id":51,"name":"Uncletopia | Warsaw | 3 | All Maps","name_short":"waw-3","host":"waw-1.pl.uncletopia.com","port":27035,"enabled":true,"region":"eu","cc":"pl","latitude":52.2297,"longitude":21.017532,"reserved":0,"last_update":"0001-01-01T00:00:00Z","name_a2s":"Uncletopia | Warsaw | 3 | All Maps","protocol":17,"map":"koth_cascade","folder":"tf","game":"Team Fortress","app_id":440,"player_count":0,"max_players":24,"Bots":0,"server_type":"Dedicated","server_os":"Linux","password":true,"vac":true,"version":"7757534","steam_id":85568392925397852,"keywords":["cp","nocrits","nodmgspread","uncletopia"],"game_id":440,"stv_port":27036,"stv_name":"Uncletopia | Warsaw | 3 | All Maps | STV","players":null},{"server_id":52,"name":"Uncletopia | Warsaw | 4 | All Maps","name_short":"waw-4","host":"waw-1.pl.uncletopia.com","port":27045,"enabled":true,"region":"eu","cc":"pl","latitude":52.2297,"longitude":21.017532,"reserved":0,"last_update":"0001-01-01T00:00:00Z","name_a2s":"Uncletopia | Warsaw | 4 | All Maps","protocol":17,"map":"pl_upward","folder":"tf","game":"Team Fortress","app_id":440,"player_count":7,"max_players":24,"Bots":0,"server_type":"Dedicated","server_os":"Linux","password":true,"vac":true,"version":"7757534","steam_id":85568392925397853,"keywords":["nocrits","nodmgspread","payload","uncletopia"],"game_id":440,"stv_port":27046,"stv_name":"Uncletopia | Warsaw | 4 | All Maps | STV","players":[{"user_id":30,"name":"Datenegassie","steam_id":76561198089417032,"connected_time":331000000000,"state":"active","ping":69},{"user_id":16,"name":"baked beanss","steam_id":76561198892713044,"connected_time":1750000000000,"state":"active","ping":31},{"user_id":26,"name":"Error","steam_id":76561198356021889,"connected_time":539000000000,"state":"active","ping":52},{"user_id":18,"name":"bread","steam_id":76561199240186857,"connected_time":1391000000000,"state":"active","ping":45},{"user_id":27,"name":"Dragon 𝟚𝟙𝟙𝟝","steam_id":76561199013842172,"connected_time":503000000000,"state":"active","ping":32},{"user_id":20,"name":"\u003eSix in swedish + y","steam_id":76561198372971096,"connected_time":1318000000000,"state":"active","ping":101},{"user_id":23,"name":"Addicted","steam_id":76561198302642815,"connected_time":1127000000000,"state":"active","ping":61}]},{"server_id":53,"name":"Uncletopia | Warsaw | 5 | Stopwatch Beta","name_short":"waw-5","host":"waw-1.pl.uncletopia.com","port":27055,"enabled":true,"region":"eu","cc":"pl","latitude":52.2297,"longitude":21.017532,"reserved":0,"last_update":"0001-01-01T00:00:00Z","name_a2s":"Uncletopia | Warsaw | 5 | Stopwatch Beta","protocol":17,"map":"pl_barnblitz","folder":"tf","game":"Team Fortress","app_id":440,"player_count":0,"max_players":24,"Bots":0,"server_type":"Dedicated","server_os":"Linux","password":true,"vac":true,"version":"7757534","steam_id":85568392925397854,"keywords":["nocrits","nodmgspread","payload","uncletopia"],"game_id":440,"stv_port":27056,"stv_name":"Uncletopia | Warsaw | 5 | Stopwatch Beta | STV","players":null},{"server_id":54,"name":"Uncletopia | Warsaw | 6 | Community","name_short":"waw-6","host":"waw-1.pl.uncletopia.com","port":27065,"enabled":true,"region":"eu","cc":"pl","latitude":52.2297,"longitude":21.017532,"reserved":0,"last_update":"0001-01-01T00:00:00Z","name_a2s":"Uncletopia | Warsaw | 6 | Community","protocol":17,"map":"workshop/koth_bagel_rc5.ugc2514036946","folder":"tf","game":"Team Fortress","app_id":440,"player_count":0,"max_players":24,"Bots":0,"server_type":"Dedicated","server_os":"Linux","password":true,"vac":true,"version":"7757534","steam_id":85568392925397856,"keywords":["cp","nocrits","nodmgspread","uncletopia"],"game_id":440,"stv_port":27066,"stv_name":"Uncletopia | Warsaw | 6 | Community | STV","players":null}]}