{"status":true,"message":"","result":[{"server_id":9,"name":"Uncletopia | Atlanta | 1 | All Maps","name_short":"atl-1","host":"atl-1.us.uncletopia.com","port":27015,"enabled":true,"region":"us-east","cc":"us","latitude":33.753746,"longitude":-84.38633,"reserved":0,"last_update":"0001-01-01T00:00:00Z","name_a2s":"Uncletopia | Atlanta | 1 | All Maps","protocol":17,"map":"koth_cascade","folder":"tf","game":"Team Fortress","app_id":440,"player_count":0,"max_players":24,"Bots":0,"server_type":"Dedicated","server_os":"Linux","password":true,"vac":true,"version":"7882260","steam_id":85568392924469982,"keywords":["cp","nocrits","nodmgspread","uncletopia"],"game_id":440,"stv_port":27016,"stv_name":"Uncletopia | Atlanta | 1 | All Maps | STV","players":null},{"server_id":104,"name":"Uncletopia | Atlanta | 2 | All Maps","name_short":"atl-2","host":"atl-1.us.uncletopia.com","port":27025,"enabled":true,"region":"us-east","cc":"us","latitude":33.753746,"longitude":-84.38633,"reserved":0,"last_update":"0001-01-01T00:00:00Z","name_a2s":"Uncletopia | Atlanta | 2 | All Maps","protocol":17,"map":"pl_snowycoast","folder":"tf","game":"Team Fortress","app_id":440,"player_count":0,"max_players":24,"Bots":0,"server_type":"Dedicated","server_os":"Linux","password":true,"vac":true,"version":"7882260","steam_id":85568392924469983,"keywords":["nocrits","nodmgspread","payload","uncletopia"],"game_id":440,"stv_port":27026,"stv_name":"Uncletopia | Atlanta | 2 | All Maps | STV","players":null},{"server_id":400,"name":"Uncletopia | Atlanta | 3 | Community","name_short":"atl-3","host":"atl-1.us.uncletopia.com","port":27035,"enabled":true,"region":"us-east","cc":"us","latitude":33.753746,"longitude":-84.38633,"reserved":0,"last_update":"0001-01-01T00:00:00Z","name_a2s":"Uncletopia | Atlanta | 3 | Community","protocol":17,"map":"workshop/pl_barnblitz_pro7.ugc582280235","folder":"tf","game":"Team Fortress","app_id":440,"player_count":0,"max_players":24,"Bots":0,"server_type":"Dedicated","server_os":"Linux","password":true,"vac":true,"version":"7882260","steam_id":85568392924515187,"keywords":["nocrits","nodmgspread","payload","uncletopia"],"game_id":440,"stv_port":27036,"stv_name":"Uncletopia | Atlanta | 3 | Community | STV","players":null},{"server_id":401,"name":"Uncletopia | Atlanta | 4 | No Payload","name_short":"atl-4","host":"atl-1.us.uncletopia.com","port":27045,"enabled":true,"region":"us-east","cc":"us","latitude":33.753746,"longitude":-84.38633,"reserved":0,"last_update":"0001-01-01T00:00:00Z","name_a2s":"","protocol":0,"map":"","folder":"","game":"","app_id":0,"player_count":0,"max_players":0,"Bots":0,"server_type":"","server_os":"","password":false,"vac":false,"version":"","steam_id":0,"keywords":null,"game_id":0,"stv_port":0,"stv_name":"","players":null},{"server_id":2,"name":"Uncletopia | Chicago | 1 | All Maps","name_short":"chi-1","host":"chi-1.us.uncletopia.com","port":27015,"enabled":true,"region":"us-central","cc":"us","latitude":41.881832,"longitude":-87.62318,"reserved":0,"last_update":"0001-01-01T00:00:00Z","name_a2s":"Uncletopia | Chicago | 1 | All Maps","protocol":17,"map":"pl_frontier_final","folder":"tf","game":"Team Fortress","app_id":440,"player_count":24,"max_players":24,"Bots":0,"server_type":"Dedicated","server_os":"Linux","password":true,"vac":true,"version":"7882260","steam_id":85568392924469984,"keywords":["nocrits","nodmgspread","payload","uncletopia"],"game_id":440,"stv_port":27016,"stv_name":"Uncletopia | Chicago | 1 | All Maps | STV","players":[{"user_id":750,"name":"JustGavan","steam_id":76561198042260171,"connected_time":945000000000,"state":"active","ping":90},{"user_id":723,"name":"Thingy","steam_id":76561198140161202,"connected_time":3045000000000,"state":"active","ping":97},{"user_id":763,"name":"JZ","steam_id":76561198377029198,"connected_time":122000000000,"state":"active","ping":57},{"user_id":753,"name":"Scut","steam_id":76561198973734291,"connected_time":830000000000,"state":"active","ping":95},{"user_id":751,"name":"Sir Iasis","steam_id":76561198035666760,"connected_time":875000000000,"state":"active","ping":57},{"user_id":752,"name":"squatch","steam_id":76561198149410870,"connected_time":865000000000,"state":"active","ping":61},{"user_id":754,"name":"mad ignant","steam_id":76561198093152064,"connected_time":814000000000,"state":"active","ping":64},{"user_id":727,"name":"Catboy! :3","steam_id":76561199371694361,"connected_time":2893000000000,"state":"active","ping":90},{"user_id":737,"name":"no.","steam_id":76561198988350454,"connected_time":2486000000000,"state":"active","ping":165},{"user_id":738,"name":"cinamin.kake","steam_id":76561199003171233,"connected_time":2466000000000,"state":"active","ping":63},{"user_id":729,"name":"Bunt","steam_id":76561198124477567,"connected_time":2776000000000,"state":"active","ping":61},{"user_id":765,"name":"poib","steam_id":76561198402997248,"connected_time":42000000000,"state":"active","ping":60},{"user_id":748,"name":"ryann","steam_id":76561198042996639,"connected_time":1134000000000,"state":"active","ping":105},{"user_id":755,"name":"ZplitZ","steam_id":76561198093629868,"connected_time":795000000000,"state":"active","ping":63},{"user_id":756,"name":"THAN-Os!","steam_id":76561198140137142,"connected_time":773000000000,"state":"active","ping":80},{"user_id":734,"name":"pogo","steam_id":76561198148913461,"connected_time":2548000000000,"state":"active","ping":59},{"user_id":762,"name":"deez ratz","steam_id":76561198864572366,"connected_time":663000000000,"state":"active","ping":89},{"user_id":758,"name":"RECON440","steam_id":76561197969405707,"connected_time":754000000000,"state":"active","ping":76},{"user_id":759,"name":"Samantha UwUwU \u003c333","steam_id":76561198176786799,"connected_time":745000000000,"state":"active","ping":80},{"user_id":766,"name":"kuwaitgwips","steam_id":76561199164347838,"connected_time":25000000000,"state":"active","ping":70},{"user_id":713,"name":"JustSomePest","steam_id":76561198185573363,"connected_time":4050000000000,"state":"active","ping":84},{"user_id":717,"name":"TheScootGuy","steam_id":76561198847107866,"connected_time":3629000000000,"state":"active","ping":57},{"user_id":760,"name":"Messerschmitt","steam_id":76561198051683598,"connected_time":735000000000,"state":"active","ping":171},{"user_id":761,"name":"the beach that makes you old","steam_id":76561198008332777,"connected_time":735000000000,"state":"active","ping":72}]},{"server_id":106,"name":"Uncletopia | Chicago | 2 | All Maps","name_short":"chi-2","host":"chi-1.us.uncletopia.com","port":27025,"enabled":true,"region":"us-central","cc":"us","latitude":41.881832,"longitude":-87.62318,"reserved":0,"last_update":"0001-01-01T00:00:00Z","name_a2s":"Uncletopia | Chicago | 2 | All Maps","protocol":17,"map":"pl_pier","folder":"tf","game":"Team Fortress","app_id":440,"player_count":0,"max_players":24,"Bots":0,"server_type":"Dedicated","server_os":"Linux","password":true,"vac":true,"version":"7882260","steam_id":85568392924469985,"keywords":["nocrits","nodmgspread","payload","uncletopia"],"game_id":440,"stv_port":27026,"stv_name":"Uncletopia | Chicago | 2 | All Maps | STV","players":null},{"server_id":402,"name":"Uncletopia | Chicago | 3 | All Maps","name_short":"chi-3","host":"chi-1.us.uncletopia.com","port":27035,"enabled":true,"region":"us-central","cc":"us","latitude":41.881832,"longitude":-87.62318,"reserved":0,"last_update":"0001-01-01T00:00:00Z","name_a2s":"Uncletopia | Chicago | 3 | All Maps","protocol":17,"map":"koth_lakeside_final","folder":"tf","game":"Team Fortress","app_id":440,"player_count":20,"max_players":24,"Bots":0,"server_type":"Dedicated","server_os":"Linux","password":true,"vac":true,"version":"7882260","steam_id":85568392924515191,"keywords":["cp","nocrits","nodmgspread","uncletopia"],"game_id":440,"stv_port":27036,"stv_name":"Uncletopia | Chicago | 3 | All Maps | STV","players":[{"user_id":820,"name":"Toucher of Grass","steam_id":76561199475829930,"connected_time":2592000000000,"state":"active","ping":82},{"user_id":834,"name":"The Dick Drainer","steam_id":76561198887041407,"connected_time":1753000000000,"state":"active","ping":115},{"user_id":860,"name":"{FITH}‚Ñ¢ Halcyon","steam_id":76561198049132808,"connected_time":143000000000,"state":"active","ping":71},{"user_id":836,"name":"jackpots","steam_id":76561198103515747,"connected_time":1463000000000,"state":"active","ping":90},{"user_id":805,"name":"ball thrower","steam_id":76561198433240073,"connected_time":5126000000000,"state":"active","ping":45},{"user_id":852,"name":"wakeupbdot","steam_id":76561198160786631,"connected_time":801000000000,"state":"active","ping":59},{"user_id":856,"name":"[R–Ø] ShibesGoneWow","steam_id":76561198036090516,"connected_time":449000000000,"state":"active","ping":66},{"user_id":848,"name":"open.ai developer (real)","steam_id":76561198115175633,"connected_time":1033000000000,"state":"active","ping":59},{"user_id":830,"name":"Cool Ranch Buddha","steam_id":76561197982863756,"connected_time":1939000000000,"state":"active","ping":74},{"user_id":850,"name":"guess i'll die...virtually","steam_id":76561199112291386,"connected_time":973000000000,"state":"active","ping":103},{"user_id":862,"name":"Lemon Luke","steam_id":76561199141696546,"connected_time":78000000000,"state":"active","ping":141},{"user_id":841,"name":"eau:","steam_id":76561198110020262,"connected_time":1264000000000,"state":"active","ping":97},{"user_id":837,"name":"Cy4nideCutie","steam_id":76561198126686695,"connected_time":1451000000000,"state":"active","ping":56},{"user_id":843,"name":"insane jester","steam_id":76561198079609974,"connected_time":1227000000000,"state":"active","ping":112},{"user_id":845,"name":"kynlary","steam_id":76561198114899953,"connected_time":1163000000000,"state":"active","ping":81},{"user_id":828,"name":"Schlebecke","steam_id":76561199044752122,"connected_time":2038000000000,"state":"active","ping":53},{"user_id":857,"name":"Candy Mann From Brooklyn","steam_id":76561198251655918,"connected_time":414000000000,"state":"active","ping":73},{"user_id":816,"name":"Duk","steam_id":76561198450692568,"connected_time":4259000000000,"state":"active","ping":66},{"user_id":854,"name":"rose","steam_id":76561198048882285,"connected_time":609000000000,"state":"active","ping":73},{"user_id":849,"name":"Umbruh","steam_id":76561198027768238,"connected_time":1003000000000,"state":"active","ping":156}]},{"server_id":403,"name":"Uncletopia | Chicago | 4 | All Maps","name_short":"chi-4","host":"chi-1.us.uncletopia.com","port":27045,"enabled":true,"region":"us-central","cc":"us","latitude":41.881832,"longitude":-87.62318,"reserved":0,"last_update":"0001-01-01T00:00:00Z","name_a2s":"Uncletopia | Chicago | 4 | All Maps","protocol":17,"map":"pl_borneo","folder":"tf","game":"Team Fortress","app_id":440,"player_count":0,"max_players":24,"Bots":0,"server_type":"Dedicated","server_os":"Linux","password":true,"vac":true,"version":"7882260","steam_id":85568392924515193,"keywords":["nocrits","nodmgspread","payload","uncletopia"],"game_id":440,"stv_port":27046,"stv_name":"Uncletopia | Chicago | 4 | All Maps | STV","players":null},{"server_id":36,"name":"Uncletopia | Chicago | 5 | All Maps","name_short":"chi-5","host":"chi-2.us.uncletopia.com","port":27015,"enabled":true,"region":"us-central","cc":"us","latitude":41.881832,"longitude":-87.62318,"reserved":0,"last_update":"0001-01-01T00:00:00Z","name_a2s":"Uncletopia | Chicago | 5 | All Maps","protocol":17,"map":"pl_badwater","folder":"tf","game":"Team Fortress","app_id":440,"player_count":0,"max_players":24,"Bots":0,"server_type":"Dedicated","server_os":"Linux","password":true,"vac":true,"version":"7882260","steam_id":85568392924866362,"keywords":["nocrits","nodmgspread","payload","uncletopia"],"game_id":440,"stv_port":27016,"stv_name":"Uncletopia | Chicago | 5 | All Maps | STV","players":null},{"server_id":37,"name":"Uncletopia | Chicago | 6 | All Maps","name_short":"chi-6","host":"chi-2.us.uncletopia.com","port":27025,"enabled":true,"region":"us-central","cc":"us","latitude":41.881832,"longitude":-87.62318,"reserved":0,"last_update":"0001-01-01T00:00:00Z","name_a2s":"Uncletopia | Chicago | 6 | All Maps","protocol":17,"map":"cp_sunshine","folder":"tf","game":"Team Fortress","app_id":440,"player_count":0,"max_players":24,"Bots":0,"server_type":"Dedicated","server_os":"Linux","password":true,"vac":true,"version":"7882260","steam_id":85568392924866363,"keywords":["cp","nocrits","nodmgspread","uncletopia"],"game_id":440,"stv_port":27026,"stv_name":"Uncletopia | Chicago | 6 | All Maps | STV","players":null},{"server_id":38,"name":"Uncletopia | Chicago | 7 | Stopwatch Beta","name_short":"chi-7","host":"chi-2.us.uncletopia.com","port":27035,"enabled":true,"region":"us-central","cc":"us","latitude":41.881832,"longitude":-87.62318,"reserved":0,"last_update":"0001-01-01T00:00:00Z","name_a2s":"Uncletopia | Chicago | 7 | Stopwatch Beta","protocol":17,"map":"workshop/koth_ashville_final.ugc2130459942","folder":"tf","game":"Team Fortress","app_id":440,"player_count":0,"max_players":24,"Bots":0,"server_type":"Dedicated","server_os":"Linux","password":true,"vac":true,"version":"7882260","steam_id":85568392924866364,"keywords":["cp","nocrits","nodmgspread","uncletopia"],"game_id":440,"stv_port":27036,"stv_name":"Uncletopia | Chicago | 7 | Stopwatch Beta | STV","players":null},{"server_id":39,"name":"Uncletopia | Chicago | 8 | Community","name_short":"chi-8","host":"chi-2.us.uncletopia.com","port":27045,"enabled":true,"region":"us-central","cc":"us","latitude":41.881832,"longitude":-87.62318,"reserved":0,"last_update":"0001-01-01T00:00:00Z","name_a2s":"Uncletopia | Chicago | 8 | Community","protocol":17,"map":"cp_snakewater_final1","folder":"tf","game":"Team Fortress","app_id":440,"player_count":0,"max_players":24,"Bots":0,"server_type":"Dedicated","server_os":"Linux","password":true,"vac":true,"version":"7882260","steam_id":85568392924866365,"keywords":["cp","nocrits","nodmgspread","uncletopia"],"game_id":440,"stv_port":27046,"stv_name":"Uncletopia | Chicago | 8 | Community | STV","players":null},{"server_id":8,"name":"Uncletopia | Dallas | 1 | All Maps","name_short":"dal-1","host":"dal-1.us.uncletopia.com","port":27015,"enabled":true,"region":"us-central","cc":"us","latitude":32.779167,"longitude":-96.80889,"reserved":0,"last_update":"0001-01-01T00:00:00Z","name_a2s":"Uncletopia | Dallas | 1 | All Maps","protocol":17,"map":"cp_mountainlab","folder":"tf","game":"Team Fortress","app_id":440,"player_count":18,"max_players":24,"Bots":0,"server_type":"Dedicated","server_os":"Linux","password":true,"vac":true,"version":"7882260","steam_id":85568392924469986,"keywords":["cp","nocrits","nodmgspread","uncletopia"],"game_id":440,"stv_port":27016,"stv_name":"Uncletopia | Dallas | 1 | All Maps | STV","players":[{"user_id":755,"name":"DeviledEgg","steam_id":76561198318797339,"connected_time":1109000000000,"state":"active","ping":60},{"user_id":768,"name":"Ocelot","steam_id":76561198043176782,"connected_time":212000000000,"state":"active","ping":110},{"user_id":759,"name":"cringeass nae-nae girl","steam_id":76561198108753857,"connected_time":993000000000,"state":"active","ping":76},{"user_id":771,"name":"Averageman","steam_id":76561198821514229,"connected_time":72000000000,"state":"active","ping":84},{"user_id":718,"name":"Dask","steam_id":76561198043385839,"connected_time":4160000000000,"state":"active","ping":71},{"user_id":719,"name":"Gasly The Red","steam_id":76561198397898297,"connected_time":3924000000000,"state":"active","ping":116},{"user_id":749,"name":"Actual furry femboy gamer","steam_id":76561199466934791,"connected_time":2115000000000,"state":"active","ping":123},{"user_id":754,"name":"minty","steam_id":76561198062821894,"connected_time":1251000000000,"state":"active","ping":47},{"user_id":770,"name":"‚í∑‚ì™‚ì™‚ì£‚ì®‚ìí‚ìê‚ìö‚ìî‚ì¢","steam_id":76561198088776421,"connected_time":160000000000,"state":"active","ping":76},{"user_id":762,"name":"Yosh","steam_id":76561198027078899,"connected_time":929000000000,"state":"active","ping":65},{"user_id":747,"name":"robo-larkey","steam_id":76561198844502582,"connected_time":2247000000000,"state":"active","ping":43},{"user_id":763,"name":"Smittywerbenjager-manjenson","steam_id":76561198067060742,"connected_time":847000000000,"state":"active","ping":46},{"user_id":732,"name":"dinky little beanie baby","steam_id":76561197999318398,"connected_time":3113000000000,"state":"active","ping":105},{"user_id":703,"name":"Sucy","steam_id":76561198293202551,"connected_time":6209000000000,"state":"active","ping":59},{"user_id":733,"name":"FirleFranz","steam_id":76561199261282264,"connected_time":3061000000000,"state":"active","ping":186},{"user_id":705,"name":"C o n s t a n s","steam_id":76561198138680203,"connected_time":6176000000000,"state":"active","ping":60},{"user_id":765,"name":"bolainassr0","steam_id":76561199079078845,"connected_time":806000000000,"state":"active","ping":87},{"user_id":767,"name":"Meow Skulls","steam_id":76561198312670159,"connected_time":423000000000,"state":"active","ping":87}]},{"server_id":108,"name":"Uncletopia | Dallas | 2 | All Maps","name_short":"dal-2","host":"dal-1.us.uncletopia.com","port":27025,"enabled":true,"region":"us-central","cc":"us","latitude":32.779167,"longitude":-96.80889,"reserved":0,"last_update":"0001-01-01T00:00:00Z","name_a2s":"Uncletopia | Dallas | 2 | All Maps","protocol":17,"map":"pl_upward","folder":"tf","game":"Team Fortress","app_id":440,"player_count":7,"max_players":24,"Bots":0,"server_type":"Dedicated","server_os":"Linux","password":true,"vac":true,"version":"7882260","steam_id":85568392924469988,"keywords":["nocrits","nodmgspread","payload","uncletopia"],"game_id":440,"stv_port":27026,"stv_name":"Uncletopia | Dallas | 2 | All Maps | STV","players":[{"user_id":774,"name":"Trenos301","steam_id":76561198081155226,"connected_time":1477000000000,"state":"active","ping":47},{"user_id":781,"name":"DiabetesMan","steam_id":76561198075668940,"connected_time":1019000000000,"state":"active","ping":85},{"user_id":784,"name":"monky d. luffy","steam_id":76561199077691530,"connected_time":320000000000,"state":"active","ping":250},{"user_id":785,"name":"some cringe guy","steam_id":76561198104086771,"connected_time":78000000000,"state":"active","ping":72},{"user_id":783,"name":"derdds","steam_id":76561198034339940,"connected_time":732000000000,"state":"active","ping":75},{"user_id":776,"name":"samuraibender","steam_id":76561198336389126,"connected_time":1456000000000,"state":"active","ping":82},{"user_id":777,"name":"Coyotee1","steam_id":76561198170134697,"connected_time":1445000000000,"state":"active","ping":77}]},{"server_id":5,"name":"Uncletopia | Frankfurt | 1 | All Maps","name_short":"frk-1","host":"frk-1.de.uncletopia.com","port":27015,"enabled":true,"region":"eu","cc":"de","latitude":50.110924,"longitude":8.682127,"reserved":0,"last_update":"0001-01-01T00:00:00Z","name_a2s":"Uncletopia | Frankfurt | 1 | All Maps","protocol":17,"map":"pl_borneo","folder":"tf","game":"Team Fortress","app_id":440,"player_count":24,"max_players":24,"Bots":0,"server_type":"Dedicated","server_os":"Linux","password":true,"vac":true,"version":"7882260","steam_id":85568392924469989,"keywords":["nocrits","nodmgspread","payload","uncletopia"],"game_id":440,"stv_port":27016,"stv_name":"Uncletopia | Frankfurt | 1 | All Maps | STV","players":[{"user_id":3,"name":"Razorback from Team Fortress 2","steam_id":76561199214163032,"connected_time":10057000000000,"state":"active","ping":92},{"user_id":45,"name":"Sauce Joke","steam_id":76561198842979843,"connected_time":5339000000000,"state":"active","ping":49},{"user_id":13,"name":"Wujek Cacek","steam_id":76561198010267943,"connected_time":6723000000000,"state":"active","ping":60},{"user_id":28,"name":"nemelex","steam_id":76561198958005865,"connected_time":5836000000000,"state":"active","ping":58},{"user_id":92,"name":"I'm really bad at spy","steam_id":76561198159885449,"connected_time":1248000000000,"state":"active","ping":86},{"user_id":96,"name":"Rex Z'Beq","steam_id":76561199300590000,"connected_time":667000000000,"state":"active","ping":86},{"user_id":101,"name":"PixelStachee","steam_id":76561198110453607,"connected_time":455000000000,"state":"active","ping":59},{"user_id":85,"name":"JAZZ COMMANDO","steam_id":76561198031766068,"connected_time":1765000000000,"state":"active","ping":54},{"user_id":63,"name":"Aleknat","steam_id":76561198055379857,"connected_time":3752000000000,"state":"active","ping":70},{"user_id":99,"name":"Mandele","steam_id":76561199183213205,"connected_time":600000000000,"state":"active","ping":117},{"user_id":102,"name":"gus","steam_id":76561198876303958,"connected_time":423000000000,"state":"active","ping":121},{"user_id":77,"name":"Adam","steam_id":76561198062388802,"connected_time":2160000000000,"state":"active","ping":45},{"user_id":76,"name":"Cleander","steam_id":76561198262207332,"connected_time":2227000000000,"state":"active","ping":44},{"user_id":71,"name":"aleeees medic arc frfr","steam_id":76561198180361759,"connected_time":2945000000000,"state":"active","ping":56},{"user_id":103,"name":"they are rare","steam_id":76561198258838926,"connected_time":391000000000,"state":"active","ping":100},{"user_id":100,"name":"Wyro","steam_id":76561199176835169,"connected_time":540000000000,"state":"active","ping":66},{"user_id":105,"name":"CosminSL","steam_id":76561198055827684,"connected_time":76000000000,"state":"active","ping":80},{"user_id":106,"name":"JanChr98","steam_id":76561198256239784,"connected_time":55000000000,"state":"active","ping":103},{"user_id":60,"name":"mira","steam_id":76561199040246790,"connected_time":3770000000000,"state":"active","ping":64},{"user_id":91,"name":"Tobleroney","steam_id":76561198154402655,"connected_time":1299000000000,"state":"active","ping":52},{"user_id":87,"name":"Borat","steam_id":76561198122226417,"connected_time":1638000000000,"state":"active","ping":58},{"user_id":84,"name":"RCST","steam_id":76561198174955254,"connected_time":1803000000000,"state":"active","ping":95},{"user_id":93,"name":"Ôº≤ ÔºØ Ôº¢ Ôº¢ Ôº• Ôº≤ Ôº¥","steam_id":76561198134404830,"connected_time":1185000000000,"state":"active","ping":145},{"user_id":75,"name":"Eco","steam_id":76561199201938256,"connected_time":2309000000000,"state":"active","ping":79}]},{"server_id":110,"name":"Uncletopia | Frankfurt | 2 | All Maps","name_short":"frk-2","host":"frk-1.de.uncletopia.com","port":27025,"enabled":true,"region":"eu","cc":"de","latitude":50.110924,"longitude":8.682127,"reserved":0,"last_update":"0001-01-01T00:00:00Z","name_a2s":"Uncletopia | Frankfurt | 2 | All Maps","protocol":17,"map":"koth_viaduct","folder":"tf","game":"Team Fortress","app_id":440,"player_count":0,"max_players":24,"Bots":0,"server_type":"Dedicated","server_os":"Linux","password":true,"vac":true,"version":"7882260","steam_id":85568392924469990,"keywords":["cp","nocrits","nodmgspread","uncletopia"],"game_id":440,"stv_port":27026,"stv_name":"Uncletopia | Frankfurt | 2 | All Maps | STV","players":null},{"server_id":308,"name":"Uncletopia | Frankfurt | 3 | All Maps","name_short":"frk-3","host":"frk-1.de.uncletopia.com","port":27035,"enabled":true,"region":"eu","cc":"de","latitude":50.110924,"longitude":8.682127,"reserved":0,"last_update":"0001-01-01T00:00:00Z","name_a2s":"Uncletopia | Frankfurt | 3 | All Maps","protocol":17,"map":"cp_sunshine","folder":"tf","game":"Team Fortress","app_id":440,"player_count":0,"max_players":24,"Bots":0,"server_type":"Dedicated","server_os":"Linux","password":true,"vac":true,"version":"7882260","steam_id":85568392924504274,"keywords":["cp","nocrits","nodmgspread","uncletopia"],"game_id":440,"stv_port":27036,"stv_name":"Uncletopia | Frankfurt | 3 | All Maps | STV","players":null},{"server_id":309,"name":"Uncletopia | Frankfurt | 4 | All Maps","name_short":"frk-4","host":"frk-1.de.uncletopia.com","port":27045,"enabled":true,"region":"eu","cc":"de","latitude":50.110924,"longitude":8.682127,"reserved":0,"last_update":"0001-01-01T00:00:00Z","name_a2s":"Uncletopia | Frankfurt | 4 | All Maps","protocol":17,"map":"koth_lakeside_final","folder":"tf","game":"Team Fortress","app_id":440,"player_count":0,"max_players":24,"Bots":0,"server_type":"Dedicated","server_os":"Linux","password":true,"vac":true,"version":"7882260","steam_id":85568392924504275,"keywords":["cp","nocrits","nodmgspread","uncletopia"],"game_id":440,"stv_port":27046,"stv_name":"Uncletopia | Frankfurt | 4 | All Maps | STV","players":null},{"server_id":310,"name":"Uncletopia | Frankfurt | 5 | All Maps","name_short":"frk-5","host":"frk-1.de.uncletopia.com","port":27055,"enabled":true,"region":"eu","cc":"de","latitude":50.110924,"longitude":8.682127,"reserved":0,"last_update":"0001-01-01T00:00:00Z","name_a2s":"Uncletopia | Frankfurt | 5 | All Maps","protocol":17,"map":"cp_mountainlab","folder":"tf","game":"Team Fortress","app_id":440,"player_count":0,"max_players":24,"Bots":0,"server_type":"Dedicated","server_os":"Linux","password":true,"vac":true,"version":"7882260","steam_id":85568392924504277,"keywords":["cp","nocrits","nodmgspread","uncletopia"],"game_id":440,"stv_port":27056,"stv_name":"Uncletopia | Frankfurt | 5 | All Maps | STV","players":null},{"server_id":311,"name":"Uncletopia | Frankfurt | 6 | All Maps","name_short":"frk-6","host":"frk-1.de.uncletopia.com","port":27065,"enabled":true,"region":"eu","cc":"de","latitude":50.110924,"longitude":8.682127,"reserved":0,"last_update":"0001-01-01T00:00:00Z","name_a2s":"Uncletopia | Frankfurt | 6 | All Maps","protocol":17,"map":"cp_sunshine","folder":"tf","game":"Team Fortress","app_id":440,"player_count":0,"max_players":24,"Bots":0,"server_type":"Dedicated","server_os":"Linux","password":true,"vac":true,"version":"7882260","steam_id":85568392924504278,"keywords":["cp","nocrits","nodmgspread","uncletopia"],"game_id":440,"stv_port":27066,"stv_name":"Uncletopia | Frankfurt | 6 | All Maps | STV","players":null},{"server_id":23,"name":"Uncletopia | Frankfurt | 7 | Stopwatch Beta","name_short":"frk-7","host":"frk-1.de.uncletopia.com","port":27075,"enabled":true,"region":"eu","cc":"de","latitude":50.110924,"longitude":8.682127,"reserved":0,"last_update":"0001-01-01T00:00:00Z","name_a2s":"Uncletopia | Frankfurt | 7 | Stopwatch Beta","protocol":17,"map":"cp_dustbowl","folder":"tf","game":"Team Fortress","app_id":440,"player_count":0,"max_players":24,"Bots":0,"server_type":"Dedicated","server_os":"Linux","password":true,"vac":true,"version":"7882260","steam_id":85568392924742827,"keywords":["cp","nocrits","nodmgspread","uncletopia"],"game_id":440,"stv_port":27076,"stv_name":"Uncletopia | Frankfurt | 7 | Stopwatch Beta | STV","players":null},{"server_id":24,"name":"Uncletopia | Frankfurt | 8 | Community","name_short":"frk-8","host":"frk-1.de.uncletopia.com","port":27085,"enabled":true,"region":"eu","cc":"de","latitude":50.110924,"longitude":8.682127,"reserved":0,"last_update":"0001-01-01T00:00:00Z","name_a2s":"Uncletopia | Frankfurt | 8 | Community","protocol":17,"map":"koth_cascade","folder":"tf","game":"Team Fortress","app_id":440,"player_count":0,"max_players":24,"Bots":0,"server_type":"Dedicated","server_os":"Linux","password":true,"vac":true,"version":"7882260","steam_id":85568392924742828,"keywords":["cp","nocrits","nodmgspread","uncletopia"],"game_id":440,"stv_port":27086,"stv_name":"Uncletopia | Frankfurt | 8 | Community | STV","players":null},{"server_id":202,"name":"Uncletopia | Hong Kong | 1 | All Maps","name_short":"hgk-1","host":"hgk-1.hk.uncletopia.com","port":27015,"enabled":true,"region":"asia","cc":"hk","latitude":22.302711,"longitude":114.177216,"reserved":0,"last_update":"0001-01-01T00:00:00Z","name_a2s":"Uncletopia | Hong Kong | 1 | All Maps","protocol":17,"map":"pl_swiftwater_final1","folder":"tf","game":"Team Fortress","app_id":440,"player_count":24,"max_players":24,"Bots":0,"server_type":"Dedicated","server_os":"Linux","password":true,"vac":true,"version":"7882260","steam_id":85568392924494504,"keywords":["nocrits","nodmgspread","payload","uncletopia"],"game_id":440,"stv_port":27016,"stv_name":"Uncletopia | Hong Kong | 1 | All Maps | STV","players":[{"user_id":95,"name":"Â∏ï","steam_id":76561198439343999,"connected_time":8138000000000,"state":"active","ping":125},{"user_id":205,"name":"Samoyed","steam_id":76561198299150410,"connected_time":2416000000000,"state":"active","ping":135},{"user_id":220,"name":"Milk‚ù§","steam_id":76561198163911560,"connected_time":784000000000,"state":"active","ping":142},{"user_id":124,"name":"monke mode","steam_id":76561198992723983,"connected_time":5658000000000,"state":"active","ping":93},{"user_id":228,"name":"cstr","steam_id":76561198125946388,"connected_time":108000000000,"state":"active","ping":90},{"user_id":112,"name":"TomProPlayer","steam_id":76561199223292521,"connected_time":7171000000000,"state":"active","ping":65},{"user_id":223,"name":"Pangolin","steam_id":76561198318126190,"connected_time":769000000000,"state":"active","ping":94},{"user_id":85,"name":"bodacious bogey","steam_id":76561198055553140,"connected_time":9808000000000,"state":"active","ping":75},{"user_id":185,"name":"clori","steam_id":76561199146847474,"connected_time":3687000000000,"state":"active","ping":35},{"user_id":218,"name":"sierra","steam_id":76561197969873415,"connected_time":1189000000000,"state":"active","ping":101},{"user_id":217,"name":"Stupid B","steam_id":76561198131423270,"connected_time":1625000000000,"state":"active","ping":118},{"user_id":219,"name":"MySejahtera","steam_id":76561198331763015,"connected_time":812000000000,"state":"active","ping":89},{"user_id":221,"name":"Leroy","steam_id":76561199137927625,"connected_time":784000000000,"state":"active","ping":96},{"user_id":200,"name":"Milf (The fan O'Milk)","steam_id":76561198213031155,"connected_time":2640000000000,"state":"active","ping":102},{"user_id":227,"name":"17","steam_id":76561198241530712,"connected_time":465000000000,"state":"active","ping":61},{"user_id":194,"name":"Dr. Piss Rat","steam_id":76561199074809838,"connected_time":2837000000000,"state":"active","ping":76},{"user_id":202,"name":"WhereAmai","steam_id":76561199122491157,"connected_time":2634000000000,"state":"active","ping":171},{"user_id":214,"name":"7853","steam_id":76561199390507975,"connected_time":1691000000000,"state":"active","ping":53},{"user_id":216,"name":"Momoxhien","steam_id":76561198414997429,"connected_time":1663000000000,"state":"active","ping":66},{"user_id":77,"name":"UltraFat","steam_id":76561198253918132,"connected_time":10505000000000,"state":"active","ping":89},{"user_id":118,"name":"ÊØç„ÅÆËÇâÂõ£Â≠ê@hao123.com","steam_id":76561198069561896,"connected_time":6174000000000,"state":"active","ping":46},{"user_id":80,"name":"spinach (old mouse)","steam_id":76561198042539541,"connected_time":10459000000000,"state":"active","ping":80},{"user_id":212,"name":"Mystery cheese üßÄ","steam_id":76561198304002409,"connected_time":1913000000000,"state":"active","ping":84},{"user_id":182,"name":"screaming sniper","steam_id":76561199085568674,"connected_time":3712000000000,"state":"active","ping":86}]},{"server_id":1,"name":"Uncletopia | Los Angeles | 1 | All Maps","name_short":"lax-1","host":"lax-1.us.uncletopia.com","port":27015,"enabled":true,"region":"us-west","cc":"us","latitude":33.94279,"longitude":-118.41004,"reserved":0,"last_update":"0001-01-01T00:00:00Z","name_a2s":"Uncletopia | Los Angeles | 1 | All Maps","protocol":17,"map":"pl_pier","folder":"tf","game":"Team Fortress","app_id":440,"player_count":5,"max_players":24,"Bots":0,"server_type":"Dedicated","server_os":"Linux","password":true,"vac":true,"version":"7882260","steam_id":85568392924469991,"keywords":["nocrits","nodmgspread","payload","uncletopia"],"game_id":440,"stv_port":27016,"stv_name":"Uncletopia | Los Angeles | 1 | All Maps | STV","players":[{"user_id":649,"name":"The unusually unusual demo","steam_id":76561198203262371,"connected_time":335000000000,"state":"active","ping":122},{"user_id":641,"name":"Drewey","steam_id":76561199258609863,"connected_time":1936000000000,"state":"active","ping":101},{"user_id":652,"name":"Hero Smasher","steam_id":76561198150681669,"connected_time":130000000000,"state":"active","ping":54},{"user_id":581,"name":"Derpy Hooves???","steam_id":76561198101505695,"connected_time":6337000000000,"state":"active","ping":44},{"user_id":582,"name":"a 1930","steam_id":76561198320639814,"connected_time":6326000000000,"state":"active","ping":86}]},{"server_id":112,"name":"Uncletopia | Los Angeles | 2 | All Maps","name_short":"lax-2","host":"lax-1.us.uncletopia.com","port":27025,"enabled":true,"region":"us-west","cc":"us","latitude":33.94279,"longitude":-118.41004,"reserved":0,"last_update":"0001-01-01T00:00:00Z","name_a2s":"Uncletopia | Los Angeles | 2 | All Maps","protocol":17,"map":"pl_badwater","folder":"tf","game":"Team Fortress","app_id":440,"player_count":24,"max_players":24,"Bots":0,"server_type":"Dedicated","server_os":"Linux","password":true,"vac":true,"version":"7882260","steam_id":85568392924469992,"keywords":["nocrits","nodmgspread","payload","uncletopia"],"game_id":440,"stv_port":27026,"stv_name":"Uncletopia | Los Angeles | 2 | All Maps | STV","players":[{"user_id":364,"name":"DOPEam1ne","steam_id":76561198112204774,"connected_time":6538000000000,"state":"active","ping":52},{"user_id":440,"name":"Femboy Foxy","steam_id":76561199179166383,"connected_time":816000000000,"state":"active","ping":69},{"user_id":437,"name":"Linguini Bros | SploogieMcNoodl","steam_id":76561198262842999,"connected_time":1030000000000,"state":"active","ping":38},{"user_id":449,"name":"KingOyster","steam_id":76561198322567830,"connected_time":292000000000,"state":"active","ping":95},{"user_id":442,"name":"Satanael","steam_id":76561198892963894,"connected_time":786000000000,"state":"active","ping":58},{"user_id":438,"name":"zapato","steam_id":76561198142278437,"connected_time":1012000000000,"state":"active","ping":94},{"user_id":443,"name":"XxX420UwUMaster666XxX","steam_id":76561199351137762,"connected_time":754000000000,"state":"active","ping":84},{"user_id":410,"name":"dare","steam_id":76561197960977496,"connected_time":3972000000000,"state":"active","ping":64},{"user_id":431,"name":"You're Cheeks","steam_id":76561198065479486,"connected_time":1777000000000,"state":"active","ping":100},{"user_id":444,"name":"Jeffery","steam_id":76561199226711716,"connected_time":743000000000,"state":"active","ping":49},{"user_id":388,"name":"Stoofy","steam_id":76561198280750328,"connected_time":5390000000000,"state":"active","ping":86},{"user_id":447,"name":"Easto","steam_id":76561198065671442,"connected_time":569000000000,"state":"active","ping":116},{"user_id":423,"name":"johnny karate","steam_id":76561198165847261,"connected_time":2831000000000,"state":"active","ping":76},{"user_id":451,"name":"chocolat3823","steam_id":76561199249875689,"connected_time":52000000000,"state":"active","ping":49},{"user_id":448,"name":"Gruntic","steam_id":76561198170396647,"connected_time":568000000000,"state":"active","ping":52},{"user_id":439,"name":"Thaatsovietguy","steam_id":76561199262265522,"connected_time":908000000000,"state":"active","ping":92},{"user_id":441,"name":"tony hawk","steam_id":76561198172050802,"connected_time":806000000000,"state":"active","ping":44},{"user_id":445,"name":"Xd","steam_id":76561198115731144,"connected_time":722000000000,"state":"active","ping":74},{"user_id":427,"name":"UnknownError42","steam_id":76561198087467339,"connected_time":2606000000000,"state":"active","ping":114},{"user_id":450,"name":"ball wiggler","steam_id":76561198360660145,"connected_time":261000000000,"state":"active","ping":70},{"user_id":415,"name":"An Entire 2006 Honda Civic Si","steam_id":76561198102009930,"connected_time":3747000000000,"state":"active","ping":53},{"user_id":436,"name":"obamanana from heaven","steam_id":76561198960714685,"connected_time":1316000000000,"state":"active","ping":182},{"user_id":446,"name":"SniperMarksman9","steam_id":76561198423903264,"connected_time":708000000000,"state":"active","ping":52},{"user_id":392,"name":"Raizen","steam_id":76561199092445367,"connected_time":5240000000000,"state":"active","ping":103}]},{"server_id":324,"name":"Uncletopia | Los Angeles | 3 | All Maps","name_short":"lax-3","host":"lax-1.us.uncletopia.com","port":27035,"enabled":true,"region":"us-west","cc":"us","latitude":33.94279,"longitude":-118.41004,"reserved":0,"last_update":"0001-01-01T00:00:00Z","name_a2s":"Uncletopia | Los Angeles | 3 | All Maps","protocol":17,"map":"plr_hightower","folder":"tf","game":"Team Fortress","app_id":440,"player_count":0,"max_players":24,"Bots":0,"server_type":"Dedicated","server_os":"Linux","password":true,"vac":true,"version":"7882260","steam_id":85568392924510198,"keywords":["nocrits","nodmgspread","payload","uncletopia"],"game_id":440,"stv_port":27036,"stv_name":"Uncletopia | Los Angeles | 3 | All Maps | STV","players":null},{"server_id":25,"name":"Uncletopia | Los Angeles | 4 | Stopwatch Beta","name_short":"lax-4","host":"lax-1.us.uncletopia.com","port":27045,"enabled":true,"region":"us-west","cc":"us","latitude":33.94279,"longitude":-118.41004,"reserved":0,"last_update":"0001-01-01T00:00:00Z","name_a2s":"Uncletopia | Los Angeles | 4 | Stopwatch Beta","protocol":17,"map":"koth_lakeside_final","folder":"tf","game":"Team Fortress","app_id":440,"player_count":0,"max_players":24,"Bots":0,"server_type":"Dedicated","server_os":"Linux","password":true,"vac":true,"version":"7882260","steam_id":85568392924510199,"keywords":["cp","nocrits","nodmgspread","uncletopia"],"game_id":440,"stv_port":27046,"stv_name":"Uncletopia | Los Angeles | 4 | Stopwatch Beta | STV","players":null},{"server_id":11,"name":"Uncletopia | London | 1 | All Maps","name_short":"lon-1","host":"lon-1.uk.uncletopia.com","port":27015,"enabled":true,"region":"eu","cc":"gb","latitude":51.509865,"longitude":-0.118092,"reserved":0,"last_update":"0001-01-01T00:00:00Z","name_a2s":"Uncletopia | London | 1 | All Maps","protocol":17,"map":"pl_snowycoast","folder":"tf","game":"Team Fortress","app_id":440,"player_count":0,"max_players":24,"Bots":0,"server_type":"Dedicated","server_os":"Linux","password":true,"vac":true,"version":"7882260","steam_id":85568392924367362,"keywords":["nocrits","nodmgspread","payload","uncletopia"],"game_id":440,"stv_port":27016,"stv_name":"Uncletopia | London | 1 | All Maps | STV","players":null},{"server_id":114,"name":"Uncletopia | London | 2 | All Maps","name_short":"lon-2","host":"lon-1.uk.uncletopia.com","port":27025,"enabled":true,"region":"eu","cc":"gb","latitude":51.509865,"longitude":-0.118092,"reserved":0,"last_update":"0001-01-01T00:00:00Z","name_a2s":"Uncletopia | London | 2 | All Maps","protocol":17,"map":"pl_swiftwater_final1","folder":"tf","game":"Team Fortress","app_id":440,"player_count":24,"max_players":24,"Bots":0,"server_type":"Dedicated","server_os":"Linux","password":true,"vac":true,"version":"7882260","steam_id":85568392924470941,"keywords":["nocrits","nodmgspread","payload","uncletopia"],"game_id":440,"stv_port":27026,"stv_name":"Uncletopia | London | 2 | All Maps | STV","players":[{"user_id":187,"name":"SharkLH","steam_id":76561199192138643,"connected_time":1730000000000,"state":"active","ping":100},{"user_id":198,"name":"Blastrock64","steam_id":76561199008932704,"connected_time":1049000000000,"state":"active","ping":75},{"user_id":205,"name":"Dio","steam_id":76561198117685434,"connected_time":164000000000,"state":"active","ping":99},{"user_id":129,"name":"hipster_doofus","steam_id":76561197970902697,"connected_time":6168000000000,"state":"active","ping":55},{"user_id":161,"name":"dotdotdot","steam_id":76561198057628751,"connected_time":3461000000000,"state":"active","ping":62},{"user_id":203,"name":"Brewas","steam_id":76561198869057206,"connected_time":495000000000,"state":"active","ping":82},{"user_id":166,"name":"ashwin9631","steam_id":76561198207406319,"connected_time":3028000000000,"state":"active","ping":160},{"user_id":173,"name":"goofster","steam_id":76561199052275857,"connected_time":2631000000000,"state":"active","ping":115},{"user_id":206,"name":"DuckGod","steam_id":76561198333027986,"connected_time":144000000000,"state":"active","ping":77},{"user_id":201,"name":"Peaky Blinder","steam_id":76561198979874772,"connected_time":535000000000,"state":"active","ping":72},{"user_id":192,"name":"Panique","steam_id":76561197993239675,"connected_time":1500000000000,"state":"active","ping":57},{"user_id":207,"name":"Cotton Eye Joe","steam_id":76561198080594207,"connected_time":138000000000,"state":"active","ping":55},{"user_id":183,"name":"axl#pizdaaim","steam_id":76561198991661832,"connected_time":1950000000000,"state":"active","ping":73},{"user_id":170,"name":"6'3 horny aroused male with gun","steam_id":76561199042470246,"connected_time":2799000000000,"state":"active","ping":58},{"user_id":204,"name":"Rin-Nakaret","steam_id":76561197971051188,"connected_time":392000000000,"state":"active","ping":62},{"user_id":178,"name":"syzy2","steam_id":76561198010854110,"connected_time":2212000000000,"state":"active","ping":60},{"user_id":195,"name":"Storm's Foreshadow","steam_id":76561198098462526,"connected_time":1301000000000,"state":"active","ping":75},{"user_id":197,"name":"Purplenoogie","steam_id":76561198081872160,"connected_time":1123000000000,"state":"active","ping":40},{"user_id":193,"name":"WATANG!","steam_id":76561198040478926,"connected_time":1471000000000,"state":"active","ping":75},{"user_id":208,"name":"Ash","steam_id":76561198148738525,"connected_time":103000000000,"state":"active","ping":108},{"user_id":209,"name":"-gunripp0r^be / Obelix^","steam_id":76561197999306879,"connected_time":101000000000,"state":"active","ping":103},{"user_id":171,"name":"first time caller","steam_id":76561198031573426,"connected_time":2696000000000,"state":"active","ping":75},{"user_id":154,"name":"revolver CHEH","steam_id":76561198851411530,"connected_time":4682000000000,"state":"active","ping":51},{"user_id":194,"name":"No | S | uS","steam_id":76561199195727551,"connected_time":1459000000000,"state":"active","ping":47}]},{"server_id":320,"name":"Uncletopia | London | 3 | All Maps","name_short":"lon-3","host":"lon-1.uk.uncletopia.com","port":27035,"enabled":true,"region":"eu","cc":"gb","latitude":51.509865,"longitude":-0.118092,"reserved":0,"last_update":"0001-01-01T00:00:00Z","name_a2s":"Uncletopia | London | 3 | All Maps","protocol":17,"map":"koth_highpass","folder":"tf","game":"Team Fortress","app_id":440,"player_count":1,"max_players":24,"Bots":0,"server_type":"Dedicated","server_os":"Linux","password":true,"vac":true,"version":"7882260","steam_id":85568392924510192,"keywords":["cp","nocrits","nodmgspread","uncletopia"],"game_id":440,"stv_port":27036,"stv_name":"Uncletopia | London | 3 | All Maps | STV","players":[{"user_id":5,"name":"—Ç–æ–ª—è","steam_id":76561199098518615,"connected_time":288000000000,"state":"active","ping":89}]},{"server_id":321,"name":"Uncletopia | London | 4 | All Maps","name_short":"lon-4","host":"lon-1.uk.uncletopia.com","port":27045,"enabled":true,"region":"eu","cc":"gb","latitude":51.509865,"longitude":-0.118092,"reserved":0,"last_update":"0001-01-01T00:00:00Z","name_a2s":"Uncletopia | London | 4 | All Maps","protocol":17,"map":"pl_upward","folder":"tf","game":"Team Fortress","app_id":440,"player_count":0,"max_players":24,"Bots":0,"server_type":"Dedicated","server_os":"Linux","password":true,"vac":true,"version":"7882260","steam_id":85568392924510193,"keywords":["nocrits","nodmgspread","payload","uncletopia"],"game_id":440,"stv_port":27046,"stv_name":"Uncletopia | London | 4 | All Maps | STV","players":null},{"server_id":21,"name":"Uncletopia | London | 5 | All Maps","name_short":"lon-5","host":"lon-1.uk.uncletopia.com","port":27055,"enabled":true,"region":"eu","cc":"gb","latitude":51.509865,"longitude":-0.118092,"reserved":0,"last_update":"0001-01-01T00:00:00Z","name_a2s":"Uncletopia | London | 5 | All Maps","protocol":17,"map":"pl_frontier_final","folder":"tf","game":"Team Fortress","app_id":440,"player_count":13,"max_players":24,"Bots":0,"server_type":"Dedicated","server_os":"Linux","password":true,"vac":true,"version":"7882260","steam_id":85568392924742829,"keywords":["nocrits","nodmgspread","payload","uncletopia"],"game_id":440,"stv_port":27056,"stv_name":"Uncletopia | London | 5 | All Maps | STV","players":[{"user_id":4,"name":"daniel.novikov","steam_id":76561199172189811,"connected_time":2039000000000,"state":"active","ping":124},{"user_id":6,"name":"Roboboy_uk","steam_id":76561197973225899,"connected_time":1385000000000,"state":"active","ping":50},{"user_id":15,"name":"i AM the medic gf","steam_id":76561198247284680,"connected_time":364000000000,"state":"active","ping":75},{"user_id":9,"name":"Mr. Shadow | Folfie","steam_id":76561198037028507,"connected_time":1207000000000,"state":"active","ping":64},{"user_id":10,"name":"Magirby","steam_id":76561198818777390,"connected_time":963000000000,"state":"active","ping":100},{"user_id":21,"name":"Jirro","steam_id":76561198193581143,"connected_time":193000000000,"state":"active","ping":79},{"user_id":17,"name":"Bulyto","steam_id":76561198043205202,"connected_time":342000000000,"state":"active","ping":60},{"user_id":18,"name":"sex havin'","steam_id":76561198169857427,"connected_time":302000000000,"state":"active","ping":75},{"user_id":14,"name":"LE BOURLINGUEUR","steam_id":76561198324215760,"connected_time":652000000000,"state":"active","ping":69},{"user_id":22,"name":"Yuzu","steam_id":76561198121694613,"connected_time":73000000000,"state":"active","ping":46},{"user_id":23,"name":"BeLL","steam_id":76561198151932192,"connected_time":59000000000,"state":"active","ping":75},{"user_id":24,"name":"empyreu","steam_id":76561199185504804,"connected_time":33000000000,"state":"active","ping":287},{"user_id":25,"name":"gneeda","steam_id":76561198147249160,"connected_time":0,"state":"spawning","ping":66}]},{"server_id":22,"name":"Uncletopia | London | 6 | All Maps","name_short":"lon-6","host":"lon-1.uk.uncletopia.com","port":27065,"enabled":true,"region":"eu","cc":"gb","latitude":51.509865,"longitude":-0.118092,"reserved":0,"last_update":"0001-01-01T00:00:00Z","name_a2s":"Uncletopia | London | 6 | All Maps","protocol":17,"map":"pl_swiftwater_final1","folder":"tf","game":"Team Fortress","app_id":440,"player_count":24,"max_players":24,"Bots":0,"server_type":"Dedicated","server_os":"Linux","password":true,"vac":true,"version":"7882260","steam_id":85568392924742830,"keywords":["nocrits","nodmgspread","payload","uncletopia"],"game_id":440,"stv_port":27066,"stv_name":"Uncletopia | London | 6 | All Maps | STV","players":[{"user_id":68,"name":"Alegz","steam_id":76561198287810139,"connected_time":117000000000,"state":"spawning","ping":459},{"user_id":58,"name":"Stuid","steam_id":76561199427506542,"connected_time":700000000000,"state":"active","ping":77},{"user_id":65,"name":"Trolli","steam_id":76561199069726280,"connected_time":483000000000,"state":"active","ping":59},{"user_id":41,"name":"‚òûLaZe‚òú","steam_id":76561198202191400,"connected_time":1963000000000,"state":"active","ping":52},{"user_id":62,"name":"nutlube","steam_id":76561198128831131,"connected_time":629000000000,"state":"active","ping":66},{"user_id":57,"name":"Fat Pigeon","steam_id":76561198817940142,"connected_time":764000000000,"state":"active","ping":46},{"user_id":50,"name":"Sylvanas","steam_id":76561198154904165,"connected_time":1165000000000,"state":"active","ping":105},{"user_id":16,"name":"FanFish","steam_id":76561199389558024,"connected_time":3829000000000,"state":"active","ping":74},{"user_id":17,"name":"Fus in Boots","steam_id":76561198053897722,"connected_time":3819000000000,"state":"active","ping":48},{"user_id":69,"name":"Pucho","steam_id":76561198134617262,"connected_time":103000000000,"state":"active","ping":48},{"user_id":66,"name":"Totally Spies!","steam_id":76561198343452867,"connected_time":455000000000,"state":"active","ping":88},{"user_id":26,"name":"Mclovin","steam_id":76561199082620246,"connected_time":2769000000000,"state":"active","ping":74},{"user_id":30,"name":"W+M1 noob","steam_id":76561198120460686,"connected_time":2448000000000,"state":"active","ping":125},{"user_id":31,"name":"O-linked Œ≤-N-acetylglucosamine","steam_id":76561198150034145,"connected_time":2419000000000,"state":"active","ping":64},{"user_id":32,"name":"Enigmus","steam_id":76561197994063627,"connected_time":2346000000000,"state":"active","ping":90},{"user_id":70,"name":"Pinochet","steam_id":76561198194042394,"connected_time":4000000000,"state":"spawning","ping":146},{"user_id":67,"name":"ijustsmokeandcry","steam_id":76561198044189114,"connected_time":206000000000,"state":"active","ping":68},{"user_id":49,"name":"Spinyapickle","steam_id":76561198086653667,"connected_time":1257000000000,"state":"active","ping":51},{"user_id":37,"name":"Intruder","steam_id":76561198156128173,"connected_time":2227000000000,"state":"active","ping":76},{"user_id":42,"name":"Nonhuman","steam_id":76561198062002340,"connected_time":1908000000000,"state":"active","ping":90},{"user_id":43,"name":"Egor Pomidor","steam_id":76561199175688390,"connected_time":1880000000000,"state":"active","ping":77},{"user_id":47,"name":"Kokos","steam_id":76561198085501501,"connected_time":1727000000000,"state":"active","ping":79},{"user_id":45,"name":"Sir Cauterize","steam_id":76561198047079422,"connected_time":1803000000000,"state":"active","ping":49},{"user_id":46,"name":"Jan.","steam_id":76561197974066329,"connected_time":1795000000000,"state":"active","ping":60}]},{"server_id":40,"name":"Uncletopia | London | 7 | No Payload","name_short":"lon-7","host":"lon-1.uk.uncletopia.com","port":27075,"enabled":true,"region":"eu","cc":"gb","latitude":51.509865,"longitude":-0.118092,"reserved":0,"last_update":"0001-01-01T00:00:00Z","name_a2s":"Uncletopia | London | 7 | No Payload","protocol":17,"map":"pl_pier","folder":"tf","game":"Team Fortress","app_id":440,"player_count":0,"max_players":24,"Bots":0,"server_type":"Dedicated","server_os":"Linux","password":true,"vac":true,"version":"7882260","steam_id":85568392924964314,"keywords":["nocrits","nodmgspread","payload","uncletopia"],"game_id":440,"stv_port":27076,"stv_name":"Uncletopia | London | 7 | No Payload | STV","players":null},{"server_id":41,"name":"Uncletopia | London | 8 | Community","name_short":"lon-8","host":"lon-1.uk.uncletopia.com","port":27085,"enabled":true,"region":"eu","cc":"gb","latitude":51.509865,"longitude":-0.118092,"reserved":0,"last_update":"0001-01-01T00:00:00Z","name_a2s":"Uncletopia | London | 8 | Community","protocol":17,"map":"pl_swiftwater_final1","folder":"tf","game":"Team Fortress","app_id":440,"player_count":0,"max_players":24,"Bots":0,"server_type":"Dedicated","server_os":"Linux","password":true,"vac":true,"version":"7882260","steam_id":85568392924964315,"keywords":["nocrits","nodmgspread","payload","uncletopia"],"game_id":440,"stv_port":27086,"stv_name":"Uncletopia | London | 8 | Community | STV","players":null},{"server_id":300,"name":"Uncletopia | Montr√©al | 1 | All Maps","name_short":"mtl-1","host":"mtl-1.ca.uncletopia.com","port":27015,"enabled":true,"region":"us-east","cc":"ca","latitude":45.50889,"longitude":-73.56167,"reserved":0,"last_update":"0001-01-01T00:00:00Z","name_a2s":"Uncletopia | Montr√©al | 1 | All Maps","protocol":17,"map":"cp_dustbowl","folder":"tf","game":"Team Fortress","app_id":440,"player_count":0,"max_players":24,"Bots":0,"server_type":"Dedicated","server_os":"Linux","password":true,"vac":true,"version":"7882260","steam_id":85568392924500087,"keywords":["cp","nocrits","nodmgspread","uncletopia"],"game_id":440,"stv_port":27016,"stv_name":"Uncletopia | Montr√©al | 1 | All Maps | STV","players":null},{"server_id":301,"name":"Uncletopia | Montr√©al | 2 | All Maps","name_short":"mtl-2","host":"mtl-1.ca.uncletopia.com","port":27025,"enabled":true,"region":"us-east","cc":"ca","latitude":45.50889,"longitude":-73.56167,"reserved":0,"last_update":"0001-01-01T00:00:00Z","name_a2s":"Uncletopia | Montr√©al | 2 | All Maps","protocol":17,"map":"cp_process_final","folder":"tf","game":"Team Fortress","app_id":440,"player_count":0,"max_players":24,"Bots":0,"server_type":"Dedicated","server_os":"Linux","password":true,"vac":true,"version":"7882260","steam_id":85568392924500088,"keywords":["cp","nocrits","nodmgspread","uncletopia"],"game_id":440,"stv_port":27026,"stv_name":"Uncletopia | Montr√©al | 2 | All Maps | STV","players":null},{"server_id":302,"name":"Uncletopia | Montr√©al | 3 | All Maps","name_short":"mtl-3","host":"mtl-1.ca.uncletopia.com","port":27035,"enabled":true,"region":"us-east","cc":"ca","latitude":45.50889,"longitude":-73.56167,"reserved":0,"last_update":"0001-01-01T00:00:00Z","name_a2s":"Uncletopia | Montr√©al | 3 | All Maps","protocol":17,"map":"koth_viaduct","folder":"tf","game":"Team Fortress","app_id":440,"player_count":0,"max_players":24,"Bots":0,"server_type":"Dedicated","server_os":"Linux","password":true,"vac":true,"version":"7882260","steam_id":85568392924500089,"keywords":["cp","nocrits","nodmgspread","uncletopia"],"game_id":440,"stv_port":27036,"stv_name":"Uncletopia | Montr√©al | 3 | All Maps | STV","players":null},{"server_id":303,"name":"Uncletopia | Montr√©al | 4 | No Payload","name_short":"mtl-4","host":"mtl-1.ca.uncletopia.com","port":27045,"enabled":true,"region":"us-east","cc":"ca","latitude":45.50889,"longitude":-73.56167,"reserved":0,"last_update":"0001-01-01T00:00:00Z","name_a2s":"Uncletopia | Montr√©al | 4 | No Payload","protocol":17,"map":"ctf_doublecross","folder":"tf","game":"Team Fortress","app_id":440,"player_count":0,"max_players":24,"Bots":0,"server_type":"Dedicated","server_os":"Linux","password":true,"vac":true,"version":"7882260","steam_id":85568392924500090,"keywords":["ctf","nocrits","nodmgspread","uncletopia"],"game_id":440,"stv_port":27046,"stv_name":"Uncletopia | Montr√©al | 4 | No Payload | STV","players":null},{"server_id":13,"name":"Uncletopia | New York City | 1 | All Maps","name_short":"nyc-1","host":"nyc-1.us.uncletopia.com","port":27015,"enabled":true,"region":"us-east","cc":"us","latitude":40.73061,"longitude":-73.93524,"reserved":0,"last_update":"0001-01-01T00:00:00Z","name_a2s":"Uncletopia | New York City | 1 | All Maps","protocol":17,"map":"pl_barnblitz","folder":"tf","game":"Team Fortress","app_id":440,"player_count":0,"max_players":24,"Bots":0,"server_type":"Dedicated","server_os":"Linux","password":true,"vac":true,"version":"7882260","steam_id":85568392924469993,"keywords":["nocrits","nodmgspread","payload","uncletopia"],"game_id":440,"stv_port":27016,"stv_name":"Uncletopia | New York City | 1 | All Maps | STV","players":null},{"server_id":14,"name":"Uncletopia | New York City | 2 | All Maps","name_short":"nyc-2","host":"nyc-1.us.uncletopia.com","port":27025,"enabled":true,"region":"us-east","cc":"us","latitude":40.73061,"longitude":-73.93524,"reserved":0,"last_update":"0001-01-01T00:00:00Z","name_a2s":"Uncletopia | New York City | 2 | All Maps","protocol":17,"map":"pl_frontier_final","folder":"tf","game":"Team Fortress","app_id":440,"player_count":1,"max_players":24,"Bots":0,"server_type":"Dedicated","server_os":"Linux","password":true,"vac":true,"version":"7882260","steam_id":85568392924469994,"keywords":["nocrits","nodmgspread","payload","uncletopia"],"game_id":440,"stv_port":27026,"stv_name":"Uncletopia | New York City | 2 | All Maps | STV","players":[{"user_id":923,"name":"Earlpogiako","steam_id":76561199059728126,"connected_time":22000000000,"state":"active","ping":255}]},{"server_id":15,"name":"Uncletopia | New York City | 3 | Stopwatch Beta","name_short":"nyc-3","host":"nyc-1.us.uncletopia.com","port":27035,"enabled":true,"region":"us-east","cc":"us","latitude":40.73061,"longitude":-73.93524,"reserved":0,"last_update":"0001-01-01T00:00:00Z","name_a2s":"Uncletopia | New York City | 3 | Stopwatch Beta","protocol":17,"map":"pl_borneo","folder":"tf","game":"Team Fortress","app_id":440,"player_count":0,"max_players":24,"Bots":0,"server_type":"Dedicated","server_os":"Linux","password":true,"vac":true,"version":"7882260","steam_id":85568392924742820,"keywords":["nocrits","nodmgspread","payload","uncletopia"],"game_id":440,"stv_port":27036,"stv_name":"Uncletopia | New York City | 3 | Stopwatch Beta | STV","players":null},{"server_id":16,"name":"Uncletopia | New York City | 4 | Community","name_short":"nyc-4","host":"nyc-1.us.uncletopia.com","port":27045,"enabled":true,"region":"us-east","cc":"us","latitude":40.73061,"longitude":-73.93524,"reserved":0,"last_update":"0001-01-01T00:00:00Z","name_a2s":"Uncletopia | New York City | 4 | Community","protocol":17,"map":"pl_badwater","folder":"tf","game":"Team Fortress","app_id":440,"player_count":0,"max_players":24,"Bots":0,"server_type":"Dedicated","server_os":"Linux","password":true,"vac":true,"version":"7882260","steam_id":85568392924742821,"keywords":["nocrits","nodmgspread","payload","uncletopia"],"game_id":440,"stv_port":27046,"stv_name":"Uncletopia | New York City | 4 | Community | STV","players":null},{"server_id":142,"name":"Uncletopia | S√£o Paulo | 1 | All Maps","name_short":"sao-1","host":"sao-1.br.uncletopia.com","port":27015,"enabled":true,"region":"sa","cc":"br","latitude":-23.533773,"longitude":-46.62529,"reserved":0,"last_update":"0001-01-01T00:00:00Z","name_a2s":"Uncletopia | S√£o Paulo | 1 | All Maps","protocol":17,"map":"cp_process_final","folder":"tf","game":"Team Fortress","app_id":440,"player_count":0,"max_players":24,"Bots":0,"server_type":"Dedicated","server_os":"Linux","password":true,"vac":true,"version":"7882260","steam_id":85568392924469996,"keywords":["cp","nocrits","nodmgspread","uncletopia"],"game_id":440,"stv_port":27016,"stv_name":"Uncletopia | S√£o Paulo | 1 | All Maps | STV","players":null},{"server_id":143,"name":"Uncletopia | S√£o Paulo | 2 | All Maps","name_short":"sao-2","host":"sao-2.br.uncletopia.com","port":27015,"enabled":true,"region":"sa","cc":"br","latitude":-23.533773,"longitude":-46.62529,"reserved":0,"last_update":"0001-01-01T00:00:00Z","name_a2s":"Uncletopia | S√£o Paulo | 2 | All Maps","protocol":17,"map":"pl_pier","folder":"tf","game":"Team Fortress","app_id":440,"player_count":0,"max_players":24,"Bots":0,"server_type":"Dedicated","server_os":"Linux","password":true,"vac":true,"version":"7882260","steam_id":85568392924485349,"keywords":["nocrits","nodmgspread","payload","uncletopia"],"game_id":440,"stv_port":27016,"stv_name":"Uncletopia | S√£o Paulo | 2 | All Maps | STV","players":null},{"server_id":7,"name":"Uncletopia | Seattle | 1 | All Maps","name_short":"sea-1","host":"sea-1.us.uncletopia.com","port":27015,"enabled":true,"region":"us-west","cc":"us","latitude":47.608013,"longitude":-122.33517,"reserved":0,"last_update":"0001-01-01T00:00:00Z","name_a2s":"Uncletopia | Seattle | 1 | All Maps","protocol":17,"map":"pl_swiftwater_final1","folder":"tf","game":"Team Fortress","app_id":440,"player_count":19,"max_players":24,"Bots":0,"server_type":"Dedicated","server_os":"Linux","password":true,"vac":true,"version":"7882260","steam_id":85568392924469997,"keywords":["nocrits","nodmgspread","payload","uncletopia"],"game_id":440,"stv_port":27016,"stv_name":"Uncletopia | Seattle | 1 | All Maps | STV","players":[{"user_id":899,"name":"THAT CAT","steam_id":76561198010828625,"connected_time":8792000000000,"state":"active","ping":30},{"user_id":945,"name":"John Calibur","steam_id":76561197999986606,"connected_time":4120000000000,"state":"active","ping":91},{"user_id":770,"name":"toes","steam_id":76561198221151676,"connected_time":13344000000000,"state":"active","ping":55},{"user_id":956,"name":"PopcornBucketGames","steam_id":76561199089562026,"connected_time":2110000000000,"state":"active","ping":50},{"user_id":957,"name":"Rain","steam_id":76561198065612273,"connected_time":2032000000000,"state":"active","ping":45},{"user_id":973,"name":":o:","steam_id":76561198206752128,"connected_time":46000000000,"state":"active","ping":142},{"user_id":954,"name":"PrairieChilla","steam_id":76561198165094055,"connected_time":2435000000000,"state":"active","ping":132},{"user_id":974,"name":"roryisreallyoutofit","steam_id":76561198065825165,"connected_time":36000000000,"state":"spawning","ping":164},{"user_id":777,"name":"Ayayayayayahuasca","steam_id":76561199002906056,"connected_time":12149000000000,"state":"active","ping":45},{"user_id":928,"name":"oil","steam_id":76561198099980149,"connected_time":7651000000000,"state":"active","ping":76},{"user_id":971,"name":"h a r t","steam_id":76561198046073848,"connected_time":996000000000,"state":"active","ping":50},{"user_id":958,"name":"Bubblegum Bitch","steam_id":76561198043307965,"connected_time":1949000000000,"state":"spawning","ping":51},{"user_id":960,"name":"RaTtYc","steam_id":76561198954419354,"connected_time":1923000000000,"state":"active","ping":101},{"user_id":961,"name":"Caster","steam_id":76561198131592341,"connected_time":1922000000000,"state":"active","ping":87},{"user_id":935,"name":"forest (girldick)","steam_id":76561198157960257,"connected_time":7153000000000,"state":"active","ping":31},{"user_id":962,"name":"starry","steam_id":76561198989740125,"connected_time":1910000000000,"state":"active","ping":126},{"user_id":967,"name":"Le Phrog","steam_id":76561198388981317,"connected_time":1503000000000,"state":"active","ping":80},{"user_id":864,"name":"Level 99 Mudcrab","steam_id":76561198077452771,"connected_time":9337000000000,"state":"active","ping":53},{"user_id":913,"name":"jjorpts","steam_id":76561199041179985,"connected_time":8489000000000,"state":"active","ping":51}]},{"server_id":119,"name":"Uncletopia | Seattle | 2 | All Maps","name_short":"sea-2","host":"sea-1.us.uncletopia.com","port":27025,"enabled":true,"region":"us-west","cc":"us","latitude":47.608013,"longitude":-122.33517,"reserved":0,"last_update":"0001-01-01T00:00:00Z","name_a2s":"Uncletopia | Seattle | 2 | All Maps","protocol":17,"map":"pl_borneo","folder":"tf","game":"Team Fortress","app_id":440,"player_count":23,"max_players":24,"Bots":0,"server_type":"Dedicated","server_os":"Linux","password":true,"vac":true,"version":"7882260","steam_id":85568392924469998,"keywords":["nocrits","nodmgspread","payload","uncletopia"],"game_id":440,"stv_port":27026,"stv_name":"Uncletopia | Seattle | 2 | All Maps | STV","players":[{"user_id":660,"name":"hardfork","steam_id":76561197960958019,"connected_time":836000000000,"state":"active","ping":48},{"user_id":625,"name":"cracky","steam_id":76561197971365444,"connected_time":3368000000000,"state":"active","ping":44},{"user_id":601,"name":"‚ô¶Benji‚ô¶","steam_id":76561198313529973,"connected_time":5066000000000,"state":"active","ping":37},{"user_id":616,"name":"perc 10","steam_id":76561198116471653,"connected_time":4724000000000,"state":"active","ping":65},{"user_id":637,"name":"150cc lightning cup andy","steam_id":76561198121268007,"connected_time":2321000000000,"state":"active","ping":80},{"user_id":633,"name":"hosewater","steam_id":76561198023383126,"connected_time":3025000000000,"state":"active","ping":46},{"user_id":563,"name":"Soda","steam_id":76561198219209367,"connected_time":8460000000000,"state":"active","ping":57},{"user_id":666,"name":"nnobi","steam_id":76561198878729277,"connected_time":478000000000,"state":"active","ping":125},{"user_id":657,"name":"murph","steam_id":76561197973805634,"connected_time":1017000000000,"state":"active","ping":99},{"user_id":638,"name":"JavaBaklava","steam_id":76561198015030455,"connected_time":2319000000000,"state":"active","ping":96},{"user_id":650,"name":"Marc G","steam_id":76561198062650363,"connected_time":1551000000000,"state":"active","ping":105},{"user_id":665,"name":"Saucy Boy","steam_id":76561198178332031,"connected_time":731000000000,"state":"active","ping":104},{"user_id":627,"name":"Willy Wonker","steam_id":76561198082944789,"connected_time":3210000000000,"state":"active","ping":78},{"user_id":656,"name":"fathead","steam_id":76561198150155615,"connected_time":1208000000000,"state":"active","ping":57},{"user_id":621,"name":"Handsome Pete","steam_id":76561198003224229,"connected_time":4152000000000,"state":"active","ping":84},{"user_id":651,"name":"Drainbow","steam_id":76561198421913648,"connected_time":1528000000000,"state":"active","ping":50},{"user_id":629,"name":"HeavenHearst","steam_id":76561198066083947,"connected_time":3193000000000,"state":"active","ping":118},{"user_id":662,"name":"sheep in da slipgate","steam_id":76561198076781979,"connected_time":818000000000,"state":"active","ping":86},{"user_id":645,"name":"blossom","steam_id":76561198042735130,"connected_time":1952000000000,"state":"active","ping":49},{"user_id":618,"name":"Xyvanereth","steam_id":76561198844137326,"connected_time":4581000000000,"state":"active","ping":54},{"user_id":664,"name":"firstlastmcgee","steam_id":76561198170187989,"connected_time":764000000000,"state":"active","ping":94},{"user_id":613,"name":"Sweatpants","steam_id":76561198097188001,"connected_time":4942000000000,"state":"active","ping":63},{"user_id":614,"name":"Dunkle","steam_id":76561198041903573,"connected_time":4934000000000,"state":"active","ping":45}]},{"server_id":406,"name":"Uncletopia | Seattle | 3 | Stopwatch Beta","name_short":"sea-3","host":"sea-1.us.uncletopia.com","port":27035,"enabled":true,"region":"us-west","cc":"us","latitude":47.608013,"longitude":-122.33517,"reserved":0,"last_update":"0001-01-01T00:00:00Z","name_a2s":"Uncletopia | Seattle | 3 | Stopwatch Beta","protocol":17,"map":"workshop/koth_ramjam_rc1.ugc459778887","folder":"tf","game":"Team Fortress","app_id":440,"player_count":0,"max_players":24,"Bots":0,"server_type":"Dedicated","server_os":"Linux","password":true,"vac":true,"version":"7882260","steam_id":85568392924515217,"keywords":["cp","nocrits","nodmgspread","uncletopia"],"game_id":440,"stv_port":27036,"stv_name":"Uncletopia | Seattle | 3 | Stopwatch Beta | STV","players":null},{"server_id":17,"name":"Uncletopia | San Francisco | 1 | All Maps","name_short":"sfo-1","host":"sfo-1.us.uncletopia.com","port":27015,"enabled":true,"region":"us-west","cc":"us","latitude":37.77397,"longitude":-122.4313,"reserved":0,"last_update":"0001-01-01T00:00:00Z","name_a2s":"Uncletopia | San Francisco | 1 | All Maps","protocol":17,"map":"cp_process_final","folder":"tf","game":"Team Fortress","app_id":440,"player_count":0,"max_players":24,"Bots":0,"server_type":"Dedicated","server_os":"Linux","password":true,"vac":true,"version":"7757534","steam_id":85568392924469999,"keywords":["cp","nocrits","nodmgspread","uncletopia"],"game_id":440,"stv_port":27016,"stv_name":"Uncletopia | San Francisco | 1 | All Maps | STV","players":null},{"server_id":18,"name":"Uncletopia | San Francisco | 2 | All Maps","name_short":"sfo-2","host":"sfo-1.us.uncletopia.com","port":27025,"enabled":true,"region":"us-west","cc":"us","latitude":37.77397,"longitude":-122.4313,"reserved":0,"last_update":"0001-01-01T00:00:00Z","name_a2s":"Uncletopia | San Francisco | 2 | All Maps","protocol":17,"map":"koth_highpass","folder":"tf","game":"Team Fortress","app_id":440,"player_count":0,"max_players":24,"Bots":0,"server_type":"Dedicated","server_os":"Linux","password":true,"vac":true,"version":"7757534","steam_id":85568392924470000,"keywords":["cp","nocrits","nodmgspread","uncletopia"],"game_id":440,"stv_port":27026,"stv_name":"Uncletopia | San Francisco | 2 | All Maps | STV","players":null},{"server_id":19,"name":"Uncletopia | San Francisco | 3 | Stopwatch Beta","name_short":"sfo-3","host":"sfo-1.us.uncletopia.com","port":27035,"enabled":true,"region":"us-west","cc":"us","latitude":37.77397,"longitude":-122.4313,"reserved":0,"last_update":"0001-01-01T00:00:00Z","name_a2s":"Uncletopia | San Francisco | 3 | Stopwatch Beta","protocol":17,"map":"koth_lakeside_final","folder":"tf","game":"Team Fortress","app_id":440,"player_count":0,"max_players":24,"Bots":0,"server_type":"Dedicated","server_os":"Linux","password":true,"vac":true,"version":"7757534","steam_id":85568392924742824,"keywords":["cp","nocrits","nodmgspread","uncletopia"],"game_id":440,"stv_port":27036,"stv_name":"Uncletopia | San Francisco | 3 | Stopwatch Beta | STV","players":null},{"server_id":20,"name":"Uncletopia | San Francisco | 4 | Community","name_short":"sfo-4","host":"sfo-1.us.uncletopia.com","port":27045,"enabled":true,"region":"us-west","cc":"us","latitude":37.77397,"longitude":-122.4313,"reserved":0,"last_update":"0001-01-01T00:00:00Z","name_a2s":"Uncletopia | San Francisco | 4 | Community","protocol":17,"map":"cp_altitude","folder":"tf","game":"Team Fortress","app_id":440,"player_count":0,"max_players":24,"Bots":0,"server_type":"Dedicated","server_os":"Linux","password":true,"vac":true,"version":"7757534","steam_id":85568392924742826,"keywords":["cp","nocrits","nodmgspread","uncletopia"],"game_id":440,"stv_port":27046,"stv_name":"Uncletopia | San Francisco | 4 | Community | STV","players":null},{"server_id":141,"name":"Uncletopia | Sydney | 1 | All Maps","name_short":"syd-1","host":"syd-1.au.uncletopia.com","port":27015,"enabled":true,"region":"au","cc":"au","latitude":-33.865143,"longitude":151.2099,"reserved":0,"last_update":"0001-01-01T00:00:00Z","name_a2s":"Uncletopia | Sydney | 1 | All Maps","protocol":17,"map":"pl_upward","folder":"tf","game":"Team Fortress","app_id":440,"player_count":22,"max_players":24,"Bots":0,"server_type":"Dedicated","server_os":"Linux","password":true,"vac":true,"version":"7882260","steam_id":85568392924470001,"keywords":["nocrits","nodmgspread","payload","uncletopia"],"game_id":440,"stv_port":27016,"stv_name":"Uncletopia | Sydney | 1 | All Maps | STV","players":[{"user_id":545,"name":"blongus wazongus","steam_id":76561198063481761,"connected_time":2460000000000,"state":"active","ping":42},{"user_id":566,"name":"lavanderpumpernickle","steam_id":76561199093611800,"connected_time":310000000000,"state":"active","ping":55},{"user_id":549,"name":"bison","steam_id":76561198183851230,"connected_time":2306000000000,"state":"active","ping":70},{"user_id":556,"name":"skye","steam_id":76561198037129845,"connected_time":1626000000000,"state":"active","ping":44},{"user_id":560,"name":"BloxWich","steam_id":76561198120361288,"connected_time":680000000000,"state":"active","ping":69},{"user_id":504,"name":"voxii","steam_id":76561198099698281,"connected_time":6068000000000,"state":"active","ping":67},{"user_id":548,"name":"Arro","steam_id":76561198084990929,"connected_time":2328000000000,"state":"active","ping":98},{"user_id":557,"name":"michael","steam_id":76561198052848358,"connected_time":1491000000000,"state":"active","ping":66},{"user_id":488,"name":"NollReed","steam_id":76561198098501571,"connected_time":6792000000000,"state":"active","ping":85},{"user_id":542,"name":"Cardboard (No mic gamer)","steam_id":76561199099769110,"connected_time":2879000000000,"state":"active","ping":59},{"user_id":552,"name":"Livid","steam_id":76561198060024585,"connected_time":1746000000000,"state":"active","ping":39},{"user_id":565,"name":"Kirb","steam_id":76561199121312942,"connected_time":390000000000,"state":"active","ping":48},{"user_id":484,"name":"Pickled Possum","steam_id":76561197995845352,"connected_time":6894000000000,"state":"active","ping":84},{"user_id":486,"name":"DragRiper","steam_id":76561198050917553,"connected_time":6834000000000,"state":"active","ping":51},{"user_id":543,"name":"FrOStY","steam_id":76561198088155805,"connected_time":2565000000000,"state":"active","ping":87},{"user_id":559,"name":"sending my Gerrards","steam_id":76561198301282416,"connected_time":992000000000,"state":"active","ping":56},{"user_id":572,"name":"Johnny 2 pipes","steam_id":76561198971245592,"connected_time":31000000000,"state":"active","ping":60},{"user_id":569,"name":"Psalm 118:10-17","steam_id":76561198305904806,"connected_time":239000000000,"state":"active","ping":56},{"user_id":571,"name":"Ablaze","steam_id":76561198860659664,"connected_time":79000000000,"state":"active","ping":251},{"user_id":525,"name":"holy frijoles","steam_id":76561198043903958,"connected_time":4058000000000,"state":"active","ping":55},{"user_id":573,"name":"Who Else But","steam_id":76561198069602169,"connected_time":31000000000,"state":"active","ping":48},{"user_id":537,"name":"Jdn","steam_id":76561198293079232,"connected_time":3234000000000,"state":"active","ping":60}]},{"server_id":123,"name":"Uncletopia | Sydney | 2 | All Maps","name_short":"syd-2","host":"syd-1.au.uncletopia.com","port":27025,"enabled":true,"region":"au","cc":"au","latitude":-33.865143,"longitude":151.2099,"reserved":0,"last_update":"0001-01-01T00:00:00Z","name_a2s":"Uncletopia | Sydney | 2 | All Maps","protocol":17,"map":"pl_badwater","folder":"tf","game":"Team Fortress","app_id":440,"player_count":24,"max_players":24,"Bots":0,"server_type":"Dedicated","server_os":"Linux","password":true,"vac":true,"version":"7882260","steam_id":85568392924470002,"keywords":["nocrits","nodmgspread","payload","uncletopia"],"game_id":440,"stv_port":27026,"stv_name":"Uncletopia | Sydney | 2 | All Maps | STV","players":[{"user_id":449,"name":"ToadFungus","steam_id":76561199219667039,"connected_time":1168000000000,"state":"active","ping":111},{"user_id":445,"name":"HeyHeyItsGreyGrey","steam_id":76561198047955263,"connected_time":1387000000000,"state":"active","ping":69},{"user_id":460,"name":"Citizen Dan","steam_id":76561197970496955,"connected_time":372000000000,"state":"active","ping":72},{"user_id":458,"name":"Lumalee ‚ù§","steam_id":76561198157613299,"connected_time":511000000000,"state":"active","ping":70},{"user_id":422,"name":"jim :)","steam_id":76561198127508905,"connected_time":2964000000000,"state":"active","ping":52},{"user_id":434,"name":"Apteryx","steam_id":76561197976460834,"connected_time":2010000000000,"state":"active","ping":60},{"user_id":435,"name":"Corrupt","steam_id":76561198008567328,"connected_time":1973000000000,"state":"active","ping":65},{"user_id":464,"name":"crabbemache","steam_id":76561198196525701,"connected_time":26000000000,"state":"connecting","ping":0},{"user_id":424,"name":"R","steam_id":76561197996963023,"connected_time":2909000000000,"state":"active","ping":67},{"user_id":428,"name":"Zieria","steam_id":76561199261811388,"connected_time":2732000000000,"state":"active","ping":42},{"user_id":461,"name":"mmmmm (microwave)","steam_id":76561198066726621,"connected_time":372000000000,"state":"active","ping":46},{"user_id":442,"name":"sturdyurchin24","steam_id":76561199130078397,"connected_time":1459000000000,"state":"active","ping":73},{"user_id":401,"name":"seiran","steam_id":76561198880907232,"connected_time":4654000000000,"state":"active","ping":100},{"user_id":446,"name":"Gnat","steam_id":76561198109747863,"connected_time":1349000000000,"state":"active","ping":99},{"user_id":405,"name":"RustyMeat","steam_id":76561198119162442,"connected_time":4379000000000,"state":"active","ping":68},{"user_id":450,"name":"sweet","steam_id":76561198075311236,"connected_time":1113000000000,"state":"active","ping":51},{"user_id":457,"name":"DropBearWarrior","steam_id":76561198352774039,"connected_time":679000000000,"state":"active","ping":74},{"user_id":463,"name":"Lukey","steam_id":76561197999887960,"connected_time":260000000000,"state":"active","ping":60},{"user_id":452,"name":"4-Star Yelp Review","steam_id":76561197995258180,"connected_time":1108000000000,"state":"active","ping":48},{"user_id":453,"name":"Bin","steam_id":76561199117653318,"connected_time":1106000000000,"state":"active","ping":68},{"user_id":309,"name":"Sentry Gun (EpicGuy4227)","steam_id":76561198094132328,"connected_time":12397000000000,"state":"active","ping":56},{"user_id":454,"name":"miyamoto is daddy","steam_id":76561199483818230,"connected_time":1090000000000,"state":"active","ping":77},{"user_id":455,"name":"Chowdermonkey","steam_id":76561198990121068,"connected_time":1050000000000,"state":"active","ping":72},{"user_id":248,"name":"Jodelk√∂nig Franzl Lang","steam_id":76561198007667830,"connected_time":16630000000000,"state":"active","ping":55}]},{"server_id":395,"name":"Uncletopia | Sydney | 3 | All Maps","name_short":"syd-3","host":"syd-1.au.uncletopia.com","port":27035,"enabled":true,"region":"au","cc":"au","latitude":-33.865143,"longitude":151.2099,"reserved":0,"last_update":"0001-01-01T00:00:00Z","name_a2s":"Uncletopia | Sydney | 3 | All Maps","protocol":17,"map":"koth_highpass","folder":"tf","game":"Team Fortress","app_id":440,"player_count":0,"max_players":24,"Bots":0,"server_type":"Dedicated","server_os":"Linux","password":true,"vac":true,"version":"7882260","steam_id":85568392925194467,"keywords":["cp","nocrits","nodmgspread","uncletopia"],"game_id":440,"stv_port":27036,"stv_name":"Uncletopia | Sydney | 3 | All Maps | STV","players":null},{"server_id":396,"name":"Uncletopia | Sydney | 4 | All Maps","name_short":"syd-4","host":"syd-1.au.uncletopia.com","port":27045,"enabled":true,"region":"au","cc":"au","latitude":-33.865143,"longitude":151.2099,"reserved":0,"last_update":"0001-01-01T00:00:00Z","name_a2s":"Uncletopia | Sydney | 4 | All Maps","protocol":17,"map":"koth_viaduct","folder":"tf","game":"Team Fortress","app_id":440,"player_count":0,"max_players":24,"Bots":0,"server_type":"Dedicated","server_os":"Linux","password":true,"vac":true,"version":"7882260","steam_id":85568392925397958,"keywords":["cp","nocrits","nodmgspread","uncletopia"],"game_id":440,"stv_port":27046,"stv_name":"Uncletopia | Sydney | 4 | All Maps | STV","players":null},{"server_id":58,"name":"Uncletopia | Sydney | 5 | Stopwatch Beta","name_short":"syd-5","host":"syd-1.au.uncletopia.com","port":27055,"enabled":true,"region":"au","cc":"au","latitude":-33.865143,"longitude":151.2099,"reserved":0,"last_update":"0001-01-01T00:00:00Z","name_a2s":"Uncletopia | Sydney | 5 | Stopwatch Beta","protocol":17,"map":"cp_snakewater_final1","folder":"tf","game":"Team Fortress","app_id":440,"player_count":0,"max_players":24,"Bots":0,"server_type":"Dedicated","server_os":"Linux","password":true,"vac":true,"version":"7882260","steam_id":85568392925397959,"keywords":["cp","nocrits","nodmgspread","uncletopia"],"game_id":440,"stv_port":27056,"stv_name":"Uncletopia | Sydney | 5 | Stopwatch Beta | STV","players":null},{"server_id":59,"name":"Uncletopia | Sydney | 6 | Community","name_short":"syd-6","host":"syd-1.au.uncletopia.com","port":27065,"enabled":true,"region":"au","cc":"au","latitude":-33.865143,"longitude":151.2099,"reserved":0,"last_update":"0001-01-01T00:00:00Z","name_a2s":"Uncletopia | Sydney | 6 | Community","protocol":17,"map":"workshop/koth_product_final.ugc454272353","folder":"tf","game":"Team Fortress","app_id":440,"player_count":0,"max_players":24,"Bots":0,"server_type":"Dedicated","server_os":"Linux","password":true,"vac":true,"version":"7882260","steam_id":85568392925397960,"keywords":["cp","nocrits","nodmgspread","uncletopia"],"game_id":440,"stv_port":27066,"stv_name":"Uncletopia | Sydney | 6 | Community | STV","players":null},{"server_id":49,"name":"Uncletopia | Warsaw | 1 | All Maps","name_short":"waw-1","host":"waw-1.pl.uncletopia.com","port":27015,"enabled":true,"region":"eu","cc":"pl","latitude":52.2297,"longitude":21.017532,"reserved":0,"last_update":"0001-01-01T00:00:00Z","name_a2s":"","protocol":0,"map":"","folder":"","game":"","app_id":0,"player_count":0,"max_players":0,"Bots":0,"server_type":"","server_os":"","password":false,"vac":false,"version":"","steam_id":0,"keywords":null,"game_id":0,"stv_port":0,"stv_name":"","players":null},{"server_id":50,"name":"Uncletopia | Warsaw | 2 | All Maps","name_short":"waw-2","host":"waw-1.pl.uncletopia.com","port":27025,"enabled":true,"region":"eu","cc":"pl","latitude":52.2297,"longitude":21.017532,"reserved":0,"last_update":"0001-01-01T00:00:00Z","name_a2s":"Uncletopia | Warsaw | 2 | All Maps","protocol":17,"map":"pl_swiftwater_final1","folder":"tf","game":"Team Fortress","app_id":440,"player_count":0,"max_players":24,"Bots":0,"server_type":"Dedicated","server_os":"Linux","password":true,"vac":true,"version":"7882260","steam_id":85568392925397851,"keywords":["nocrits","nodmgspread","payload","uncletopia"],"game_id":440,"stv_port":27026,"stv_name":"Uncletopia | Warsaw | 2 | All Maps | STV","players":null},{"server_id":51,"name":"Uncletopia | Warsaw | 3 | All Maps","name_short":"waw-3","host":"waw-1.pl.uncletopia.com","port":27035,"enabled":true,"region":"eu","cc":"pl","latitude":52.2297,"longitude":21.017532,"reserved":0,"last_update":"0001-01-01T00:00:00Z","name_a2s":"Uncletopia | Warsaw | 3 | All Maps","protocol":17,"map":"koth_viaduct","folder":"tf","game":"Team Fortress","app_id":440,"player_count":0,"max_players":24,"Bots":0,"server_type":"Dedicated","server_os":"Linux","password":true,"vac":true,"version":"7882260","steam_id":85568392925397852,"keywords":["cp","nocrits","nodmgspread","uncletopia"],"game_id":440,"stv_port":27036,"stv_name":"Uncletopia | Warsaw | 3 | All Maps | STV","players":null},{"server_id":52,"name":"Uncletopia | Warsaw | 4 | All Maps","name_short":"waw-4","host":"waw-1.pl.uncletopia.com","port":27045,"enabled":true,"region":"eu","cc":"pl","latitude":52.2297,"longitude":21.017532,"reserved":0,"last_update":"0001-01-01T00:00:00Z","name_a2s":"Uncletopia | Warsaw | 4 | All Maps","protocol":17,"map":"koth_highpass","folder":"tf","game":"Team Fortress","app_id":440,"player_count":0,"max_players":24,"Bots":0,"server_type":"Dedicated","server_os":"Linux","password":true,"vac":true,"version":"7882260","steam_id":85568392925397853,"keywords":["cp","nocrits","nodmgspread","uncletopia"],"game_id":440,"stv_port":27046,"stv_name":"Uncletopia | Warsaw | 4 | All Maps | STV","players":null},{"server_id":53,"name":"Uncletopia | Warsaw | 5 | Stopwatch Beta","name_short":"waw-5","host":"waw-1.pl.uncletopia.com","port":27055,"enabled":true,"region":"eu","cc":"pl","latitude":52.2297,"longitude":21.017532,"reserved":0,"last_update":"0001-01-01T00:00:00Z","name_a2s":"Uncletopia | Warsaw | 5 | Stopwatch Beta","protocol":17,"map":"cp_gullywash_final1","folder":"tf","game":"Team Fortress","app_id":440,"player_count":0,"max_players":24,"Bots":0,"server_type":"Dedicated","server_os":"Linux","password":true,"vac":true,"version":"7882260","steam_id":85568392925397854,"keywords":["cp","nocrits","nodmgspread","uncletopia"],"game_id":440,"stv_port":27056,"stv_name":"Uncletopia | Warsaw | 5 | Stopwatch Beta | STV","players":null},{"server_id":54,"name":"Uncletopia | Warsaw | 6 | Community","name_short":"waw-6","host":"waw-1.pl.uncletopia.com","port":27065,"enabled":true,"region":"eu","cc":"pl","latitude":52.2297,"longitude":21.017532,"reserved":0,"last_update":"0001-01-01T00:00:00Z","name_a2s":"Uncletopia | Warsaw | 6 | Community","protocol":17,"map":"koth_viaduct","folder":"tf","game":"Team Fortress","app_id":440,"player_count":0,"max_players":24,"Bots":0,"server_type":"Dedicated","server_os":"Linux","password":true,"vac":true,"version":"7882260","steam_id":85568392925397856,"keywords":["cp","nocrits","nodmgspread","uncletopia"],"game_id":440,"stv_port":27066,"stv_name":"Uncletopia | Warsaw | 6 | Community | STV","players":null}]}