{"status":true,"message":"","result":[{"server_id":9,"name":"Uncletopia | Atlanta | 1 | All Maps","name_short":"atl-1","host":"atl-1.us.uncletopia.com","port":27015,"enabled":true,"region":"us-east","cc":"us","latitude":33.753746,"longitude":-84.38633,"reserved":0,"last_update":"0001-01-01T00:00:00Z","name_a2s":"Uncletopia | Atlanta | 1 | All Maps","protocol":17,"map":"pl_borneo","folder":"tf","game":"Team Fortress","app_id":440,"player_count":0,"max_players":24,"Bots":0,"server_type":"Dedicated","server_os":"Linux","password":true,"vac":true,"version":"7757534","steam_id":85568392924469982,"keywords":["nocrits","nodmgspread","payload","uncletopia"],"game_id":440,"stv_port":27016,"stv_name":"Uncletopia | Atlanta | 1 | All Maps | STV","players":null},{"server_id":400,"name":"Uncletopia | Atlanta | 3 | Community","name_short":"atl-3","host":"atl-1.us.uncletopia.com","port":27035,"enabled":true,"region":"us-east","cc":"us","latitude":33.753746,"longitude":-84.38633,"reserved":0,"last_update":"0001-01-01T00:00:00Z","name_a2s":"Uncletopia | Atlanta | 3 | Community","protocol":17,"map":"pl_swiftwater_final1","folder":"tf","game":"Team Fortress","app_id":440,"player_count":0,"max_players":32,"Bots":0,"server_type":"Dedicated","server_os":"Linux","password":true,"vac":true,"version":"7757534","steam_id":85568392924515187,"keywords":["increased_maxplayers","nocrits","nodmgspread","payload","uncletopia"],"game_id":440,"stv_port":27036,"stv_name":"Uncletopia | Atlanta | 3 | Community | STV","players":null},{"server_id":401,"name":"Uncletopia | Atlanta | 4 | No Payload","name_short":"atl-4","host":"atl-1.us.uncletopia.com","port":27045,"enabled":true,"region":"us-east","cc":"us","latitude":33.753746,"longitude":-84.38633,"reserved":0,"last_update":"0001-01-01T00:00:00Z","name_a2s":"","protocol":0,"map":"","folder":"","game":"","app_id":0,"player_count":0,"max_players":0,"Bots":0,"server_type":"","server_os":"","password":false,"vac":false,"version":"","steam_id":0,"keywords":null,"game_id":0,"stv_port":0,"stv_name":"","players":null},{"server_id":2,"name":"Uncletopia | Chicago | 1 | All Maps","name_short":"chi-1","host":"chi-1.us.uncletopia.com","port":27015,"enabled":true,"region":"us-central","cc":"us","latitude":41.881832,"longitude":-87.62318,"reserved":0,"last_update":"0001-01-01T00:00:00Z","name_a2s":"Uncletopia | Chicago | 1 | All Maps","protocol":17,"map":"pl_barnblitz","folder":"tf","game":"Team Fortress","app_id":440,"player_count":24,"max_players":24,"Bots":0,"server_type":"Dedicated","server_os":"Linux","password":true,"vac":true,"version":"7757534","steam_id":85568392924469984,"keywords":["nocrits","nodmgspread","payload","uncletopia"],"game_id":440,"stv_port":27016,"stv_name":"Uncletopia | Chicago | 1 | All Maps | STV","players":[{"user_id":124,"name":"puppygirl gaming","steam_id":76561198044363630,"connected_time":2600000000000,"state":"active","ping":66},{"user_id":143,"name":"god approaches","steam_id":76561198081617990,"connected_time":541000000000,"state":"active","ping":99},{"user_id":123,"name":"daytime lozenge","steam_id":76561197995620232,"connected_time":2602000000000,"state":"active","ping":50},{"user_id":150,"name":"[TSG] Turner's Chocolate Milk","steam_id":76561198058963288,"connected_time":64000000000,"state":"active","ping":70},{"user_id":125,"name":"Jt","steam_id":76561198049853548,"connected_time":2599000000000,"state":"active","ping":66},{"user_id":96,"name":"Big Phony","steam_id":76561199092395311,"connected_time":4248000000000,"state":"active","ping":62},{"user_id":134,"name":"Sarah","steam_id":76561199013702818,"connected_time":1640000000000,"state":"active","ping":105},{"user_id":117,"name":"[slug]","steam_id":76561197989592178,"connected_time":2845000000000,"state":"active","ping":57},{"user_id":141,"name":"only pros can crouch jump","steam_id":76561198044641366,"connected_time":570000000000,"state":"active","ping":71},{"user_id":142,"name":"VLADIMIR LENIN'S CAT","steam_id":76561198182999551,"connected_time":570000000000,"state":"active","ping":46},{"user_id":114,"name":"Ta5K","steam_id":76561198939558155,"connected_time":2868000000000,"state":"active","ping":42},{"user_id":136,"name":"Squid121","steam_id":76561198038832034,"connected_time":1626000000000,"state":"active","ping":106},{"user_id":66,"name":"pablo","steam_id":76561198395577807,"connected_time":7668000000000,"state":"active","ping":58},{"user_id":115,"name":"Massive Conquistador","steam_id":76561197961138002,"connected_time":2861000000000,"state":"active","ping":72},{"user_id":89,"name":"soccernano","steam_id":76561198116633137,"connected_time":5379000000000,"state":"active","ping":60},{"user_id":130,"name":"Padre Pat","steam_id":76561198392985381,"connected_time":2018000000000,"state":"active","ping":114},{"user_id":80,"name":"PaintMyMeow","steam_id":76561198056860387,"connected_time":6429000000000,"state":"active","ping":73},{"user_id":121,"name":"Unban Level Eater (She/They)","steam_id":76561198823616667,"connected_time":2743000000000,"state":"active","ping":74},{"user_id":139,"name":"hippo mode","steam_id":76561198073455521,"connected_time":586000000000,"state":"active","ping":60},{"user_id":149,"name":"Jared In Target","steam_id":76561198372449718,"connected_time":306000000000,"state":"active","ping":60},{"user_id":103,"name":"David.Smith.2009","steam_id":76561198309760791,"connected_time":4062000000000,"state":"active","ping":124},{"user_id":132,"name":"The Land Admiral","steam_id":76561198159356609,"connected_time":1658000000000,"state":"active","ping":74},{"user_id":148,"name":"The Drunk Clown","steam_id":76561197986850426,"connected_time":481000000000,"state":"active","ping":76},{"user_id":151,"name":"[PFF] Shogun Omega","steam_id":76561198390387069,"connected_time":60000000000,"state":"active","ping":70}]},{"server_id":106,"name":"Uncletopia | Chicago | 2 | All Maps","name_short":"chi-2","host":"chi-1.us.uncletopia.com","port":27025,"enabled":true,"region":"us-central","cc":"us","latitude":41.881832,"longitude":-87.62318,"reserved":0,"last_update":"0001-01-01T00:00:00Z","name_a2s":"Uncletopia | Chicago | 2 | All Maps","protocol":17,"map":"cp_dustbowl","folder":"tf","game":"Team Fortress","app_id":440,"player_count":0,"max_players":24,"Bots":0,"server_type":"Dedicated","server_os":"Linux","password":true,"vac":true,"version":"7757534","steam_id":85568392924469985,"keywords":["cp","nocrits","nodmgspread","uncletopia"],"game_id":440,"stv_port":27026,"stv_name":"Uncletopia | Chicago | 2 | All Maps | STV","players":null},{"server_id":402,"name":"Uncletopia | Chicago | 3 | All Maps","name_short":"chi-3","host":"chi-1.us.uncletopia.com","port":27035,"enabled":true,"region":"us-central","cc":"us","latitude":41.881832,"longitude":-87.62318,"reserved":0,"last_update":"0001-01-01T00:00:00Z","name_a2s":"Uncletopia | Chicago | 3 | All Maps","protocol":17,"map":"koth_lakeside_final","folder":"tf","game":"Team Fortress","app_id":440,"player_count":0,"max_players":24,"Bots":0,"server_type":"Dedicated","server_os":"Linux","password":true,"vac":true,"version":"7757534","steam_id":85568392924515191,"keywords":["cp","nocrits","nodmgspread","uncletopia"],"game_id":440,"stv_port":27036,"stv_name":"Uncletopia | Chicago | 3 | All Maps | STV","players":null},{"server_id":403,"name":"Uncletopia | Chicago | 4 | All Maps","name_short":"chi-4","host":"chi-1.us.uncletopia.com","port":27045,"enabled":true,"region":"us-central","cc":"us","latitude":41.881832,"longitude":-87.62318,"reserved":0,"last_update":"0001-01-01T00:00:00Z","name_a2s":"Uncletopia | Chicago | 4 | All Maps","protocol":17,"map":"koth_lakeside_final","folder":"tf","game":"Team Fortress","app_id":440,"player_count":0,"max_players":24,"Bots":0,"server_type":"Dedicated","server_os":"Linux","password":true,"vac":true,"version":"7757534","steam_id":85568392924515193,"keywords":["cp","nocrits","nodmgspread","uncletopia"],"game_id":440,"stv_port":27046,"stv_name":"Uncletopia | Chicago | 4 | All Maps | STV","players":null},{"server_id":36,"name":"Uncletopia | Chicago | 5 | All Maps","name_short":"chi-5","host":"chi-2.us.uncletopia.com","port":27015,"enabled":true,"region":"us-central","cc":"us","latitude":41.881832,"longitude":-87.62318,"reserved":0,"last_update":"0001-01-01T00:00:00Z","name_a2s":"Uncletopia | Chicago | 5 | All Maps","protocol":17,"map":"koth_cascade","folder":"tf","game":"Team Fortress","app_id":440,"player_count":0,"max_players":24,"Bots":0,"server_type":"Dedicated","server_os":"Linux","password":true,"vac":true,"version":"7757534","steam_id":85568392924866362,"keywords":["cp","nocrits","nodmgspread","uncletopia"],"game_id":440,"stv_port":27016,"stv_name":"Uncletopia | Chicago | 5 | All Maps | STV","players":null},{"server_id":37,"name":"Uncletopia | Chicago | 6 | All Maps","name_short":"chi-6","host":"chi-2.us.uncletopia.com","port":27025,"enabled":true,"region":"us-central","cc":"us","latitude":41.881832,"longitude":-87.62318,"reserved":0,"last_update":"0001-01-01T00:00:00Z","name_a2s":"Uncletopia | Chicago | 6 | All Maps","protocol":17,"map":"koth_cascade","folder":"tf","game":"Team Fortress","app_id":440,"player_count":0,"max_players":24,"Bots":0,"server_type":"Dedicated","server_os":"Linux","password":true,"vac":true,"version":"7757534","steam_id":85568392924866363,"keywords":["cp","nocrits","nodmgspread","uncletopia"],"game_id":440,"stv_port":27026,"stv_name":"Uncletopia | Chicago | 6 | All Maps | STV","players":null},{"server_id":38,"name":"Uncletopia | Chicago | 7 | Stopwatch Beta","name_short":"chi-7","host":"chi-2.us.uncletopia.com","port":27035,"enabled":true,"region":"us-central","cc":"us","latitude":41.881832,"longitude":-87.62318,"reserved":0,"last_update":"0001-01-01T00:00:00Z","name_a2s":"Uncletopia | Chicago | 7 | Stopwatch Beta","protocol":17,"map":"pl_upward","folder":"tf","game":"Team Fortress","app_id":440,"player_count":0,"max_players":24,"Bots":0,"server_type":"Dedicated","server_os":"Linux","password":true,"vac":true,"version":"7757534","steam_id":85568392924866364,"keywords":["nocrits","nodmgspread","payload","uncletopia"],"game_id":440,"stv_port":27036,"stv_name":"Uncletopia | Chicago | 7 | Stopwatch Beta | STV","players":null},{"server_id":39,"name":"Uncletopia | Chicago | 8 | Community","name_short":"chi-8","host":"chi-2.us.uncletopia.com","port":27045,"enabled":true,"region":"us-central","cc":"us","latitude":41.881832,"longitude":-87.62318,"reserved":0,"last_update":"0001-01-01T00:00:00Z","name_a2s":"Uncletopia | Chicago | 8 | Community","protocol":17,"map":"pl_barnblitz","folder":"tf","game":"Team Fortress","app_id":440,"player_count":0,"max_players":24,"Bots":0,"server_type":"Dedicated","server_os":"Linux","password":true,"vac":true,"version":"7757534","steam_id":85568392924866365,"keywords":["nocrits","nodmgspread","payload","uncletopia"],"game_id":440,"stv_port":27046,"stv_name":"Uncletopia | Chicago | 8 | Community | STV","players":null},{"server_id":8,"name":"Uncletopia | Dallas | 1 | All Maps","name_short":"dal-1","host":"dal-1.us.uncletopia.com","port":27015,"enabled":true,"region":"us-central","cc":"us","latitude":32.779167,"longitude":-96.80889,"reserved":0,"last_update":"0001-01-01T00:00:00Z","name_a2s":"Uncletopia | Dallas | 1 | All Maps","protocol":17,"map":"koth_cascade","folder":"tf","game":"Team Fortress","app_id":440,"player_count":1,"max_players":24,"Bots":0,"server_type":"Dedicated","server_os":"Linux","password":true,"vac":true,"version":"7757534","steam_id":85568392924469986,"keywords":["cp","nocrits","nodmgspread","uncletopia"],"game_id":440,"stv_port":27016,"stv_name":"Uncletopia | Dallas | 1 | All Maps | STV","players":[{"user_id":3,"name":"DAVE","steam_id":76561199466581079,"connected_time":235000000000,"state":"active","ping":201}]},{"server_id":108,"name":"Uncletopia | Dallas | 2 | All Maps","name_short":"dal-2","host":"dal-1.us.uncletopia.com","port":27025,"enabled":true,"region":"us-central","cc":"us","latitude":32.779167,"longitude":-96.80889,"reserved":0,"last_update":"0001-01-01T00:00:00Z","name_a2s":"Uncletopia | Dallas | 2 | All Maps","protocol":17,"map":"pl_badwater","folder":"tf","game":"Team Fortress","app_id":440,"player_count":0,"max_players":24,"Bots":0,"server_type":"Dedicated","server_os":"Linux","password":true,"vac":true,"version":"7757534","steam_id":85568392924469988,"keywords":["nocrits","nodmgspread","payload","uncletopia"],"game_id":440,"stv_port":27026,"stv_name":"Uncletopia | Dallas | 2 | All Maps | STV","players":null},{"server_id":5,"name":"Uncletopia | Frankfurt | 1 | All Maps","name_short":"frk-1","host":"frk-1.de.uncletopia.com","port":27015,"enabled":true,"region":"eu","cc":"de","latitude":50.110924,"longitude":8.682127,"reserved":0,"last_update":"0001-01-01T00:00:00Z","name_a2s":"Uncletopia | Frankfurt | 1 | All Maps","protocol":17,"map":"pl_frontier_final","folder":"tf","game":"Team Fortress","app_id":440,"player_count":23,"max_players":24,"Bots":0,"server_type":"Dedicated","server_os":"Linux","password":true,"vac":true,"version":"7757534","steam_id":85568392924469989,"keywords":["nocrits","nodmgspread","payload","uncletopia"],"game_id":440,"stv_port":27016,"stv_name":"Uncletopia | Frankfurt | 1 | All Maps | STV","players":[{"user_id":152,"name":"System","steam_id":76561199442503973,"connected_time":528000000000,"state":"active","ping":49},{"user_id":120,"name":"blurst of times","steam_id":76561197972325640,"connected_time":2438000000000,"state":"active","ping":49},{"user_id":124,"name":"Healix","steam_id":76561198130270161,"connected_time":2261000000000,"state":"active","ping":52},{"user_id":126,"name":"Solu","steam_id":76561198054652468,"connected_time":2164000000000,"state":"active","ping":45},{"user_id":154,"name":"Gordon","steam_id":76561198303652059,"connected_time":2000000000,"state":"spawning","ping":87},{"user_id":144,"name":"GRN|Sa1muR","steam_id":76561198017735321,"connected_time":964000000000,"state":"active","ping":87},{"user_id":153,"name":"Talkkari","steam_id":76561198025327723,"connected_time":349000000000,"state":"active","ping":60},{"user_id":118,"name":"Lukero","steam_id":76561198301594341,"connected_time":2609000000000,"state":"active","ping":66},{"user_id":127,"name":"galaxy","steam_id":76561198164819022,"connected_time":2159000000000,"state":"active","ping":70},{"user_id":138,"name":"Dr.Sees [F2P]","steam_id":76561199219233587,"connected_time":1296000000000,"state":"active","ping":74},{"user_id":115,"name":"1 nanosecond no zaza","steam_id":76561198984169933,"connected_time":2640000000000,"state":"active","ping":90},{"user_id":123,"name":"Truegr","steam_id":76561198811912339,"connected_time":2354000000000,"state":"active","ping":64},{"user_id":79,"name":"lyudmilakh","steam_id":76561198362779878,"connected_time":6495000000000,"state":"active","ping":88},{"user_id":104,"name":"I have aids","steam_id":76561198860347851,"connected_time":4219000000000,"state":"active","ping":133},{"user_id":105,"name":"lolgast210(NL)","steam_id":76561198118817234,"connected_time":4206000000000,"state":"active","ping":62},{"user_id":150,"name":"Valoxi","steam_id":76561197995042938,"connected_time":734000000000,"state":"active","ping":69},{"user_id":129,"name":"Mapavri","steam_id":76561198370196400,"connected_time":2126000000000,"state":"active","ping":75},{"user_id":140,"name":"sdgfasdgasdgas","steam_id":76561198079277466,"connected_time":1146000000000,"state":"active","ping":60},{"user_id":30,"name":"FUKAYU","steam_id":76561198380484033,"connected_time":10821000000000,"state":"active","ping":51},{"user_id":148,"name":"Heimerdinger","steam_id":76561198008653022,"connected_time":820000000000,"state":"active","ping":63},{"user_id":62,"name":"Classic gamer","steam_id":76561198125638711,"connected_time":7562000000000,"state":"active","ping":92},{"user_id":151,"name":"Aaye","steam_id":76561198032322151,"connected_time":669000000000,"state":"active","ping":144},{"user_id":142,"name":"‚ô¶ Luka ‚ô¶","steam_id":76561198960100748,"connected_time":1078000000000,"state":"active","ping":78}]},{"server_id":110,"name":"Uncletopia | Frankfurt | 2 | All Maps","name_short":"frk-2","host":"frk-1.de.uncletopia.com","port":27025,"enabled":true,"region":"eu","cc":"de","latitude":50.110924,"longitude":8.682127,"reserved":0,"last_update":"0001-01-01T00:00:00Z","name_a2s":"Uncletopia | Frankfurt | 2 | All Maps","protocol":17,"map":"pl_borneo","folder":"tf","game":"Team Fortress","app_id":440,"player_count":24,"max_players":24,"Bots":0,"server_type":"Dedicated","server_os":"Linux","password":true,"vac":true,"version":"7757534","steam_id":85568392924469990,"keywords":["nocrits","nodmgspread","payload","uncletopia"],"game_id":440,"stv_port":27026,"stv_name":"Uncletopia | Frankfurt | 2 | All Maps | STV","players":[{"user_id":209,"name":"Mr.Aromatico","steam_id":76561198157982182,"connected_time":3290000000000,"state":"active","ping":51},{"user_id":240,"name":"MrMikopi","steam_id":76561198033644165,"connected_time":1096000000000,"state":"active","ping":86},{"user_id":211,"name":"CosminSL","steam_id":76561198055827684,"connected_time":2978000000000,"state":"active","ping":76},{"user_id":255,"name":"Akiron","steam_id":76561199267799044,"connected_time":76000000000,"state":"active","ping":87},{"user_id":246,"name":"cowboy","steam_id":76561198080361351,"connected_time":584000000000,"state":"active","ping":52},{"user_id":256,"name":"Adrenaline","steam_id":76561197970852048,"connected_time":44000000000,"state":"active","ping":63},{"user_id":250,"name":"naqoyqatsi","steam_id":76561198114711905,"connected_time":505000000000,"state":"active","ping":57},{"user_id":234,"name":"Dragon","steam_id":76561198163255365,"connected_time":1352000000000,"state":"active","ping":86},{"user_id":235,"name":"goblin","steam_id":76561198151122921,"connected_time":1352000000000,"state":"active","ping":72},{"user_id":207,"name":"Vikud","steam_id":76561199110575856,"connected_time":3411000000000,"state":"active","ping":148},{"user_id":226,"name":"fl1p","steam_id":76561198148565659,"connected_time":1903000000000,"state":"active","ping":80},{"user_id":251,"name":"JohnnyRakieta","steam_id":76561198855789287,"connected_time":474000000000,"state":"active","ping":65},{"user_id":238,"name":"Dark_Prelate","steam_id":76561199065671442,"connected_time":1264000000000,"state":"active","ping":58},{"user_id":247,"name":"bobek","steam_id":76561198092312720,"connected_time":562000000000,"state":"active","ping":56},{"user_id":253,"name":"big hoops","steam_id":76561198004703799,"connected_time":264000000000,"state":"active","ping":47},{"user_id":248,"name":"TheIngloriousC2KDe","steam_id":76561199217077592,"connected_time":551000000000,"state":"active","ping":202},{"user_id":185,"name":"\"Sniper_Airlines\"","steam_id":76561198169443647,"connected_time":4832000000000,"state":"active","ping":96},{"user_id":194,"name":"rat performance","steam_id":76561198065854668,"connected_time":4382000000000,"state":"active","ping":59},{"user_id":249,"name":"Shibe","steam_id":76561198071312153,"connected_time":536000000000,"state":"active","ping":64},{"user_id":206,"name":"Wario","steam_id":76561198356089255,"connected_time":3496000000000,"state":"active","ping":65},{"user_id":221,"name":"beurgeur","steam_id":76561198872426314,"connected_time":2340000000000,"state":"active","ping":46},{"user_id":252,"name":"Gwishin","steam_id":76561198257158275,"connected_time":412000000000,"state":"active","ping":147},{"user_id":203,"name":"dob:cob","steam_id":76561198253323044,"connected_time":3935000000000,"state":"active","ping":71},{"user_id":222,"name":"Permzilla","steam_id":76561198009407651,"connected_time":2272000000000,"state":"active","ping":62}]},{"server_id":308,"name":"Uncletopia | Frankfurt | 3 | All Maps","name_short":"frk-3","host":"frk-1.de.uncletopia.com","port":27035,"enabled":true,"region":"eu","cc":"de","latitude":50.110924,"longitude":8.682127,"reserved":0,"last_update":"0001-01-01T00:00:00Z","name_a2s":"Uncletopia | Frankfurt | 3 | All Maps","protocol":17,"map":"pl_pier","folder":"tf","game":"Team Fortress","app_id":440,"player_count":24,"max_players":24,"Bots":0,"server_type":"Dedicated","server_os":"Linux","password":true,"vac":true,"version":"7757534","steam_id":85568392924504274,"keywords":["nocrits","nodmgspread","payload","uncletopia"],"game_id":440,"stv_port":27036,"stv_name":"Uncletopia | Frankfurt | 3 | All Maps | STV","players":[{"user_id":330,"name":"Dolcelatte","steam_id":76561198038501770,"connected_time":135000000000,"state":"active","ping":59},{"user_id":306,"name":"addicted","steam_id":76561199129801006,"connected_time":1836000000000,"state":"active","ping":45},{"user_id":315,"name":"Mr.Fosty","steam_id":76561198045212783,"connected_time":914000000000,"state":"active","ping":85},{"user_id":296,"name":"Cuthbert","steam_id":76561198204649481,"connected_time":2437000000000,"state":"active","ping":88},{"user_id":300,"name":"galad.game","steam_id":76561198336324159,"connected_time":1969000000000,"state":"active","ping":69},{"user_id":299,"name":"soganlƒ± makarna","steam_id":76561198985752490,"connected_time":2083000000000,"state":"active","ping":91},{"user_id":322,"name":"DaVinchi","steam_id":76561198035464165,"connected_time":708000000000,"state":"active","ping":67},{"user_id":314,"name":"GuyWithoutAPie","steam_id":76561198054512149,"connected_time":932000000000,"state":"active","ping":61},{"user_id":317,"name":"vadim_kotler","steam_id":76561199016634369,"connected_time":847000000000,"state":"active","ping":118},{"user_id":318,"name":"Choruptian","steam_id":76561198017686366,"connected_time":846000000000,"state":"active","ping":48},{"user_id":323,"name":"Jungler","steam_id":76561198051058169,"connected_time":655000000000,"state":"active","ping":65},{"user_id":275,"name":"AnonTron","steam_id":76561199031895493,"connected_time":4706000000000,"state":"active","ping":177},{"user_id":308,"name":"mei","steam_id":76561198028078806,"connected_time":1710000000000,"state":"active","ping":45},{"user_id":305,"name":"cold hearted","steam_id":76561199042470246,"connected_time":1903000000000,"state":"active","ping":45},{"user_id":327,"name":"festry","steam_id":76561198873296090,"connected_time":433000000000,"state":"active","ping":61},{"user_id":310,"name":"Allereinan","steam_id":76561198342239906,"connected_time":1623000000000,"state":"active","ping":109},{"user_id":313,"name":"Insain Bolt!","steam_id":76561198025687726,"connected_time":1363000000000,"state":"active","ping":68},{"user_id":311,"name":"–ê–Ω–¥—Ä–µ–π","steam_id":76561199004027817,"connected_time":1613000000000,"state":"active","ping":112},{"user_id":328,"name":"FlameTheGame","steam_id":76561198841108519,"connected_time":318000000000,"state":"active","ping":88},{"user_id":312,"name":"avenje","steam_id":76561198155824845,"connected_time":1576000000000,"state":"active","ping":71},{"user_id":329,"name":"‚òÖpoyo‚òÖ","steam_id":76561198150078959,"connected_time":162000000000,"state":"active","ping":64},{"user_id":325,"name":"Yukyeet","steam_id":76561198056161058,"connected_time":636000000000,"state":"active","ping":73},{"user_id":326,"name":"Snipereon","steam_id":76561198436817109,"connected_time":604000000000,"state":"active","ping":64},{"user_id":264,"name":"‚ô• TRANS RIGHTS ‚ô•","steam_id":76561198066258544,"connected_time":5873000000000,"state":"active","ping":46}]},{"server_id":309,"name":"Uncletopia | Frankfurt | 4 | All Maps","name_short":"frk-4","host":"frk-1.de.uncletopia.com","port":27045,"enabled":true,"region":"eu","cc":"de","latitude":50.110924,"longitude":8.682127,"reserved":0,"last_update":"0001-01-01T00:00:00Z","name_a2s":"Uncletopia | Frankfurt | 4 | All Maps","protocol":17,"map":"koth_viaduct","folder":"tf","game":"Team Fortress","app_id":440,"player_count":24,"max_players":24,"Bots":0,"server_type":"Dedicated","server_os":"Linux","password":true,"vac":true,"version":"7757534","steam_id":85568392924504275,"keywords":["cp","nocrits","nodmgspread","uncletopia"],"game_id":440,"stv_port":27046,"stv_name":"Uncletopia | Frankfurt | 4 | All Maps | STV","players":[{"user_id":82,"name":"Cookie_","steam_id":76561198091732557,"connected_time":2359000000000,"state":"active","ping":60},{"user_id":106,"name":"üóªüé¥Hadrian Maloneüé¥üóª","steam_id":76561198036151103,"connected_time":182000000000,"state":"active","ping":62},{"user_id":100,"name":"Rat, the ungodly rat #SaveTF2","steam_id":76561199126577423,"connected_time":702000000000,"state":"active","ping":61},{"user_id":101,"name":"Ice Tea","steam_id":76561199180744278,"connected_time":455000000000,"state":"active","ping":89},{"user_id":62,"name":"doopsuiker","steam_id":76561198025916703,"connected_time":4425000000000,"state":"active","ping":72},{"user_id":85,"name":"Mugelzz","steam_id":76561198048528709,"connected_time":1803000000000,"state":"active","ping":111},{"user_id":11,"name":"zazuza","steam_id":76561198049820905,"connected_time":7845000000000,"state":"active","ping":60},{"user_id":110,"name":"Fpaoullis","steam_id":76561198897866131,"connected_time":94000000000,"state":"active","ping":94},{"user_id":104,"name":"( Õ° Õ°¬∞ Õú  ñ Õ° Õ°¬∞) \\ ‚òû","steam_id":76561198084597975,"connected_time":232000000000,"state":"active","ping":66},{"user_id":47,"name":"LordTrap.exe","steam_id":76561198318089716,"connected_time":5295000000000,"state":"active","ping":52},{"user_id":108,"name":"Biggest Bussy","steam_id":76561198072916231,"connected_time":151000000000,"state":"active","ping":84},{"user_id":102,"name":"rmz.ssj","steam_id":76561198329613930,"connected_time":406000000000,"state":"active","ping":60},{"user_id":105,"name":"·óúÀ∞·óú","steam_id":76561198148074472,"connected_time":226000000000,"state":"active","ping":39},{"user_id":48,"name":"harizzment","steam_id":76561198890409949,"connected_time":5262000000000,"state":"active","ping":86},{"user_id":49,"name":"waffle toaster","steam_id":76561198799089628,"connected_time":5184000000000,"state":"active","ping":52},{"user_id":44,"name":"EGirl | Klarra","steam_id":76561198077745407,"connected_time":5987000000000,"state":"active","ping":60},{"user_id":98,"name":"BilaL","steam_id":76561199043740497,"connected_time":997000000000,"state":"active","ping":68},{"user_id":107,"name":"Lucky B.üèÜ","steam_id":76561198077571162,"connected_time":171000000000,"state":"active","ping":62},{"user_id":109,"name":"Salih","steam_id":76561198287934839,"connected_time":144000000000,"state":"active","ping":48},{"user_id":111,"name":"greg's mom","steam_id":76561198050525471,"connected_time":68000000000,"state":"active","ping":61},{"user_id":112,"name":"Garry_G","steam_id":76561198362834902,"connected_time":64000000000,"state":"active","ping":75},{"user_id":93,"name":"lexapro dellirium","steam_id":76561199221733094,"connected_time":1353000000000,"state":"active","ping":60},{"user_id":95,"name":"The one who knocks","steam_id":76561198089341471,"connected_time":1218000000000,"state":"active","ping":81},{"user_id":45,"name":"robsan","steam_id":76561198137375391,"connected_time":5987000000000,"state":"active","ping":72}]},{"server_id":310,"name":"Uncletopia | Frankfurt | 5 | All Maps","name_short":"frk-5","host":"frk-1.de.uncletopia.com","port":27055,"enabled":true,"region":"eu","cc":"de","latitude":50.110924,"longitude":8.682127,"reserved":0,"last_update":"0001-01-01T00:00:00Z","name_a2s":"Uncletopia | Frankfurt | 5 | All Maps","protocol":17,"map":"pl_frontier_final","folder":"tf","game":"Team Fortress","app_id":440,"player_count":0,"max_players":24,"Bots":0,"server_type":"Dedicated","server_os":"Linux","password":true,"vac":true,"version":"7757534","steam_id":85568392924504277,"keywords":["nocrits","nodmgspread","payload","uncletopia"],"game_id":440,"stv_port":27056,"stv_name":"Uncletopia | Frankfurt | 5 | All Maps | STV","players":null},{"server_id":311,"name":"Uncletopia | Frankfurt | 6 | All Maps","name_short":"frk-6","host":"frk-1.de.uncletopia.com","port":27065,"enabled":true,"region":"eu","cc":"de","latitude":50.110924,"longitude":8.682127,"reserved":0,"last_update":"0001-01-01T00:00:00Z","name_a2s":"Uncletopia | Frankfurt | 6 | All Maps","protocol":17,"map":"koth_highpass","folder":"tf","game":"Team Fortress","app_id":440,"player_count":0,"max_players":24,"Bots":0,"server_type":"Dedicated","server_os":"Linux","password":true,"vac":true,"version":"7757534","steam_id":85568392924504278,"keywords":["cp","nocrits","nodmgspread","uncletopia"],"game_id":440,"stv_port":27066,"stv_name":"Uncletopia | Frankfurt | 6 | All Maps | STV","players":null},{"server_id":23,"name":"Uncletopia | Frankfurt | 7 | Stopwatch Beta","name_short":"frk-7","host":"frk-1.de.uncletopia.com","port":27075,"enabled":true,"region":"eu","cc":"de","latitude":50.110924,"longitude":8.682127,"reserved":0,"last_update":"0001-01-01T00:00:00Z","name_a2s":"Uncletopia | Frankfurt | 7 | Stopwatch Beta","protocol":17,"map":"pl_frontier_final","folder":"tf","game":"Team Fortress","app_id":440,"player_count":0,"max_players":24,"Bots":0,"server_type":"Dedicated","server_os":"Linux","password":true,"vac":true,"version":"7757534","steam_id":85568392924742827,"keywords":["nocrits","nodmgspread","payload","uncletopia"],"game_id":440,"stv_port":27076,"stv_name":"Uncletopia | Frankfurt | 7 | Stopwatch Beta | STV","players":null},{"server_id":24,"name":"Uncletopia | Frankfurt | 8 | Community","name_short":"frk-8","host":"frk-1.de.uncletopia.com","port":27085,"enabled":true,"region":"eu","cc":"de","latitude":50.110924,"longitude":8.682127,"reserved":0,"last_update":"0001-01-01T00:00:00Z","name_a2s":"Uncletopia | Frankfurt | 8 | Community","protocol":17,"map":"workshop/cp_overgrown_rc7b.ugc503939302","folder":"tf","game":"Team Fortress","app_id":440,"player_count":0,"max_players":24,"Bots":0,"server_type":"Dedicated","server_os":"Linux","password":true,"vac":true,"version":"7757534","steam_id":85568392924742828,"keywords":["cp","nocrits","nodmgspread","uncletopia"],"game_id":440,"stv_port":27086,"stv_name":"Uncletopia | Frankfurt | 8 | Community | STV","players":null},{"server_id":202,"name":"Uncletopia | Hong Kong | 1 | All Maps","name_short":"hgk-1","host":"hgk-1.hk.uncletopia.com","port":27015,"enabled":true,"region":"asia","cc":"hk","latitude":22.302711,"longitude":114.177216,"reserved":0,"last_update":"0001-01-01T00:00:00Z","name_a2s":"Uncletopia | Hong Kong | 1 | All Maps","protocol":17,"map":"cp_steel","folder":"tf","game":"Team Fortress","app_id":440,"player_count":22,"max_players":24,"Bots":0,"server_type":"Dedicated","server_os":"Linux","password":true,"vac":true,"version":"7757534","steam_id":85568392924494504,"keywords":["cp","nocrits","nodmgspread","uncletopia"],"game_id":440,"stv_port":27016,"stv_name":"Uncletopia | Hong Kong | 1 | All Maps | STV","players":[{"user_id":420,"name":"Batbob","steam_id":76561198999413123,"connected_time":155000000000,"state":"active","ping":79},{"user_id":418,"name":"Turbo.RF4","steam_id":76561199061012484,"connected_time":166000000000,"state":"active","ping":65},{"user_id":381,"name":"Crippling Depression","steam_id":76561199198723894,"connected_time":4008000000000,"state":"active","ping":90},{"user_id":409,"name":"Michael Scott","steam_id":76561198023082794,"connected_time":815000000000,"state":"active","ping":49},{"user_id":407,"name":":)","steam_id":76561198437941450,"connected_time":1029000000000,"state":"active","ping":88},{"user_id":411,"name":"8091573212","steam_id":76561198968776439,"connected_time":390000000000,"state":"active","ping":83},{"user_id":358,"name":"Stupid B l #saveTF2","steam_id":76561198131423270,"connected_time":5544000000000,"state":"active","ping":102},{"user_id":361,"name":"uptriste","steam_id":76561198158666692,"connected_time":4907000000000,"state":"active","ping":38},{"user_id":404,"name":"Pluem","steam_id":76561198864742734,"connected_time":1765000000000,"state":"active","ping":96},{"user_id":318,"name":"ÊØç„ÅÆËÇâÂõ£Â≠ê@hao123.com","steam_id":76561198069561896,"connected_time":9646000000000,"state":"active","ping":42},{"user_id":373,"name":"clori","steam_id":76561199146847474,"connected_time":4336000000000,"state":"active","ping":55},{"user_id":402,"name":"AmaiToxic","steam_id":76561199122491157,"connected_time":1788000000000,"state":"active","ping":87},{"user_id":406,"name":"sloth of the fragment clan","steam_id":76561198214192048,"connected_time":1199000000000,"state":"active","ping":84},{"user_id":410,"name":"Prof Booster","steam_id":76561199148930929,"connected_time":673000000000,"state":"active","ping":35},{"user_id":389,"name":"silverhouse7","steam_id":76561198349634906,"connected_time":3334000000000,"state":"active","ping":90},{"user_id":379,"name":"Waltuh (CEO of Chicanery)","steam_id":76561199257300024,"connected_time":4058000000000,"state":"active","ping":78},{"user_id":413,"name":"let me in","steam_id":76561198024666371,"connected_time":197000000000,"state":"active","ping":90},{"user_id":398,"name":"Ïø†ÌÇ§","steam_id":76561197997220367,"connected_time":2440000000000,"state":"active","ping":55},{"user_id":412,"name":"Bepo","steam_id":76561198136685157,"connected_time":210000000000,"state":"active","ping":58},{"user_id":422,"name":"Just the crust","steam_id":76561198118872550,"connected_time":80000000000,"state":"active","ping":151},{"user_id":417,"name":"albert rodutunga","steam_id":76561198268752908,"connected_time":185000000000,"state":"active","ping":101},{"user_id":405,"name":"Bertengkar","steam_id":76561198213031155,"connected_time":1760000000000,"state":"active","ping":97}]},{"server_id":1,"name":"Uncletopia | Los Angeles | 1 | All Maps","name_short":"lax-1","host":"lax-1.us.uncletopia.com","port":27015,"enabled":true,"region":"us-west","cc":"us","latitude":33.94279,"longitude":-118.41004,"reserved":0,"last_update":"0001-01-01T00:00:00Z","name_a2s":"Uncletopia | Los Angeles | 1 | All Maps","protocol":17,"map":"pl_borneo","folder":"tf","game":"Team Fortress","app_id":440,"player_count":0,"max_players":24,"Bots":0,"server_type":"Dedicated","server_os":"Linux","password":true,"vac":true,"version":"7757534","steam_id":85568392924469991,"keywords":["nocrits","nodmgspread","payload","uncletopia"],"game_id":440,"stv_port":27016,"stv_name":"Uncletopia | Los Angeles | 1 | All Maps | STV","players":null},{"server_id":112,"name":"Uncletopia | Los Angeles | 2 | All Maps","name_short":"lax-2","host":"lax-1.us.uncletopia.com","port":27025,"enabled":true,"region":"us-west","cc":"us","latitude":33.94279,"longitude":-118.41004,"reserved":0,"last_update":"0001-01-01T00:00:00Z","name_a2s":"Uncletopia | Los Angeles | 2 | All Maps","protocol":17,"map":"koth_cascade","folder":"tf","game":"Team Fortress","app_id":440,"player_count":0,"max_players":24,"Bots":0,"server_type":"Dedicated","server_os":"Linux","password":true,"vac":true,"version":"7757534","steam_id":85568392924469992,"keywords":["cp","nocrits","nodmgspread","uncletopia"],"game_id":440,"stv_port":27026,"stv_name":"Uncletopia | Los Angeles | 2 | All Maps | STV","players":null},{"server_id":324,"name":"Uncletopia | Los Angeles | 3 | All Maps","name_short":"lax-3","host":"lax-1.us.uncletopia.com","port":27035,"enabled":true,"region":"us-west","cc":"us","latitude":33.94279,"longitude":-118.41004,"reserved":0,"last_update":"0001-01-01T00:00:00Z","name_a2s":"Uncletopia | Los Angeles | 3 | All Maps","protocol":17,"map":"pl_pier","folder":"tf","game":"Team Fortress","app_id":440,"player_count":0,"max_players":24,"Bots":0,"server_type":"Dedicated","server_os":"Linux","password":true,"vac":true,"version":"7757534","steam_id":85568392924510198,"keywords":["nocrits","nodmgspread","payload","uncletopia"],"game_id":440,"stv_port":27036,"stv_name":"Uncletopia | Los Angeles | 3 | All Maps | STV","players":null},{"server_id":25,"name":"Uncletopia | Los Angeles | 4 | Stopwatch Beta","name_short":"lax-4","host":"lax-1.us.uncletopia.com","port":27045,"enabled":true,"region":"us-west","cc":"us","latitude":33.94279,"longitude":-118.41004,"reserved":0,"last_update":"0001-01-01T00:00:00Z","name_a2s":"Uncletopia | Los Angeles | 4 | Stopwatch Beta","protocol":17,"map":"pl_frontier_final","folder":"tf","game":"Team Fortress","app_id":440,"player_count":0,"max_players":24,"Bots":0,"server_type":"Dedicated","server_os":"Linux","password":true,"vac":true,"version":"7757534","steam_id":85568392924510199,"keywords":["nocrits","nodmgspread","payload","uncletopia"],"game_id":440,"stv_port":27046,"stv_name":"Uncletopia | Los Angeles | 4 | Stopwatch Beta | STV","players":null},{"server_id":11,"name":"Uncletopia | London | 1 | All Maps","name_short":"lon-1","host":"lon-1.uk.uncletopia.com","port":27015,"enabled":true,"region":"eu","cc":"gb","latitude":51.509865,"longitude":-0.118092,"reserved":0,"last_update":"0001-01-01T00:00:00Z","name_a2s":"Uncletopia | London | 1 | All Maps","protocol":17,"map":"koth_viaduct","folder":"tf","game":"Team Fortress","app_id":440,"player_count":6,"max_players":24,"Bots":0,"server_type":"Dedicated","server_os":"Linux","password":true,"vac":true,"version":"7757534","steam_id":85568392924367362,"keywords":["cp","nocrits","nodmgspread","uncletopia"],"game_id":440,"stv_port":27016,"stv_name":"Uncletopia | London | 1 | All Maps | STV","players":[{"user_id":9,"name":"BX","steam_id":76561197962889211,"connected_time":1420000000000,"state":"active","ping":58},{"user_id":15,"name":"sunny happy love","steam_id":76561198105028151,"connected_time":425000000000,"state":"active","ping":45},{"user_id":11,"name":"Salty_shark","steam_id":76561198300798280,"connected_time":1128000000000,"state":"active","ping":75},{"user_id":16,"name":"Homicidal Tendencies","steam_id":76561198828681043,"connected_time":282000000000,"state":"active","ping":33},{"user_id":13,"name":"Mowelic","steam_id":76561198873641222,"connected_time":617000000000,"state":"active","ping":77},{"user_id":14,"name":"Guru","steam_id":76561198093853069,"connected_time":614000000000,"state":"active","ping":61}]},{"server_id":114,"name":"Uncletopia | London | 2 | All Maps","name_short":"lon-2","host":"lon-1.uk.uncletopia.com","port":27025,"enabled":true,"region":"eu","cc":"gb","latitude":51.509865,"longitude":-0.118092,"reserved":0,"last_update":"0001-01-01T00:00:00Z","name_a2s":"Uncletopia | London | 2 | All Maps","protocol":17,"map":"cp_dustbowl","folder":"tf","game":"Team Fortress","app_id":440,"player_count":0,"max_players":24,"Bots":0,"server_type":"Dedicated","server_os":"Linux","password":true,"vac":true,"version":"7757534","steam_id":85568392924470941,"keywords":["cp","nocrits","nodmgspread","uncletopia"],"game_id":440,"stv_port":27026,"stv_name":"Uncletopia | London | 2 | All Maps | STV","players":null},{"server_id":320,"name":"Uncletopia | London | 3 | All Maps","name_short":"lon-3","host":"lon-1.uk.uncletopia.com","port":27035,"enabled":true,"region":"eu","cc":"gb","latitude":51.509865,"longitude":-0.118092,"reserved":0,"last_update":"0001-01-01T00:00:00Z","name_a2s":"Uncletopia | London | 3 | All Maps","protocol":17,"map":"pl_frontier_final","folder":"tf","game":"Team Fortress","app_id":440,"player_count":23,"max_players":24,"Bots":0,"server_type":"Dedicated","server_os":"Linux","password":true,"vac":true,"version":"7757534","steam_id":85568392924510192,"keywords":["nocrits","nodmgspread","payload","uncletopia"],"game_id":440,"stv_port":27036,"stv_name":"Uncletopia | London | 3 | All Maps | STV","players":[{"user_id":224,"name":"Flare","steam_id":76561198039098320,"connected_time":7456000000000,"state":"active","ping":45},{"user_id":315,"name":"Joel!","steam_id":76561198155422742,"connected_time":1899000000000,"state":"active","ping":61},{"user_id":314,"name":"Derp","steam_id":76561198197901062,"connected_time":1931000000000,"state":"active","ping":59},{"user_id":340,"name":"TallestPerson","steam_id":76561198097923550,"connected_time":90000000000,"state":"active","ping":106},{"user_id":317,"name":"on1on (pickled)","steam_id":76561197995304137,"connected_time":1892000000000,"state":"active","ping":69},{"user_id":338,"name":"ricky pee pee","steam_id":76561198152620745,"connected_time":110000000000,"state":"active","ping":55},{"user_id":328,"name":"Professional facestab","steam_id":76561198258721056,"connected_time":1172000000000,"state":"active","ping":47},{"user_id":339,"name":"Ivan the Terrible","steam_id":76561198139595241,"connected_time":102000000000,"state":"active","ping":83},{"user_id":271,"name":"Joseph Stalin","steam_id":76561198033199746,"connected_time":4826000000000,"state":"active","ping":50},{"user_id":331,"name":"moon","steam_id":76561199212557251,"connected_time":945000000000,"state":"active","ping":115},{"user_id":301,"name":"Piquesque","steam_id":76561198286763046,"connected_time":2992000000000,"state":"active","ping":108},{"user_id":341,"name":"Wir suchen dich!","steam_id":76561198307613521,"connected_time":86000000000,"state":"active","ping":54},{"user_id":318,"name":"Jack","steam_id":76561198079575891,"connected_time":1885000000000,"state":"active","ping":45},{"user_id":290,"name":"Munibe","steam_id":76561198107967904,"connected_time":3607000000000,"state":"active","ping":60},{"user_id":334,"name":"gibb (official)","steam_id":76561198074097655,"connected_time":341000000000,"state":"active","ping":30},{"user_id":319,"name":"RockMan","steam_id":76561199228684720,"connected_time":1885000000000,"state":"active","ping":150},{"user_id":336,"name":"hawkblob","steam_id":76561198803720565,"connected_time":177000000000,"state":"active","ping":60},{"user_id":326,"name":"lunk alarm","steam_id":76561198271870824,"connected_time":1409000000000,"state":"active","ping":124},{"user_id":335,"name":"Madree","steam_id":76561199443143457,"connected_time":294000000000,"state":"active","ping":104},{"user_id":342,"name":"Croy","steam_id":76561197972552579,"connected_time":18000000000,"state":"active","ping":40},{"user_id":337,"name":"Shadowmix","steam_id":76561197981176383,"connected_time":162000000000,"state":"active","ping":62},{"user_id":305,"name":"SexyHotChocolate","steam_id":76561198164087698,"connected_time":2941000000000,"state":"active","ping":84},{"user_id":329,"name":"romaingallo","steam_id":76561198268112907,"connected_time":1102000000000,"state":"active","ping":63}]},{"server_id":321,"name":"Uncletopia | London | 4 | All Maps","name_short":"lon-4","host":"lon-1.uk.uncletopia.com","port":27045,"enabled":true,"region":"eu","cc":"gb","latitude":51.509865,"longitude":-0.118092,"reserved":0,"last_update":"0001-01-01T00:00:00Z","name_a2s":"Uncletopia | London | 4 | All Maps","protocol":17,"map":"pl_badwater","folder":"tf","game":"Team Fortress","app_id":440,"player_count":24,"max_players":24,"Bots":0,"server_type":"Dedicated","server_os":"Linux","password":true,"vac":true,"version":"7757534","steam_id":85568392924510193,"keywords":["nocrits","nodmgspread","payload","uncletopia"],"game_id":440,"stv_port":27046,"stv_name":"Uncletopia | London | 4 | All Maps | STV","players":[{"user_id":76,"name":"Freezer Fox YT","steam_id":76561198060542607,"connected_time":1066000000000,"state":"active","ping":173},{"user_id":70,"name":"thebananabomb00","steam_id":76561198296409283,"connected_time":1168000000000,"state":"active","ping":90},{"user_id":79,"name":"I-I","steam_id":76561198267969436,"connected_time":1046000000000,"state":"active","ping":62},{"user_id":8,"name":"SoupER","steam_id":76561198063056668,"connected_time":3866000000000,"state":"active","ping":44},{"user_id":93,"name":"Racist -*issou*-","steam_id":76561198099433856,"connected_time":43000000000,"state":"active","ping":64},{"user_id":90,"name":"Saken","steam_id":76561198049075295,"connected_time":610000000000,"state":"active","ping":60},{"user_id":72,"name":"\u003c blank \u003e","steam_id":76561199149307190,"connected_time":1150000000000,"state":"active","ping":76},{"user_id":63,"name":"Qwerty","steam_id":76561198023525894,"connected_time":1643000000000,"state":"active","ping":87},{"user_id":86,"name":"Manslayer","steam_id":76561198063956707,"connected_time":837000000000,"state":"active","ping":49},{"user_id":87,"name":"Seru","steam_id":76561199219827214,"connected_time":811000000000,"state":"active","ping":136},{"user_id":73,"name":"cat (they/them)","steam_id":76561198416657815,"connected_time":1136000000000,"state":"active","ping":87},{"user_id":91,"name":"Repays","steam_id":76561198082993000,"connected_time":277000000000,"state":"active","ping":44},{"user_id":92,"name":"lark","steam_id":76561198091724522,"connected_time":142000000000,"state":"active","ping":46},{"user_id":74,"name":"JeanCorben","steam_id":76561197965133561,"connected_time":1087000000000,"state":"active","ping":27},{"user_id":75,"name":"mat","steam_id":76561198824697295,"connected_time":1076000000000,"state":"active","ping":87},{"user_id":41,"name":"Speedy","steam_id":76561198080761661,"connected_time":2791000000000,"state":"active","ping":125},{"user_id":85,"name":"proko","steam_id":76561198032035497,"connected_time":908000000000,"state":"active","ping":106},{"user_id":80,"name":"grape","steam_id":76561198048836593,"connected_time":1028000000000,"state":"active","ping":77},{"user_id":81,"name":"wicked","steam_id":76561198164376035,"connected_time":1019000000000,"state":"active","ping":79},{"user_id":94,"name":"1ggy","steam_id":76561199051285912,"connected_time":16000000000,"state":"spawning","ping":98},{"user_id":82,"name":"kilo","steam_id":76561198015641339,"connected_time":1002000000000,"state":"active","ping":76},{"user_id":89,"name":"cropping","steam_id":76561198026586456,"connected_time":777000000000,"state":"active","ping":59},{"user_id":83,"name":"Ruth(-less bitch)","steam_id":76561198150006573,"connected_time":990000000000,"state":"active","ping":54},{"user_id":45,"name":"NO end to POOTIS","steam_id":76561198144879361,"connected_time":2640000000000,"state":"active","ping":125}]},{"server_id":21,"name":"Uncletopia | London | 5 | All Maps","name_short":"lon-5","host":"lon-1.uk.uncletopia.com","port":27055,"enabled":true,"region":"eu","cc":"gb","latitude":51.509865,"longitude":-0.118092,"reserved":0,"last_update":"0001-01-01T00:00:00Z","name_a2s":"Uncletopia | London | 5 | All Maps","protocol":17,"map":"pl_frontier_final","folder":"tf","game":"Team Fortress","app_id":440,"player_count":0,"max_players":24,"Bots":0,"server_type":"Dedicated","server_os":"Linux","password":true,"vac":true,"version":"7757534","steam_id":85568392924742829,"keywords":["nocrits","nodmgspread","payload","uncletopia"],"game_id":440,"stv_port":27056,"stv_name":"Uncletopia | London | 5 | All Maps | STV","players":null},{"server_id":22,"name":"Uncletopia | London | 6 | All Maps","name_short":"lon-6","host":"lon-1.uk.uncletopia.com","port":27065,"enabled":true,"region":"eu","cc":"gb","latitude":51.509865,"longitude":-0.118092,"reserved":0,"last_update":"0001-01-01T00:00:00Z","name_a2s":"Uncletopia | London | 6 | All Maps","protocol":17,"map":"koth_cascade","folder":"tf","game":"Team Fortress","app_id":440,"player_count":0,"max_players":24,"Bots":0,"server_type":"Dedicated","server_os":"Linux","password":true,"vac":true,"version":"7757534","steam_id":85568392924742830,"keywords":["cp","nocrits","nodmgspread","uncletopia"],"game_id":440,"stv_port":27066,"stv_name":"Uncletopia | London | 6 | All Maps | STV","players":null},{"server_id":40,"name":"Uncletopia | London | 7 | No Payload","name_short":"lon-7","host":"lon-1.uk.uncletopia.com","port":27075,"enabled":true,"region":"eu","cc":"gb","latitude":51.509865,"longitude":-0.118092,"reserved":0,"last_update":"0001-01-01T00:00:00Z","name_a2s":"Uncletopia | London | 7 | No Payload","protocol":17,"map":"koth_king","folder":"tf","game":"Team Fortress","app_id":440,"player_count":0,"max_players":24,"Bots":0,"server_type":"Dedicated","server_os":"Linux","password":true,"vac":true,"version":"7757534","steam_id":85568392924964314,"keywords":["cp","nocrits","nodmgspread","uncletopia"],"game_id":440,"stv_port":27076,"stv_name":"Uncletopia | London | 7 | No Payload | STV","players":null},{"server_id":41,"name":"Uncletopia | London | 8 | Community","name_short":"lon-8","host":"lon-1.uk.uncletopia.com","port":27085,"enabled":true,"region":"eu","cc":"gb","latitude":51.509865,"longitude":-0.118092,"reserved":0,"last_update":"0001-01-01T00:00:00Z","name_a2s":"Uncletopia | London | 8 | Community","protocol":17,"map":"workshop/koth_kemptown_rc1.ugc767410655","folder":"tf","game":"Team Fortress","app_id":440,"player_count":0,"max_players":24,"Bots":0,"server_type":"Dedicated","server_os":"Linux","password":true,"vac":true,"version":"7757534","steam_id":85568392924964315,"keywords":["cp","nocrits","nodmgspread","uncletopia"],"game_id":440,"stv_port":27086,"stv_name":"Uncletopia | London | 8 | Community | STV","players":null},{"server_id":300,"name":"Uncletopia | Montr√©al | 1 | All Maps","name_short":"mtl-1","host":"mtl-1.ca.uncletopia.com","port":27015,"enabled":true,"region":"us-east","cc":"ca","latitude":45.50889,"longitude":-73.56167,"reserved":0,"last_update":"0001-01-01T00:00:00Z","name_a2s":"Uncletopia | Montr√©al | 1 | All Maps","protocol":17,"map":"pl_snowycoast","folder":"tf","game":"Team Fortress","app_id":440,"player_count":0,"max_players":24,"Bots":0,"server_type":"Dedicated","server_os":"Linux","password":true,"vac":true,"version":"7757534","steam_id":85568392924500087,"keywords":["nocrits","nodmgspread","payload","uncletopia"],"game_id":440,"stv_port":27016,"stv_name":"Uncletopia | Montr√©al | 1 | All Maps | STV","players":null},{"server_id":301,"name":"Uncletopia | Montr√©al | 2 | All Maps","name_short":"mtl-2","host":"mtl-1.ca.uncletopia.com","port":27025,"enabled":true,"region":"us-east","cc":"ca","latitude":45.50889,"longitude":-73.56167,"reserved":0,"last_update":"0001-01-01T00:00:00Z","name_a2s":"Uncletopia | Montr√©al | 2 | All Maps","protocol":17,"map":"pl_snowycoast","folder":"tf","game":"Team Fortress","app_id":440,"player_count":0,"max_players":24,"Bots":0,"server_type":"Dedicated","server_os":"Linux","password":true,"vac":true,"version":"7757534","steam_id":85568392924500088,"keywords":["nocrits","nodmgspread","payload","uncletopia"],"game_id":440,"stv_port":27026,"stv_name":"Uncletopia | Montr√©al | 2 | All Maps | STV","players":null},{"server_id":302,"name":"Uncletopia | Montr√©al | 3 | All Maps","name_short":"mtl-3","host":"mtl-1.ca.uncletopia.com","port":27035,"enabled":true,"region":"us-east","cc":"ca","latitude":45.50889,"longitude":-73.56167,"reserved":0,"last_update":"0001-01-01T00:00:00Z","name_a2s":"Uncletopia | Montr√©al | 3 | All Maps","protocol":17,"map":"cp_dustbowl","folder":"tf","game":"Team Fortress","app_id":440,"player_count":0,"max_players":24,"Bots":0,"server_type":"Dedicated","server_os":"Linux","password":true,"vac":true,"version":"7757534","steam_id":85568392924500089,"keywords":["cp","nocrits","nodmgspread","uncletopia"],"game_id":440,"stv_port":27036,"stv_name":"Uncletopia | Montr√©al | 3 | All Maps | STV","players":null},{"server_id":303,"name":"Uncletopia | Montr√©al | 4 | No Payload","name_short":"mtl-4","host":"mtl-1.ca.uncletopia.com","port":27045,"enabled":true,"region":"us-east","cc":"ca","latitude":45.50889,"longitude":-73.56167,"reserved":0,"last_update":"0001-01-01T00:00:00Z","name_a2s":"Uncletopia | Montr√©al | 4 | No Payload","protocol":17,"map":"pl_borneo","folder":"tf","game":"Team Fortress","app_id":440,"player_count":0,"max_players":24,"Bots":0,"server_type":"Dedicated","server_os":"Linux","password":true,"vac":true,"version":"7757534","steam_id":85568392924500090,"keywords":["nocrits","nodmgspread","payload","uncletopia"],"game_id":440,"stv_port":27046,"stv_name":"Uncletopia | Montr√©al | 4 | No Payload | STV","players":null},{"server_id":13,"name":"Uncletopia | New York City | 1 | All Maps","name_short":"nyc-1","host":"nyc-1.us.uncletopia.com","port":27015,"enabled":true,"region":"us-east","cc":"us","latitude":40.73061,"longitude":-73.93524,"reserved":0,"last_update":"0001-01-01T00:00:00Z","name_a2s":"Uncletopia | New York City | 1 | All Maps","protocol":17,"map":"koth_highpass","folder":"tf","game":"Team Fortress","app_id":440,"player_count":0,"max_players":24,"Bots":0,"server_type":"Dedicated","server_os":"Linux","password":true,"vac":true,"version":"7757534","steam_id":85568392924469993,"keywords":["cp","nocrits","nodmgspread","uncletopia"],"game_id":440,"stv_port":27016,"stv_name":"Uncletopia | New York City | 1 | All Maps | STV","players":null},{"server_id":14,"name":"Uncletopia | New York City | 2 | All Maps","name_short":"nyc-2","host":"nyc-1.us.uncletopia.com","port":27025,"enabled":true,"region":"us-east","cc":"us","latitude":40.73061,"longitude":-73.93524,"reserved":0,"last_update":"0001-01-01T00:00:00Z","name_a2s":"Uncletopia | New York City | 2 | All Maps","protocol":17,"map":"pl_pier","folder":"tf","game":"Team Fortress","app_id":440,"player_count":2,"max_players":24,"Bots":0,"server_type":"Dedicated","server_os":"Linux","password":true,"vac":true,"version":"7757534","steam_id":85568392924469994,"keywords":["nocrits","nodmgspread","payload","uncletopia"],"game_id":440,"stv_port":27026,"stv_name":"Uncletopia | New York City | 2 | All Maps | STV","players":[{"user_id":3,"name":"Nice21","steam_id":76561199427548141,"connected_time":186000000000,"state":"active","ping":70},{"user_id":4,"name":"puffy","steam_id":76561198411347037,"connected_time":167000000000,"state":"active","ping":59}]},{"server_id":15,"name":"Uncletopia | New York City | 3 | Stopwatch Beta","name_short":"nyc-3","host":"nyc-1.us.uncletopia.com","port":27035,"enabled":true,"region":"us-east","cc":"us","latitude":40.73061,"longitude":-73.93524,"reserved":0,"last_update":"0001-01-01T00:00:00Z","name_a2s":"Uncletopia | New York City | 3 | Stopwatch Beta","protocol":17,"map":"cp_mountainlab","folder":"tf","game":"Team Fortress","app_id":440,"player_count":0,"max_players":24,"Bots":0,"server_type":"Dedicated","server_os":"Linux","password":true,"vac":true,"version":"7757534","steam_id":85568392924742820,"keywords":["cp","nocrits","nodmgspread","uncletopia"],"game_id":440,"stv_port":27036,"stv_name":"Uncletopia | New York City | 3 | Stopwatch Beta | STV","players":null},{"server_id":16,"name":"Uncletopia | New York City | 4 | Community","name_short":"nyc-4","host":"nyc-1.us.uncletopia.com","port":27045,"enabled":true,"region":"us-east","cc":"us","latitude":40.73061,"longitude":-73.93524,"reserved":0,"last_update":"0001-01-01T00:00:00Z","name_a2s":"Uncletopia | New York City | 4 | Community","protocol":17,"map":"pl_borneo","folder":"tf","game":"Team Fortress","app_id":440,"player_count":0,"max_players":24,"Bots":0,"server_type":"Dedicated","server_os":"Linux","password":true,"vac":true,"version":"7757534","steam_id":85568392924742821,"keywords":["nocrits","nodmgspread","payload","uncletopia"],"game_id":440,"stv_port":27046,"stv_name":"Uncletopia | New York City | 4 | Community | STV","players":null},{"server_id":142,"name":"Uncletopia | S√£o Paulo | 1 | All Maps","name_short":"sao-1","host":"sao-1.br.uncletopia.com","port":27015,"enabled":true,"region":"sa","cc":"br","latitude":-23.533773,"longitude":-46.62529,"reserved":0,"last_update":"0001-01-01T00:00:00Z","name_a2s":"Uncletopia | S√£o Paulo | 1 | All Maps","protocol":17,"map":"koth_cascade","folder":"tf","game":"Team Fortress","app_id":440,"player_count":0,"max_players":24,"Bots":0,"server_type":"Dedicated","server_os":"Linux","password":true,"vac":true,"version":"7757534","steam_id":85568392924469996,"keywords":["cp","nocrits","nodmgspread","uncletopia"],"game_id":440,"stv_port":27016,"stv_name":"Uncletopia | S√£o Paulo | 1 | All Maps | STV","players":null},{"server_id":143,"name":"Uncletopia | S√£o Paulo | 2 | All Maps","name_short":"sao-2","host":"sao-2.br.uncletopia.com","port":27015,"enabled":true,"region":"sa","cc":"br","latitude":-23.533773,"longitude":-46.62529,"reserved":0,"last_update":"0001-01-01T00:00:00Z","name_a2s":"Uncletopia | S√£o Paulo | 2 | All Maps","protocol":17,"map":"koth_viaduct","folder":"tf","game":"Team Fortress","app_id":440,"player_count":0,"max_players":24,"Bots":0,"server_type":"Dedicated","server_os":"Linux","password":true,"vac":true,"version":"7757534","steam_id":85568392924485349,"keywords":["cp","nocrits","nodmgspread","uncletopia"],"game_id":440,"stv_port":27016,"stv_name":"Uncletopia | S√£o Paulo | 2 | All Maps | STV","players":null},{"server_id":7,"name":"Uncletopia | Seattle | 1 | All Maps","name_short":"sea-1","host":"sea-1.us.uncletopia.com","port":27015,"enabled":true,"region":"us-west","cc":"us","latitude":47.608013,"longitude":-122.33517,"reserved":0,"last_update":"0001-01-01T00:00:00Z","name_a2s":"Uncletopia | Seattle | 1 | All Maps","protocol":17,"map":"cp_altitude","folder":"tf","game":"Team Fortress","app_id":440,"player_count":0,"max_players":24,"Bots":0,"server_type":"Dedicated","server_os":"Linux","password":true,"vac":true,"version":"7757534","steam_id":85568392924469997,"keywords":["cp","nocrits","nodmgspread","uncletopia"],"game_id":440,"stv_port":27016,"stv_name":"Uncletopia | Seattle | 1 | All Maps | STV","players":null},{"server_id":119,"name":"Uncletopia | Seattle | 2 | All Maps","name_short":"sea-2","host":"sea-1.us.uncletopia.com","port":27025,"enabled":true,"region":"us-west","cc":"us","latitude":47.608013,"longitude":-122.33517,"reserved":0,"last_update":"0001-01-01T00:00:00Z","name_a2s":"Uncletopia | Seattle | 2 | All Maps","protocol":17,"map":"pl_upward","folder":"tf","game":"Team Fortress","app_id":440,"player_count":23,"max_players":24,"Bots":0,"server_type":"Dedicated","server_os":"Linux","password":true,"vac":true,"version":"7757534","steam_id":85568392924469998,"keywords":["nocrits","nodmgspread","payload","uncletopia"],"game_id":440,"stv_port":27026,"stv_name":"Uncletopia | Seattle | 2 | All Maps | STV","players":[{"user_id":33,"name":"KennytheHedgehog","steam_id":76561198094607721,"connected_time":1974000000000,"state":"active","ping":95},{"user_id":50,"name":"IPlayGamez","steam_id":76561198041387508,"connected_time":886000000000,"state":"active","ping":119},{"user_id":31,"name":"I AM GOING TO EAT YOUR FACE","steam_id":76561198277449857,"connected_time":2333000000000,"state":"active","ping":91},{"user_id":77,"name":"kravitz66","steam_id":76561198982113974,"connected_time":27000000000,"state":"spawning","ping":92},{"user_id":66,"name":"Yiff Police","steam_id":76561198103938356,"connected_time":563000000000,"state":"active","ping":126},{"user_id":35,"name":"Zenn","steam_id":76561198032618254,"connected_time":1628000000000,"state":"active","ping":50},{"user_id":38,"name":"Clormac Macalahacte","steam_id":76561198103305334,"connected_time":1436000000000,"state":"active","ping":90},{"user_id":72,"name":"I DECIDE","steam_id":76561198011675372,"connected_time":274000000000,"state":"active","ping":55},{"user_id":64,"name":"Marksito14","steam_id":76561199132272437,"connected_time":629000000000,"state":"active","ping":107},{"user_id":69,"name":"chikin.sauce","steam_id":76561198042464635,"connected_time":504000000000,"state":"active","ping":117},{"user_id":42,"name":"xd Clover","steam_id":76561198038905361,"connected_time":1179000000000,"state":"active","ping":83},{"user_id":62,"name":"mikey | I'm Burning Bright!","steam_id":76561198985847893,"connected_time":707000000000,"state":"active","ping":105},{"user_id":44,"name":"L86A1","steam_id":76561197990436505,"connected_time":1137000000000,"state":"active","ping":136},{"user_id":46,"name":"town.midi","steam_id":76561198059041027,"connected_time":997000000000,"state":"active","ping":66},{"user_id":48,"name":"Sartupial","steam_id":76561198443169940,"connected_time":957000000000,"state":"active","ping":98},{"user_id":73,"name":"sagekiss","steam_id":76561198038831240,"connected_time":194000000000,"state":"active","ping":56},{"user_id":56,"name":"Resident Thrussy Lender","steam_id":76561198071790583,"connected_time":792000000000,"state":"active","ping":105},{"user_id":74,"name":"Trolldier 76","steam_id":76561198036504161,"connected_time":159000000000,"state":"active","ping":229},{"user_id":71,"name":"Chiappa Rhino","steam_id":76561198155176802,"connected_time":375000000000,"state":"active","ping":124},{"user_id":61,"name":"Marsy","steam_id":76561198310195218,"connected_time":715000000000,"state":"active","ping":166},{"user_id":67,"name":"Ylime","steam_id":76561198027878221,"connected_time":550000000000,"state":"active","ping":56},{"user_id":68,"name":"Bobby","steam_id":76561198164004939,"connected_time":531000000000,"state":"active","ping":90},{"user_id":70,"name":"Oniko","steam_id":76561198087703138,"connected_time":452000000000,"state":"active","ping":75}]},{"server_id":406,"name":"Uncletopia | Seattle | 3 | Stopwatch Beta","name_short":"sea-3","host":"sea-1.us.uncletopia.com","port":27035,"enabled":true,"region":"us-west","cc":"us","latitude":47.608013,"longitude":-122.33517,"reserved":0,"last_update":"0001-01-01T00:00:00Z","name_a2s":"Uncletopia | Seattle | 3 | Stopwatch Beta","protocol":17,"map":"pl_barnblitz","folder":"tf","game":"Team Fortress","app_id":440,"player_count":0,"max_players":24,"Bots":0,"server_type":"Dedicated","server_os":"Linux","password":true,"vac":true,"version":"7757534","steam_id":85568392924515217,"keywords":["nocrits","nodmgspread","payload","uncletopia"],"game_id":440,"stv_port":27036,"stv_name":"Uncletopia | Seattle | 3 | Stopwatch Beta | STV","players":null},{"server_id":17,"name":"Uncletopia | San Francisco | 1 | All Maps","name_short":"sfo-1","host":"sfo-1.us.uncletopia.com","port":27015,"enabled":true,"region":"us-west","cc":"us","latitude":37.77397,"longitude":-122.4313,"reserved":0,"last_update":"0001-01-01T00:00:00Z","name_a2s":"Uncletopia | San Francisco | 1 | All Maps","protocol":17,"map":"cp_process_final","folder":"tf","game":"Team Fortress","app_id":440,"player_count":0,"max_players":24,"Bots":0,"server_type":"Dedicated","server_os":"Linux","password":true,"vac":true,"version":"7757534","steam_id":85568392924469999,"keywords":["cp","nocrits","nodmgspread","uncletopia"],"game_id":440,"stv_port":27016,"stv_name":"Uncletopia | San Francisco | 1 | All Maps | STV","players":null},{"server_id":18,"name":"Uncletopia | San Francisco | 2 | All Maps","name_short":"sfo-2","host":"sfo-1.us.uncletopia.com","port":27025,"enabled":true,"region":"us-west","cc":"us","latitude":37.77397,"longitude":-122.4313,"reserved":0,"last_update":"0001-01-01T00:00:00Z","name_a2s":"Uncletopia | San Francisco | 2 | All Maps","protocol":17,"map":"cp_sunshine","folder":"tf","game":"Team Fortress","app_id":440,"player_count":0,"max_players":24,"Bots":0,"server_type":"Dedicated","server_os":"Linux","password":true,"vac":true,"version":"7757534","steam_id":85568392924470000,"keywords":["cp","nocrits","nodmgspread","uncletopia"],"game_id":440,"stv_port":27026,"stv_name":"Uncletopia | San Francisco | 2 | All Maps | STV","players":null},{"server_id":19,"name":"Uncletopia | San Francisco | 3 | Stopwatch Beta","name_short":"sfo-3","host":"sfo-1.us.uncletopia.com","port":27035,"enabled":true,"region":"us-west","cc":"us","latitude":37.77397,"longitude":-122.4313,"reserved":0,"last_update":"0001-01-01T00:00:00Z","name_a2s":"Uncletopia | San Francisco | 3 | Stopwatch Beta","protocol":17,"map":"pl_borneo","folder":"tf","game":"Team Fortress","app_id":440,"player_count":0,"max_players":24,"Bots":0,"server_type":"Dedicated","server_os":"Linux","password":true,"vac":true,"version":"7757534","steam_id":85568392924742824,"keywords":["nocrits","nodmgspread","payload","uncletopia"],"game_id":440,"stv_port":27036,"stv_name":"Uncletopia | San Francisco | 3 | Stopwatch Beta | STV","players":null},{"server_id":20,"name":"Uncletopia | San Francisco | 4 | Community","name_short":"sfo-4","host":"sfo-1.us.uncletopia.com","port":27045,"enabled":true,"region":"us-west","cc":"us","latitude":37.77397,"longitude":-122.4313,"reserved":0,"last_update":"0001-01-01T00:00:00Z","name_a2s":"Uncletopia | San Francisco | 4 | Community","protocol":17,"map":"koth_highpass","folder":"tf","game":"Team Fortress","app_id":440,"player_count":0,"max_players":24,"Bots":0,"server_type":"Dedicated","server_os":"Linux","password":true,"vac":true,"version":"7757534","steam_id":85568392924742826,"keywords":["cp","nocrits","nodmgspread","uncletopia"],"game_id":440,"stv_port":27046,"stv_name":"Uncletopia | San Francisco | 4 | Community | STV","players":null},{"server_id":141,"name":"Uncletopia | Sydney | 1 | All Maps","name_short":"syd-1","host":"syd-1.au.uncletopia.com","port":27015,"enabled":true,"region":"au","cc":"au","latitude":-33.865143,"longitude":151.2099,"reserved":0,"last_update":"0001-01-01T00:00:00Z","name_a2s":"Uncletopia | Sydney | 1 | All Maps","protocol":17,"map":"cp_mountainlab","folder":"tf","game":"Team Fortress","app_id":440,"player_count":0,"max_players":24,"Bots":0,"server_type":"Dedicated","server_os":"Linux","password":true,"vac":true,"version":"7757534","steam_id":85568392924470001,"keywords":["cp","nocrits","nodmgspread","uncletopia"],"game_id":440,"stv_port":27016,"stv_name":"Uncletopia | Sydney | 1 | All Maps | STV","players":null},{"server_id":123,"name":"Uncletopia | Sydney | 2 | All Maps","name_short":"syd-2","host":"syd-1.au.uncletopia.com","port":27025,"enabled":true,"region":"au","cc":"au","latitude":-33.865143,"longitude":151.2099,"reserved":0,"last_update":"0001-01-01T00:00:00Z","name_a2s":"Uncletopia | Sydney | 2 | All Maps","protocol":17,"map":"cp_sunshine","folder":"tf","game":"Team Fortress","app_id":440,"player_count":14,"max_players":24,"Bots":0,"server_type":"Dedicated","server_os":"Linux","password":true,"vac":true,"version":"7757534","steam_id":85568392924470002,"keywords":["cp","nocrits","nodmgspread","uncletopia"],"game_id":440,"stv_port":27026,"stv_name":"Uncletopia | Sydney | 2 | All Maps | STV","players":[{"user_id":545,"name":"Cock McBig Huge","steam_id":76561198400815024,"connected_time":815000000000,"state":"active","ping":282},{"user_id":510,"name":"SinisterMagnus","steam_id":76561198133867907,"connected_time":2860000000000,"state":"active","ping":67},{"user_id":550,"name":"69 fdrfckr 69","steam_id":76561199172620370,"connected_time":413000000000,"state":"active","ping":311},{"user_id":554,"name":"Fun Disliker","steam_id":76561198067733319,"connected_time":279000000000,"state":"active","ping":66},{"user_id":539,"name":"pyro webbon ·òõ‚ÅêÃ§·ïê·ê∑","steam_id":76561198061998379,"connected_time":1181000000000,"state":"active","ping":50},{"user_id":551,"name":"peanut","steam_id":76561198194693063,"connected_time":388000000000,"state":"active","ping":74},{"user_id":552,"name":"Pirividal","steam_id":76561198819950206,"connected_time":370000000000,"state":"active","ping":46},{"user_id":555,"name":"fr (humle)","steam_id":76561198299040854,"connected_time":211000000000,"state":"active","ping":292},{"user_id":520,"name":"modus","steam_id":76561198025099660,"connected_time":2446000000000,"state":"active","ping":30},{"user_id":480,"name":"campbell","steam_id":76561197982503303,"connected_time":4534000000000,"state":"active","ping":54},{"user_id":556,"name":"Fancy-Payne","steam_id":76561198079366874,"connected_time":196000000000,"state":"active","ping":269},{"user_id":498,"name":"saudi ambassador messi","steam_id":76561198031293430,"connected_time":3545000000000,"state":"active","ping":89},{"user_id":529,"name":"Courier","steam_id":76561198008866403,"connected_time":1875000000000,"state":"active","ping":91},{"user_id":503,"name":"Fleetfoot","steam_id":76561198072845816,"connected_time":3357000000000,"state":"active","ping":44}]},{"server_id":395,"name":"Uncletopia | Sydney | 3 | All Maps","name_short":"syd-3","host":"syd-1.au.uncletopia.com","port":27035,"enabled":true,"region":"au","cc":"au","latitude":-33.865143,"longitude":151.2099,"reserved":0,"last_update":"0001-01-01T00:00:00Z","name_a2s":"Uncletopia | Sydney | 3 | All Maps","protocol":17,"map":"pl_pier","folder":"tf","game":"Team Fortress","app_id":440,"player_count":0,"max_players":24,"Bots":0,"server_type":"Dedicated","server_os":"Linux","password":true,"vac":true,"version":"7757534","steam_id":85568392925194467,"keywords":["nocrits","nodmgspread","payload","uncletopia"],"game_id":440,"stv_port":27036,"stv_name":"Uncletopia | Sydney | 3 | All Maps | STV","players":null},{"server_id":396,"name":"Uncletopia | Sydney | 4 | All Maps","name_short":"syd-4","host":"syd-1.au.uncletopia.com","port":27045,"enabled":true,"region":"au","cc":"au","latitude":-33.865143,"longitude":151.2099,"reserved":0,"last_update":"0001-01-01T00:00:00Z","name_a2s":"Uncletopia | Sydney | 4 | All Maps","protocol":17,"map":"koth_cascade","folder":"tf","game":"Team Fortress","app_id":440,"player_count":0,"max_players":24,"Bots":0,"server_type":"Dedicated","server_os":"Linux","password":true,"vac":true,"version":"7757534","steam_id":85568392925397958,"keywords":["cp","nocrits","nodmgspread","uncletopia"],"game_id":440,"stv_port":27046,"stv_name":"Uncletopia | Sydney | 4 | All Maps | STV","players":null},{"server_id":58,"name":"Uncletopia | Sydney | 5 | Stopwatch Beta","name_short":"syd-5","host":"syd-1.au.uncletopia.com","port":27055,"enabled":true,"region":"au","cc":"au","latitude":-33.865143,"longitude":151.2099,"reserved":0,"last_update":"0001-01-01T00:00:00Z","name_a2s":"Uncletopia | Sydney | 5 | Stopwatch Beta","protocol":17,"map":"koth_highpass","folder":"tf","game":"Team Fortress","app_id":440,"player_count":0,"max_players":24,"Bots":0,"server_type":"Dedicated","server_os":"Linux","password":true,"vac":true,"version":"7757534","steam_id":85568392925397959,"keywords":["cp","nocrits","nodmgspread","uncletopia"],"game_id":440,"stv_port":27056,"stv_name":"Uncletopia | Sydney | 5 | Stopwatch Beta | STV","players":null},{"server_id":59,"name":"Uncletopia | Sydney | 6 | Community","name_short":"syd-6","host":"syd-1.au.uncletopia.com","port":27065,"enabled":true,"region":"au","cc":"au","latitude":-33.865143,"longitude":151.2099,"reserved":0,"last_update":"0001-01-01T00:00:00Z","name_a2s":"Uncletopia | Sydney | 6 | Community","protocol":17,"map":"workshop/koth_trenchfoot_b1a.ugc731436616","folder":"tf","game":"Team Fortress","app_id":440,"player_count":0,"max_players":24,"Bots":0,"server_type":"Dedicated","server_os":"Linux","password":true,"vac":true,"version":"7757534","steam_id":85568392925397960,"keywords":["cp","nocrits","nodmgspread","uncletopia"],"game_id":440,"stv_port":27066,"stv_name":"Uncletopia | Sydney | 6 | Community | STV","players":null},{"server_id":49,"name":"Uncletopia | Warsaw | 1 | All Maps","name_short":"waw-1","host":"waw-1.pl.uncletopia.com","port":27015,"enabled":true,"region":"eu","cc":"pl","latitude":52.2297,"longitude":21.017532,"reserved":0,"last_update":"0001-01-01T00:00:00Z","name_a2s":"","protocol":0,"map":"","folder":"","game":"","app_id":0,"player_count":0,"max_players":0,"Bots":0,"server_type":"","server_os":"","password":false,"vac":false,"version":"","steam_id":0,"keywords":null,"game_id":0,"stv_port":0,"stv_name":"","players":null},{"server_id":50,"name":"Uncletopia | Warsaw | 2 | All Maps","name_short":"waw-2","host":"waw-1.pl.uncletopia.com","port":27025,"enabled":true,"region":"eu","cc":"pl","latitude":52.2297,"longitude":21.017532,"reserved":0,"last_update":"0001-01-01T00:00:00Z","name_a2s":"Uncletopia | Warsaw | 2 | All Maps","protocol":17,"map":"cp_mountainlab","folder":"tf","game":"Team Fortress","app_id":440,"player_count":0,"max_players":24,"Bots":0,"server_type":"Dedicated","server_os":"Linux","password":true,"vac":true,"version":"7757534","steam_id":85568392925397851,"keywords":["cp","nocrits","nodmgspread","uncletopia"],"game_id":440,"stv_port":27026,"stv_name":"Uncletopia | Warsaw | 2 | All Maps | STV","players":null},{"server_id":51,"name":"Uncletopia | Warsaw | 3 | All Maps","name_short":"waw-3","host":"waw-1.pl.uncletopia.com","port":27035,"enabled":true,"region":"eu","cc":"pl","latitude":52.2297,"longitude":21.017532,"reserved":0,"last_update":"0001-01-01T00:00:00Z","name_a2s":"Uncletopia | Warsaw | 3 | All Maps","protocol":17,"map":"cp_snakewater_final1","folder":"tf","game":"Team Fortress","app_id":440,"player_count":0,"max_players":24,"Bots":0,"server_type":"Dedicated","server_os":"Linux","password":true,"vac":true,"version":"7757534","steam_id":85568392925397852,"keywords":["cp","nocrits","nodmgspread","uncletopia"],"game_id":440,"stv_port":27036,"stv_name":"Uncletopia | Warsaw | 3 | All Maps | STV","players":null},{"server_id":52,"name":"Uncletopia | Warsaw | 4 | All Maps","name_short":"waw-4","host":"waw-1.pl.uncletopia.com","port":27045,"enabled":true,"region":"eu","cc":"pl","latitude":52.2297,"longitude":21.017532,"reserved":0,"last_update":"0001-01-01T00:00:00Z","name_a2s":"Uncletopia | Warsaw | 4 | All Maps","protocol":17,"map":"pl_snowycoast","folder":"tf","game":"Team Fortress","app_id":440,"player_count":0,"max_players":24,"Bots":0,"server_type":"Dedicated","server_os":"Linux","password":true,"vac":true,"version":"7757534","steam_id":85568392925397853,"keywords":["nocrits","nodmgspread","payload","uncletopia"],"game_id":440,"stv_port":27046,"stv_name":"Uncletopia | Warsaw | 4 | All Maps | STV","players":null},{"server_id":53,"name":"Uncletopia | Warsaw | 5 | Stopwatch Beta","name_short":"waw-5","host":"waw-1.pl.uncletopia.com","port":27055,"enabled":true,"region":"eu","cc":"pl","latitude":52.2297,"longitude":21.017532,"reserved":0,"last_update":"0001-01-01T00:00:00Z","name_a2s":"Uncletopia | Warsaw | 5 | Stopwatch Beta","protocol":17,"map":"pl_barnblitz","folder":"tf","game":"Team Fortress","app_id":440,"player_count":0,"max_players":24,"Bots":0,"server_type":"Dedicated","server_os":"Linux","password":true,"vac":true,"version":"7757534","steam_id":85568392925397854,"keywords":["nocrits","nodmgspread","payload","uncletopia"],"game_id":440,"stv_port":27056,"stv_name":"Uncletopia | Warsaw | 5 | Stopwatch Beta | STV","players":null},{"server_id":54,"name":"Uncletopia | Warsaw | 6 | Community","name_short":"waw-6","host":"waw-1.pl.uncletopia.com","port":27065,"enabled":true,"region":"eu","cc":"pl","latitude":52.2297,"longitude":21.017532,"reserved":0,"last_update":"0001-01-01T00:00:00Z","name_a2s":"Uncletopia | Warsaw | 6 | Community","protocol":17,"map":"workshop/koth_trenchfoot_b1a.ugc731436616","folder":"tf","game":"Team Fortress","app_id":440,"player_count":0,"max_players":24,"Bots":0,"server_type":"Dedicated","server_os":"Linux","password":true,"vac":true,"version":"7757534","steam_id":85568392925397856,"keywords":["cp","nocrits","nodmgspread","uncletopia"],"game_id":440,"stv_port":27066,"stv_name":"Uncletopia | Warsaw | 6 | Community | STV","players":null}]}