{"status":true,"message":"","result":[{"server_id":9,"name":"Uncletopia | Atlanta | 1 | All Maps","name_short":"atl-1","host":"atl-1.us.uncletopia.com","port":27015,"enabled":true,"region":"us-east","cc":"us","latitude":33.753746,"longitude":-84.38633,"reserved":0,"last_update":"0001-01-01T00:00:00Z","name_a2s":"Uncletopia | Atlanta | 1 | All Maps","protocol":17,"map":"pl_badwater","folder":"tf","game":"Team Fortress","app_id":440,"player_count":1,"max_players":24,"Bots":0,"server_type":"Dedicated","server_os":"Linux","password":true,"vac":true,"version":"7757534","steam_id":85568392924469982,"keywords":["nocrits","nodmgspread","payload","uncletopia"],"game_id":440,"stv_port":27016,"stv_name":"Uncletopia | Atlanta | 1 | All Maps | STV","players":[{"user_id":22,"name":"Dillon Planter","steam_id":76561198118903188,"connected_time":124000000000,"state":"active","ping":67}]},{"server_id":104,"name":"Uncletopia | Atlanta | 2 | All Maps","name_short":"atl-2","host":"atl-1.us.uncletopia.com","port":27025,"enabled":true,"region":"us-east","cc":"us","latitude":33.753746,"longitude":-84.38633,"reserved":0,"last_update":"0001-01-01T00:00:00Z","name_a2s":"Uncletopia | Atlanta | 2 | All Maps","protocol":17,"map":"cp_dustbowl","folder":"tf","game":"Team Fortress","app_id":440,"player_count":0,"max_players":24,"Bots":0,"server_type":"Dedicated","server_os":"Linux","password":true,"vac":true,"version":"7757534","steam_id":85568392924469983,"keywords":["cp","nocrits","nodmgspread","uncletopia"],"game_id":440,"stv_port":27026,"stv_name":"Uncletopia | Atlanta | 2 | All Maps | STV","players":null},{"server_id":400,"name":"Uncletopia | Atlanta | 3 | Community","name_short":"atl-3","host":"atl-1.us.uncletopia.com","port":27035,"enabled":true,"region":"us-east","cc":"us","latitude":33.753746,"longitude":-84.38633,"reserved":0,"last_update":"0001-01-01T00:00:00Z","name_a2s":"Uncletopia | Atlanta | 3 | Community","protocol":17,"map":"cp_snakewater_final1","folder":"tf","game":"Team Fortress","app_id":440,"player_count":0,"max_players":24,"Bots":0,"server_type":"Dedicated","server_os":"Linux","password":true,"vac":true,"version":"7757534","steam_id":85568392924515187,"keywords":["cp","nocrits","nodmgspread","uncletopia"],"game_id":440,"stv_port":27036,"stv_name":"Uncletopia | Atlanta | 3 | Community | STV","players":null},{"server_id":401,"name":"Uncletopia | Atlanta | 4 | No Payload","name_short":"atl-4","host":"atl-1.us.uncletopia.com","port":27045,"enabled":true,"region":"us-east","cc":"us","latitude":33.753746,"longitude":-84.38633,"reserved":0,"last_update":"0001-01-01T00:00:00Z","name_a2s":"","protocol":0,"map":"","folder":"","game":"","app_id":0,"player_count":0,"max_players":0,"Bots":0,"server_type":"","server_os":"","password":false,"vac":false,"version":"","steam_id":0,"keywords":null,"game_id":0,"stv_port":0,"stv_name":"","players":null},{"server_id":2,"name":"Uncletopia | Chicago | 1 | All Maps","name_short":"chi-1","host":"chi-1.us.uncletopia.com","port":27015,"enabled":true,"region":"us-central","cc":"us","latitude":41.881832,"longitude":-87.62318,"reserved":0,"last_update":"0001-01-01T00:00:00Z","name_a2s":"Uncletopia | Chicago | 1 | All Maps","protocol":17,"map":"pl_borneo","folder":"tf","game":"Team Fortress","app_id":440,"player_count":21,"max_players":24,"Bots":0,"server_type":"Dedicated","server_os":"Linux","password":true,"vac":true,"version":"7757534","steam_id":85568392924469984,"keywords":["nocrits","nodmgspread","payload","uncletopia"],"game_id":440,"stv_port":27016,"stv_name":"Uncletopia | Chicago | 1 | All Maps | STV","players":[{"user_id":26,"name":"Gibby","steam_id":76561199336569123,"connected_time":2488000000000,"state":"active","ping":120},{"user_id":48,"name":"Cosmic Torgue","steam_id":76561198828724945,"connected_time":929000000000,"state":"active","ping":75},{"user_id":36,"name":"Mayor McCheese","steam_id":76561198055417680,"connected_time":1839000000000,"state":"active","ping":99},{"user_id":13,"name":"Niko from Oneshot (NO SOUND)","steam_id":76561198180020521,"connected_time":2955000000000,"state":"active","ping":111},{"user_id":37,"name":"Dat Boi","steam_id":76561198024552120,"connected_time":1825000000000,"state":"active","ping":70},{"user_id":16,"name":"LAzar M0Nke","steam_id":76561199083035892,"connected_time":2837000000000,"state":"active","ping":101},{"user_id":22,"name":"gob","steam_id":76561199182212668,"connected_time":2571000000000,"state":"active","ping":71},{"user_id":53,"name":"spycel","steam_id":76561198083700067,"connected_time":294000000000,"state":"active","ping":74},{"user_id":31,"name":"Snuggle","steam_id":76561198157674938,"connected_time":2073000000000,"state":"active","ping":60},{"user_id":55,"name":"'LaxAttack","steam_id":76561198044129346,"connected_time":148000000000,"state":"active","ping":68},{"user_id":25,"name":"sxcret sxciety","steam_id":76561198044856349,"connected_time":2502000000000,"state":"active","ping":45},{"user_id":54,"name":"your local forecast","steam_id":76561198042243083,"connected_time":259000000000,"state":"active","ping":60},{"user_id":29,"name":"magickxanadu","steam_id":76561199117360103,"connected_time":2236000000000,"state":"active","ping":82},{"user_id":41,"name":"flange","steam_id":76561198040182692,"connected_time":1778000000000,"state":"active","ping":124},{"user_id":44,"name":"kallerannar","steam_id":76561199095701143,"connected_time":1671000000000,"state":"active","ping":159},{"user_id":56,"name":"Don't Fuckle with Shuckle","steam_id":76561199020102367,"connected_time":122000000000,"state":"active","ping":82},{"user_id":35,"name":"skunk","steam_id":76561198204915631,"connected_time":2034000000000,"state":"active","ping":84},{"user_id":38,"name":"Your Dog","steam_id":76561199020749449,"connected_time":1825000000000,"state":"active","ping":69},{"user_id":51,"name":"Highphin","steam_id":76561198986584680,"connected_time":490000000000,"state":"active","ping":56},{"user_id":40,"name":"Omega\"Hell's Wall\"EXE","steam_id":76561198395291970,"connected_time":1807000000000,"state":"active","ping":105},{"user_id":42,"name":"El Bondin","steam_id":76561198820792434,"connected_time":1764000000000,"state":"active","ping":98}]},{"server_id":106,"name":"Uncletopia | Chicago | 2 | All Maps","name_short":"chi-2","host":"chi-1.us.uncletopia.com","port":27025,"enabled":true,"region":"us-central","cc":"us","latitude":41.881832,"longitude":-87.62318,"reserved":0,"last_update":"0001-01-01T00:00:00Z","name_a2s":"Uncletopia | Chicago | 2 | All Maps","protocol":17,"map":"cp_dustbowl","folder":"tf","game":"Team Fortress","app_id":440,"player_count":24,"max_players":24,"Bots":0,"server_type":"Dedicated","server_os":"Linux","password":true,"vac":true,"version":"7757534","steam_id":85568392924469985,"keywords":["cp","nocrits","nodmgspread","uncletopia"],"game_id":440,"stv_port":27026,"stv_name":"Uncletopia | Chicago | 2 | All Maps | STV","players":[{"user_id":171,"name":"Sectus","steam_id":76561198034616577,"connected_time":3165000000000,"state":"active","ping":47},{"user_id":169,"name":"upside down cat","steam_id":76561198028288349,"connected_time":3382000000000,"state":"active","ping":82},{"user_id":200,"name":"tyg","steam_id":76561198056246867,"connected_time":108000000000,"state":"active","ping":65},{"user_id":6,"name":"creepycrawler","steam_id":76561198352016831,"connected_time":11661000000000,"state":"active","ping":59},{"user_id":191,"name":"mari_","steam_id":76561198137855741,"connected_time":1073000000000,"state":"active","ping":46},{"user_id":183,"name":"Hotdog Goblin","steam_id":76561198004133638,"connected_time":1394000000000,"state":"active","ping":88},{"user_id":192,"name":"Obelisk","steam_id":76561198049416866,"connected_time":992000000000,"state":"active","ping":82},{"user_id":193,"name":"zzzz","steam_id":76561199413388036,"connected_time":974000000000,"state":"active","ping":116},{"user_id":11,"name":"Marge \"ZaZa\" Simpson","steam_id":76561198156496197,"connected_time":11652000000000,"state":"active","ping":51},{"user_id":155,"name":"jhatzy","steam_id":76561198853607142,"connected_time":5229000000000,"state":"active","ping":72},{"user_id":188,"name":"Eosson","steam_id":76561198108642113,"connected_time":1235000000000,"state":"active","ping":59},{"user_id":177,"name":".jpegged","steam_id":76561198120078454,"connected_time":2233000000000,"state":"active","ping":75},{"user_id":187,"name":"Nassu","steam_id":76561198147367577,"connected_time":1323000000000,"state":"active","ping":62},{"user_id":189,"name":"dmlookinviolent","steam_id":76561198125863174,"connected_time":1173000000000,"state":"active","ping":73},{"user_id":194,"name":"Spacey","steam_id":76561198127335850,"connected_time":959000000000,"state":"active","ping":97},{"user_id":156,"name":"gl1tchr","steam_id":76561198302661983,"connected_time":5216000000000,"state":"active","ping":76},{"user_id":145,"name":"Your Local Queer Librarian","steam_id":76561198013077080,"connected_time":5870000000000,"state":"active","ping":63},{"user_id":198,"name":"amby","steam_id":76561198143569935,"connected_time":742000000000,"state":"active","ping":96},{"user_id":203,"name":"Ark","steam_id":76561198053000340,"connected_time":4000000000,"state":"spawning","ping":44},{"user_id":199,"name":"Kurt Biscuitmaker","steam_id":76561198331701823,"connected_time":736000000000,"state":"active","ping":82},{"user_id":163,"name":"VividDragon","steam_id":76561198050659285,"connected_time":4187000000000,"state":"active","ping":63},{"user_id":170,"name":"Fangirl (deck gaming)","steam_id":76561198253710690,"connected_time":3182000000000,"state":"active","ping":98},{"user_id":173,"name":"Mads","steam_id":76561198126137797,"connected_time":2766000000000,"state":"active","ping":95},{"user_id":201,"name":"bunceian","steam_id":76561198975662918,"connected_time":47000000000,"state":"active","ping":108}]},{"server_id":402,"name":"Uncletopia | Chicago | 3 | All Maps","name_short":"chi-3","host":"chi-1.us.uncletopia.com","port":27035,"enabled":true,"region":"us-central","cc":"us","latitude":41.881832,"longitude":-87.62318,"reserved":0,"last_update":"0001-01-01T00:00:00Z","name_a2s":"Uncletopia | Chicago | 3 | All Maps","protocol":17,"map":"koth_lakeside_final","folder":"tf","game":"Team Fortress","app_id":440,"player_count":3,"max_players":24,"Bots":0,"server_type":"Dedicated","server_os":"Linux","password":true,"vac":true,"version":"7757534","steam_id":85568392924515191,"keywords":["cp","nocrits","nodmgspread","uncletopia"],"game_id":440,"stv_port":27036,"stv_name":"Uncletopia | Chicago | 3 | All Maps | STV","players":[{"user_id":13,"name":"ChubbinsMothYT","steam_id":76561198999215730,"connected_time":434000000000,"state":"active","ping":71},{"user_id":15,"name":"CrackedSanity","steam_id":76561198279841251,"connected_time":216000000000,"state":"active","ping":86},{"user_id":10,"name":"theRainyMute","steam_id":76561198127625760,"connected_time":1593000000000,"state":"active","ping":56}]},{"server_id":403,"name":"Uncletopia | Chicago | 4 | All Maps","name_short":"chi-4","host":"chi-1.us.uncletopia.com","port":27045,"enabled":true,"region":"us-central","cc":"us","latitude":41.881832,"longitude":-87.62318,"reserved":0,"last_update":"0001-01-01T00:00:00Z","name_a2s":"Uncletopia | Chicago | 4 | All Maps","protocol":17,"map":"koth_lakeside_final","folder":"tf","game":"Team Fortress","app_id":440,"player_count":0,"max_players":24,"Bots":0,"server_type":"Dedicated","server_os":"Linux","password":true,"vac":true,"version":"7757534","steam_id":85568392924515193,"keywords":["cp","nocrits","nodmgspread","uncletopia"],"game_id":440,"stv_port":27046,"stv_name":"Uncletopia | Chicago | 4 | All Maps | STV","players":null},{"server_id":36,"name":"Uncletopia | Chicago | 5 | All Maps","name_short":"chi-5","host":"chi-2.us.uncletopia.com","port":27015,"enabled":true,"region":"us-central","cc":"us","latitude":41.881832,"longitude":-87.62318,"reserved":0,"last_update":"0001-01-01T00:00:00Z","name_a2s":"Uncletopia | Chicago | 5 | All Maps","protocol":17,"map":"koth_cascade","folder":"tf","game":"Team Fortress","app_id":440,"player_count":0,"max_players":24,"Bots":0,"server_type":"Dedicated","server_os":"Linux","password":true,"vac":true,"version":"7757534","steam_id":85568392924866362,"keywords":["cp","nocrits","nodmgspread","uncletopia"],"game_id":440,"stv_port":27016,"stv_name":"Uncletopia | Chicago | 5 | All Maps | STV","players":null},{"server_id":37,"name":"Uncletopia | Chicago | 6 | All Maps","name_short":"chi-6","host":"chi-2.us.uncletopia.com","port":27025,"enabled":true,"region":"us-central","cc":"us","latitude":41.881832,"longitude":-87.62318,"reserved":0,"last_update":"0001-01-01T00:00:00Z","name_a2s":"Uncletopia | Chicago | 6 | All Maps","protocol":17,"map":"pl_borneo","folder":"tf","game":"Team Fortress","app_id":440,"player_count":0,"max_players":24,"Bots":0,"server_type":"Dedicated","server_os":"Linux","password":true,"vac":true,"version":"7757534","steam_id":85568392924866363,"keywords":["nocrits","nodmgspread","payload","uncletopia"],"game_id":440,"stv_port":27026,"stv_name":"Uncletopia | Chicago | 6 | All Maps | STV","players":null},{"server_id":38,"name":"Uncletopia | Chicago | 7 | Stopwatch Beta","name_short":"chi-7","host":"chi-2.us.uncletopia.com","port":27035,"enabled":true,"region":"us-central","cc":"us","latitude":41.881832,"longitude":-87.62318,"reserved":0,"last_update":"0001-01-01T00:00:00Z","name_a2s":"Uncletopia | Chicago | 7 | Stopwatch Beta","protocol":17,"map":"pl_barnblitz","folder":"tf","game":"Team Fortress","app_id":440,"player_count":0,"max_players":24,"Bots":0,"server_type":"Dedicated","server_os":"Linux","password":true,"vac":true,"version":"7757534","steam_id":85568392924866364,"keywords":["nocrits","nodmgspread","payload","uncletopia"],"game_id":440,"stv_port":27036,"stv_name":"Uncletopia | Chicago | 7 | Stopwatch Beta | STV","players":null},{"server_id":39,"name":"Uncletopia | Chicago | 8 | Community","name_short":"chi-8","host":"chi-2.us.uncletopia.com","port":27045,"enabled":true,"region":"us-central","cc":"us","latitude":41.881832,"longitude":-87.62318,"reserved":0,"last_update":"0001-01-01T00:00:00Z","name_a2s":"Uncletopia | Chicago | 8 | Community","protocol":17,"map":"koth_cascade","folder":"tf","game":"Team Fortress","app_id":440,"player_count":0,"max_players":24,"Bots":0,"server_type":"Dedicated","server_os":"Linux","password":true,"vac":true,"version":"7757534","steam_id":85568392924866365,"keywords":["cp","nocrits","nodmgspread","uncletopia"],"game_id":440,"stv_port":27046,"stv_name":"Uncletopia | Chicago | 8 | Community | STV","players":null},{"server_id":8,"name":"Uncletopia | Dallas | 1 | All Maps","name_short":"dal-1","host":"dal-1.us.uncletopia.com","port":27015,"enabled":true,"region":"us-central","cc":"us","latitude":32.779167,"longitude":-96.80889,"reserved":0,"last_update":"0001-01-01T00:00:00Z","name_a2s":"Uncletopia | Dallas | 1 | All Maps","protocol":17,"map":"pl_swiftwater_final1","folder":"tf","game":"Team Fortress","app_id":440,"player_count":24,"max_players":24,"Bots":0,"server_type":"Dedicated","server_os":"Linux","password":true,"vac":true,"version":"7757534","steam_id":85568392924469986,"keywords":["nocrits","nodmgspread","payload","uncletopia"],"game_id":440,"stv_port":27016,"stv_name":"Uncletopia | Dallas | 1 | All Maps | STV","players":[{"user_id":69,"name":"deb","steam_id":76561198414336279,"connected_time":7034000000000,"state":"active","ping":52},{"user_id":106,"name":"viv","steam_id":76561198975527343,"connected_time":5000000000000,"state":"active","ping":57},{"user_id":158,"name":"PaC","steam_id":76561198081053203,"connected_time":1319000000000,"state":"active","ping":112},{"user_id":161,"name":"Toe Pics","steam_id":76561198991800880,"connected_time":811000000000,"state":"active","ping":87},{"user_id":114,"name":"Troyer","steam_id":76561198038005881,"connected_time":4695000000000,"state":"active","ping":61},{"user_id":149,"name":"Element","steam_id":76561198079332317,"connected_time":2285000000000,"state":"active","ping":87},{"user_id":170,"name":"sqgly","steam_id":76561198105508955,"connected_time":201000000000,"state":"active","ping":72},{"user_id":103,"name":"LumaDooma","steam_id":76561198076875817,"connected_time":5302000000000,"state":"active","ping":46},{"user_id":155,"name":"boiled egg","steam_id":76561198983261117,"connected_time":1681000000000,"state":"active","ping":87},{"user_id":169,"name":"TheBlackCoviXIX","steam_id":76561198945634931,"connected_time":223000000000,"state":"active","ping":68},{"user_id":138,"name":"SeaBass","steam_id":76561197982949108,"connected_time":3072000000000,"state":"active","ping":78},{"user_id":29,"name":"Rat_king","steam_id":76561199465689129,"connected_time":9497000000000,"state":"active","ping":53},{"user_id":30,"name":"⚢","steam_id":76561199117637890,"connected_time":9474000000000,"state":"active","ping":73},{"user_id":164,"name":"Critical","steam_id":76561198123744966,"connected_time":476000000000,"state":"active","ping":91},{"user_id":168,"name":"floofy","steam_id":76561198389769098,"connected_time":234000000000,"state":"active","ping":84},{"user_id":153,"name":"Pvt. Prinny Xerxes","steam_id":76561198089132722,"connected_time":1826000000000,"state":"active","ping":77},{"user_id":144,"name":"TTV/ChadMorningWood","steam_id":76561198139832291,"connected_time":2485000000000,"state":"active","ping":64},{"user_id":150,"name":"mrselfdestruct13","steam_id":76561197992054553,"connected_time":2279000000000,"state":"active","ping":73},{"user_id":166,"name":"Lotusberry","steam_id":76561198058506867,"connected_time":250000000000,"state":"active","ping":102},{"user_id":167,"name":"Biggles","steam_id":76561198126576389,"connected_time":247000000000,"state":"active","ping":86},{"user_id":165,"name":"Demoman With One Joke","steam_id":76561197993467034,"connected_time":436000000000,"state":"active","ping":75},{"user_id":157,"name":"Good Dog Carl","steam_id":76561198026574153,"connected_time":1366000000000,"state":"active","ping":62},{"user_id":154,"name":"私は不正行為をしてい","steam_id":76561199465653959,"connected_time":1823000000000,"state":"active","ping":144},{"user_id":156,"name":"Mint Jelly","steam_id":76561197991286751,"connected_time":1650000000000,"state":"active","ping":60}]},{"server_id":108,"name":"Uncletopia | Dallas | 2 | All Maps","name_short":"dal-2","host":"dal-1.us.uncletopia.com","port":27025,"enabled":true,"region":"us-central","cc":"us","latitude":32.779167,"longitude":-96.80889,"reserved":0,"last_update":"0001-01-01T00:00:00Z","name_a2s":"Uncletopia | Dallas | 2 | All Maps","protocol":17,"map":"pl_upward","folder":"tf","game":"Team Fortress","app_id":440,"player_count":0,"max_players":24,"Bots":0,"server_type":"Dedicated","server_os":"Linux","password":true,"vac":true,"version":"7757534","steam_id":85568392924469988,"keywords":["nocrits","nodmgspread","payload","uncletopia"],"game_id":440,"stv_port":27026,"stv_name":"Uncletopia | Dallas | 2 | All Maps | STV","players":null},{"server_id":5,"name":"Uncletopia | Frankfurt | 1 | All Maps","name_short":"frk-1","host":"frk-1.de.uncletopia.com","port":27015,"enabled":true,"region":"eu","cc":"de","latitude":50.110924,"longitude":8.682127,"reserved":0,"last_update":"0001-01-01T00:00:00Z","name_a2s":"Uncletopia | Frankfurt | 1 | All Maps","protocol":17,"map":"pl_badwater","folder":"tf","game":"Team Fortress","app_id":440,"player_count":22,"max_players":24,"Bots":0,"server_type":"Dedicated","server_os":"Linux","password":true,"vac":true,"version":"7757534","steam_id":85568392924469989,"keywords":["nocrits","nodmgspread","payload","uncletopia"],"game_id":440,"stv_port":27016,"stv_name":"Uncletopia | Frankfurt | 1 | All Maps | STV","players":[{"user_id":590,"name":"Animatic","steam_id":76561198186421601,"connected_time":244000000000,"state":"active","ping":175},{"user_id":599,"name":"LordTrap.exe","steam_id":76561198318089716,"connected_time":14000000000,"state":"active","ping":60},{"user_id":570,"name":"Shapey","steam_id":76561198993576217,"connected_time":1347000000000,"state":"active","ping":110},{"user_id":575,"name":"Digio","steam_id":76561199065101964,"connected_time":1009000000000,"state":"active","ping":91},{"user_id":577,"name":"icebro","steam_id":76561199123450840,"connected_time":921000000000,"state":"active","ping":85},{"user_id":578,"name":"Chillipapricka","steam_id":76561198886660112,"connected_time":913000000000,"state":"active","ping":66},{"user_id":580,"name":"Jason Gaming","steam_id":76561198215467601,"connected_time":696000000000,"state":"active","ping":159},{"user_id":589,"name":"pan","steam_id":76561198829879412,"connected_time":416000000000,"state":"active","ping":56},{"user_id":592,"name":"lol","steam_id":76561198104438656,"connected_time":157000000000,"state":"active","ping":60},{"user_id":582,"name":"G8ter16","steam_id":76561198397163021,"connected_time":675000000000,"state":"active","ping":162},{"user_id":583,"name":"-rikeOo-","steam_id":76561198303995379,"connected_time":671000000000,"state":"active","ping":69},{"user_id":563,"name":"Ablativus","steam_id":76561198025698470,"connected_time":2490000000000,"state":"active","ping":73},{"user_id":489,"name":"sunshine (he/him)","steam_id":76561198084597975,"connected_time":7936000000000,"state":"active","ping":67},{"user_id":584,"name":"Hyperek","steam_id":76561198130797464,"connected_time":621000000000,"state":"active","ping":76},{"user_id":593,"name":"kyuta","steam_id":76561198382281653,"connected_time":91000000000,"state":"active","ping":82},{"user_id":594,"name":"jan09102004","steam_id":76561198445458615,"connected_time":52000000000,"state":"active","ping":82},{"user_id":509,"name":"Enigma","steam_id":76561198035401717,"connected_time":6868000000000,"state":"active","ping":55},{"user_id":586,"name":"Better Call Medic","steam_id":76561198939711234,"connected_time":579000000000,"state":"active","ping":114},{"user_id":595,"name":"CoreTaviy","steam_id":76561199209053097,"connected_time":50000000000,"state":"active","ping":93},{"user_id":596,"name":"prof. Hellfire","steam_id":76561198254030118,"connected_time":46000000000,"state":"active","ping":45},{"user_id":597,"name":"medicinal man","steam_id":76561198202668788,"connected_time":36000000000,"state":"spawning","ping":61},{"user_id":598,"name":"Arpazha","steam_id":76561199072257230,"connected_time":36000000000,"state":"active","ping":343}]},{"server_id":110,"name":"Uncletopia | Frankfurt | 2 | All Maps","name_short":"frk-2","host":"frk-1.de.uncletopia.com","port":27025,"enabled":true,"region":"eu","cc":"de","latitude":50.110924,"longitude":8.682127,"reserved":0,"last_update":"0001-01-01T00:00:00Z","name_a2s":"Uncletopia | Frankfurt | 2 | All Maps","protocol":17,"map":"koth_highpass","folder":"tf","game":"Team Fortress","app_id":440,"player_count":9,"max_players":24,"Bots":0,"server_type":"Dedicated","server_os":"Linux","password":true,"vac":true,"version":"7757534","steam_id":85568392924469990,"keywords":["cp","nocrits","nodmgspread","uncletopia"],"game_id":440,"stv_port":27026,"stv_name":"Uncletopia | Frankfurt | 2 | All Maps | STV","players":[{"user_id":206,"name":"Zadrot.97","steam_id":76561199405821180,"connected_time":757000000000,"state":"active","ping":109},{"user_id":124,"name":"A stripper","steam_id":76561198034865891,"connected_time":7477000000000,"state":"active","ping":57},{"user_id":211,"name":"Artyom","steam_id":76561198394565513,"connected_time":223000000000,"state":"active","ping":45},{"user_id":202,"name":"Vitamin Weee","steam_id":76561199183937747,"connected_time":1194000000000,"state":"active","ping":84},{"user_id":210,"name":"WW3 Enjoyer","steam_id":76561198042593027,"connected_time":316000000000,"state":"active","ping":82},{"user_id":213,"name":"Francisco","steam_id":76561198074614581,"connected_time":134000000000,"state":"active","ping":79},{"user_id":99,"name":"Cleander","steam_id":76561198262207332,"connected_time":8810000000000,"state":"active","ping":43},{"user_id":128,"name":"nykubby","steam_id":76561198146720524,"connected_time":7141000000000,"state":"active","ping":57},{"user_id":205,"name":"QQ","steam_id":76561198095560087,"connected_time":903000000000,"state":"active","ping":61}]},{"server_id":308,"name":"Uncletopia | Frankfurt | 3 | All Maps","name_short":"frk-3","host":"frk-1.de.uncletopia.com","port":27035,"enabled":true,"region":"eu","cc":"de","latitude":50.110924,"longitude":8.682127,"reserved":0,"last_update":"0001-01-01T00:00:00Z","name_a2s":"Uncletopia | Frankfurt | 3 | All Maps","protocol":17,"map":"pl_snowycoast","folder":"tf","game":"Team Fortress","app_id":440,"player_count":24,"max_players":24,"Bots":0,"server_type":"Dedicated","server_os":"Linux","password":true,"vac":true,"version":"7757534","steam_id":85568392924504274,"keywords":["nocrits","nodmgspread","payload","uncletopia"],"game_id":440,"stv_port":27036,"stv_name":"Uncletopia | Frankfurt | 3 | All Maps | STV","players":[{"user_id":8,"name":"Shi 死","steam_id":76561199214163032,"connected_time":3289000000000,"state":"active","ping":93},{"user_id":64,"name":"Gearless","steam_id":76561198362367074,"connected_time":557000000000,"state":"active","ping":83},{"user_id":67,"name":"Marky","steam_id":76561199474556920,"connected_time":478000000000,"state":"active","ping":92},{"user_id":62,"name":"not very キターン of you","steam_id":76561198295305088,"connected_time":628000000000,"state":"active","ping":48},{"user_id":52,"name":"Absolute_clamp","steam_id":76561198958563865,"connected_time":1196000000000,"state":"active","ping":46},{"user_id":59,"name":"Cookies and Bakies","steam_id":76561198017442928,"connected_time":957000000000,"state":"active","ping":65},{"user_id":68,"name":"SCRAMMMBLED","steam_id":76561197998307746,"connected_time":477000000000,"state":"active","ping":60},{"user_id":65,"name":"no1-","steam_id":76561198067524060,"connected_time":531000000000,"state":"active","ping":99},{"user_id":49,"name":"Nibbenji2077","steam_id":76561199219663655,"connected_time":1343000000000,"state":"active","ping":128},{"user_id":71,"name":"Caliban","steam_id":76561197999696839,"connected_time":318000000000,"state":"active","ping":104},{"user_id":69,"name":"Honk","steam_id":76561199208487995,"connected_time":417000000000,"state":"active","ping":187},{"user_id":70,"name":"-SL- Jeb Bush Liberation Army","steam_id":76561198046050045,"connected_time":403000000000,"state":"active","ping":131},{"user_id":72,"name":"waifu haram","steam_id":76561198308364368,"connected_time":309000000000,"state":"active","ping":171},{"user_id":74,"name":"RubyTheUnicorn","steam_id":76561198091772218,"connected_time":206000000000,"state":"active","ping":60},{"user_id":60,"name":"Thomas_Is_Ready","steam_id":76561199072059059,"connected_time":738000000000,"state":"active","ping":60},{"user_id":55,"name":"GoudAI","steam_id":76561198103391197,"connected_time":1154000000000,"state":"active","ping":91},{"user_id":33,"name":"Криминальный уще","steam_id":76561198034136409,"connected_time":2084000000000,"state":"active","ping":93},{"user_id":57,"name":"Rad","steam_id":76561198001101843,"connected_time":1075000000000,"state":"active","ping":62},{"user_id":35,"name":"EL BICHO","steam_id":76561198146112263,"connected_time":2057000000000,"state":"active","ping":86},{"user_id":73,"name":"wake me up before you go-go","steam_id":76561198179324075,"connected_time":262000000000,"state":"active","ping":73},{"user_id":56,"name":"LemonLeCitron","steam_id":76561198215545267,"connected_time":1088000000000,"state":"active","ping":75},{"user_id":38,"name":"Kurage","steam_id":76561198021221288,"connected_time":2030000000000,"state":"active","ping":61},{"user_id":61,"name":"Tioghi","steam_id":76561199210186788,"connected_time":728000000000,"state":"active","ping":62},{"user_id":41,"name":"you know what its like?","steam_id":76561198107220903,"connected_time":2016000000000,"state":"active","ping":54}]},{"server_id":309,"name":"Uncletopia | Frankfurt | 4 | All Maps","name_short":"frk-4","host":"frk-1.de.uncletopia.com","port":27045,"enabled":true,"region":"eu","cc":"de","latitude":50.110924,"longitude":8.682127,"reserved":0,"last_update":"0001-01-01T00:00:00Z","name_a2s":"Uncletopia | Frankfurt | 4 | All Maps","protocol":17,"map":"koth_viaduct","folder":"tf","game":"Team Fortress","app_id":440,"player_count":0,"max_players":24,"Bots":0,"server_type":"Dedicated","server_os":"Linux","password":true,"vac":true,"version":"7757534","steam_id":85568392924504275,"keywords":["cp","nocrits","nodmgspread","uncletopia"],"game_id":440,"stv_port":27046,"stv_name":"Uncletopia | Frankfurt | 4 | All Maps | STV","players":null},{"server_id":310,"name":"Uncletopia | Frankfurt | 5 | All Maps","name_short":"frk-5","host":"frk-1.de.uncletopia.com","port":27055,"enabled":true,"region":"eu","cc":"de","latitude":50.110924,"longitude":8.682127,"reserved":0,"last_update":"0001-01-01T00:00:00Z","name_a2s":"Uncletopia | Frankfurt | 5 | All Maps","protocol":17,"map":"koth_lakeside_final","folder":"tf","game":"Team Fortress","app_id":440,"player_count":3,"max_players":24,"Bots":0,"server_type":"Dedicated","server_os":"Linux","password":true,"vac":true,"version":"7757534","steam_id":85568392924504277,"keywords":["cp","nocrits","nodmgspread","uncletopia"],"game_id":440,"stv_port":27056,"stv_name":"Uncletopia | Frankfurt | 5 | All Maps | STV","players":[{"user_id":9,"name":"tummaluppo taivaltaja","steam_id":76561198093458326,"connected_time":2314000000000,"state":"active","ping":45},{"user_id":14,"name":"FanFish","steam_id":76561199389558024,"connected_time":1410000000000,"state":"active","ping":62},{"user_id":15,"name":"Truegr","steam_id":76561198811912339,"connected_time":846000000000,"state":"active","ping":66}]},{"server_id":311,"name":"Uncletopia | Frankfurt | 6 | All Maps","name_short":"frk-6","host":"frk-1.de.uncletopia.com","port":27065,"enabled":true,"region":"eu","cc":"de","latitude":50.110924,"longitude":8.682127,"reserved":0,"last_update":"0001-01-01T00:00:00Z","name_a2s":"Uncletopia | Frankfurt | 6 | All Maps","protocol":17,"map":"cp_powerhouse","folder":"tf","game":"Team Fortress","app_id":440,"player_count":23,"max_players":24,"Bots":0,"server_type":"Dedicated","server_os":"Linux","password":true,"vac":true,"version":"7757534","steam_id":85568392924504278,"keywords":["cp","nocrits","nodmgspread","uncletopia"],"game_id":440,"stv_port":27066,"stv_name":"Uncletopia | Frankfurt | 6 | All Maps | STV","players":[{"user_id":68,"name":"BFF Dzerky","steam_id":76561199022604955,"connected_time":7185000000000,"state":"active","ping":59},{"user_id":177,"name":"Morpheus","steam_id":76561198208349835,"connected_time":854000000000,"state":"active","ping":76},{"user_id":164,"name":"Avast AntiPony 9445","steam_id":76561197992046533,"connected_time":1724000000000,"state":"active","ping":45},{"user_id":179,"name":"Small NULL-terminated humifier","steam_id":76561199441603388,"connected_time":491000000000,"state":"active","ping":97},{"user_id":161,"name":"MaverickRat","steam_id":76561198015725185,"connected_time":1950000000000,"state":"active","ping":89},{"user_id":176,"name":"Brinier","steam_id":76561199012604288,"connected_time":988000000000,"state":"active","ping":87},{"user_id":163,"name":"brokenphilip","steam_id":76561198080960604,"connected_time":1829000000000,"state":"active","ping":68},{"user_id":165,"name":"Falco","steam_id":76561199061187430,"connected_time":1712000000000,"state":"active","ping":45},{"user_id":181,"name":"THE the","steam_id":76561198058012525,"connected_time":299000000000,"state":"active","ping":66},{"user_id":137,"name":"syndenz","steam_id":76561198176063813,"connected_time":3093000000000,"state":"active","ping":60},{"user_id":172,"name":"Le Pingas","steam_id":76561198338585855,"connected_time":1209000000000,"state":"active","ping":76},{"user_id":173,"name":"Johnny [Shellz]","steam_id":76561198043743026,"connected_time":1201000000000,"state":"active","ping":64},{"user_id":129,"name":"Sarah Obama Michella","steam_id":76561198078996559,"connected_time":3498000000000,"state":"active","ping":74},{"user_id":144,"name":"OTTOMAN PIRATE","steam_id":76561198344358754,"connected_time":2831000000000,"state":"active","ping":71},{"user_id":145,"name":"V-Hades","steam_id":76561198351193229,"connected_time":2816000000000,"state":"active","ping":54},{"user_id":160,"name":"Constant K","steam_id":76561198037276390,"connected_time":1972000000000,"state":"active","ping":71},{"user_id":157,"name":"il","steam_id":76561198122662610,"connected_time":2244000000000,"state":"active","ping":77},{"user_id":151,"name":"B4R10N","steam_id":76561198047167954,"connected_time":2482000000000,"state":"active","ping":52},{"user_id":169,"name":"I am piss man","steam_id":76561198039209685,"connected_time":1412000000000,"state":"active","ping":63},{"user_id":170,"name":"Catra","steam_id":76561198077745407,"connected_time":1411000000000,"state":"active","ping":69},{"user_id":117,"name":"ZingyBot_","steam_id":76561198284732624,"connected_time":4266000000000,"state":"active","ping":72},{"user_id":174,"name":"TKN_Paps997","steam_id":76561198419868465,"connected_time":1172000000000,"state":"active","ping":86},{"user_id":178,"name":"Labial","steam_id":76561198385163046,"connected_time":793000000000,"state":"active","ping":51}]},{"server_id":23,"name":"Uncletopia | Frankfurt | 7 | Stopwatch Beta","name_short":"frk-7","host":"frk-1.de.uncletopia.com","port":27075,"enabled":true,"region":"eu","cc":"de","latitude":50.110924,"longitude":8.682127,"reserved":0,"last_update":"0001-01-01T00:00:00Z","name_a2s":"Uncletopia | Frankfurt | 7 | Stopwatch Beta","protocol":17,"map":"workshop/koth_ramjam_rc1.ugc459778887","folder":"tf","game":"Team Fortress","app_id":440,"player_count":0,"max_players":24,"Bots":0,"server_type":"Dedicated","server_os":"Linux","password":true,"vac":true,"version":"7757534","steam_id":85568392924742827,"keywords":["cp","nocrits","nodmgspread","uncletopia"],"game_id":440,"stv_port":27076,"stv_name":"Uncletopia | Frankfurt | 7 | Stopwatch Beta | STV","players":null},{"server_id":24,"name":"Uncletopia | Frankfurt | 8 | Community","name_short":"frk-8","host":"frk-1.de.uncletopia.com","port":27085,"enabled":true,"region":"eu","cc":"de","latitude":50.110924,"longitude":8.682127,"reserved":0,"last_update":"0001-01-01T00:00:00Z","name_a2s":"Uncletopia | Frankfurt | 8 | Community","protocol":17,"map":"koth_lakeside_final","folder":"tf","game":"Team Fortress","app_id":440,"player_count":0,"max_players":24,"Bots":0,"server_type":"Dedicated","server_os":"Linux","password":true,"vac":true,"version":"7757534","steam_id":85568392924742828,"keywords":["cp","nocrits","nodmgspread","uncletopia"],"game_id":440,"stv_port":27086,"stv_name":"Uncletopia | Frankfurt | 8 | Community | STV","players":null},{"server_id":202,"name":"Uncletopia | Hong Kong | 1 | All Maps","name_short":"hgk-1","host":"hgk-1.hk.uncletopia.com","port":27015,"enabled":true,"region":"asia","cc":"hk","latitude":22.302711,"longitude":114.177216,"reserved":0,"last_update":"0001-01-01T00:00:00Z","name_a2s":"Uncletopia | Hong Kong | 1 | All Maps","protocol":17,"map":"cp_process_final","folder":"tf","game":"Team Fortress","app_id":440,"player_count":24,"max_players":24,"Bots":0,"server_type":"Dedicated","server_os":"Linux","password":true,"vac":true,"version":"7757534","steam_id":85568392924494504,"keywords":["cp","nocrits","nodmgspread","uncletopia"],"game_id":440,"stv_port":27016,"stv_name":"Uncletopia | Hong Kong | 1 | All Maps | STV","players":[{"user_id":332,"name":"boo (scary)","steam_id":76561198975873442,"connected_time":1412000000000,"state":"active","ping":38},{"user_id":311,"name":"RedBee (Femboy Nurse 雙)","steam_id":76561198976736971,"connected_time":3467000000000,"state":"active","ping":39},{"user_id":343,"name":"Muhammad Ali","steam_id":76561198074413124,"connected_time":749000000000,"state":"active","ping":91},{"user_id":327,"name":"Shterman","steam_id":76561198074411229,"connected_time":2606000000000,"state":"active","ping":75},{"user_id":278,"name":"Lelouch","steam_id":76561198828840546,"connected_time":6510000000000,"state":"active","ping":70},{"user_id":289,"name":"쿠키","steam_id":76561197997220367,"connected_time":5839000000000,"state":"active","ping":42},{"user_id":331,"name":"Nimbus","steam_id":76561198877713016,"connected_time":1797000000000,"state":"active","ping":120},{"user_id":346,"name":"Marika","steam_id":76561198212649929,"connected_time":144000000000,"state":"active","ping":72},{"user_id":309,"name":"tiden2000","steam_id":76561198092969425,"connected_time":3809000000000,"state":"active","ping":112},{"user_id":312,"name":"SICSIN","steam_id":76561198083923462,"connected_time":3467000000000,"state":"active","ping":99},{"user_id":333,"name":"Mission Unpossible","steam_id":76561197999891358,"connected_time":1381000000000,"state":"active","ping":122},{"user_id":310,"name":"Hay","steam_id":76561199438952901,"connected_time":3472000000000,"state":"active","ping":51},{"user_id":315,"name":"P","steam_id":76561198304514505,"connected_time":3440000000000,"state":"active","ping":75},{"user_id":329,"name":"Darknight","steam_id":76561199090139287,"connected_time":2029000000000,"state":"active","ping":83},{"user_id":299,"name":"i saved my fart for lunch","steam_id":76561199146847474,"connected_time":4552000000000,"state":"active","ping":42},{"user_id":334,"name":"yeti park employee","steam_id":76561198110545854,"connected_time":1359000000000,"state":"active","ping":150},{"user_id":345,"name":"Aug","steam_id":76561199212711900,"connected_time":318000000000,"state":"active","ping":105},{"user_id":344,"name":"Streety","steam_id":76561199098969003,"connected_time":525000000000,"state":"active","ping":66},{"user_id":337,"name":"Jagdpanzer IV","steam_id":76561198342772558,"connected_time":1187000000000,"state":"active","ping":118},{"user_id":338,"name":"ChoboUnjeon","steam_id":76561198806095977,"connected_time":1182000000000,"state":"active","ping":88},{"user_id":295,"name":"母の肉団子@hao123.com","steam_id":76561198069561896,"connected_time":5695000000000,"state":"active","ping":39},{"user_id":347,"name":"aeta","steam_id":76561198040204743,"connected_time":72000000000,"state":"active","ping":87},{"user_id":218,"name":"Stupid B","steam_id":76561198131423270,"connected_time":9519000000000,"state":"active","ping":66},{"user_id":326,"name":"NOPE","steam_id":76561199244543572,"connected_time":2727000000000,"state":"active","ping":67}]},{"server_id":1,"name":"Uncletopia | Los Angeles | 1 | All Maps","name_short":"lax-1","host":"lax-1.us.uncletopia.com","port":27015,"enabled":true,"region":"us-west","cc":"us","latitude":33.94279,"longitude":-118.41004,"reserved":0,"last_update":"0001-01-01T00:00:00Z","name_a2s":"Uncletopia | Los Angeles | 1 | All Maps","protocol":17,"map":"koth_lakeside_final","folder":"tf","game":"Team Fortress","app_id":440,"player_count":0,"max_players":24,"Bots":0,"server_type":"Dedicated","server_os":"Linux","password":true,"vac":true,"version":"7757534","steam_id":85568392924469991,"keywords":["cp","nocrits","nodmgspread","uncletopia"],"game_id":440,"stv_port":27016,"stv_name":"Uncletopia | Los Angeles | 1 | All Maps | STV","players":null},{"server_id":112,"name":"Uncletopia | Los Angeles | 2 | All Maps","name_short":"lax-2","host":"lax-1.us.uncletopia.com","port":27025,"enabled":true,"region":"us-west","cc":"us","latitude":33.94279,"longitude":-118.41004,"reserved":0,"last_update":"0001-01-01T00:00:00Z","name_a2s":"Uncletopia | Los Angeles | 2 | All Maps","protocol":17,"map":"pl_badwater","folder":"tf","game":"Team Fortress","app_id":440,"player_count":0,"max_players":24,"Bots":0,"server_type":"Dedicated","server_os":"Linux","password":true,"vac":true,"version":"7757534","steam_id":85568392924469992,"keywords":["nocrits","nodmgspread","payload","uncletopia"],"game_id":440,"stv_port":27026,"stv_name":"Uncletopia | Los Angeles | 2 | All Maps | STV","players":null},{"server_id":324,"name":"Uncletopia | Los Angeles | 3 | All Maps","name_short":"lax-3","host":"lax-1.us.uncletopia.com","port":27035,"enabled":true,"region":"us-west","cc":"us","latitude":33.94279,"longitude":-118.41004,"reserved":0,"last_update":"0001-01-01T00:00:00Z","name_a2s":"Uncletopia | Los Angeles | 3 | All Maps","protocol":17,"map":"pl_barnblitz","folder":"tf","game":"Team Fortress","app_id":440,"player_count":0,"max_players":24,"Bots":0,"server_type":"Dedicated","server_os":"Linux","password":true,"vac":true,"version":"7757534","steam_id":85568392924510198,"keywords":["nocrits","nodmgspread","payload","uncletopia"],"game_id":440,"stv_port":27036,"stv_name":"Uncletopia | Los Angeles | 3 | All Maps | STV","players":null},{"server_id":25,"name":"Uncletopia | Los Angeles | 4 | Stopwatch Beta","name_short":"lax-4","host":"lax-1.us.uncletopia.com","port":27045,"enabled":true,"region":"us-west","cc":"us","latitude":33.94279,"longitude":-118.41004,"reserved":0,"last_update":"0001-01-01T00:00:00Z","name_a2s":"Uncletopia | Los Angeles | 4 | Stopwatch Beta","protocol":17,"map":"pl_swiftwater_final1","folder":"tf","game":"Team Fortress","app_id":440,"player_count":0,"max_players":24,"Bots":0,"server_type":"Dedicated","server_os":"Linux","password":true,"vac":true,"version":"7757534","steam_id":85568392924510199,"keywords":["nocrits","nodmgspread","payload","uncletopia"],"game_id":440,"stv_port":27046,"stv_name":"Uncletopia | Los Angeles | 4 | Stopwatch Beta | STV","players":null},{"server_id":11,"name":"Uncletopia | London | 1 | All Maps","name_short":"lon-1","host":"lon-1.uk.uncletopia.com","port":27015,"enabled":true,"region":"eu","cc":"gb","latitude":51.509865,"longitude":-0.118092,"reserved":0,"last_update":"0001-01-01T00:00:00Z","name_a2s":"Uncletopia | London | 1 | All Maps","protocol":17,"map":"cp_steel","folder":"tf","game":"Team Fortress","app_id":440,"player_count":24,"max_players":24,"Bots":0,"server_type":"Dedicated","server_os":"Linux","password":true,"vac":true,"version":"7757534","steam_id":85568392924367362,"keywords":["cp","nocrits","nodmgspread","uncletopia"],"game_id":440,"stv_port":27016,"stv_name":"Uncletopia | London | 1 | All Maps | STV","players":[{"user_id":300,"name":"Akisян","steam_id":76561198078706435,"connected_time":858000000000,"state":"active","ping":79},{"user_id":277,"name":"debaditya","steam_id":76561199118249415,"connected_time":2545000000000,"state":"active","ping":138},{"user_id":310,"name":"i am not schizophrenic","steam_id":76561198079277466,"connected_time":55000000000,"state":"active","ping":62},{"user_id":302,"name":"Calamity","steam_id":76561198094879610,"connected_time":804000000000,"state":"active","ping":90},{"user_id":272,"name":"mixxxa_french","steam_id":76561198085098243,"connected_time":2802000000000,"state":"active","ping":117},{"user_id":274,"name":"V1","steam_id":76561198845397091,"connected_time":2666000000000,"state":"active","ping":54},{"user_id":288,"name":"sinologist","steam_id":76561198080912087,"connected_time":1558000000000,"state":"active","ping":62},{"user_id":287,"name":"Ott","steam_id":76561198276464481,"connected_time":1871000000000,"state":"active","ping":62},{"user_id":292,"name":"Healix","steam_id":76561198130270161,"connected_time":1367000000000,"state":"active","ping":58},{"user_id":297,"name":"♥ aura ♥","steam_id":76561198066258544,"connected_time":894000000000,"state":"active","ping":56},{"user_id":233,"name":"FUKAYU","steam_id":76561198380484033,"connected_time":6454000000000,"state":"active","ping":51},{"user_id":305,"name":"EoceneEradicator","steam_id":76561198858280739,"connected_time":681000000000,"state":"active","ping":163},{"user_id":293,"name":"holykyckling","steam_id":76561198040661615,"connected_time":1361000000000,"state":"active","ping":78},{"user_id":262,"name":"Smokio","steam_id":76561198069650580,"connected_time":3874000000000,"state":"active","ping":82},{"user_id":309,"name":"duchess abigail","steam_id":76561198166953966,"connected_time":135000000000,"state":"active","ping":80},{"user_id":301,"name":"eNine the FOREVER","steam_id":76561198890193313,"connected_time":850000000000,"state":"active","ping":55},{"user_id":285,"name":"ΩΜΞGΛ","steam_id":76561198078033533,"connected_time":1947000000000,"state":"active","ping":74},{"user_id":281,"name":"Rose","steam_id":76561198043601838,"connected_time":2371000000000,"state":"active","ping":62},{"user_id":308,"name":"Whizzo","steam_id":76561198058762428,"connected_time":367000000000,"state":"active","ping":55},{"user_id":304,"name":"stonebum","steam_id":76561198057004606,"connected_time":734000000000,"state":"active","ping":56},{"user_id":284,"name":"frionel cuckitini","steam_id":76561198106049954,"connected_time":2007000000000,"state":"active","ping":73},{"user_id":307,"name":"Literally a Trans Woman","steam_id":76561198054639925,"connected_time":616000000000,"state":"active","ping":107},{"user_id":271,"name":"sm0ke","steam_id":76561198198977226,"connected_time":2821000000000,"state":"active","ping":75}]},{"server_id":114,"name":"Uncletopia | London | 2 | All Maps","name_short":"lon-2","host":"lon-1.uk.uncletopia.com","port":27025,"enabled":true,"region":"eu","cc":"gb","latitude":51.509865,"longitude":-0.118092,"reserved":0,"last_update":"0001-01-01T00:00:00Z","name_a2s":"Uncletopia | London | 2 | All Maps","protocol":17,"map":"pl_upward","folder":"tf","game":"Team Fortress","app_id":440,"player_count":23,"max_players":24,"Bots":0,"server_type":"Dedicated","server_os":"Linux","password":true,"vac":true,"version":"7757534","steam_id":85568392924470941,"keywords":["nocrits","nodmgspread","payload","uncletopia"],"game_id":440,"stv_port":27026,"stv_name":"Uncletopia | London | 2 | All Maps | STV","players":[{"user_id":12,"name":"Rockpig","steam_id":76561198066421407,"connected_time":7631000000000,"state":"active","ping":52},{"user_id":29,"name":"Scooterboy","steam_id":76561198071705499,"connected_time":6380000000000,"state":"active","ping":46},{"user_id":109,"name":"YBOT554","steam_id":76561198836830645,"connected_time":808000000000,"state":"active","ping":44},{"user_id":64,"name":"john fortress","steam_id":76561198013237629,"connected_time":4251000000000,"state":"active","ping":93},{"user_id":51,"name":"Mark Johnson","steam_id":76561198218293684,"connected_time":5042000000000,"state":"active","ping":63},{"user_id":111,"name":"strideΔ","steam_id":76561199007826093,"connected_time":548000000000,"state":"active","ping":71},{"user_id":112,"name":"Joker⑦⑦⑦³","steam_id":76561197992353350,"connected_time":536000000000,"state":"active","ping":85},{"user_id":90,"name":"SoupER","steam_id":76561198063056668,"connected_time":2643000000000,"state":"active","ping":44},{"user_id":119,"name":"Homosapien","steam_id":76561197972035953,"connected_time":224000000000,"state":"active","ping":61},{"user_id":121,"name":"wtf is a sharpe ratio","steam_id":76561198144597089,"connected_time":157000000000,"state":"active","ping":59},{"user_id":114,"name":"PidgeonsOfWar","steam_id":76561198849223850,"connected_time":482000000000,"state":"active","ping":48},{"user_id":31,"name":"Intruder","steam_id":76561198156128173,"connected_time":6292000000000,"state":"active","ping":65},{"user_id":115,"name":"Dododid","steam_id":76561198159185258,"connected_time":430000000000,"state":"active","ping":55},{"user_id":97,"name":"Hampton the Hamster","steam_id":76561199026097466,"connected_time":2053000000000,"state":"active","ping":72},{"user_id":110,"name":"Arthur Morgan","steam_id":76561198273741819,"connected_time":767000000000,"state":"active","ping":92},{"user_id":87,"name":"Vel0city","steam_id":76561198049687798,"connected_time":2773000000000,"state":"active","ping":49},{"user_id":116,"name":"N1ggaBallsLover","steam_id":76561199387231146,"connected_time":429000000000,"state":"active","ping":83},{"user_id":91,"name":"howabe","steam_id":76561197996486818,"connected_time":2642000000000,"state":"active","ping":59},{"user_id":122,"name":"Terrorism_Uzbekistan","steam_id":76561199403970227,"connected_time":124000000000,"state":"active","ping":144},{"user_id":104,"name":"kojitori","steam_id":76561198838072150,"connected_time":1431000000000,"state":"active","ping":44},{"user_id":118,"name":"fector","steam_id":76561199204249586,"connected_time":338000000000,"state":"active","ping":134},{"user_id":123,"name":"Wc Biere","steam_id":76561198200886539,"connected_time":96000000000,"state":"active","ping":118},{"user_id":98,"name":"Loop_Cat","steam_id":76561199045902145,"connected_time":2015000000000,"state":"active","ping":126}]},{"server_id":320,"name":"Uncletopia | London | 3 | All Maps","name_short":"lon-3","host":"lon-1.uk.uncletopia.com","port":27035,"enabled":true,"region":"eu","cc":"gb","latitude":51.509865,"longitude":-0.118092,"reserved":0,"last_update":"0001-01-01T00:00:00Z","name_a2s":"Uncletopia | London | 3 | All Maps","protocol":17,"map":"pl_snowycoast","folder":"tf","game":"Team Fortress","app_id":440,"player_count":19,"max_players":24,"Bots":0,"server_type":"Dedicated","server_os":"Linux","password":true,"vac":true,"version":"7757534","steam_id":85568392924510192,"keywords":["nocrits","nodmgspread","payload","uncletopia"],"game_id":440,"stv_port":27036,"stv_name":"Uncletopia | London | 3 | All Maps | STV","players":[{"user_id":201,"name":"submeower lullaby","steam_id":76561198193357946,"connected_time":2129000000000,"state":"active","ping":105},{"user_id":228,"name":"Dolcelatte","steam_id":76561198038501770,"connected_time":1170000000000,"state":"active","ping":64},{"user_id":244,"name":"After8","steam_id":76561198090750865,"connected_time":164000000000,"state":"active","ping":69},{"user_id":212,"name":"MasterNaglis","steam_id":76561198348834177,"connected_time":1867000000000,"state":"active","ping":79},{"user_id":243,"name":"smackaroni and grease","steam_id":76561198074807915,"connected_time":261000000000,"state":"active","ping":77},{"user_id":245,"name":"KptHalo","steam_id":76561197995341399,"connected_time":74000000000,"state":"spawning","ping":107},{"user_id":225,"name":"amazing gamer(not really)","steam_id":76561198847383267,"connected_time":1236000000000,"state":"active","ping":89},{"user_id":211,"name":"Iphy","steam_id":76561198137519489,"connected_time":1925000000000,"state":"active","ping":78},{"user_id":214,"name":"Genetic Komodo (He/Him)","steam_id":76561198174806758,"connected_time":1771000000000,"state":"active","ping":147},{"user_id":215,"name":"Nisio","steam_id":76561198079373727,"connected_time":1767000000000,"state":"active","ping":48},{"user_id":216,"name":"IncrediblyTexan","steam_id":76561199159370663,"connected_time":1752000000000,"state":"active","ping":84},{"user_id":222,"name":"OutOfDucks","steam_id":76561198166376227,"connected_time":1276000000000,"state":"active","ping":55},{"user_id":218,"name":"TheFox.tf","steam_id":76561197996851702,"connected_time":1706000000000,"state":"active","ping":69},{"user_id":227,"name":"Armed Monkey","steam_id":76561197993681829,"connected_time":1179000000000,"state":"active","ping":55},{"user_id":235,"name":"do not google Gay porn","steam_id":76561198418538887,"connected_time":820000000000,"state":"active","ping":100},{"user_id":242,"name":"No_ob","steam_id":76561199216101345,"connected_time":304000000000,"state":"active","ping":50},{"user_id":241,"name":"grig_83","steam_id":76561198963325441,"connected_time":379000000000,"state":"active","ping":114},{"user_id":230,"name":"Hydro","steam_id":76561199081791855,"connected_time":1064000000000,"state":"active","ping":55},{"user_id":232,"name":"engineer drip","steam_id":76561198991032570,"connected_time":1034000000000,"state":"active","ping":99}]},{"server_id":321,"name":"Uncletopia | London | 4 | All Maps","name_short":"lon-4","host":"lon-1.uk.uncletopia.com","port":27045,"enabled":true,"region":"eu","cc":"gb","latitude":51.509865,"longitude":-0.118092,"reserved":0,"last_update":"0001-01-01T00:00:00Z","name_a2s":"Uncletopia | London | 4 | All Maps","protocol":17,"map":"cp_sunshine","folder":"tf","game":"Team Fortress","app_id":440,"player_count":0,"max_players":24,"Bots":0,"server_type":"Dedicated","server_os":"Linux","password":true,"vac":true,"version":"7757534","steam_id":85568392924510193,"keywords":["cp","nocrits","nodmgspread","uncletopia"],"game_id":440,"stv_port":27046,"stv_name":"Uncletopia | London | 4 | All Maps | STV","players":null},{"server_id":21,"name":"Uncletopia | London | 5 | All Maps","name_short":"lon-5","host":"lon-1.uk.uncletopia.com","port":27055,"enabled":true,"region":"eu","cc":"gb","latitude":51.509865,"longitude":-0.118092,"reserved":0,"last_update":"0001-01-01T00:00:00Z","name_a2s":"Uncletopia | London | 5 | All Maps","protocol":17,"map":"pl_pier","folder":"tf","game":"Team Fortress","app_id":440,"player_count":0,"max_players":24,"Bots":0,"server_type":"Dedicated","server_os":"Linux","password":true,"vac":true,"version":"7757534","steam_id":85568392924742829,"keywords":["nocrits","nodmgspread","payload","uncletopia"],"game_id":440,"stv_port":27056,"stv_name":"Uncletopia | London | 5 | All Maps | STV","players":null},{"server_id":22,"name":"Uncletopia | London | 6 | All Maps","name_short":"lon-6","host":"lon-1.uk.uncletopia.com","port":27065,"enabled":true,"region":"eu","cc":"gb","latitude":51.509865,"longitude":-0.118092,"reserved":0,"last_update":"0001-01-01T00:00:00Z","name_a2s":"Uncletopia | London | 6 | All Maps","protocol":17,"map":"pl_pier","folder":"tf","game":"Team Fortress","app_id":440,"player_count":0,"max_players":24,"Bots":0,"server_type":"Dedicated","server_os":"Linux","password":true,"vac":true,"version":"7757534","steam_id":85568392924742830,"keywords":["nocrits","nodmgspread","payload","uncletopia"],"game_id":440,"stv_port":27066,"stv_name":"Uncletopia | London | 6 | All Maps | STV","players":null},{"server_id":40,"name":"Uncletopia | London | 7 | No Payload","name_short":"lon-7","host":"lon-1.uk.uncletopia.com","port":27075,"enabled":true,"region":"eu","cc":"gb","latitude":51.509865,"longitude":-0.118092,"reserved":0,"last_update":"0001-01-01T00:00:00Z","name_a2s":"Uncletopia | London | 7 | No Payload","protocol":17,"map":"cp_gravelpit","folder":"tf","game":"Team Fortress","app_id":440,"player_count":0,"max_players":24,"Bots":0,"server_type":"Dedicated","server_os":"Linux","password":true,"vac":true,"version":"7757534","steam_id":85568392924964314,"keywords":["cp","nocrits","nodmgspread","uncletopia"],"game_id":440,"stv_port":27076,"stv_name":"Uncletopia | London | 7 | No Payload | STV","players":null},{"server_id":41,"name":"Uncletopia | London | 8 | Community","name_short":"lon-8","host":"lon-1.uk.uncletopia.com","port":27085,"enabled":true,"region":"eu","cc":"gb","latitude":51.509865,"longitude":-0.118092,"reserved":0,"last_update":"0001-01-01T00:00:00Z","name_a2s":"Uncletopia | London | 8 | Community","protocol":17,"map":"pl_barnblitz","folder":"tf","game":"Team Fortress","app_id":440,"player_count":0,"max_players":24,"Bots":0,"server_type":"Dedicated","server_os":"Linux","password":true,"vac":true,"version":"7757534","steam_id":85568392924964315,"keywords":["nocrits","nodmgspread","payload","uncletopia"],"game_id":440,"stv_port":27086,"stv_name":"Uncletopia | London | 8 | Community | STV","players":null},{"server_id":300,"name":"Uncletopia | Montréal | 1 | All Maps","name_short":"mtl-1","host":"mtl-1.ca.uncletopia.com","port":27015,"enabled":true,"region":"us-east","cc":"ca","latitude":45.50889,"longitude":-73.56167,"reserved":0,"last_update":"0001-01-01T00:00:00Z","name_a2s":"Uncletopia | Montréal | 1 | All Maps","protocol":17,"map":"cp_altitude","folder":"tf","game":"Team Fortress","app_id":440,"player_count":0,"max_players":24,"Bots":0,"server_type":"Dedicated","server_os":"Linux","password":true,"vac":true,"version":"7757534","steam_id":85568392924500087,"keywords":["cp","nocrits","nodmgspread","uncletopia"],"game_id":440,"stv_port":27016,"stv_name":"Uncletopia | Montréal | 1 | All Maps | STV","players":null},{"server_id":301,"name":"Uncletopia | Montréal | 2 | All Maps","name_short":"mtl-2","host":"mtl-1.ca.uncletopia.com","port":27025,"enabled":true,"region":"us-east","cc":"ca","latitude":45.50889,"longitude":-73.56167,"reserved":0,"last_update":"0001-01-01T00:00:00Z","name_a2s":"Uncletopia | Montréal | 2 | All Maps","protocol":17,"map":"pl_snowycoast","folder":"tf","game":"Team Fortress","app_id":440,"player_count":0,"max_players":24,"Bots":0,"server_type":"Dedicated","server_os":"Linux","password":true,"vac":true,"version":"7757534","steam_id":85568392924500088,"keywords":["nocrits","nodmgspread","payload","uncletopia"],"game_id":440,"stv_port":27026,"stv_name":"Uncletopia | Montréal | 2 | All Maps | STV","players":null},{"server_id":302,"name":"Uncletopia | Montréal | 3 | All Maps","name_short":"mtl-3","host":"mtl-1.ca.uncletopia.com","port":27035,"enabled":true,"region":"us-east","cc":"ca","latitude":45.50889,"longitude":-73.56167,"reserved":0,"last_update":"0001-01-01T00:00:00Z","name_a2s":"Uncletopia | Montréal | 3 | All Maps","protocol":17,"map":"pl_swiftwater_final1","folder":"tf","game":"Team Fortress","app_id":440,"player_count":0,"max_players":24,"Bots":0,"server_type":"Dedicated","server_os":"Linux","password":true,"vac":true,"version":"7757534","steam_id":85568392924500089,"keywords":["nocrits","nodmgspread","payload","uncletopia"],"game_id":440,"stv_port":27036,"stv_name":"Uncletopia | Montréal | 3 | All Maps | STV","players":null},{"server_id":303,"name":"Uncletopia | Montréal | 4 | No Payload","name_short":"mtl-4","host":"mtl-1.ca.uncletopia.com","port":27045,"enabled":true,"region":"us-east","cc":"ca","latitude":45.50889,"longitude":-73.56167,"reserved":0,"last_update":"0001-01-01T00:00:00Z","name_a2s":"Uncletopia | Montréal | 4 | No Payload","protocol":17,"map":"pl_pier","folder":"tf","game":"Team Fortress","app_id":440,"player_count":0,"max_players":24,"Bots":0,"server_type":"Dedicated","server_os":"Linux","password":true,"vac":true,"version":"7757534","steam_id":85568392924500090,"keywords":["nocrits","nodmgspread","payload","uncletopia"],"game_id":440,"stv_port":27046,"stv_name":"Uncletopia | Montréal | 4 | No Payload | STV","players":null},{"server_id":13,"name":"Uncletopia | New York City | 1 | All Maps","name_short":"nyc-1","host":"nyc-1.us.uncletopia.com","port":27015,"enabled":true,"region":"us-east","cc":"us","latitude":40.73061,"longitude":-73.93524,"reserved":0,"last_update":"0001-01-01T00:00:00Z","name_a2s":"Uncletopia | New York City | 1 | All Maps","protocol":17,"map":"koth_harvest_final","folder":"tf","game":"Team Fortress","app_id":440,"player_count":23,"max_players":24,"Bots":0,"server_type":"Dedicated","server_os":"Linux","password":true,"vac":true,"version":"7757534","steam_id":85568392924469993,"keywords":["cp","nocrits","nodmgspread","uncletopia"],"game_id":440,"stv_port":27016,"stv_name":"Uncletopia | New York City | 1 | All Maps | STV","players":[{"user_id":53,"name":"ISawTheOctoVideo","steam_id":76561198008932852,"connected_time":1738000000000,"state":"active","ping":78},{"user_id":67,"name":"Back with the milk","steam_id":76561199020105501,"connected_time":34000000000,"state":"active","ping":46},{"user_id":13,"name":"RomanLegate","steam_id":76561198931699640,"connected_time":4291000000000,"state":"active","ping":71},{"user_id":7,"name":"Wahooka","steam_id":76561197962240925,"connected_time":4476000000000,"state":"active","ping":46},{"user_id":46,"name":"popfulmail","steam_id":76561198865971290,"connected_time":2577000000000,"state":"active","ping":84},{"user_id":68,"name":"Romo","steam_id":76561198243101572,"connected_time":28000000000,"state":"active","ping":80},{"user_id":54,"name":"20 miles for a Quaalude","steam_id":76561198042579477,"connected_time":1518000000000,"state":"active","ping":47},{"user_id":48,"name":"SuperFresh","steam_id":76561198200723198,"connected_time":2277000000000,"state":"active","ping":51},{"user_id":59,"name":"Doctor Vegeta","steam_id":76561198353898356,"connected_time":1200000000000,"state":"active","ping":85},{"user_id":61,"name":"DeSynthed","steam_id":76561198098768007,"connected_time":1161000000000,"state":"active","ping":50},{"user_id":64,"name":"Autumn Clover","steam_id":76561198012295314,"connected_time":505000000000,"state":"active","ping":60},{"user_id":56,"name":"sean","steam_id":76561198354473513,"connected_time":1404000000000,"state":"active","ping":60},{"user_id":24,"name":"Victor","steam_id":76561198848984975,"connected_time":3607000000000,"state":"active","ping":86},{"user_id":66,"name":"Mango","steam_id":76561199209533440,"connected_time":115000000000,"state":"active","ping":63},{"user_id":65,"name":"Frosty","steam_id":76561198121412489,"connected_time":408000000000,"state":"active","ping":57},{"user_id":57,"name":"indi","steam_id":76561198045917538,"connected_time":1317000000000,"state":"active","ping":61},{"user_id":47,"name":"Spamtaco","steam_id":76561198076523579,"connected_time":2335000000000,"state":"active","ping":81},{"user_id":30,"name":"Dwarfo","steam_id":76561198119220289,"connected_time":3461000000000,"state":"active","ping":75},{"user_id":43,"name":"truebosnianking","steam_id":76561199440060597,"connected_time":3068000000000,"state":"active","ping":158},{"user_id":32,"name":"Dixxy","steam_id":76561198010760019,"connected_time":3432000000000,"state":"active","ping":76},{"user_id":58,"name":"walrus","steam_id":76561198057853319,"connected_time":1291000000000,"state":"active","ping":58},{"user_id":34,"name":"AcenSamurai","steam_id":76561199440038716,"connected_time":3396000000000,"state":"active","ping":81},{"user_id":63,"name":"Lin","steam_id":76561198143746480,"connected_time":948000000000,"state":"active","ping":125}]},{"server_id":14,"name":"Uncletopia | New York City | 2 | All Maps","name_short":"nyc-2","host":"nyc-1.us.uncletopia.com","port":27025,"enabled":true,"region":"us-east","cc":"us","latitude":40.73061,"longitude":-73.93524,"reserved":0,"last_update":"0001-01-01T00:00:00Z","name_a2s":"Uncletopia | New York City | 2 | All Maps","protocol":17,"map":"pl_badwater","folder":"tf","game":"Team Fortress","app_id":440,"player_count":0,"max_players":24,"Bots":0,"server_type":"Dedicated","server_os":"Linux","password":true,"vac":true,"version":"7757534","steam_id":85568392924469994,"keywords":["nocrits","nodmgspread","payload","uncletopia"],"game_id":440,"stv_port":27026,"stv_name":"Uncletopia | New York City | 2 | All Maps | STV","players":null},{"server_id":15,"name":"Uncletopia | New York City | 3 | Stopwatch Beta","name_short":"nyc-3","host":"nyc-1.us.uncletopia.com","port":27035,"enabled":true,"region":"us-east","cc":"us","latitude":40.73061,"longitude":-73.93524,"reserved":0,"last_update":"0001-01-01T00:00:00Z","name_a2s":"Uncletopia | New York City | 3 | Stopwatch Beta","protocol":17,"map":"pl_upward","folder":"tf","game":"Team Fortress","app_id":440,"player_count":0,"max_players":24,"Bots":0,"server_type":"Dedicated","server_os":"Linux","password":true,"vac":true,"version":"7757534","steam_id":85568392924742820,"keywords":["nocrits","nodmgspread","payload","uncletopia"],"game_id":440,"stv_port":27036,"stv_name":"Uncletopia | New York City | 3 | Stopwatch Beta | STV","players":null},{"server_id":16,"name":"Uncletopia | New York City | 4 | Community","name_short":"nyc-4","host":"nyc-1.us.uncletopia.com","port":27045,"enabled":true,"region":"us-east","cc":"us","latitude":40.73061,"longitude":-73.93524,"reserved":0,"last_update":"0001-01-01T00:00:00Z","name_a2s":"Uncletopia | New York City | 4 | Community","protocol":17,"map":"workshop/koth_ramjam_rc1.ugc459778887","folder":"tf","game":"Team Fortress","app_id":440,"player_count":0,"max_players":24,"Bots":0,"server_type":"Dedicated","server_os":"Linux","password":true,"vac":true,"version":"7757534","steam_id":85568392924742821,"keywords":["cp","nocrits","nodmgspread","uncletopia"],"game_id":440,"stv_port":27046,"stv_name":"Uncletopia | New York City | 4 | Community | STV","players":null},{"server_id":142,"name":"Uncletopia | São Paulo | 1 | All Maps","name_short":"sao-1","host":"sao-1.br.uncletopia.com","port":27015,"enabled":true,"region":"sa","cc":"br","latitude":-23.533773,"longitude":-46.62529,"reserved":0,"last_update":"0001-01-01T00:00:00Z","name_a2s":"Uncletopia | São Paulo | 1 | All Maps","protocol":17,"map":"koth_lakeside_final","folder":"tf","game":"Team Fortress","app_id":440,"player_count":0,"max_players":24,"Bots":0,"server_type":"Dedicated","server_os":"Linux","password":true,"vac":true,"version":"7757534","steam_id":85568392924469996,"keywords":["cp","nocrits","nodmgspread","uncletopia"],"game_id":440,"stv_port":27016,"stv_name":"Uncletopia | São Paulo | 1 | All Maps | STV","players":null},{"server_id":143,"name":"Uncletopia | São Paulo | 2 | All Maps","name_short":"sao-2","host":"sao-2.br.uncletopia.com","port":27015,"enabled":true,"region":"sa","cc":"br","latitude":-23.533773,"longitude":-46.62529,"reserved":0,"last_update":"0001-01-01T00:00:00Z","name_a2s":"Uncletopia | São Paulo | 2 | All Maps","protocol":17,"map":"pl_borneo","folder":"tf","game":"Team Fortress","app_id":440,"player_count":0,"max_players":24,"Bots":0,"server_type":"Dedicated","server_os":"Linux","password":true,"vac":true,"version":"7757534","steam_id":85568392924485349,"keywords":["nocrits","nodmgspread","payload","uncletopia"],"game_id":440,"stv_port":27016,"stv_name":"Uncletopia | São Paulo | 2 | All Maps | STV","players":null},{"server_id":7,"name":"Uncletopia | Seattle | 1 | All Maps","name_short":"sea-1","host":"sea-1.us.uncletopia.com","port":27015,"enabled":true,"region":"us-west","cc":"us","latitude":47.608013,"longitude":-122.33517,"reserved":0,"last_update":"0001-01-01T00:00:00Z","name_a2s":"Uncletopia | Seattle | 1 | All Maps","protocol":17,"map":"cp_coldfront","folder":"tf","game":"Team Fortress","app_id":440,"player_count":24,"max_players":24,"Bots":0,"server_type":"Dedicated","server_os":"Linux","password":true,"vac":true,"version":"7757534","steam_id":85568392924469997,"keywords":["cp","nocrits","nodmgspread","uncletopia"],"game_id":440,"stv_port":27016,"stv_name":"Uncletopia | Seattle | 1 | All Maps | STV","players":[{"user_id":65,"name":"Stupid Sexy Flanders","steam_id":76561198136311983,"connected_time":1419000000000,"state":"active","ping":129},{"user_id":29,"name":"SketchyStreet","steam_id":76561199003194680,"connected_time":3790000000000,"state":"active","ping":104},{"user_id":86,"name":"amagicowl","steam_id":76561199060487814,"connected_time":254000000000,"state":"active","ping":53},{"user_id":40,"name":"cheeto dealer","steam_id":76561199243489976,"connected_time":3433000000000,"state":"active","ping":110},{"user_id":8,"name":"ROFLMAOLOLXD!","steam_id":76561199472748548,"connected_time":4482000000000,"state":"active","ping":87},{"user_id":50,"name":"DualiTea","steam_id":76561198081733870,"connected_time":2537000000000,"state":"active","ping":97},{"user_id":67,"name":"square-","steam_id":76561198058143770,"connected_time":1377000000000,"state":"active","ping":109},{"user_id":68,"name":"Boomba","steam_id":76561198071101891,"connected_time":1367000000000,"state":"active","ping":117},{"user_id":69,"name":"Keywest","steam_id":76561198266508363,"connected_time":1337000000000,"state":"active","ping":83},{"user_id":83,"name":"Rat Man","steam_id":76561198059403452,"connected_time":470000000000,"state":"active","ping":90},{"user_id":77,"name":"eredyn lft","steam_id":76561198868116439,"connected_time":1041000000000,"state":"active","ping":90},{"user_id":75,"name":"Lunacy","steam_id":76561199386273760,"connected_time":1215000000000,"state":"active","ping":169},{"user_id":18,"name":"Zetta","steam_id":76561198045710113,"connected_time":4216000000000,"state":"active","ping":101},{"user_id":49,"name":"MrChaosOK","steam_id":76561197976353083,"connected_time":2641000000000,"state":"active","ping":84},{"user_id":80,"name":"Kedata","steam_id":76561198047750050,"connected_time":538000000000,"state":"active","ping":93},{"user_id":48,"name":"Rhutebeer","steam_id":76561198018302761,"connected_time":2646000000000,"state":"active","ping":146},{"user_id":60,"name":"Goose","steam_id":76561198036774894,"connected_time":1606000000000,"state":"active","ping":42},{"user_id":61,"name":"FLASH ASSANOVA","steam_id":76561197996266992,"connected_time":1538000000000,"state":"active","ping":75},{"user_id":71,"name":"Crazy Ivan","steam_id":76561197993072059,"connected_time":1307000000000,"state":"active","ping":135},{"user_id":64,"name":"TothBrush","steam_id":76561198028254471,"connected_time":1442000000000,"state":"active","ping":59},{"user_id":72,"name":"BigBubble42","steam_id":76561198136286123,"connected_time":1306000000000,"state":"active","ping":82},{"user_id":85,"name":"Zlavus","steam_id":76561198217652861,"connected_time":307000000000,"state":"active","ping":63},{"user_id":73,"name":"the trollining","steam_id":76561199160884713,"connected_time":1304000000000,"state":"active","ping":76},{"user_id":82,"name":"Flareon","steam_id":76561198064578603,"connected_time":488000000000,"state":"active","ping":53}]},{"server_id":119,"name":"Uncletopia | Seattle | 2 | All Maps","name_short":"sea-2","host":"sea-1.us.uncletopia.com","port":27025,"enabled":true,"region":"us-west","cc":"us","latitude":47.608013,"longitude":-122.33517,"reserved":0,"last_update":"0001-01-01T00:00:00Z","name_a2s":"Uncletopia | Seattle | 2 | All Maps","protocol":17,"map":"pl_badwater","folder":"tf","game":"Team Fortress","app_id":440,"player_count":0,"max_players":24,"Bots":0,"server_type":"Dedicated","server_os":"Linux","password":true,"vac":true,"version":"7757534","steam_id":85568392924469998,"keywords":["nocrits","nodmgspread","payload","uncletopia"],"game_id":440,"stv_port":27026,"stv_name":"Uncletopia | Seattle | 2 | All Maps | STV","players":null},{"server_id":406,"name":"Uncletopia | Seattle | 3 | Stopwatch Beta","name_short":"sea-3","host":"sea-1.us.uncletopia.com","port":27035,"enabled":true,"region":"us-west","cc":"us","latitude":47.608013,"longitude":-122.33517,"reserved":0,"last_update":"0001-01-01T00:00:00Z","name_a2s":"Uncletopia | Seattle | 3 | Stopwatch Beta","protocol":17,"map":"cp_dustbowl","folder":"tf","game":"Team Fortress","app_id":440,"player_count":0,"max_players":24,"Bots":0,"server_type":"Dedicated","server_os":"Linux","password":true,"vac":true,"version":"7757534","steam_id":85568392924515217,"keywords":["cp","nocrits","nodmgspread","uncletopia"],"game_id":440,"stv_port":27036,"stv_name":"Uncletopia | Seattle | 3 | Stopwatch Beta | STV","players":null},{"server_id":17,"name":"Uncletopia | San Francisco | 1 | All Maps","name_short":"sfo-1","host":"sfo-1.us.uncletopia.com","port":27015,"enabled":true,"region":"us-west","cc":"us","latitude":37.77397,"longitude":-122.4313,"reserved":0,"last_update":"0001-01-01T00:00:00Z","name_a2s":"Uncletopia | San Francisco | 1 | All Maps","protocol":17,"map":"cp_process_final","folder":"tf","game":"Team Fortress","app_id":440,"player_count":0,"max_players":24,"Bots":0,"server_type":"Dedicated","server_os":"Linux","password":true,"vac":true,"version":"7757534","steam_id":85568392924469999,"keywords":["cp","nocrits","nodmgspread","uncletopia"],"game_id":440,"stv_port":27016,"stv_name":"Uncletopia | San Francisco | 1 | All Maps | STV","players":null},{"server_id":18,"name":"Uncletopia | San Francisco | 2 | All Maps","name_short":"sfo-2","host":"sfo-1.us.uncletopia.com","port":27025,"enabled":true,"region":"us-west","cc":"us","latitude":37.77397,"longitude":-122.4313,"reserved":0,"last_update":"0001-01-01T00:00:00Z","name_a2s":"Uncletopia | San Francisco | 2 | All Maps","protocol":17,"map":"koth_highpass","folder":"tf","game":"Team Fortress","app_id":440,"player_count":0,"max_players":24,"Bots":0,"server_type":"Dedicated","server_os":"Linux","password":true,"vac":true,"version":"7757534","steam_id":85568392924470000,"keywords":["cp","nocrits","nodmgspread","uncletopia"],"game_id":440,"stv_port":27026,"stv_name":"Uncletopia | San Francisco | 2 | All Maps | STV","players":null},{"server_id":19,"name":"Uncletopia | San Francisco | 3 | Stopwatch Beta","name_short":"sfo-3","host":"sfo-1.us.uncletopia.com","port":27035,"enabled":true,"region":"us-west","cc":"us","latitude":37.77397,"longitude":-122.4313,"reserved":0,"last_update":"0001-01-01T00:00:00Z","name_a2s":"Uncletopia | San Francisco | 3 | Stopwatch Beta","protocol":17,"map":"koth_lakeside_final","folder":"tf","game":"Team Fortress","app_id":440,"player_count":0,"max_players":24,"Bots":0,"server_type":"Dedicated","server_os":"Linux","password":true,"vac":true,"version":"7757534","steam_id":85568392924742824,"keywords":["cp","nocrits","nodmgspread","uncletopia"],"game_id":440,"stv_port":27036,"stv_name":"Uncletopia | San Francisco | 3 | Stopwatch Beta | STV","players":null},{"server_id":20,"name":"Uncletopia | San Francisco | 4 | Community","name_short":"sfo-4","host":"sfo-1.us.uncletopia.com","port":27045,"enabled":true,"region":"us-west","cc":"us","latitude":37.77397,"longitude":-122.4313,"reserved":0,"last_update":"0001-01-01T00:00:00Z","name_a2s":"Uncletopia | San Francisco | 4 | Community","protocol":17,"map":"cp_altitude","folder":"tf","game":"Team Fortress","app_id":440,"player_count":0,"max_players":24,"Bots":0,"server_type":"Dedicated","server_os":"Linux","password":true,"vac":true,"version":"7757534","steam_id":85568392924742826,"keywords":["cp","nocrits","nodmgspread","uncletopia"],"game_id":440,"stv_port":27046,"stv_name":"Uncletopia | San Francisco | 4 | Community | STV","players":null},{"server_id":141,"name":"Uncletopia | Sydney | 1 | All Maps","name_short":"syd-1","host":"syd-1.au.uncletopia.com","port":27015,"enabled":true,"region":"au","cc":"au","latitude":-33.865143,"longitude":151.2099,"reserved":0,"last_update":"0001-01-01T00:00:00Z","name_a2s":"Uncletopia | Sydney | 1 | All Maps","protocol":17,"map":"koth_highpass","folder":"tf","game":"Team Fortress","app_id":440,"player_count":7,"max_players":24,"Bots":0,"server_type":"Dedicated","server_os":"Linux","password":true,"vac":true,"version":"7757534","steam_id":85568392924470001,"keywords":["cp","nocrits","nodmgspread","uncletopia"],"game_id":440,"stv_port":27016,"stv_name":"Uncletopia | Sydney | 1 | All Maps | STV","players":[{"user_id":934,"name":"badhorse4444","steam_id":76561198979008266,"connected_time":4555000000000,"state":"active","ping":280},{"user_id":945,"name":"Blazey 伊達 政宗","steam_id":76561197971082275,"connected_time":366000000000,"state":"active","ping":109},{"user_id":939,"name":"Traveller","steam_id":76561199161637215,"connected_time":1809000000000,"state":"active","ping":92},{"user_id":908,"name":"Atner","steam_id":76561198442934454,"connected_time":7962000000000,"state":"active","ping":87},{"user_id":940,"name":"MR Martian","steam_id":76561198157854561,"connected_time":1638000000000,"state":"active","ping":90},{"user_id":941,"name":"Anthrosaurus","steam_id":76561198355031984,"connected_time":1630000000000,"state":"active","ping":106},{"user_id":942,"name":"hry","steam_id":76561198217576436,"connected_time":1497000000000,"state":"active","ping":90}]},{"server_id":123,"name":"Uncletopia | Sydney | 2 | All Maps","name_short":"syd-2","host":"syd-1.au.uncletopia.com","port":27025,"enabled":true,"region":"au","cc":"au","latitude":-33.865143,"longitude":151.2099,"reserved":0,"last_update":"0001-01-01T00:00:00Z","name_a2s":"Uncletopia | Sydney | 2 | All Maps","protocol":17,"map":"plr_hightower","folder":"tf","game":"Team Fortress","app_id":440,"player_count":0,"max_players":24,"Bots":0,"server_type":"Dedicated","server_os":"Linux","password":true,"vac":true,"version":"7757534","steam_id":85568392924470002,"keywords":["nocrits","nodmgspread","payload","uncletopia"],"game_id":440,"stv_port":27026,"stv_name":"Uncletopia | Sydney | 2 | All Maps | STV","players":null},{"server_id":395,"name":"Uncletopia | Sydney | 3 | All Maps","name_short":"syd-3","host":"syd-1.au.uncletopia.com","port":27035,"enabled":true,"region":"au","cc":"au","latitude":-33.865143,"longitude":151.2099,"reserved":0,"last_update":"0001-01-01T00:00:00Z","name_a2s":"Uncletopia | Sydney | 3 | All Maps","protocol":17,"map":"koth_viaduct","folder":"tf","game":"Team Fortress","app_id":440,"player_count":0,"max_players":24,"Bots":0,"server_type":"Dedicated","server_os":"Linux","password":true,"vac":true,"version":"7757534","steam_id":85568392925194467,"keywords":["cp","nocrits","nodmgspread","uncletopia"],"game_id":440,"stv_port":27036,"stv_name":"Uncletopia | Sydney | 3 | All Maps | STV","players":null},{"server_id":396,"name":"Uncletopia | Sydney | 4 | All Maps","name_short":"syd-4","host":"syd-1.au.uncletopia.com","port":27045,"enabled":true,"region":"au","cc":"au","latitude":-33.865143,"longitude":151.2099,"reserved":0,"last_update":"0001-01-01T00:00:00Z","name_a2s":"Uncletopia | Sydney | 4 | All Maps","protocol":17,"map":"koth_cascade","folder":"tf","game":"Team Fortress","app_id":440,"player_count":0,"max_players":24,"Bots":0,"server_type":"Dedicated","server_os":"Linux","password":true,"vac":true,"version":"7757534","steam_id":85568392925397958,"keywords":["cp","nocrits","nodmgspread","uncletopia"],"game_id":440,"stv_port":27046,"stv_name":"Uncletopia | Sydney | 4 | All Maps | STV","players":null},{"server_id":58,"name":"Uncletopia | Sydney | 5 | Stopwatch Beta","name_short":"syd-5","host":"syd-1.au.uncletopia.com","port":27055,"enabled":true,"region":"au","cc":"au","latitude":-33.865143,"longitude":151.2099,"reserved":0,"last_update":"0001-01-01T00:00:00Z","name_a2s":"Uncletopia | Sydney | 5 | Stopwatch Beta","protocol":17,"map":"workshop/koth_product_final.ugc454272353","folder":"tf","game":"Team Fortress","app_id":440,"player_count":0,"max_players":24,"Bots":0,"server_type":"Dedicated","server_os":"Linux","password":true,"vac":true,"version":"7757534","steam_id":85568392925397959,"keywords":["cp","nocrits","nodmgspread","uncletopia"],"game_id":440,"stv_port":27056,"stv_name":"Uncletopia | Sydney | 5 | Stopwatch Beta | STV","players":null},{"server_id":59,"name":"Uncletopia | Sydney | 6 | Community","name_short":"syd-6","host":"syd-1.au.uncletopia.com","port":27065,"enabled":true,"region":"au","cc":"au","latitude":-33.865143,"longitude":151.2099,"reserved":0,"last_update":"0001-01-01T00:00:00Z","name_a2s":"Uncletopia | Sydney | 6 | Community","protocol":17,"map":"workshop/pl_corrode_rc2.ugc546577989","folder":"tf","game":"Team Fortress","app_id":440,"player_count":0,"max_players":24,"Bots":0,"server_type":"Dedicated","server_os":"Linux","password":true,"vac":true,"version":"7757534","steam_id":85568392925397960,"keywords":["nocrits","nodmgspread","payload","uncletopia"],"game_id":440,"stv_port":27066,"stv_name":"Uncletopia | Sydney | 6 | Community | STV","players":null},{"server_id":49,"name":"Uncletopia | Warsaw | 1 | All Maps","name_short":"waw-1","host":"waw-1.pl.uncletopia.com","port":27015,"enabled":true,"region":"eu","cc":"pl","latitude":52.2297,"longitude":21.017532,"reserved":0,"last_update":"0001-01-01T00:00:00Z","name_a2s":"","protocol":0,"map":"","folder":"","game":"","app_id":0,"player_count":0,"max_players":0,"Bots":0,"server_type":"","server_os":"","password":false,"vac":false,"version":"","steam_id":0,"keywords":null,"game_id":0,"stv_port":0,"stv_name":"","players":null},{"server_id":50,"name":"Uncletopia | Warsaw | 2 | All Maps","name_short":"waw-2","host":"waw-1.pl.uncletopia.com","port":27025,"enabled":true,"region":"eu","cc":"pl","latitude":52.2297,"longitude":21.017532,"reserved":0,"last_update":"0001-01-01T00:00:00Z","name_a2s":"Uncletopia | Warsaw | 2 | All Maps","protocol":17,"map":"koth_viaduct","folder":"tf","game":"Team Fortress","app_id":440,"player_count":0,"max_players":24,"Bots":0,"server_type":"Dedicated","server_os":"Linux","password":true,"vac":true,"version":"7757534","steam_id":85568392925397851,"keywords":["cp","nocrits","nodmgspread","uncletopia"],"game_id":440,"stv_port":27026,"stv_name":"Uncletopia | Warsaw | 2 | All Maps | STV","players":null},{"server_id":51,"name":"Uncletopia | Warsaw | 3 | All Maps","name_short":"waw-3","host":"waw-1.pl.uncletopia.com","port":27035,"enabled":true,"region":"eu","cc":"pl","latitude":52.2297,"longitude":21.017532,"reserved":0,"last_update":"0001-01-01T00:00:00Z","name_a2s":"Uncletopia | Warsaw | 3 | All Maps","protocol":17,"map":"pl_swiftwater_final1","folder":"tf","game":"Team Fortress","app_id":440,"player_count":0,"max_players":24,"Bots":0,"server_type":"Dedicated","server_os":"Linux","password":true,"vac":true,"version":"7757534","steam_id":85568392925397852,"keywords":["nocrits","nodmgspread","payload","uncletopia"],"game_id":440,"stv_port":27036,"stv_name":"Uncletopia | Warsaw | 3 | All Maps | STV","players":null},{"server_id":52,"name":"Uncletopia | Warsaw | 4 | All Maps","name_short":"waw-4","host":"waw-1.pl.uncletopia.com","port":27045,"enabled":true,"region":"eu","cc":"pl","latitude":52.2297,"longitude":21.017532,"reserved":0,"last_update":"0001-01-01T00:00:00Z","name_a2s":"Uncletopia | Warsaw | 4 | All Maps","protocol":17,"map":"koth_lakeside_final","folder":"tf","game":"Team Fortress","app_id":440,"player_count":0,"max_players":24,"Bots":0,"server_type":"Dedicated","server_os":"Linux","password":true,"vac":true,"version":"7757534","steam_id":85568392925397853,"keywords":["cp","nocrits","nodmgspread","uncletopia"],"game_id":440,"stv_port":27046,"stv_name":"Uncletopia | Warsaw | 4 | All Maps | STV","players":null},{"server_id":53,"name":"Uncletopia | Warsaw | 5 | Stopwatch Beta","name_short":"waw-5","host":"waw-1.pl.uncletopia.com","port":27055,"enabled":true,"region":"eu","cc":"pl","latitude":52.2297,"longitude":21.017532,"reserved":0,"last_update":"0001-01-01T00:00:00Z","name_a2s":"Uncletopia | Warsaw | 5 | Stopwatch Beta","protocol":17,"map":"pl_borneo","folder":"tf","game":"Team Fortress","app_id":440,"player_count":0,"max_players":24,"Bots":0,"server_type":"Dedicated","server_os":"Linux","password":true,"vac":true,"version":"7757534","steam_id":85568392925397854,"keywords":["nocrits","nodmgspread","payload","uncletopia"],"game_id":440,"stv_port":27056,"stv_name":"Uncletopia | Warsaw | 5 | Stopwatch Beta | STV","players":null},{"server_id":54,"name":"Uncletopia | Warsaw | 6 | Community","name_short":"waw-6","host":"waw-1.pl.uncletopia.com","port":27065,"enabled":true,"region":"eu","cc":"pl","latitude":52.2297,"longitude":21.017532,"reserved":0,"last_update":"0001-01-01T00:00:00Z","name_a2s":"Uncletopia | Warsaw | 6 | Community","protocol":17,"map":"koth_lakeside_final","folder":"tf","game":"Team Fortress","app_id":440,"player_count":0,"max_players":24,"Bots":0,"server_type":"Dedicated","server_os":"Linux","password":true,"vac":true,"version":"7757534","steam_id":85568392925397856,"keywords":["cp","nocrits","nodmgspread","uncletopia"],"game_id":440,"stv_port":27066,"stv_name":"Uncletopia | Warsaw | 6 | Community | STV","players":null}]}