{"status":true,"message":"","result":[{"server_id":9,"name":"Uncletopia | Atlanta | 1 | All Maps","name_short":"atl-1","host":"atl-1.us.uncletopia.com","port":27015,"enabled":true,"region":"us-east","cc":"us","latitude":33.753746,"longitude":-84.38633,"reserved":0,"last_update":"0001-01-01T00:00:00Z","name_a2s":"Uncletopia | Atlanta | 1 | All Maps","protocol":17,"map":"pl_snowycoast","folder":"tf","game":"Team Fortress","app_id":440,"player_count":0,"max_players":24,"Bots":0,"server_type":"Dedicated","server_os":"Linux","password":true,"vac":true,"version":"7961495","steam_id":85568392924469982,"keywords":["nocrits","nodmgspread","payload","uncletopia"],"game_id":440,"stv_port":27016,"stv_name":"Uncletopia | Atlanta | 1 | All Maps | STV","players":null},{"server_id":104,"name":"Uncletopia | Atlanta | 2 | All Maps","name_short":"atl-2","host":"atl-1.us.uncletopia.com","port":27025,"enabled":true,"region":"us-east","cc":"us","latitude":33.753746,"longitude":-84.38633,"reserved":0,"last_update":"0001-01-01T00:00:00Z","name_a2s":"Uncletopia | Atlanta | 2 | All Maps","protocol":17,"map":"koth_cascade","folder":"tf","game":"Team Fortress","app_id":440,"player_count":0,"max_players":24,"Bots":0,"server_type":"Dedicated","server_os":"Linux","password":true,"vac":true,"version":"7961495","steam_id":85568392924469983,"keywords":["cp","nocrits","nodmgspread","uncletopia"],"game_id":440,"stv_port":27026,"stv_name":"Uncletopia | Atlanta | 2 | All Maps | STV","players":null},{"server_id":400,"name":"Uncletopia | Atlanta | 3 | Stopwatch","name_short":"atl-3","host":"atl-1.us.uncletopia.com","port":27035,"enabled":true,"region":"us-east","cc":"us","latitude":33.753746,"longitude":-84.38633,"reserved":0,"last_update":"0001-01-01T00:00:00Z","name_a2s":"Uncletopia | Atlanta | 3 | Stopwatch","protocol":17,"map":"pl_badwater","folder":"tf","game":"Team Fortress","app_id":440,"player_count":0,"max_players":24,"Bots":0,"server_type":"Dedicated","server_os":"Linux","password":true,"vac":true,"version":"7961495","steam_id":85568392924515187,"keywords":["nocrits","nodmgspread","payload","uncletopia"],"game_id":440,"stv_port":27036,"stv_name":"Uncletopia | Atlanta | 3 | Stopwatch | STV","players":null},{"server_id":401,"name":"Uncletopia | Atlanta | 4 | Community","name_short":"atl-4","host":"atl-1.us.uncletopia.com","port":27045,"enabled":true,"region":"us-east","cc":"us","latitude":33.753746,"longitude":-84.38633,"reserved":0,"last_update":"0001-01-01T00:00:00Z","name_a2s":"Uncletopia | Atlanta | 4 | Community","protocol":17,"map":"cp_propaganda_b18","folder":"tf","game":"Team Fortress","app_id":440,"player_count":0,"max_players":24,"Bots":0,"server_type":"Dedicated","server_os":"Linux","password":true,"vac":true,"version":"7961495","steam_id":85568392924515188,"keywords":["cp","nocrits","nodmgspread","uncletopia"],"game_id":440,"stv_port":27046,"stv_name":"Uncletopia | Atlanta | 4 | Community | STV","players":null},{"server_id":2,"name":"Uncletopia | Chicago | 1 | All Maps","name_short":"chi-1","host":"chi-1.us.uncletopia.com","port":27015,"enabled":true,"region":"us-central","cc":"us","latitude":41.881832,"longitude":-87.62318,"reserved":0,"last_update":"0001-01-01T00:00:00Z","name_a2s":"Uncletopia | Chicago | 1 | All Maps","protocol":17,"map":"koth_lakeside_final","folder":"tf","game":"Team Fortress","app_id":440,"player_count":24,"max_players":24,"Bots":0,"server_type":"Dedicated","server_os":"Linux","password":true,"vac":true,"version":"7961495","steam_id":85568392924469984,"keywords":["cp","nocrits","nodmgspread","uncletopia"],"game_id":440,"stv_port":27016,"stv_name":"Uncletopia | Chicago | 1 | All Maps | STV","players":[{"user_id":123,"name":"the_woof","steam_id":76561197975329130,"connected_time":117000000000,"state":"active","ping":44},{"user_id":73,"name":"DuckKey","steam_id":76561198904477889,"connected_time":4287000000000,"state":"active","ping":58},{"user_id":119,"name":"Dutch","steam_id":76561198040969743,"connected_time":162000000000,"state":"active","ping":75},{"user_id":116,"name":"MR MODE","steam_id":76561198046775352,"connected_time":172000000000,"state":"active","ping":96},{"user_id":120,"name":"Impresio","steam_id":76561198129127347,"connected_time":155000000000,"state":"active","ping":63},{"user_id":103,"name":"GooniOoni","steam_id":76561198102154561,"connected_time":1237000000000,"state":"active","ping":41},{"user_id":58,"name":"The Great Eagle Scourge of 1822","steam_id":76561198325086209,"connected_time":5383000000000,"state":"active","ping":110},{"user_id":115,"name":"blazzeh","steam_id":76561198053407069,"connected_time":176000000000,"state":"active","ping":123},{"user_id":121,"name":"Cuttle's Fish","steam_id":76561198280483257,"connected_time":151000000000,"state":"active","ping":44},{"user_id":112,"name":"speedy","steam_id":76561197974493959,"connected_time":291000000000,"state":"active","ping":63},{"user_id":96,"name":"rivera","steam_id":76561198051058706,"connected_time":2024000000000,"state":"active","ping":56},{"user_id":41,"name":"Cheems","steam_id":76561198269074039,"connected_time":5904000000000,"state":"active","ping":74},{"user_id":82,"name":"She Love Me Long Time","steam_id":76561198083851689,"connected_time":2946000000000,"state":"active","ping":57},{"user_id":113,"name":"flappyflap2","steam_id":76561198285048973,"connected_time":188000000000,"state":"active","ping":63},{"user_id":97,"name":"majorbobfunction","steam_id":76561198042464632,"connected_time":1872000000000,"state":"active","ping":46},{"user_id":86,"name":"Animal Slices","steam_id":76561198137545511,"connected_time":2806000000000,"state":"active","ping":63},{"user_id":114,"name":"SqueakyPiston","steam_id":76561198092321743,"connected_time":187000000000,"state":"active","ping":62},{"user_id":60,"name":"WHAT","steam_id":76561198172609874,"connected_time":5381000000000,"state":"active","ping":89},{"user_id":108,"name":"Enderneer","steam_id":76561198012136653,"connected_time":814000000000,"state":"active","ping":60},{"user_id":122,"name":"Ðιяту BɄβblє","steam_id":76561198382555244,"connected_time":146000000000,"state":"active","ping":73},{"user_id":92,"name":"你是同性恋","steam_id":76561199073296535,"connected_time":2161000000000,"state":"active","ping":48},{"user_id":94,"name":"MetalNavigator","steam_id":76561198974231439,"connected_time":2149000000000,"state":"active","ping":114},{"user_id":53,"name":"skoops","steam_id":76561198083276946,"connected_time":5689000000000,"state":"active","ping":69},{"user_id":66,"name":"NikoOS (NO SOUND)","steam_id":76561198180020521,"connected_time":4973000000000,"state":"active","ping":113}]},{"server_id":106,"name":"Uncletopia | Chicago | 2 | All Maps","name_short":"chi-2","host":"chi-1.us.uncletopia.com","port":27025,"enabled":true,"region":"us-central","cc":"us","latitude":41.881832,"longitude":-87.62318,"reserved":0,"last_update":"0001-01-01T00:00:00Z","name_a2s":"Uncletopia | Chicago | 2 | All Maps","protocol":17,"map":"cp_snakewater_final1","folder":"tf","game":"Team Fortress","app_id":440,"player_count":24,"max_players":24,"Bots":0,"server_type":"Dedicated","server_os":"Linux","password":true,"vac":true,"version":"7961495","steam_id":85568392924469985,"keywords":["cp","nocrits","nodmgspread","uncletopia"],"game_id":440,"stv_port":27026,"stv_name":"Uncletopia | Chicago | 2 | All Maps | STV","players":[{"user_id":202,"name":"Matthew 10:39","steam_id":76561198121933439,"connected_time":79000000000,"state":"active","ping":99},{"user_id":185,"name":"taigaxx","steam_id":76561198202669250,"connected_time":1165000000000,"state":"active","ping":69},{"user_id":186,"name":"cotton","steam_id":76561198018652890,"connected_time":1140000000000,"state":"active","ping":65},{"user_id":188,"name":"pim","steam_id":76561198095163441,"connected_time":1074000000000,"state":"active","ping":68},{"user_id":190,"name":"goon squad","steam_id":76561198402168146,"connected_time":993000000000,"state":"active","ping":54},{"user_id":199,"name":"Quark","steam_id":76561198328155605,"connected_time":87000000000,"state":"active","ping":54},{"user_id":187,"name":"Nespreco","steam_id":76561198252035336,"connected_time":1101000000000,"state":"active","ping":58},{"user_id":88,"name":"I'm Only 4 Inches","steam_id":76561198055542546,"connected_time":6454000000000,"state":"active","ping":68},{"user_id":198,"name":"enhanced with disney's FastPlay","steam_id":76561198164134387,"connected_time":103000000000,"state":"active","ping":110},{"user_id":183,"name":"Dokkibai","steam_id":76561198355935693,"connected_time":1180000000000,"state":"active","ping":51},{"user_id":120,"name":"Bussy Bandit","steam_id":76561198034028769,"connected_time":3431000000000,"state":"active","ping":59},{"user_id":196,"name":"Chimpish","steam_id":76561199263493270,"connected_time":258000000000,"state":"active","ping":95},{"user_id":200,"name":"cyberas","steam_id":76561198257092290,"connected_time":86000000000,"state":"active","ping":95},{"user_id":203,"name":"TobyTurner32","steam_id":76561198018801418,"connected_time":61000000000,"state":"active","ping":90},{"user_id":201,"name":"Lutz","steam_id":76561198319233787,"connected_time":82000000000,"state":"active","ping":96},{"user_id":189,"name":"Heathcliff","steam_id":76561198044288534,"connected_time":1051000000000,"state":"active","ping":91},{"user_id":136,"name":"Carbonated Cocaine","steam_id":76561198110678966,"connected_time":1948000000000,"state":"active","ping":70},{"user_id":204,"name":"Koffy","steam_id":76561198184386039,"connected_time":56000000000,"state":"spawning","ping":100},{"user_id":194,"name":"mechiimi","steam_id":76561198321627268,"connected_time":309000000000,"state":"active","ping":129},{"user_id":134,"name":"ＲＥＤ","steam_id":76561198030282308,"connected_time":2285000000000,"state":"active","ping":100},{"user_id":193,"name":"doydoydoydoydoy","steam_id":76561198037803087,"connected_time":653000000000,"state":"active","ping":70},{"user_id":205,"name":"Shooter of Walls","steam_id":76561197988105207,"connected_time":55000000000,"state":"active","ping":71},{"user_id":195,"name":"squart guy","steam_id":76561199411560141,"connected_time":308000000000,"state":"active","ping":104},{"user_id":184,"name":"freeyja","steam_id":76561198249206656,"connected_time":1177000000000,"state":"active","ping":65}]},{"server_id":402,"name":"Uncletopia | Chicago | 3 | All Maps","name_short":"chi-3","host":"chi-1.us.uncletopia.com","port":27035,"enabled":true,"region":"us-central","cc":"us","latitude":41.881832,"longitude":-87.62318,"reserved":0,"last_update":"0001-01-01T00:00:00Z","name_a2s":"Uncletopia | Chicago | 3 | All Maps","protocol":17,"map":"pl_pier","folder":"tf","game":"Team Fortress","app_id":440,"player_count":24,"max_players":24,"Bots":0,"server_type":"Dedicated","server_os":"Linux","password":true,"vac":true,"version":"7961495","steam_id":85568392924515191,"keywords":["nocrits","nodmgspread","payload","uncletopia"],"game_id":440,"stv_port":27036,"stv_name":"Uncletopia | Chicago | 3 | All Maps | STV","players":[{"user_id":8,"name":"g00bur","steam_id":76561197993622520,"connected_time":4957000000000,"state":"active","ping":69},{"user_id":64,"name":"BurnN8or101","steam_id":76561198132668224,"connected_time":1847000000000,"state":"active","ping":55},{"user_id":5,"name":"Psychosis","steam_id":76561198078659070,"connected_time":5017000000000,"state":"active","ping":74},{"user_id":75,"name":"The Legendary Dappergrade","steam_id":76561198004238822,"connected_time":1453000000000,"state":"active","ping":65},{"user_id":70,"name":"Mog","steam_id":76561198025575870,"connected_time":1572000000000,"state":"active","ping":56},{"user_id":74,"name":"LunarrD","steam_id":76561198811220107,"connected_time":1515000000000,"state":"active","ping":102},{"user_id":69,"name":"Mr. Call You Back","steam_id":76561198025172811,"connected_time":1577000000000,"state":"active","ping":56},{"user_id":84,"name":"Rornir","steam_id":76561198081829615,"connected_time":312000000000,"state":"active","ping":41},{"user_id":41,"name":"DragonJimmy","steam_id":76561198272966565,"connected_time":3568000000000,"state":"active","ping":85},{"user_id":54,"name":"Zanartan","steam_id":76561198050528902,"connected_time":2853000000000,"state":"active","ping":187},{"user_id":43,"name":"nefarious criminal","steam_id":76561198077506415,"connected_time":3414000000000,"state":"active","ping":55},{"user_id":47,"name":"Goob Oy","steam_id":76561198889932456,"connected_time":3294000000000,"state":"active","ping":51},{"user_id":85,"name":"Andrew","steam_id":76561198070615190,"connected_time":307000000000,"state":"active","ping":61},{"user_id":86,"name":"brawndo luvr","steam_id":76561198202436474,"connected_time":169000000000,"state":"active","ping":60},{"user_id":71,"name":"Spyincorporated","steam_id":76561198080956951,"connected_time":1559000000000,"state":"active","ping":66},{"user_id":87,"name":"adrymarker","steam_id":76561198316948699,"connected_time":126000000000,"state":"active","ping":72},{"user_id":22,"name":"Drachma","steam_id":76561198007310514,"connected_time":4402000000000,"state":"active","ping":59},{"user_id":23,"name":"ThatGamingKiwi","steam_id":76561199170522237,"connected_time":4391000000000,"state":"active","ping":80},{"user_id":82,"name":"Snugboo","steam_id":76561198147970327,"connected_time":321000000000,"state":"active","ping":59},{"user_id":55,"name":"cocoabaen","steam_id":76561199088857564,"connected_time":2786000000000,"state":"active","ping":83},{"user_id":83,"name":"Relic","steam_id":76561198071200441,"connected_time":321000000000,"state":"active","ping":75},{"user_id":80,"name":"StaigerDuck","steam_id":76561199190706582,"connected_time":529000000000,"state":"active","ping":85},{"user_id":34,"name":"Fred II (2011)","steam_id":76561199240694966,"connected_time":4106000000000,"state":"active","ping":60},{"user_id":66,"name":"Lawn Mower","steam_id":76561199029189825,"connected_time":1652000000000,"state":"active","ping":75}]},{"server_id":403,"name":"Uncletopia | Chicago | 4 | All Maps","name_short":"chi-4","host":"chi-1.us.uncletopia.com","port":27045,"enabled":true,"region":"us-central","cc":"us","latitude":41.881832,"longitude":-87.62318,"reserved":0,"last_update":"0001-01-01T00:00:00Z","name_a2s":"Uncletopia | Chicago | 4 | All Maps","protocol":17,"map":"koth_cascade","folder":"tf","game":"Team Fortress","app_id":440,"player_count":0,"max_players":24,"Bots":0,"server_type":"Dedicated","server_os":"Linux","password":true,"vac":true,"version":"7961495","steam_id":85568392924515193,"keywords":["cp","nocrits","nodmgspread","uncletopia"],"game_id":440,"stv_port":27046,"stv_name":"Uncletopia | Chicago | 4 | All Maps | STV","players":null},{"server_id":36,"name":"Uncletopia | Chicago | 5 | All Maps","name_short":"chi-5","host":"chi-2.us.uncletopia.com","port":27015,"enabled":true,"region":"us-central","cc":"us","latitude":41.881832,"longitude":-87.62318,"reserved":0,"last_update":"0001-01-01T00:00:00Z","name_a2s":"Uncletopia | Chicago | 5 | All Maps","protocol":17,"map":"pl_swiftwater_final1","folder":"tf","game":"Team Fortress","app_id":440,"player_count":0,"max_players":24,"Bots":0,"server_type":"Dedicated","server_os":"Linux","password":true,"vac":true,"version":"7961495","steam_id":85568392924866362,"keywords":["nocrits","nodmgspread","payload","uncletopia"],"game_id":440,"stv_port":27016,"stv_name":"Uncletopia | Chicago | 5 | All Maps | STV","players":null},{"server_id":37,"name":"Uncletopia | Chicago | 6 | All Maps","name_short":"chi-6","host":"chi-2.us.uncletopia.com","port":27025,"enabled":true,"region":"us-central","cc":"us","latitude":41.881832,"longitude":-87.62318,"reserved":0,"last_update":"0001-01-01T00:00:00Z","name_a2s":"Uncletopia | Chicago | 6 | All Maps","protocol":17,"map":"pl_frontier_final","folder":"tf","game":"Team Fortress","app_id":440,"player_count":0,"max_players":24,"Bots":0,"server_type":"Dedicated","server_os":"Linux","password":true,"vac":true,"version":"7961495","steam_id":85568392924866363,"keywords":["nocrits","nodmgspread","payload","uncletopia"],"game_id":440,"stv_port":27026,"stv_name":"Uncletopia | Chicago | 6 | All Maps | STV","players":null},{"server_id":38,"name":"Uncletopia | Chicago | 7 | Stopwatch","name_short":"chi-7","host":"chi-2.us.uncletopia.com","port":27035,"enabled":true,"region":"us-central","cc":"us","latitude":41.881832,"longitude":-87.62318,"reserved":0,"last_update":"0001-01-01T00:00:00Z","name_a2s":"Uncletopia | Chicago | 7 | Stopwatch","protocol":17,"map":"pl_badwater","folder":"tf","game":"Team Fortress","app_id":440,"player_count":0,"max_players":24,"Bots":0,"server_type":"Dedicated","server_os":"Linux","password":true,"vac":true,"version":"7961495","steam_id":85568392924866364,"keywords":["nocrits","nodmgspread","payload","uncletopia"],"game_id":440,"stv_port":27036,"stv_name":"Uncletopia | Chicago | 7 | Stopwatch | STV","players":null},{"server_id":39,"name":"Uncletopia | Chicago | 8 | Community","name_short":"chi-8","host":"chi-2.us.uncletopia.com","port":27045,"enabled":true,"region":"us-central","cc":"us","latitude":41.881832,"longitude":-87.62318,"reserved":0,"last_update":"0001-01-01T00:00:00Z","name_a2s":"Uncletopia | Chicago | 8 | Community","protocol":17,"map":"pl_pier","folder":"tf","game":"Team Fortress","app_id":440,"player_count":0,"max_players":24,"Bots":0,"server_type":"Dedicated","server_os":"Linux","password":true,"vac":true,"version":"7961495","steam_id":85568392924866365,"keywords":["nocrits","nodmgspread","payload","uncletopia"],"game_id":440,"stv_port":27046,"stv_name":"Uncletopia | Chicago | 8 | Community | STV","players":null},{"server_id":8,"name":"Uncletopia | Dallas | 1 | All Maps","name_short":"dal-1","host":"dal-1.us.uncletopia.com","port":27015,"enabled":true,"region":"us-central","cc":"us","latitude":32.779167,"longitude":-96.80889,"reserved":0,"last_update":"0001-01-01T00:00:00Z","name_a2s":"Uncletopia | Dallas | 1 | All Maps","protocol":17,"map":"pl_swiftwater_final1","folder":"tf","game":"Team Fortress","app_id":440,"player_count":24,"max_players":24,"Bots":0,"server_type":"Dedicated","server_os":"Linux","password":true,"vac":true,"version":"7961495","steam_id":85568392924469986,"keywords":["nocrits","nodmgspread","payload","uncletopia"],"game_id":440,"stv_port":27016,"stv_name":"Uncletopia | Dallas | 1 | All Maps | STV","players":[{"user_id":250,"name":"OrangeCrab","steam_id":76561198982248872,"connected_time":2100000000000,"state":"active","ping":75},{"user_id":274,"name":"Meathouse","steam_id":76561198169966346,"connected_time":131000000000,"state":"active","ping":108},{"user_id":245,"name":"Frank Horrigan","steam_id":76561198066504831,"connected_time":2135000000000,"state":"active","ping":85},{"user_id":275,"name":"Cleverless Biped","steam_id":76561198045984856,"connected_time":21000000000,"state":"active","ping":112},{"user_id":253,"name":"Roscuro","steam_id":76561198059814922,"connected_time":2057000000000,"state":"active","ping":55},{"user_id":264,"name":"w a o w","steam_id":76561198060769385,"connected_time":1044000000000,"state":"active","ping":92},{"user_id":231,"name":"Borgir","steam_id":76561198325390265,"connected_time":3727000000000,"state":"active","ping":60},{"user_id":228,"name":"Mury","steam_id":76561198069743049,"connected_time":4035000000000,"state":"active","ping":106},{"user_id":254,"name":"HUESO","steam_id":76561198276383681,"connected_time":2055000000000,"state":"active","ping":84},{"user_id":145,"name":"SadFapping","steam_id":76561198076651049,"connected_time":10376000000000,"state":"active","ping":108},{"user_id":256,"name":"Major Woody","steam_id":76561198835541533,"connected_time":1870000000000,"state":"active","ping":51},{"user_id":261,"name":"sam","steam_id":76561198088504281,"connected_time":1262000000000,"state":"active","ping":78},{"user_id":257,"name":"TheGrassMan (He/Him)","steam_id":76561198118984048,"connected_time":1831000000000,"state":"active","ping":86},{"user_id":268,"name":"need a dispenser here","steam_id":76561198060912995,"connected_time":439000000000,"state":"active","ping":75},{"user_id":232,"name":"Ass Blaster, Disaster Master","steam_id":76561197997774469,"connected_time":3687000000000,"state":"active","ping":60},{"user_id":272,"name":"Chirp","steam_id":76561198240780230,"connected_time":204000000000,"state":"active","ping":80},{"user_id":265,"name":"Jango","steam_id":76561198084589742,"connected_time":807000000000,"state":"active","ping":75},{"user_id":209,"name":"PackingPeanutt :]","steam_id":76561199053229413,"connected_time":4868000000000,"state":"active","ping":97},{"user_id":242,"name":"Cargo","steam_id":76561198065535025,"connected_time":2562000000000,"state":"active","ping":90},{"user_id":269,"name":"gooch_masta","steam_id":76561198151578423,"connected_time":283000000000,"state":"active","ping":89},{"user_id":241,"name":"Satchamo","steam_id":76561198012968239,"connected_time":2668000000000,"state":"active","ping":93},{"user_id":239,"name":"Drive-By-Fish-Guy","steam_id":76561198105513652,"connected_time":2934000000000,"state":"active","ping":98},{"user_id":249,"name":"Necronoxide","steam_id":76561197997856321,"connected_time":2118000000000,"state":"active","ping":98},{"user_id":252,"name":"Phosu","steam_id":76561198180162801,"connected_time":2097000000000,"state":"active","ping":67}]},{"server_id":108,"name":"Uncletopia | Dallas | 2 | All Maps","name_short":"dal-2","host":"dal-1.us.uncletopia.com","port":27025,"enabled":true,"region":"us-central","cc":"us","latitude":32.779167,"longitude":-96.80889,"reserved":0,"last_update":"0001-01-01T00:00:00Z","name_a2s":"Uncletopia | Dallas | 2 | All Maps","protocol":17,"map":"pl_badwater","folder":"tf","game":"Team Fortress","app_id":440,"player_count":0,"max_players":24,"Bots":0,"server_type":"Dedicated","server_os":"Linux","password":true,"vac":true,"version":"7961495","steam_id":85568392924469988,"keywords":["nocrits","nodmgspread","payload","uncletopia"],"game_id":440,"stv_port":27026,"stv_name":"Uncletopia | Dallas | 2 | All Maps | STV","players":null},{"server_id":404,"name":"Uncletopia | Dallas | 3 | All Maps","name_short":"dal-3","host":"dal-1.us.uncletopia.com","port":27035,"enabled":true,"region":"us-central","cc":"us","latitude":32.779167,"longitude":-96.80889,"reserved":0,"last_update":"0001-01-01T00:00:00Z","name_a2s":"Uncletopia | Dallas | 3 | All Maps","protocol":17,"map":"pl_swiftwater_final1","folder":"tf","game":"Team Fortress","app_id":440,"player_count":0,"max_players":24,"Bots":0,"server_type":"Dedicated","server_os":"Linux","password":true,"vac":true,"version":"7961495","steam_id":85568392924515219,"keywords":["nocrits","nodmgspread","payload","uncletopia"],"game_id":440,"stv_port":27036,"stv_name":"Uncletopia | Dallas | 3 | All Maps | STV","players":null},{"server_id":405,"name":"Uncletopia | Dallas | 4 | Community","name_short":"dal-4","host":"dal-1.us.uncletopia.com","port":27045,"enabled":true,"region":"us-central","cc":"us","latitude":32.779167,"longitude":-96.80889,"reserved":0,"last_update":"0001-01-01T00:00:00Z","name_a2s":"Uncletopia | Dallas | 4 | Community","protocol":17,"map":"workshop/pl_corrode_rc2.ugc546577989","folder":"tf","game":"Team Fortress","app_id":440,"player_count":0,"max_players":24,"Bots":0,"server_type":"Dedicated","server_os":"Linux","password":true,"vac":true,"version":"7961495","steam_id":85568392924515220,"keywords":["nocrits","nodmgspread","payload","uncletopia"],"game_id":440,"stv_port":27046,"stv_name":"Uncletopia | Dallas | 4 | Community | STV","players":null},{"server_id":5,"name":"Uncletopia | Frankfurt | 1 | All Maps","name_short":"frk-1","host":"frk-1.de.uncletopia.com","port":27015,"enabled":true,"region":"eu","cc":"de","latitude":50.110924,"longitude":8.682127,"reserved":0,"last_update":"0001-01-01T00:00:00Z","name_a2s":"Uncletopia | Frankfurt | 1 | All Maps","protocol":17,"map":"pl_borneo","folder":"tf","game":"Team Fortress","app_id":440,"player_count":24,"max_players":24,"Bots":0,"server_type":"Dedicated","server_os":"Linux","password":true,"vac":true,"version":"7961495","steam_id":85568392924469989,"keywords":["nocrits","nodmgspread","payload","uncletopia"],"game_id":440,"stv_port":27016,"stv_name":"Uncletopia | Frankfurt | 1 | All Maps | STV","players":[{"user_id":272,"name":"Urfangonultasadana","steam_id":76561199389286151,"connected_time":980000000000,"state":"active","ping":98},{"user_id":288,"name":"Mazy","steam_id":76561199228308631,"connected_time":57000000000,"state":"active","ping":75},{"user_id":270,"name":"Somephoenix","steam_id":76561198838424791,"connected_time":1089000000000,"state":"active","ping":50},{"user_id":289,"name":"Bombilla","steam_id":76561198084281798,"connected_time":6000000000,"state":"active","ping":164},{"user_id":274,"name":"Amandus","steam_id":76561198036281079,"connected_time":904000000000,"state":"active","ping":56},{"user_id":278,"name":"G-Man (aka Gangsta Man)","steam_id":76561198871991529,"connected_time":789000000000,"state":"active","ping":75},{"user_id":269,"name":"BOLAXA","steam_id":76561198228406008,"connected_time":1186000000000,"state":"active","ping":77},{"user_id":210,"name":"SirVitek","steam_id":76561198142961758,"connected_time":6170000000000,"state":"active","ping":68},{"user_id":267,"name":"TнundeгCuпт","steam_id":76561198135091800,"connected_time":1475000000000,"state":"active","ping":49},{"user_id":215,"name":"Daruun","steam_id":76561198019068781,"connected_time":5323000000000,"state":"active","ping":71},{"user_id":249,"name":"Greg","steam_id":76561198014131702,"connected_time":3499000000000,"state":"active","ping":109},{"user_id":256,"name":"remi, she wrote.","steam_id":76561198044045655,"connected_time":2598000000000,"state":"active","ping":75},{"user_id":286,"name":"I have 42 pipe bombs in my ass","steam_id":76561199111979000,"connected_time":120000000000,"state":"active","ping":54},{"user_id":280,"name":"Crimson","steam_id":76561197987552332,"connected_time":313000000000,"state":"active","ping":43},{"user_id":279,"name":"Pan Piotr","steam_id":76561198140016126,"connected_time":755000000000,"state":"active","ping":68},{"user_id":262,"name":"NReallyS","steam_id":76561198979795815,"connected_time":1925000000000,"state":"active","ping":62},{"user_id":271,"name":"kubasirus","steam_id":76561198216313280,"connected_time":1089000000000,"state":"active","ping":68},{"user_id":281,"name":"Mike","steam_id":76561198228455736,"connected_time":302000000000,"state":"active","ping":64},{"user_id":290,"name":"SSAdam","steam_id":76561198244670152,"connected_time":1000000000,"state":"spawning","ping":73},{"user_id":287,"name":"Wattseyy","steam_id":76561198248567360,"connected_time":72000000000,"state":"active","ping":45},{"user_id":277,"name":"Gold","steam_id":76561198071111501,"connected_time":850000000000,"state":"active","ping":61},{"user_id":236,"name":"Dad","steam_id":76561198048551680,"connected_time":4515000000000,"state":"active","ping":54},{"user_id":253,"name":"Veirū Viseris","steam_id":76561197989857176,"connected_time":2830000000000,"state":"active","ping":74},{"user_id":285,"name":"tzino","steam_id":76561199076883472,"connected_time":260000000000,"state":"active","ping":79}]},{"server_id":110,"name":"Uncletopia | Frankfurt | 2 | All Maps","name_short":"frk-2","host":"frk-1.de.uncletopia.com","port":27025,"enabled":true,"region":"eu","cc":"de","latitude":50.110924,"longitude":8.682127,"reserved":0,"last_update":"0001-01-01T00:00:00Z","name_a2s":"Uncletopia | Frankfurt | 2 | All Maps","protocol":17,"map":"cp_process_final","folder":"tf","game":"Team Fortress","app_id":440,"player_count":19,"max_players":24,"Bots":0,"server_type":"Dedicated","server_os":"Linux","password":true,"vac":true,"version":"7961495","steam_id":85568392924469990,"keywords":["cp","nocrits","nodmgspread","uncletopia"],"game_id":440,"stv_port":27026,"stv_name":"Uncletopia | Frankfurt | 2 | All Maps | STV","players":[{"user_id":185,"name":"kbourbery","steam_id":76561198109943492,"connected_time":2742000000000,"state":"active","ping":66},{"user_id":159,"name":"Paułó","steam_id":76561198286747891,"connected_time":5201000000000,"state":"spawning","ping":85},{"user_id":186,"name":"notane","steam_id":76561198182987846,"connected_time":2735000000000,"state":"active","ping":61},{"user_id":237,"name":"TheDeath","steam_id":76561198265038954,"connected_time":469000000000,"state":"active","ping":63},{"user_id":134,"name":"Aspartus","steam_id":76561198101385763,"connected_time":6443000000000,"state":"active","ping":32},{"user_id":226,"name":"Dry","steam_id":76561198027164095,"connected_time":1556000000000,"state":"active","ping":110},{"user_id":222,"name":"glorpis","steam_id":76561199225333422,"connected_time":1660000000000,"state":"active","ping":67},{"user_id":231,"name":"pepsi gaming","steam_id":76561199440200558,"connected_time":846000000000,"state":"active","ping":85},{"user_id":177,"name":"I-I","steam_id":76561198267969436,"connected_time":4057000000000,"state":"active","ping":63},{"user_id":221,"name":"Uncle Sam","steam_id":76561197968551107,"connected_time":1690000000000,"state":"active","ping":96},{"user_id":239,"name":"skill issue gaming","steam_id":76561198057316498,"connected_time":368000000000,"state":"active","ping":66},{"user_id":232,"name":"blissful overdose","steam_id":76561199092286532,"connected_time":821000000000,"state":"active","ping":77},{"user_id":240,"name":"Olaznot","steam_id":76561199111472610,"connected_time":254000000000,"state":"active","ping":76},{"user_id":235,"name":"Cosmetic brain","steam_id":76561198055936410,"connected_time":583000000000,"state":"active","ping":75},{"user_id":223,"name":"shima","steam_id":76561199042470246,"connected_time":1653000000000,"state":"active","ping":55},{"user_id":236,"name":"Rockfrenzy","steam_id":76561198005428050,"connected_time":529000000000,"state":"active","ping":55},{"user_id":146,"name":"Laysketchup","steam_id":76561198798891390,"connected_time":6004000000000,"state":"active","ping":61},{"user_id":230,"name":"MISTER SUIIII","steam_id":76561198018330092,"connected_time":1385000000000,"state":"active","ping":63},{"user_id":147,"name":"Kepucz","steam_id":76561197977634244,"connected_time":6001000000000,"state":"active","ping":52}]},{"server_id":308,"name":"Uncletopia | Frankfurt | 3 | All Maps","name_short":"frk-3","host":"frk-1.de.uncletopia.com","port":27035,"enabled":true,"region":"eu","cc":"de","latitude":50.110924,"longitude":8.682127,"reserved":0,"last_update":"0001-01-01T00:00:00Z","name_a2s":"Uncletopia | Frankfurt | 3 | All Maps","protocol":17,"map":"pl_borneo","folder":"tf","game":"Team Fortress","app_id":440,"player_count":18,"max_players":24,"Bots":0,"server_type":"Dedicated","server_os":"Linux","password":true,"vac":true,"version":"7961495","steam_id":85568392924504274,"keywords":["nocrits","nodmgspread","payload","uncletopia"],"game_id":440,"stv_port":27036,"stv_name":"Uncletopia | Frankfurt | 3 | All Maps | STV","players":[{"user_id":159,"name":"kilo","steam_id":76561198015641339,"connected_time":1902000000000,"state":"active","ping":63},{"user_id":191,"name":"[dopijus]","steam_id":76561198943009513,"connected_time":36000000000,"state":"connecting","ping":88},{"user_id":166,"name":"IHaveConsumed30KmofMeth","steam_id":76561199221172552,"connected_time":1636000000000,"state":"spawning","ping":71},{"user_id":184,"name":"Von","steam_id":76561198166177348,"connected_time":688000000000,"state":"spawning","ping":32},{"user_id":192,"name":"Tri-","steam_id":76561198133524794,"connected_time":31000000000,"state":"active","ping":52},{"user_id":186,"name":"Mimic","steam_id":76561199204932956,"connected_time":647000000000,"state":"active","ping":43},{"user_id":178,"name":"mhib","steam_id":76561198048037379,"connected_time":888000000000,"state":"active","ping":75},{"user_id":179,"name":"Toasted Toby","steam_id":76561198002139581,"connected_time":871000000000,"state":"active","ping":75},{"user_id":182,"name":"GrzMik","steam_id":76561198061951968,"connected_time":748000000000,"state":"active","ping":79},{"user_id":156,"name":"Maya #transrights","steam_id":76561198290614621,"connected_time":2230000000000,"state":"spawning","ping":206},{"user_id":180,"name":"unKr","steam_id":76561198342024316,"connected_time":865000000000,"state":"active","ping":75},{"user_id":183,"name":"Remenos","steam_id":76561198029337778,"connected_time":738000000000,"state":"active","ping":94},{"user_id":187,"name":"oskaroku00","steam_id":76561199025360128,"connected_time":644000000000,"state":"active","ping":65},{"user_id":190,"name":"Marchioly","steam_id":76561198335079215,"connected_time":341000000000,"state":"active","ping":105},{"user_id":189,"name":"MR BUBBLES","steam_id":76561198019005259,"connected_time":584000000000,"state":"active","ping":90},{"user_id":173,"name":"Immense Messi","steam_id":76561198106789280,"connected_time":1360000000000,"state":"active","ping":96},{"user_id":158,"name":"MUWEQ","steam_id":76561198107615727,"connected_time":2094000000000,"state":"active","ping":74},{"user_id":136,"name":"Waltism","steam_id":76561199447676489,"connected_time":3739000000000,"state":"active","ping":79}]},{"server_id":309,"name":"Uncletopia | Frankfurt | 4 | All Maps","name_short":"frk-4","host":"frk-1.de.uncletopia.com","port":27045,"enabled":true,"region":"eu","cc":"de","latitude":50.110924,"longitude":8.682127,"reserved":0,"last_update":"0001-01-01T00:00:00Z","name_a2s":"Uncletopia | Frankfurt | 4 | All Maps","protocol":17,"map":"koth_highpass","folder":"tf","game":"Team Fortress","app_id":440,"player_count":1,"max_players":24,"Bots":0,"server_type":"Dedicated","server_os":"Linux","password":true,"vac":true,"version":"7961495","steam_id":85568392924504275,"keywords":["cp","nocrits","nodmgspread","uncletopia"],"game_id":440,"stv_port":27046,"stv_name":"Uncletopia | Frankfurt | 4 | All Maps | STV","players":[{"user_id":20,"name":"Frat Ro Cazz Beta","steam_id":76561198823529926,"connected_time":76000000000,"state":"active","ping":65}]},{"server_id":310,"name":"Uncletopia | Frankfurt | 5 | All Maps","name_short":"frk-5","host":"frk-1.de.uncletopia.com","port":27055,"enabled":true,"region":"eu","cc":"de","latitude":50.110924,"longitude":8.682127,"reserved":0,"last_update":"0001-01-01T00:00:00Z","name_a2s":"Uncletopia | Frankfurt | 5 | All Maps","protocol":17,"map":"cp_sunshine","folder":"tf","game":"Team Fortress","app_id":440,"player_count":24,"max_players":24,"Bots":0,"server_type":"Dedicated","server_os":"Linux","password":true,"vac":true,"version":"7961495","steam_id":85568392924504277,"keywords":["cp","nocrits","nodmgspread","uncletopia"],"game_id":440,"stv_port":27056,"stv_name":"Uncletopia | Frankfurt | 5 | All Maps | STV","players":[{"user_id":333,"name":"Serg","steam_id":76561198218959001,"connected_time":351000000000,"state":"active","ping":57},{"user_id":328,"name":"smookie20","steam_id":76561198435986481,"connected_time":543000000000,"state":"active","ping":59},{"user_id":329,"name":"Marabosha","steam_id":76561198137599173,"connected_time":517000000000,"state":"active","ping":103},{"user_id":330,"name":"PLUTO","steam_id":76561198312436128,"connected_time":515000000000,"state":"active","ping":123},{"user_id":262,"name":"badrobot","steam_id":76561198322878356,"connected_time":6015000000000,"state":"active","ping":105},{"user_id":332,"name":"Weed Fortress 2","steam_id":76561198860424456,"connected_time":380000000000,"state":"active","ping":57},{"user_id":334,"name":"just_a_regular_player","steam_id":76561199229608132,"connected_time":338000000000,"state":"active","ping":86},{"user_id":335,"name":"klondike bar","steam_id":76561198199127763,"connected_time":309000000000,"state":"active","ping":152},{"user_id":336,"name":"a regular cat","steam_id":76561198164675078,"connected_time":251000000000,"state":"active","ping":62},{"user_id":325,"name":"Saint","steam_id":76561198003296382,"connected_time":839000000000,"state":"active","ping":61},{"user_id":303,"name":"NotAmazed","steam_id":76561199125729567,"connected_time":2441000000000,"state":"active","ping":63},{"user_id":342,"name":"Roman","steam_id":76561197967683724,"connected_time":137000000000,"state":"active","ping":52},{"user_id":315,"name":"man","steam_id":76561198060530483,"connected_time":1985000000000,"state":"active","ping":71},{"user_id":260,"name":"Zor","steam_id":76561198009851383,"connected_time":6480000000000,"state":"active","ping":77},{"user_id":274,"name":"Grillem Dafoe","steam_id":76561198306874574,"connected_time":4583000000000,"state":"active","ping":76},{"user_id":338,"name":"Dr. Le Quack","steam_id":76561197995711176,"connected_time":218000000000,"state":"active","ping":80},{"user_id":339,"name":"Skleton","steam_id":76561198238097290,"connected_time":217000000000,"state":"active","ping":76},{"user_id":319,"name":"I Love Filtered Water","steam_id":76561198016042113,"connected_time":1406000000000,"state":"active","ping":82},{"user_id":346,"name":"Chopperson_","steam_id":76561198873728497,"connected_time":63000000000,"state":"active","ping":106},{"user_id":225,"name":"Dont Rely on me, im very bad","steam_id":76561198362116755,"connected_time":8602000000000,"state":"active","ping":139},{"user_id":82,"name":"marvi444","steam_id":76561198431534139,"connected_time":19933000000000,"state":"active","ping":47},{"user_id":312,"name":"Rappin' Sebastian","steam_id":76561198453928256,"connected_time":2186000000000,"state":"active","ping":64},{"user_id":341,"name":"Tymqs","steam_id":76561198186541753,"connected_time":197000000000,"state":"active","ping":97},{"user_id":344,"name":"Dīng.Zhèn1996","steam_id":76561198152681460,"connected_time":131000000000,"state":"active","ping":74}]},{"server_id":311,"name":"Uncletopia | Frankfurt | 6 | All Maps","name_short":"frk-6","host":"frk-1.de.uncletopia.com","port":27065,"enabled":true,"region":"eu","cc":"de","latitude":50.110924,"longitude":8.682127,"reserved":0,"last_update":"0001-01-01T00:00:00Z","name_a2s":"Uncletopia | Frankfurt | 6 | All Maps","protocol":17,"map":"pl_badwater","folder":"tf","game":"Team Fortress","app_id":440,"player_count":24,"max_players":24,"Bots":0,"server_type":"Dedicated","server_os":"Linux","password":true,"vac":true,"version":"7961495","steam_id":85568392924504278,"keywords":["nocrits","nodmgspread","payload","uncletopia"],"game_id":440,"stv_port":27066,"stv_name":"Uncletopia | Frankfurt | 6 | All Maps | STV","players":[{"user_id":147,"name":"Fran","steam_id":76561199070516960,"connected_time":1178000000000,"state":"active","ping":61},{"user_id":150,"name":"Happy Wolf","steam_id":76561197993525766,"connected_time":1009000000000,"state":"active","ping":89},{"user_id":123,"name":"blurst of times","steam_id":76561197972325640,"connected_time":2333000000000,"state":"active","ping":49},{"user_id":57,"name":"DarkMelody","steam_id":76561198063225937,"connected_time":7077000000000,"state":"active","ping":111},{"user_id":58,"name":"Hott","steam_id":76561198120339101,"connected_time":7064000000000,"state":"active","ping":89},{"user_id":87,"name":"The Blue Engineer","steam_id":76561198397503718,"connected_time":4430000000000,"state":"active","ping":72},{"user_id":117,"name":"Bubba","steam_id":76561198141743942,"connected_time":3013000000000,"state":"active","ping":88},{"user_id":149,"name":"Grekofun","steam_id":76561198758029808,"connected_time":1047000000000,"state":"active","ping":73},{"user_id":154,"name":"dinorno","steam_id":76561198146276830,"connected_time":745000000000,"state":"active","ping":66},{"user_id":160,"name":"banrab","steam_id":76561198083615367,"connected_time":189000000000,"state":"active","ping":51},{"user_id":139,"name":"カサル109","steam_id":76561199060729711,"connected_time":1849000000000,"state":"active","ping":73},{"user_id":152,"name":"herr_p","steam_id":76561198033072222,"connected_time":985000000000,"state":"active","ping":61},{"user_id":146,"name":"Mr.raccoon","steam_id":76561198247751074,"connected_time":1445000000000,"state":"active","ping":60},{"user_id":143,"name":"The Leaf","steam_id":76561199219653853,"connected_time":1618000000000,"state":"active","ping":52},{"user_id":130,"name":"TheAnonymeKiller","steam_id":76561198190680978,"connected_time":2206000000000,"state":"active","ping":59},{"user_id":153,"name":"АнЮшЕчКа^_^","steam_id":76561197994492154,"connected_time":972000000000,"state":"active","ping":60},{"user_id":157,"name":"Boki","steam_id":76561198044553351,"connected_time":437000000000,"state":"active","ping":62},{"user_id":131,"name":"Mario","steam_id":76561198079985072,"connected_time":2201000000000,"state":"active","ping":63},{"user_id":115,"name":"AdeAAa","steam_id":76561198974207724,"connected_time":3658000000000,"state":"active","ping":102},{"user_id":141,"name":"Núúb","steam_id":76561198111933414,"connected_time":1811000000000,"state":"active","ping":74},{"user_id":137,"name":"PileofPolygons","steam_id":76561199321343460,"connected_time":2118000000000,"state":"active","ping":158},{"user_id":159,"name":"Special Agent Big Smoke","steam_id":76561198154468827,"connected_time":340000000000,"state":"active","ping":76},{"user_id":116,"name":"Peskyplumber64","steam_id":76561198044458330,"connected_time":3647000000000,"state":"active","ping":77},{"user_id":119,"name":"Lukas","steam_id":76561198454286820,"connected_time":2971000000000,"state":"active","ping":73}]},{"server_id":23,"name":"Uncletopia | Frankfurt | 7 | Stopwatch","name_short":"frk-7","host":"frk-1.de.uncletopia.com","port":27075,"enabled":true,"region":"eu","cc":"de","latitude":50.110924,"longitude":8.682127,"reserved":0,"last_update":"0001-01-01T00:00:00Z","name_a2s":"Uncletopia | Frankfurt | 7 | Stopwatch","protocol":17,"map":"workshop/pl_vigil_rc10.ugc1266210012","folder":"tf","game":"Team Fortress","app_id":440,"player_count":0,"max_players":24,"Bots":0,"server_type":"Dedicated","server_os":"Linux","password":true,"vac":true,"version":"7961495","steam_id":85568392924742827,"keywords":["nocrits","nodmgspread","payload","uncletopia"],"game_id":440,"stv_port":27076,"stv_name":"Uncletopia | Frankfurt | 7 | Stopwatch | STV","players":null},{"server_id":24,"name":"Uncletopia | Frankfurt | 8 | Community","name_short":"frk-8","host":"frk-1.de.uncletopia.com","port":27085,"enabled":true,"region":"eu","cc":"de","latitude":50.110924,"longitude":8.682127,"reserved":0,"last_update":"0001-01-01T00:00:00Z","name_a2s":"Uncletopia | Frankfurt | 8 | Community","protocol":17,"map":"cp_mountainlab","folder":"tf","game":"Team Fortress","app_id":440,"player_count":0,"max_players":24,"Bots":0,"server_type":"Dedicated","server_os":"Linux","password":true,"vac":true,"version":"7961495","steam_id":85568392924742828,"keywords":["cp","nocrits","nodmgspread","uncletopia"],"game_id":440,"stv_port":27086,"stv_name":"Uncletopia | Frankfurt | 8 | Community | STV","players":null},{"server_id":202,"name":"Uncletopia | Hong Kong | 1 | All Maps","name_short":"hgk-1","host":"hgk-1.hk.uncletopia.com","port":27015,"enabled":true,"region":"asia","cc":"hk","latitude":22.302711,"longitude":114.177216,"reserved":0,"last_update":"0001-01-01T00:00:00Z","name_a2s":"Uncletopia | Hong Kong | 1 | All Maps","protocol":17,"map":"koth_harvest_final","folder":"tf","game":"Team Fortress","app_id":440,"player_count":23,"max_players":24,"Bots":0,"server_type":"Dedicated","server_os":"Linux","password":true,"vac":true,"version":"7961495","steam_id":85568392924494504,"keywords":["cp","nocrits","nodmgspread","uncletopia"],"game_id":440,"stv_port":27016,"stv_name":"Uncletopia | Hong Kong | 1 | All Maps | STV","players":[{"user_id":583,"name":"YOLOp","steam_id":76561198009995591,"connected_time":2421000000000,"state":"active","ping":75},{"user_id":504,"name":"yuki","steam_id":76561198088403016,"connected_time":9706000000000,"state":"active","ping":100},{"user_id":598,"name":"母の肉団子@hao123.com","steam_id":76561198069561896,"connected_time":94000000000,"state":"active","ping":44},{"user_id":596,"name":"fish","steam_id":76561198378829574,"connected_time":250000000000,"state":"active","ping":57},{"user_id":555,"name":"Lu","steam_id":76561198320532821,"connected_time":5101000000000,"state":"active","ping":58},{"user_id":590,"name":"Beef Wellington","steam_id":76561197995635241,"connected_time":975000000000,"state":"active","ping":119},{"user_id":521,"name":"moomin","steam_id":76561197994194946,"connected_time":7821000000000,"state":"active","ping":93},{"user_id":585,"name":"ConHoshi","steam_id":76561199387718733,"connected_time":2406000000000,"state":"active","ping":81},{"user_id":568,"name":"Waltuh (Real)","steam_id":76561199257300024,"connected_time":3058000000000,"state":"active","ping":80},{"user_id":534,"name":"oda","steam_id":76561197985719327,"connected_time":6582000000000,"state":"active","ping":102},{"user_id":570,"name":"Heinz 100 Natural Mustard","steam_id":76561198197984095,"connected_time":3041000000000,"state":"active","ping":89},{"user_id":599,"name":"wom","steam_id":76561199375834537,"connected_time":90000000000,"state":"active","ping":80},{"user_id":569,"name":"screaming sniper","steam_id":76561199085568674,"connected_time":3052000000000,"state":"active","ping":80},{"user_id":549,"name":"Momoxhien","steam_id":76561198414997429,"connected_time":6173000000000,"state":"active","ping":63},{"user_id":591,"name":"i am a F2P and my aim is shit","steam_id":76561199475974790,"connected_time":447000000000,"state":"active","ping":88},{"user_id":600,"name":"GrotesqueHorse","steam_id":76561198151298791,"connected_time":76000000000,"state":"active","ping":92},{"user_id":556,"name":"415455","steam_id":76561198141630395,"connected_time":5100000000000,"state":"active","ping":130},{"user_id":601,"name":"JDSFE","steam_id":76561198975490851,"connected_time":5000000000,"state":"spawning","ping":126},{"user_id":576,"name":"https://bad-dragon.com","steam_id":76561198086760958,"connected_time":2560000000000,"state":"active","ping":163},{"user_id":589,"name":"Prussian","steam_id":76561198974248745,"connected_time":1138000000000,"state":"active","ping":54},{"user_id":588,"name":"Crazywayne","steam_id":76561198056504010,"connected_time":1308000000000,"state":"active","ping":90},{"user_id":559,"name":"tiden2000","steam_id":76561198092969425,"connected_time":5084000000000,"state":"active","ping":86},{"user_id":574,"name":"avered","steam_id":76561199480939609,"connected_time":2763000000000,"state":"active","ping":79}]},{"server_id":1,"name":"Uncletopia | Los Angeles | 1 | All Maps","name_short":"lax-1","host":"lax-1.us.uncletopia.com","port":27015,"enabled":true,"region":"us-west","cc":"us","latitude":33.94279,"longitude":-118.41004,"reserved":0,"last_update":"0001-01-01T00:00:00Z","name_a2s":"Uncletopia | Los Angeles | 1 | All Maps","protocol":17,"map":"koth_viaduct","folder":"tf","game":"Team Fortress","app_id":440,"player_count":0,"max_players":24,"Bots":0,"server_type":"Dedicated","server_os":"Linux","password":true,"vac":true,"version":"7961495","steam_id":85568392924469991,"keywords":["cp","nocrits","nodmgspread","uncletopia"],"game_id":440,"stv_port":27016,"stv_name":"Uncletopia | Los Angeles | 1 | All Maps | STV","players":null},{"server_id":112,"name":"Uncletopia | Los Angeles | 2 | All Maps","name_short":"lax-2","host":"lax-1.us.uncletopia.com","port":27025,"enabled":true,"region":"us-west","cc":"us","latitude":33.94279,"longitude":-118.41004,"reserved":0,"last_update":"0001-01-01T00:00:00Z","name_a2s":"Uncletopia | Los Angeles | 2 | All Maps","protocol":17,"map":"cp_mountainlab","folder":"tf","game":"Team Fortress","app_id":440,"player_count":0,"max_players":24,"Bots":0,"server_type":"Dedicated","server_os":"Linux","password":true,"vac":true,"version":"7961495","steam_id":85568392924469992,"keywords":["cp","nocrits","nodmgspread","uncletopia"],"game_id":440,"stv_port":27026,"stv_name":"Uncletopia | Los Angeles | 2 | All Maps | STV","players":null},{"server_id":324,"name":"Uncletopia | Los Angeles | 3 | All Maps","name_short":"lax-3","host":"lax-1.us.uncletopia.com","port":27035,"enabled":true,"region":"us-west","cc":"us","latitude":33.94279,"longitude":-118.41004,"reserved":0,"last_update":"0001-01-01T00:00:00Z","name_a2s":"Uncletopia | Los Angeles | 3 | All Maps","protocol":17,"map":"cp_altitude","folder":"tf","game":"Team Fortress","app_id":440,"player_count":0,"max_players":24,"Bots":0,"server_type":"Dedicated","server_os":"Linux","password":true,"vac":true,"version":"7961495","steam_id":85568392924510198,"keywords":["cp","nocrits","nodmgspread","uncletopia"],"game_id":440,"stv_port":27036,"stv_name":"Uncletopia | Los Angeles | 3 | All Maps | STV","players":null},{"server_id":25,"name":"Uncletopia | Los Angeles | 4 | Stopwatch","name_short":"lax-4","host":"lax-1.us.uncletopia.com","port":27045,"enabled":true,"region":"us-west","cc":"us","latitude":33.94279,"longitude":-118.41004,"reserved":0,"last_update":"0001-01-01T00:00:00Z","name_a2s":"Uncletopia | Los Angeles | 4 | Stopwatch","protocol":17,"map":"workshop/pl_summercoast_rc8e.ugc1761528829","folder":"tf","game":"Team Fortress","app_id":440,"player_count":0,"max_players":24,"Bots":0,"server_type":"Dedicated","server_os":"Linux","password":true,"vac":true,"version":"7961495","steam_id":85568392924510199,"keywords":["nocrits","nodmgspread","payload","uncletopia"],"game_id":440,"stv_port":27046,"stv_name":"Uncletopia | Los Angeles | 4 | Stopwatch | STV","players":null},{"server_id":11,"name":"Uncletopia | London | 1 | All Maps","name_short":"lon-1","host":"lon-1.uk.uncletopia.com","port":27015,"enabled":true,"region":"eu","cc":"gb","latitude":51.509865,"longitude":-0.118092,"reserved":0,"last_update":"0001-01-01T00:00:00Z","name_a2s":"Uncletopia | London | 1 | All Maps","protocol":17,"map":"cp_snakewater_final1","folder":"tf","game":"Team Fortress","app_id":440,"player_count":24,"max_players":24,"Bots":0,"server_type":"Dedicated","server_os":"Linux","password":true,"vac":true,"version":"7961495","steam_id":85568392924367362,"keywords":["cp","nocrits","nodmgspread","uncletopia"],"game_id":440,"stv_port":27016,"stv_name":"Uncletopia | London | 1 | All Maps | STV","players":[{"user_id":278,"name":"Deformed Gollum","steam_id":76561198155563589,"connected_time":735000000000,"state":"active","ping":46},{"user_id":256,"name":"Rin-Nakaret","steam_id":76561197971051188,"connected_time":2392000000000,"state":"active","ping":60},{"user_id":260,"name":"DunkleG","steam_id":76561198053816186,"connected_time":1740000000000,"state":"active","ping":64},{"user_id":259,"name":"Nag","steam_id":76561197970488206,"connected_time":1810000000000,"state":"active","ping":65},{"user_id":281,"name":"Bonkovich","steam_id":76561198256800084,"connected_time":262000000000,"state":"active","ping":115},{"user_id":280,"name":"hbivnm#freeforsen","steam_id":76561197996468677,"connected_time":432000000000,"state":"active","ping":60},{"user_id":229,"name":"gr3821","steam_id":76561198091531010,"connected_time":4111000000000,"state":"active","ping":44},{"user_id":282,"name":"Luxotrics","steam_id":76561198053455161,"connected_time":247000000000,"state":"active","ping":87},{"user_id":247,"name":"dopamine overdose","steam_id":76561199032511302,"connected_time":2885000000000,"state":"active","ping":88},{"user_id":238,"name":"silicon based life form","steam_id":76561199127121346,"connected_time":3361000000000,"state":"active","ping":53},{"user_id":255,"name":"Rai_to","steam_id":76561199013720618,"connected_time":2409000000000,"state":"active","ping":86},{"user_id":285,"name":"yosh","steam_id":76561199316310715,"connected_time":29000000000,"state":"active","ping":90},{"user_id":248,"name":"he made graduation","steam_id":76561198017114970,"connected_time":2867000000000,"state":"active","ping":38},{"user_id":279,"name":"Level 1 Noob","steam_id":76561198088586340,"connected_time":706000000000,"state":"active","ping":56},{"user_id":253,"name":"Salih","steam_id":76561198287934839,"connected_time":2500000000000,"state":"active","ping":60},{"user_id":244,"name":"mr clean","steam_id":76561198024743746,"connected_time":3084000000000,"state":"active","ping":73},{"user_id":227,"name":"HereComesDarius","steam_id":76561199087615999,"connected_time":4407000000000,"state":"active","ping":42},{"user_id":276,"name":"Alexandre","steam_id":76561198121784446,"connected_time":1025000000000,"state":"active","ping":42},{"user_id":249,"name":"RSeph™","steam_id":76561198107908797,"connected_time":2839000000000,"state":"active","ping":72},{"user_id":265,"name":"Lemmy","steam_id":76561199038870751,"connected_time":1648000000000,"state":"active","ping":63},{"user_id":273,"name":"gnarly business","steam_id":76561198832688767,"connected_time":1159000000000,"state":"active","ping":48},{"user_id":277,"name":"Azorex","steam_id":76561198046042249,"connected_time":1013000000000,"state":"active","ping":86},{"user_id":269,"name":"Insanitybomb","steam_id":76561198048707708,"connected_time":1617000000000,"state":"active","ping":59},{"user_id":226,"name":"Sakari","steam_id":76561197997811299,"connected_time":4568000000000,"state":"active","ping":61}]},{"server_id":114,"name":"Uncletopia | London | 2 | All Maps","name_short":"lon-2","host":"lon-1.uk.uncletopia.com","port":27025,"enabled":true,"region":"eu","cc":"gb","latitude":51.509865,"longitude":-0.118092,"reserved":0,"last_update":"0001-01-01T00:00:00Z","name_a2s":"Uncletopia | London | 2 | All Maps","protocol":17,"map":"pl_snowycoast","folder":"tf","game":"Team Fortress","app_id":440,"player_count":0,"max_players":24,"Bots":0,"server_type":"Dedicated","server_os":"Linux","password":true,"vac":true,"version":"7961495","steam_id":85568392924470941,"keywords":["nocrits","nodmgspread","payload","uncletopia"],"game_id":440,"stv_port":27026,"stv_name":"Uncletopia | London | 2 | All Maps | STV","players":null},{"server_id":320,"name":"Uncletopia | London | 3 | All Maps","name_short":"lon-3","host":"lon-1.uk.uncletopia.com","port":27035,"enabled":true,"region":"eu","cc":"gb","latitude":51.509865,"longitude":-0.118092,"reserved":0,"last_update":"0001-01-01T00:00:00Z","name_a2s":"Uncletopia | London | 3 | All Maps","protocol":17,"map":"cp_sunshine","folder":"tf","game":"Team Fortress","app_id":440,"player_count":0,"max_players":24,"Bots":0,"server_type":"Dedicated","server_os":"Linux","password":true,"vac":true,"version":"7961495","steam_id":85568392924510192,"keywords":["cp","nocrits","nodmgspread","uncletopia"],"game_id":440,"stv_port":27036,"stv_name":"Uncletopia | London | 3 | All Maps | STV","players":null},{"server_id":321,"name":"Uncletopia | London | 4 | All Maps","name_short":"lon-4","host":"lon-1.uk.uncletopia.com","port":27045,"enabled":true,"region":"eu","cc":"gb","latitude":51.509865,"longitude":-0.118092,"reserved":0,"last_update":"0001-01-01T00:00:00Z","name_a2s":"Uncletopia | London | 4 | All Maps","protocol":17,"map":"ctf_doublecross","folder":"tf","game":"Team Fortress","app_id":440,"player_count":22,"max_players":24,"Bots":0,"server_type":"Dedicated","server_os":"Linux","password":true,"vac":true,"version":"7961495","steam_id":85568392924510193,"keywords":["ctf","nocrits","nodmgspread","uncletopia"],"game_id":440,"stv_port":27046,"stv_name":"Uncletopia | London | 4 | All Maps | STV","players":[{"user_id":370,"name":":3","steam_id":76561198169471853,"connected_time":8300000000000,"state":"active","ping":40},{"user_id":484,"name":"Asfedia","steam_id":76561199386836351,"connected_time":998000000000,"state":"active","ping":60},{"user_id":490,"name":"Cap","steam_id":76561197993692648,"connected_time":93000000000,"state":"active","ping":95},{"user_id":462,"name":"Greenmaker","steam_id":76561198060466591,"connected_time":2844000000000,"state":"active","ping":97},{"user_id":489,"name":"呂さんのリージョン","steam_id":76561198248239796,"connected_time":147000000000,"state":"spawning","ping":39},{"user_id":485,"name":"Scobra","steam_id":76561198000734400,"connected_time":658000000000,"state":"active","ping":108},{"user_id":403,"name":"Zerfesh","steam_id":76561198117534358,"connected_time":7242000000000,"state":"active","ping":106},{"user_id":474,"name":"=Xal=","steam_id":76561198052622095,"connected_time":1674000000000,"state":"active","ping":60},{"user_id":479,"name":"Ujin","steam_id":76561197995386642,"connected_time":1373000000000,"state":"active","ping":93},{"user_id":478,"name":"doctwoeight","steam_id":76561198153488940,"connected_time":1437000000000,"state":"active","ping":75},{"user_id":481,"name":"TreatFly","steam_id":76561198069707362,"connected_time":1247000000000,"state":"active","ping":52},{"user_id":470,"name":"kritz","steam_id":76561199486350718,"connected_time":2015000000000,"state":"active","ping":62},{"user_id":464,"name":"Tummy","steam_id":76561198045654910,"connected_time":2742000000000,"state":"active","ping":40},{"user_id":422,"name":"Caramelion","steam_id":76561198097429047,"connected_time":5690000000000,"state":"active","ping":66},{"user_id":433,"name":"rgb4","steam_id":76561198267916695,"connected_time":4468000000000,"state":"active","ping":45},{"user_id":447,"name":"elbow","steam_id":76561198531978435,"connected_time":3418000000000,"state":"active","ping":56},{"user_id":475,"name":"Tiad","steam_id":76561198283421457,"connected_time":1582000000000,"state":"active","ping":54},{"user_id":443,"name":"Ullr","steam_id":76561198140547483,"connected_time":3542000000000,"state":"active","ping":42},{"user_id":450,"name":"lillunya ♡","steam_id":76561198330418866,"connected_time":3316000000000,"state":"active","ping":70},{"user_id":486,"name":"skilltissues","steam_id":76561198025828664,"connected_time":503000000000,"state":"active","ping":53},{"user_id":413,"name":"disabled chimp","steam_id":76561198132062857,"connected_time":5986000000000,"state":"active","ping":73},{"user_id":488,"name":"thepokeyen","steam_id":76561198236847572,"connected_time":415000000000,"state":"active","ping":153}]},{"server_id":21,"name":"Uncletopia | London | 5 | All Maps","name_short":"lon-5","host":"lon-1.uk.uncletopia.com","port":27055,"enabled":true,"region":"eu","cc":"gb","latitude":51.509865,"longitude":-0.118092,"reserved":0,"last_update":"0001-01-01T00:00:00Z","name_a2s":"Uncletopia | London | 5 | All Maps","protocol":17,"map":"cp_dustbowl","folder":"tf","game":"Team Fortress","app_id":440,"player_count":22,"max_players":24,"Bots":0,"server_type":"Dedicated","server_os":"Linux","password":true,"vac":true,"version":"7961495","steam_id":85568392924742829,"keywords":["cp","nocrits","nodmgspread","uncletopia"],"game_id":440,"stv_port":27056,"stv_name":"Uncletopia | London | 5 | All Maps | STV","players":[{"user_id":138,"name":"Jennifer","steam_id":76561199474556920,"connected_time":108000000000,"state":"active","ping":120},{"user_id":9,"name":"stefanbejenari","steam_id":76561199466718294,"connected_time":9012000000000,"state":"active","ping":94},{"user_id":47,"name":"real open player","steam_id":76561198148115584,"connected_time":6419000000000,"state":"active","ping":73},{"user_id":136,"name":"Cheese","steam_id":76561198146419076,"connected_time":231000000000,"state":"active","ping":68},{"user_id":106,"name":"Penis Contortionist","steam_id":76561198073663784,"connected_time":2040000000000,"state":"active","ping":39},{"user_id":116,"name":"Endy","steam_id":76561198252942184,"connected_time":1340000000000,"state":"active","ping":122},{"user_id":117,"name":"Dr. Senpai","steam_id":76561199217893562,"connected_time":1262000000000,"state":"active","ping":71},{"user_id":120,"name":"Storm's Foreshadow","steam_id":76561198098462526,"connected_time":1164000000000,"state":"active","ping":68},{"user_id":139,"name":"DiracDeltaFunction","steam_id":76561199201624841,"connected_time":107000000000,"state":"active","ping":88},{"user_id":123,"name":"Following1000","steam_id":76561198100905393,"connected_time":1096000000000,"state":"active","ping":54},{"user_id":131,"name":"Glitch","steam_id":76561198801335846,"connected_time":710000000000,"state":"active","ping":28},{"user_id":137,"name":"Solarwind","steam_id":76561197982613226,"connected_time":183000000000,"state":"active","ping":60},{"user_id":126,"name":"Dwayne 'The Rock' Johnson","steam_id":76561198080072997,"connected_time":977000000000,"state":"active","ping":49},{"user_id":141,"name":"cez","steam_id":76561198361380956,"connected_time":93000000000,"state":"active","ping":58},{"user_id":127,"name":"Bird On Your Window","steam_id":76561198081933130,"connected_time":975000000000,"state":"active","ping":55},{"user_id":142,"name":"Lessoz","steam_id":76561199211572036,"connected_time":88000000000,"state":"active","ping":84},{"user_id":41,"name":"1914","steam_id":76561198257383813,"connected_time":6587000000000,"state":"active","ping":55},{"user_id":145,"name":"Vilmukas","steam_id":76561199106648396,"connected_time":43000000000,"state":"active","ping":57},{"user_id":129,"name":"DeterminedXD[HUN]","steam_id":76561199469006453,"connected_time":796000000000,"state":"active","ping":91},{"user_id":146,"name":"cof","steam_id":76561199128417805,"connected_time":35000000000,"state":"active","ping":159},{"user_id":130,"name":"theartistnathan","steam_id":76561198833787452,"connected_time":766000000000,"state":"active","ping":149},{"user_id":103,"name":"def","steam_id":76561198857396812,"connected_time":2896000000000,"state":"active","ping":52}]},{"server_id":22,"name":"Uncletopia | London | 6 | All Maps","name_short":"lon-6","host":"lon-1.uk.uncletopia.com","port":27065,"enabled":true,"region":"eu","cc":"gb","latitude":51.509865,"longitude":-0.118092,"reserved":0,"last_update":"0001-01-01T00:00:00Z","name_a2s":"Uncletopia | London | 6 | All Maps","protocol":17,"map":"pl_snowycoast","folder":"tf","game":"Team Fortress","app_id":440,"player_count":24,"max_players":24,"Bots":0,"server_type":"Dedicated","server_os":"Linux","password":true,"vac":true,"version":"7961495","steam_id":85568392924742830,"keywords":["nocrits","nodmgspread","payload","uncletopia"],"game_id":440,"stv_port":27066,"stv_name":"Uncletopia | London | 6 | All Maps | STV","players":[{"user_id":91,"name":"Average meme enjoyer","steam_id":76561199087566663,"connected_time":1227000000000,"state":"active","ping":90},{"user_id":65,"name":"Severeburrito16","steam_id":76561198353155991,"connected_time":3055000000000,"state":"active","ping":128},{"user_id":90,"name":"Chemzo","steam_id":76561199092858118,"connected_time":1310000000000,"state":"active","ping":158},{"user_id":92,"name":"Hamedius","steam_id":76561199152512027,"connected_time":1223000000000,"state":"active","ping":69},{"user_id":52,"name":"Haschgott 2.0","steam_id":76561198049820307,"connected_time":3595000000000,"state":"active","ping":69},{"user_id":99,"name":"Pablo Johnson","steam_id":76561199009805208,"connected_time":573000000000,"state":"active","ping":120},{"user_id":93,"name":"Fabric","steam_id":76561198118742661,"connected_time":1217000000000,"state":"active","ping":88},{"user_id":61,"name":"Electro_Creeper","steam_id":76561199196836893,"connected_time":3186000000000,"state":"active","ping":80},{"user_id":79,"name":"mogwaihudson","steam_id":76561199486770715,"connected_time":2411000000000,"state":"active","ping":52},{"user_id":94,"name":"ShadowTwin","steam_id":76561198046658200,"connected_time":1213000000000,"state":"active","ping":53},{"user_id":78,"name":"quickfast","steam_id":76561199438900919,"connected_time":2440000000000,"state":"active","ping":45},{"user_id":105,"name":"Huncho","steam_id":76561198065793608,"connected_time":67000000000,"state":"active","ping":77},{"user_id":101,"name":"Jray","steam_id":76561198831619367,"connected_time":545000000000,"state":"active","ping":187},{"user_id":98,"name":"BabyYodaIsMySoda","steam_id":76561198321846861,"connected_time":588000000000,"state":"active","ping":83},{"user_id":84,"name":"Wuffington","steam_id":76561198033762881,"connected_time":2119000000000,"state":"active","ping":46},{"user_id":41,"name":"TomNoSocks","steam_id":76561198114071046,"connected_time":4030000000000,"state":"active","ping":68},{"user_id":102,"name":"Dewisor","steam_id":76561198230971472,"connected_time":527000000000,"state":"active","ping":85},{"user_id":97,"name":"Purps","steam_id":76561198053886680,"connected_time":842000000000,"state":"active","ping":43},{"user_id":96,"name":"Soulman25 (FIN)","steam_id":76561198103611974,"connected_time":1200000000000,"state":"active","ping":107},{"user_id":103,"name":"H1DD3 gaming","steam_id":76561198855897385,"connected_time":520000000000,"state":"active","ping":68},{"user_id":104,"name":"I'm Training","steam_id":76561198215767833,"connected_time":517000000000,"state":"active","ping":195},{"user_id":87,"name":"Dzieciol","steam_id":76561198160237556,"connected_time":1419000000000,"state":"active","ping":75},{"user_id":45,"name":"murderwow","steam_id":76561198024566944,"connected_time":3969000000000,"state":"active","ping":105},{"user_id":77,"name":"Chloemew","steam_id":76561198042071762,"connected_time":2478000000000,"state":"active","ping":51}]},{"server_id":40,"name":"Uncletopia | London | 7 | Stopwatch","name_short":"lon-7","host":"lon-1.uk.uncletopia.com","port":27075,"enabled":true,"region":"eu","cc":"gb","latitude":51.509865,"longitude":-0.118092,"reserved":0,"last_update":"0001-01-01T00:00:00Z","name_a2s":"Uncletopia | London | 7 | Stopwatch","protocol":17,"map":"workshop/pl_badwater_pro_v12.ugc2142942074","folder":"tf","game":"Team Fortress","app_id":440,"player_count":0,"max_players":24,"Bots":0,"server_type":"Dedicated","server_os":"Linux","password":true,"vac":true,"version":"7961495","steam_id":85568392924964314,"keywords":["nocrits","nodmgspread","payload","uncletopia"],"game_id":440,"stv_port":27076,"stv_name":"Uncletopia | London | 7 | Stopwatch | STV","players":null},{"server_id":41,"name":"Uncletopia | London | 8 | Community","name_short":"lon-8","host":"lon-1.uk.uncletopia.com","port":27085,"enabled":true,"region":"eu","cc":"gb","latitude":51.509865,"longitude":-0.118092,"reserved":0,"last_update":"0001-01-01T00:00:00Z","name_a2s":"Uncletopia | London | 8 | Community","protocol":17,"map":"workshop/koth_ramjam_rc1.ugc459778887","folder":"tf","game":"Team Fortress","app_id":440,"player_count":0,"max_players":24,"Bots":0,"server_type":"Dedicated","server_os":"Linux","password":true,"vac":true,"version":"7961495","steam_id":85568392924964315,"keywords":["cp","nocrits","nodmgspread","uncletopia"],"game_id":440,"stv_port":27086,"stv_name":"Uncletopia | London | 8 | Community | STV","players":null},{"server_id":300,"name":"Uncletopia | Montréal | 1 | One Thousand Uncles","name_short":"mtl-1","host":"mtl-1.ca.uncletopia.com","port":27015,"enabled":true,"region":"us-east","cc":"ca","latitude":45.50889,"longitude":-73.56167,"reserved":0,"last_update":"0001-01-01T00:00:00Z","name_a2s":"","protocol":0,"map":"","folder":"","game":"","app_id":0,"player_count":0,"max_players":0,"Bots":0,"server_type":"","server_os":"","password":false,"vac":false,"version":"","steam_id":0,"keywords":null,"game_id":0,"stv_port":0,"stv_name":"","players":null},{"server_id":301,"name":"Uncletopia | Montréal | 2 | One Thousand Uncles","name_short":"mtl-2","host":"mtl-1.ca.uncletopia.com","port":27025,"enabled":true,"region":"us-east","cc":"ca","latitude":45.50889,"longitude":-73.56167,"reserved":0,"last_update":"0001-01-01T00:00:00Z","name_a2s":"","protocol":0,"map":"","folder":"","game":"","app_id":0,"player_count":0,"max_players":0,"Bots":0,"server_type":"","server_os":"","password":false,"vac":false,"version":"","steam_id":0,"keywords":null,"game_id":0,"stv_port":0,"stv_name":"","players":null},{"server_id":302,"name":"Uncletopia | Montréal | 3 | One Thousand Uncles","name_short":"mtl-3","host":"mtl-1.ca.uncletopia.com","port":27035,"enabled":true,"region":"us-east","cc":"ca","latitude":45.50889,"longitude":-73.56167,"reserved":0,"last_update":"0001-01-01T00:00:00Z","name_a2s":"","protocol":0,"map":"","folder":"","game":"","app_id":0,"player_count":0,"max_players":0,"Bots":0,"server_type":"","server_os":"","password":false,"vac":false,"version":"","steam_id":0,"keywords":null,"game_id":0,"stv_port":0,"stv_name":"","players":null},{"server_id":13,"name":"Uncletopia | New York City | 1 | All Maps","name_short":"nyc-1","host":"nyc-1.us.uncletopia.com","port":27015,"enabled":true,"region":"us-east","cc":"us","latitude":40.73061,"longitude":-73.93524,"reserved":0,"last_update":"0001-01-01T00:00:00Z","name_a2s":"Uncletopia | New York City | 1 | All Maps","protocol":17,"map":"koth_viaduct","folder":"tf","game":"Team Fortress","app_id":440,"player_count":11,"max_players":24,"Bots":0,"server_type":"Dedicated","server_os":"Linux","password":true,"vac":true,"version":"7961495","steam_id":85568392924469993,"keywords":["cp","nocrits","nodmgspread","uncletopia"],"game_id":440,"stv_port":27016,"stv_name":"Uncletopia | New York City | 1 | All Maps | STV","players":[{"user_id":30,"name":"Curse of the Blackened Eye","steam_id":76561198097175164,"connected_time":272000000000,"state":"active","ping":64},{"user_id":21,"name":"Xrath","steam_id":76561198220741860,"connected_time":928000000000,"state":"active","ping":39},{"user_id":20,"name":"Muffn","steam_id":76561198797691753,"connected_time":1495000000000,"state":"active","ping":75},{"user_id":29,"name":"Nordie","steam_id":76561198102297774,"connected_time":281000000000,"state":"active","ping":73},{"user_id":26,"name":"klinsy","steam_id":76561198047518261,"connected_time":520000000000,"state":"active","ping":75},{"user_id":24,"name":"Peri","steam_id":76561198255311543,"connected_time":780000000000,"state":"active","ping":63},{"user_id":25,"name":"fazecumshot69","steam_id":76561199248475270,"connected_time":645000000000,"state":"active","ping":58},{"user_id":27,"name":"frid","steam_id":76561198005806915,"connected_time":465000000000,"state":"active","ping":68},{"user_id":31,"name":"milk and cigarettes","steam_id":76561198079050329,"connected_time":203000000000,"state":"active","ping":51},{"user_id":34,"name":"MeatGrinderGuy(Vegans Beware)","steam_id":76561198833470398,"connected_time":18000000000,"state":"spawning","ping":57},{"user_id":33,"name":"Babylon Sister","steam_id":76561199195104977,"connected_time":128000000000,"state":"active","ping":62}]},{"server_id":14,"name":"Uncletopia | New York City | 2 | All Maps","name_short":"nyc-2","host":"nyc-1.us.uncletopia.com","port":27025,"enabled":true,"region":"us-east","cc":"us","latitude":40.73061,"longitude":-73.93524,"reserved":0,"last_update":"0001-01-01T00:00:00Z","name_a2s":"Uncletopia | New York City | 2 | All Maps","protocol":17,"map":"pl_pier","folder":"tf","game":"Team Fortress","app_id":440,"player_count":0,"max_players":24,"Bots":0,"server_type":"Dedicated","server_os":"Linux","password":true,"vac":true,"version":"7961495","steam_id":85568392924469994,"keywords":["nocrits","nodmgspread","payload","uncletopia"],"game_id":440,"stv_port":27026,"stv_name":"Uncletopia | New York City | 2 | All Maps | STV","players":null},{"server_id":15,"name":"Uncletopia | New York City | 3 | Stopwatch","name_short":"nyc-3","host":"nyc-1.us.uncletopia.com","port":27035,"enabled":true,"region":"us-east","cc":"us","latitude":40.73061,"longitude":-73.93524,"reserved":0,"last_update":"0001-01-01T00:00:00Z","name_a2s":"Uncletopia | New York City | 3 | Stopwatch","protocol":17,"map":"workshop/pl_barnblitz_pro7.ugc582280235","folder":"tf","game":"Team Fortress","app_id":440,"player_count":0,"max_players":24,"Bots":0,"server_type":"Dedicated","server_os":"Linux","password":true,"vac":true,"version":"7961495","steam_id":85568392924742820,"keywords":["nocrits","nodmgspread","payload","uncletopia"],"game_id":440,"stv_port":27036,"stv_name":"Uncletopia | New York City | 3 | Stopwatch | STV","players":null},{"server_id":16,"name":"Uncletopia | New York City | 4 | Community","name_short":"nyc-4","host":"nyc-1.us.uncletopia.com","port":27045,"enabled":true,"region":"us-east","cc":"us","latitude":40.73061,"longitude":-73.93524,"reserved":0,"last_update":"0001-01-01T00:00:00Z","name_a2s":"Uncletopia | New York City | 4 | Community","protocol":17,"map":"cp_altitude","folder":"tf","game":"Team Fortress","app_id":440,"player_count":0,"max_players":24,"Bots":0,"server_type":"Dedicated","server_os":"Linux","password":true,"vac":true,"version":"7961495","steam_id":85568392924742821,"keywords":["cp","nocrits","nodmgspread","uncletopia"],"game_id":440,"stv_port":27046,"stv_name":"Uncletopia | New York City | 4 | Community | STV","players":null},{"server_id":142,"name":"Uncletopia | São Paulo | 1 | All Maps","name_short":"sao-1","host":"sao-1.br.uncletopia.com","port":27015,"enabled":true,"region":"sa","cc":"br","latitude":-23.533773,"longitude":-46.62529,"reserved":0,"last_update":"0001-01-01T00:00:00Z","name_a2s":"Uncletopia | São Paulo | 1 | All Maps","protocol":17,"map":"koth_cascade","folder":"tf","game":"Team Fortress","app_id":440,"player_count":0,"max_players":24,"Bots":0,"server_type":"Dedicated","server_os":"Linux","password":true,"vac":true,"version":"7961495","steam_id":85568392924469996,"keywords":["cp","nocrits","nodmgspread","uncletopia"],"game_id":440,"stv_port":27016,"stv_name":"Uncletopia | São Paulo | 1 | All Maps | STV","players":null},{"server_id":143,"name":"Uncletopia | São Paulo | 2 | Community","name_short":"sao-2","host":"sao-2.br.uncletopia.com","port":27015,"enabled":true,"region":"sa","cc":"br","latitude":-23.533773,"longitude":-46.62529,"reserved":0,"last_update":"0001-01-01T00:00:00Z","name_a2s":"Uncletopia | São Paulo | 2 | Community","protocol":17,"map":"pl_badwater","folder":"tf","game":"Team Fortress","app_id":440,"player_count":0,"max_players":24,"Bots":0,"server_type":"Dedicated","server_os":"Linux","password":true,"vac":true,"version":"7961495","steam_id":85568392924485349,"keywords":["nocrits","nodmgspread","payload","uncletopia"],"game_id":440,"stv_port":27016,"stv_name":"Uncletopia | São Paulo | 2 | Community | STV","players":null},{"server_id":7,"name":"Uncletopia | Seattle | 1 | All Maps","name_short":"sea-1","host":"sea-1.us.uncletopia.com","port":27015,"enabled":true,"region":"us-west","cc":"us","latitude":47.608013,"longitude":-122.33517,"reserved":0,"last_update":"0001-01-01T00:00:00Z","name_a2s":"Uncletopia | Seattle | 1 | All Maps","protocol":17,"map":"pl_upward","folder":"tf","game":"Team Fortress","app_id":440,"player_count":7,"max_players":24,"Bots":0,"server_type":"Dedicated","server_os":"Linux","password":true,"vac":true,"version":"7961495","steam_id":85568392924469997,"keywords":["nocrits","nodmgspread","payload","uncletopia"],"game_id":440,"stv_port":27016,"stv_name":"Uncletopia | Seattle | 1 | All Maps | STV","players":[{"user_id":5,"name":"dust | it/she","steam_id":76561198045218909,"connected_time":3140000000000,"state":"active","ping":45},{"user_id":7,"name":"Themasterman75","steam_id":76561199385573293,"connected_time":2794000000000,"state":"active","ping":56},{"user_id":9,"name":"Jeramosa","steam_id":76561198811000094,"connected_time":1620000000000,"state":"active","ping":79},{"user_id":10,"name":"Satsugua","steam_id":76561199164497706,"connected_time":1548000000000,"state":"active","ping":77},{"user_id":18,"name":"🅜🅔🅔🅚🅢🅣🅔\ufffd\ufffd\ufffd","steam_id":76561197999748343,"connected_time":340000000000,"state":"active","ping":90},{"user_id":22,"name":"prime example of furry L","steam_id":76561198097745857,"connected_time":47000000000,"state":"active","ping":53},{"user_id":16,"name":"Sigma Balls","steam_id":76561198412592662,"connected_time":819000000000,"state":"active","ping":106}]},{"server_id":119,"name":"Uncletopia | Seattle | 2 | All Maps","name_short":"sea-2","host":"sea-1.us.uncletopia.com","port":27025,"enabled":true,"region":"us-west","cc":"us","latitude":47.608013,"longitude":-122.33517,"reserved":0,"last_update":"0001-01-01T00:00:00Z","name_a2s":"Uncletopia | Seattle | 2 | All Maps","protocol":17,"map":"cp_process_final","folder":"tf","game":"Team Fortress","app_id":440,"player_count":0,"max_players":24,"Bots":0,"server_type":"Dedicated","server_os":"Linux","password":true,"vac":true,"version":"7961495","steam_id":85568392924469998,"keywords":["cp","nocrits","nodmgspread","uncletopia"],"game_id":440,"stv_port":27026,"stv_name":"Uncletopia | Seattle | 2 | All Maps | STV","players":null},{"server_id":406,"name":"Uncletopia | Seattle | 3 | Stopwatch","name_short":"sea-3","host":"sea-1.us.uncletopia.com","port":27035,"enabled":true,"region":"us-west","cc":"us","latitude":47.608013,"longitude":-122.33517,"reserved":0,"last_update":"0001-01-01T00:00:00Z","name_a2s":"Uncletopia | Seattle | 3 | Stopwatch","protocol":17,"map":"pl_pier","folder":"tf","game":"Team Fortress","app_id":440,"player_count":0,"max_players":24,"Bots":0,"server_type":"Dedicated","server_os":"Linux","password":true,"vac":true,"version":"7961495","steam_id":85568392924515217,"keywords":["nocrits","nodmgspread","payload","uncletopia"],"game_id":440,"stv_port":27036,"stv_name":"Uncletopia | Seattle | 3 | Stopwatch | STV","players":null},{"server_id":17,"name":"Uncletopia | San Francisco | 1 | All Maps","name_short":"sfo-1","host":"sfo-1.us.uncletopia.com","port":27015,"enabled":true,"region":"us-west","cc":"us","latitude":37.77397,"longitude":-122.4313,"reserved":0,"last_update":"0001-01-01T00:00:00Z","name_a2s":"Uncletopia | San Francisco | 1 | All Maps","protocol":17,"map":"koth_cascade","folder":"tf","game":"Team Fortress","app_id":440,"player_count":0,"max_players":24,"Bots":0,"server_type":"Dedicated","server_os":"Linux","password":true,"vac":true,"version":"7961495","steam_id":85568392924469999,"keywords":["cp","nocrits","nodmgspread","uncletopia"],"game_id":440,"stv_port":27016,"stv_name":"Uncletopia | San Francisco | 1 | All Maps | STV","players":null},{"server_id":18,"name":"Uncletopia | San Francisco | 2 | All Maps","name_short":"sfo-2","host":"sfo-1.us.uncletopia.com","port":27025,"enabled":true,"region":"us-west","cc":"us","latitude":37.77397,"longitude":-122.4313,"reserved":0,"last_update":"0001-01-01T00:00:00Z","name_a2s":"Uncletopia | San Francisco | 2 | All Maps","protocol":17,"map":"pl_frontier_final","folder":"tf","game":"Team Fortress","app_id":440,"player_count":0,"max_players":24,"Bots":0,"server_type":"Dedicated","server_os":"Linux","password":true,"vac":true,"version":"7961495","steam_id":85568392924470000,"keywords":["nocrits","nodmgspread","payload","uncletopia"],"game_id":440,"stv_port":27026,"stv_name":"Uncletopia | San Francisco | 2 | All Maps | STV","players":null},{"server_id":19,"name":"Uncletopia | San Francisco | 3 | Stopwatch","name_short":"sfo-3","host":"sfo-1.us.uncletopia.com","port":27035,"enabled":true,"region":"us-west","cc":"us","latitude":37.77397,"longitude":-122.4313,"reserved":0,"last_update":"0001-01-01T00:00:00Z","name_a2s":"Uncletopia | San Francisco | 3 | Stopwatch","protocol":17,"map":"pl_pier","folder":"tf","game":"Team Fortress","app_id":440,"player_count":0,"max_players":24,"Bots":0,"server_type":"Dedicated","server_os":"Linux","password":true,"vac":true,"version":"7961495","steam_id":85568392924742824,"keywords":["nocrits","nodmgspread","payload","uncletopia"],"game_id":440,"stv_port":27036,"stv_name":"Uncletopia | San Francisco | 3 | Stopwatch | STV","players":null},{"server_id":20,"name":"Uncletopia | San Francisco | 4 | Community","name_short":"sfo-4","host":"sfo-1.us.uncletopia.com","port":27045,"enabled":true,"region":"us-west","cc":"us","latitude":37.77397,"longitude":-122.4313,"reserved":0,"last_update":"0001-01-01T00:00:00Z","name_a2s":"Uncletopia | San Francisco | 4 | Community","protocol":17,"map":"pl_pier","folder":"tf","game":"Team Fortress","app_id":440,"player_count":0,"max_players":24,"Bots":0,"server_type":"Dedicated","server_os":"Linux","password":true,"vac":true,"version":"7961495","steam_id":85568392924742826,"keywords":["nocrits","nodmgspread","payload","uncletopia"],"game_id":440,"stv_port":27046,"stv_name":"Uncletopia | San Francisco | 4 | Community | STV","players":null},{"server_id":141,"name":"Uncletopia | Sydney | 1 | All Maps","name_short":"syd-1","host":"syd-1.au.uncletopia.com","port":27015,"enabled":true,"region":"au","cc":"au","latitude":-33.865143,"longitude":151.2099,"reserved":0,"last_update":"0001-01-01T00:00:00Z","name_a2s":"Uncletopia | Sydney | 1 | All Maps","protocol":17,"map":"cp_gravelpit","folder":"tf","game":"Team Fortress","app_id":440,"player_count":4,"max_players":24,"Bots":0,"server_type":"Dedicated","server_os":"Linux","password":true,"vac":true,"version":"7961495","steam_id":85568392924470001,"keywords":["cp","nocrits","nodmgspread","uncletopia"],"game_id":440,"stv_port":27016,"stv_name":"Uncletopia | Sydney | 1 | All Maps | STV","players":[{"user_id":526,"name":"Golfing with Joel","steam_id":76561199161637215,"connected_time":1702000000000,"state":"active","ping":90},{"user_id":474,"name":"Destroy Lonely","steam_id":76561198183714687,"connected_time":6020000000000,"state":"active","ping":38},{"user_id":511,"name":"Uncle_Bowlcut","steam_id":76561198225191728,"connected_time":2960000000000,"state":"active","ping":51},{"user_id":470,"name":"little raw meat boy","steam_id":76561199248254676,"connected_time":6267000000000,"state":"active","ping":51}]},{"server_id":123,"name":"Uncletopia | Sydney | 2 | All Maps","name_short":"syd-2","host":"syd-1.au.uncletopia.com","port":27025,"enabled":true,"region":"au","cc":"au","latitude":-33.865143,"longitude":151.2099,"reserved":0,"last_update":"0001-01-01T00:00:00Z","name_a2s":"Uncletopia | Sydney | 2 | All Maps","protocol":17,"map":"koth_viaduct","folder":"tf","game":"Team Fortress","app_id":440,"player_count":0,"max_players":24,"Bots":0,"server_type":"Dedicated","server_os":"Linux","password":true,"vac":true,"version":"7961495","steam_id":85568392924470002,"keywords":["cp","nocrits","nodmgspread","uncletopia"],"game_id":440,"stv_port":27026,"stv_name":"Uncletopia | Sydney | 2 | All Maps | STV","players":null},{"server_id":395,"name":"Uncletopia | Sydney | 3 | All Maps","name_short":"syd-3","host":"syd-1.au.uncletopia.com","port":27035,"enabled":true,"region":"au","cc":"au","latitude":-33.865143,"longitude":151.2099,"reserved":0,"last_update":"0001-01-01T00:00:00Z","name_a2s":"Uncletopia | Sydney | 3 | All Maps","protocol":17,"map":"pl_upward","folder":"tf","game":"Team Fortress","app_id":440,"player_count":0,"max_players":24,"Bots":0,"server_type":"Dedicated","server_os":"Linux","password":true,"vac":true,"version":"7961495","steam_id":85568392925194467,"keywords":["nocrits","nodmgspread","payload","uncletopia"],"game_id":440,"stv_port":27036,"stv_name":"Uncletopia | Sydney | 3 | All Maps | STV","players":null},{"server_id":396,"name":"Uncletopia | Sydney | 4 | All Maps","name_short":"syd-4","host":"syd-1.au.uncletopia.com","port":27045,"enabled":true,"region":"au","cc":"au","latitude":-33.865143,"longitude":151.2099,"reserved":0,"last_update":"0001-01-01T00:00:00Z","name_a2s":"Uncletopia | Sydney | 4 | All Maps","protocol":17,"map":"koth_viaduct","folder":"tf","game":"Team Fortress","app_id":440,"player_count":0,"max_players":24,"Bots":0,"server_type":"Dedicated","server_os":"Linux","password":true,"vac":true,"version":"7961495","steam_id":85568392925397958,"keywords":["cp","nocrits","nodmgspread","uncletopia"],"game_id":440,"stv_port":27046,"stv_name":"Uncletopia | Sydney | 4 | All Maps | STV","players":null},{"server_id":58,"name":"Uncletopia | Sydney | 5 | Stopwatch","name_short":"syd-5","host":"syd-1.au.uncletopia.com","port":27055,"enabled":true,"region":"au","cc":"au","latitude":-33.865143,"longitude":151.2099,"reserved":0,"last_update":"0001-01-01T00:00:00Z","name_a2s":"Uncletopia | Sydney | 5 | Stopwatch","protocol":17,"map":"workshop/koth_ashville_final.ugc2130459942","folder":"tf","game":"Team Fortress","app_id":440,"player_count":0,"max_players":24,"Bots":0,"server_type":"Dedicated","server_os":"Linux","password":true,"vac":true,"version":"7961495","steam_id":85568392925397959,"keywords":["cp","nocrits","nodmgspread","uncletopia"],"game_id":440,"stv_port":27056,"stv_name":"Uncletopia | Sydney | 5 | Stopwatch | STV","players":null},{"server_id":59,"name":"Uncletopia | Sydney | 6 | Community","name_short":"syd-6","host":"syd-1.au.uncletopia.com","port":27065,"enabled":true,"region":"au","cc":"au","latitude":-33.865143,"longitude":151.2099,"reserved":0,"last_update":"0001-01-01T00:00:00Z","name_a2s":"Uncletopia | Sydney | 6 | Community","protocol":17,"map":"workshop/koth_slaughter_rc1.ugc1712845210","folder":"tf","game":"Team Fortress","app_id":440,"player_count":0,"max_players":24,"Bots":0,"server_type":"Dedicated","server_os":"Linux","password":true,"vac":true,"version":"7961495","steam_id":85568392925397960,"keywords":["cp","nocrits","nodmgspread","uncletopia"],"game_id":440,"stv_port":27066,"stv_name":"Uncletopia | Sydney | 6 | Community | STV","players":null},{"server_id":49,"name":"Uncletopia | Warsaw | 1 | One Thousand Uncles","name_short":"waw-1","host":"waw-1.pl.uncletopia.com","port":27015,"enabled":true,"region":"eu","cc":"pl","latitude":52.2297,"longitude":21.017532,"reserved":0,"last_update":"0001-01-01T00:00:00Z","name_a2s":"Uncletopia | Warsaw | 1 | One Thousand Uncles","protocol":17,"map":"pl_badwater","folder":"tf","game":"Team Fortress","app_id":440,"player_count":21,"max_players":32,"Bots":16,"server_type":"Dedicated","server_os":"Linux","password":true,"vac":true,"version":"7961495","steam_id":85568392925397850,"keywords":["alltalk","bots","danepve","increased_maxplayers","nocrits","norespawntime","payload","uncletopia"],"game_id":440,"stv_port":0,"stv_name":"","players":[{"user_id":291,"name":"Mr. Mundy","steam_id":76561198132008918,"connected_time":718000000000,"state":"active","ping":94},{"user_id":308,"name":"Stick on a Fish","steam_id":76561199136296029,"connected_time":338000000000,"state":"active","ping":89},{"user_id":309,"name":"Ixsus\u003c3","steam_id":76561198094756869,"connected_time":264000000000,"state":"active","ping":75},{"user_id":310,"name":"blåhaj peek","steam_id":76561198796577795,"connected_time":95000000000,"state":"active","ping":69},{"user_id":311,"name":"Ru$$ian most wanted","steam_id":76561198390666516,"connected_time":56000000000,"state":"active","ping":101}]},{"server_id":50,"name":"Uncletopia | Warsaw | 2 | One Thousand Uncles","name_short":"waw-2","host":"waw-1.pl.uncletopia.com","port":27025,"enabled":true,"region":"eu","cc":"pl","latitude":52.2297,"longitude":21.017532,"reserved":0,"last_update":"0001-01-01T00:00:00Z","name_a2s":"Uncletopia | Warsaw | 2 | One Thousand Uncles","protocol":17,"map":"pl_goldrush","folder":"tf","game":"Team Fortress","app_id":440,"player_count":30,"max_players":32,"Bots":16,"server_type":"Dedicated","server_os":"Linux","password":true,"vac":true,"version":"7961495","steam_id":85568392925397851,"keywords":["alltalk","bots","danepve","increased_maxplayers","nocrits","norespawntime","payload","uncletopia"],"game_id":440,"stv_port":0,"stv_name":"","players":[{"user_id":595,"name":"Piquesque","steam_id":76561198286763046,"connected_time":201000000000,"state":"active","ping":107},{"user_id":585,"name":"SynthBox3","steam_id":76561199094075745,"connected_time":1762000000000,"state":"active","ping":133},{"user_id":591,"name":"Caber Guy","steam_id":76561199072364251,"connected_time":965000000000,"state":"active","ping":56},{"user_id":556,"name":"Sherman2030","steam_id":76561199095619204,"connected_time":3331000000000,"state":"active","ping":62},{"user_id":526,"name":"Womanticore","steam_id":76561199235582031,"connected_time":4548000000000,"state":"active","ping":226},{"user_id":514,"name":"matvejisakov7","steam_id":76561199493568179,"connected_time":5387000000000,"state":"active","ping":130},{"user_id":598,"name":"cyka","steam_id":76561198451352431,"connected_time":141000000000,"state":"active","ping":60},{"user_id":554,"name":"Osmo","steam_id":76561199286764992,"connected_time":3688000000000,"state":"active","ping":59},{"user_id":531,"name":"Eujekas","steam_id":76561198010527145,"connected_time":4208000000000,"state":"active","ping":115},{"user_id":599,"name":"Kriter","steam_id":76561198368131803,"connected_time":116000000000,"state":"active","ping":74},{"user_id":557,"name":"Vibing Wave","steam_id":76561198866358613,"connected_time":3215000000000,"state":"active","ping":183},{"user_id":592,"name":"КА-50 вертушка","steam_id":76561198830207578,"connected_time":690000000000,"state":"active","ping":85},{"user_id":600,"name":"motherofdragons96","steam_id":76561198864779097,"connected_time":79000000000,"state":"active","ping":223},{"user_id":593,"name":"Acekeni™ ∤ [GMD]","steam_id":76561198352700499,"connected_time":554000000000,"state":"active","ping":56}]},{"server_id":51,"name":"Uncletopia | Warsaw | 3 | All Maps","name_short":"waw-3","host":"waw-1.pl.uncletopia.com","port":27035,"enabled":true,"region":"eu","cc":"pl","latitude":52.2297,"longitude":21.017532,"reserved":0,"last_update":"0001-01-01T00:00:00Z","name_a2s":"Uncletopia | Warsaw | 3 | All Maps","protocol":17,"map":"plr_hightower","folder":"tf","game":"Team Fortress","app_id":440,"player_count":0,"max_players":24,"Bots":0,"server_type":"Dedicated","server_os":"Linux","password":true,"vac":true,"version":"7961495","steam_id":85568392925397852,"keywords":["nocrits","nodmgspread","payload","uncletopia"],"game_id":440,"stv_port":27036,"stv_name":"Uncletopia | Warsaw | 3 | All Maps | STV","players":null},{"server_id":52,"name":"Uncletopia | Warsaw | 4 | All Maps","name_short":"waw-4","host":"waw-1.pl.uncletopia.com","port":27045,"enabled":true,"region":"eu","cc":"pl","latitude":52.2297,"longitude":21.017532,"reserved":0,"last_update":"0001-01-01T00:00:00Z","name_a2s":"Uncletopia | Warsaw | 4 | All Maps","protocol":17,"map":"koth_cascade","folder":"tf","game":"Team Fortress","app_id":440,"player_count":0,"max_players":24,"Bots":0,"server_type":"Dedicated","server_os":"Linux","password":true,"vac":true,"version":"7961495","steam_id":85568392925397853,"keywords":["cp","nocrits","nodmgspread","uncletopia"],"game_id":440,"stv_port":27046,"stv_name":"Uncletopia | Warsaw | 4 | All Maps | STV","players":null},{"server_id":53,"name":"Uncletopia | Warsaw | 5 | Stopwatch","name_short":"waw-5","host":"waw-1.pl.uncletopia.com","port":27055,"enabled":true,"region":"eu","cc":"pl","latitude":52.2297,"longitude":21.017532,"reserved":0,"last_update":"0001-01-01T00:00:00Z","name_a2s":"Uncletopia | Warsaw | 5 | Stopwatch","protocol":17,"map":"pl_upward","folder":"tf","game":"Team Fortress","app_id":440,"player_count":0,"max_players":24,"Bots":0,"server_type":"Dedicated","server_os":"Linux","password":true,"vac":true,"version":"7961495","steam_id":85568392925397854,"keywords":["nocrits","nodmgspread","payload","uncletopia"],"game_id":440,"stv_port":27056,"stv_name":"Uncletopia | Warsaw | 5 | Stopwatch | STV","players":null},{"server_id":54,"name":"Uncletopia | Warsaw | 6 | Community","name_short":"waw-6","host":"waw-1.pl.uncletopia.com","port":27065,"enabled":true,"region":"eu","cc":"pl","latitude":52.2297,"longitude":21.017532,"reserved":0,"last_update":"0001-01-01T00:00:00Z","name_a2s":"Uncletopia | Warsaw | 6 | Community","protocol":17,"map":"workshop/pl_badwater_pro_v12.ugc2142942074","folder":"tf","game":"Team Fortress","app_id":440,"player_count":0,"max_players":24,"Bots":0,"server_type":"Dedicated","server_os":"Linux","password":true,"vac":true,"version":"7961495","steam_id":85568392925397856,"keywords":["nocrits","nodmgspread","payload","uncletopia"],"game_id":440,"stv_port":27066,"stv_name":"Uncletopia | Warsaw | 6 | Community | STV","players":null}]}