{"status":true,"message":"","result":[{"server_id":9,"name":"Uncletopia | Atlanta | 1 | All Maps","name_short":"atl-1","host":"atl-1.us.uncletopia.com","port":27015,"enabled":true,"region":"us-east","cc":"us","latitude":33.753746,"longitude":-84.38633,"reserved":0,"last_update":"0001-01-01T00:00:00Z","name_a2s":"Uncletopia | Atlanta | 1 | All Maps","protocol":17,"map":"koth_lakeside_final","folder":"tf","game":"Team Fortress","app_id":440,"player_count":24,"max_players":24,"Bots":0,"server_type":"Dedicated","server_os":"Linux","password":true,"vac":true,"version":"7961495","steam_id":85568392924469982,"keywords":["cp","nocrits","nodmgspread","uncletopia"],"game_id":440,"stv_port":27016,"stv_name":"Uncletopia | Atlanta | 1 | All Maps | STV","players":[{"user_id":259,"name":"julaa","steam_id":76561198060288611,"connected_time":1879000000000,"state":"active","ping":44},{"user_id":260,"name":"BitPieStudios","steam_id":76561198059216393,"connected_time":1852000000000,"state":"active","ping":101},{"user_id":252,"name":"b4nny sewer spot on process","steam_id":76561198982810452,"connected_time":2859000000000,"state":"active","ping":73},{"user_id":223,"name":"Duck","steam_id":76561198303483056,"connected_time":5158000000000,"state":"active","ping":181},{"user_id":253,"name":"Í∞ÄÏßú ÌïúÍµ≠Ïù∏","steam_id":76561198079416036,"connected_time":2564000000000,"state":"active","ping":69},{"user_id":249,"name":"Gaminglast","steam_id":76561198362927765,"connected_time":3132000000000,"state":"active","ping":105},{"user_id":244,"name":"StompArtist","steam_id":76561198056247405,"connected_time":3356000000000,"state":"active","ping":70},{"user_id":263,"name":"napstagbo","steam_id":76561198119378766,"connected_time":1167000000000,"state":"active","ping":143},{"user_id":255,"name":"Sinta","steam_id":76561198098398841,"connected_time":2538000000000,"state":"active","ping":60},{"user_id":248,"name":"Jesus","steam_id":76561198018890911,"connected_time":3315000000000,"state":"active","ping":62},{"user_id":279,"name":"D-MROMA","steam_id":76561198837664861,"connected_time":486000000000,"state":"active","ping":83},{"user_id":267,"name":"tet","steam_id":76561198320447241,"connected_time":1138000000000,"state":"active","ping":49},{"user_id":278,"name":"Oxygen User","steam_id":76561199111975528,"connected_time":590000000000,"state":"active","ping":78},{"user_id":276,"name":"Tony Pizza","steam_id":76561198276513608,"connected_time":679000000000,"state":"active","ping":172},{"user_id":272,"name":"Average JoJo Fan","steam_id":76561198863432523,"connected_time":923000000000,"state":"active","ping":103},{"user_id":265,"name":"Tomatanator","steam_id":76561198993330383,"connected_time":1154000000000,"state":"active","ping":59},{"user_id":270,"name":"eat salad","steam_id":76561198960183175,"connected_time":934000000000,"state":"active","ping":93},{"user_id":273,"name":"ATL1 | to4st","steam_id":76561198981009008,"connected_time":911000000000,"state":"active","ping":71},{"user_id":277,"name":"JtsRes","steam_id":76561197994809241,"connected_time":669000000000,"state":"active","ping":77},{"user_id":232,"name":"Okpar","steam_id":76561199221067945,"connected_time":4107000000000,"state":"active","ping":80},{"user_id":237,"name":"PinkLemonade","steam_id":76561198799286228,"connected_time":3698000000000,"state":"active","ping":74},{"user_id":280,"name":"Tmiracle","steam_id":76561198052375275,"connected_time":459000000000,"state":"active","ping":102},{"user_id":283,"name":"Ike Yard","steam_id":76561197998954523,"connected_time":321000000000,"state":"active","ping":90},{"user_id":282,"name":"BadLuck","steam_id":76561198096452401,"connected_time":384000000000,"state":"active","ping":73}]},{"server_id":104,"name":"Uncletopia | Atlanta | 2 | All Maps","name_short":"atl-2","host":"atl-1.us.uncletopia.com","port":27025,"enabled":true,"region":"us-east","cc":"us","latitude":33.753746,"longitude":-84.38633,"reserved":0,"last_update":"0001-01-01T00:00:00Z","name_a2s":"Uncletopia | Atlanta | 2 | All Maps","protocol":17,"map":"pl_frontier_final","folder":"tf","game":"Team Fortress","app_id":440,"player_count":24,"max_players":24,"Bots":0,"server_type":"Dedicated","server_os":"Linux","password":true,"vac":true,"version":"7961495","steam_id":85568392924469983,"keywords":["nocrits","nodmgspread","payload","uncletopia"],"game_id":440,"stv_port":27026,"stv_name":"Uncletopia | Atlanta | 2 | All Maps | STV","players":[{"user_id":84,"name":"child labor","steam_id":76561198982415497,"connected_time":658000000000,"state":"active","ping":112},{"user_id":66,"name":"chen","steam_id":76561198064872330,"connected_time":2119000000000,"state":"active","ping":66},{"user_id":28,"name":"Biggus idiotus","steam_id":76561198037218103,"connected_time":3810000000000,"state":"active","ping":61},{"user_id":21,"name":"CDBeans","steam_id":76561198046990367,"connected_time":4660000000000,"state":"active","ping":92},{"user_id":87,"name":"Drapph","steam_id":76561199384213314,"connected_time":435000000000,"state":"active","ping":95},{"user_id":24,"name":"press p to pizza","steam_id":76561198292444376,"connected_time":4246000000000,"state":"active","ping":86},{"user_id":89,"name":"BraverPlains","steam_id":76561198812491514,"connected_time":48000000000,"state":"active","ping":131},{"user_id":29,"name":"piebluedog","steam_id":76561198141362745,"connected_time":3796000000000,"state":"active","ping":83},{"user_id":67,"name":"MillerWhite","steam_id":76561198076060357,"connected_time":1875000000000,"state":"active","ping":82},{"user_id":57,"name":"Pyrovision Distributor","steam_id":76561198242118240,"connected_time":2697000000000,"state":"active","ping":71},{"user_id":53,"name":"Shooter of Walls","steam_id":76561197988105207,"connected_time":2891000000000,"state":"active","ping":64},{"user_id":35,"name":"amaz","steam_id":76561198386233160,"connected_time":3501000000000,"state":"active","ping":88},{"user_id":82,"name":"chaffy","steam_id":76561198021754567,"connected_time":768000000000,"state":"active","ping":45},{"user_id":69,"name":"royal hooters","steam_id":76561198068022595,"connected_time":1453000000000,"state":"active","ping":63},{"user_id":52,"name":"Notsocreative","steam_id":76561198236372202,"connected_time":2923000000000,"state":"active","ping":75},{"user_id":80,"name":"Fisk Yote","steam_id":76561198862888085,"connected_time":949000000000,"state":"active","ping":75},{"user_id":79,"name":"Bewty","steam_id":76561198146745998,"connected_time":1135000000000,"state":"active","ping":89},{"user_id":70,"name":"Big McThankies From McSpankies","steam_id":76561198020516880,"connected_time":1441000000000,"state":"active","ping":75},{"user_id":88,"name":"well that's life i guess haha","steam_id":76561198165299077,"connected_time":312000000000,"state":"active","ping":74},{"user_id":75,"name":"Shipmunk","steam_id":76561198063062670,"connected_time":1393000000000,"state":"active","ping":55},{"user_id":72,"name":"press c to crab","steam_id":76561198073269122,"connected_time":1427000000000,"state":"active","ping":77},{"user_id":83,"name":"Eviscerator","steam_id":76561197980073637,"connected_time":737000000000,"state":"active","ping":92},{"user_id":54,"name":"yes daddy","steam_id":76561198166100997,"connected_time":2889000000000,"state":"active","ping":65},{"user_id":78,"name":"Clockwork0613","steam_id":76561198987121123,"connected_time":1316000000000,"state":"active","ping":129}]},{"server_id":400,"name":"Uncletopia | Atlanta | 3 | Stopwatch","name_short":"atl-3","host":"atl-1.us.uncletopia.com","port":27035,"enabled":true,"region":"us-east","cc":"us","latitude":33.753746,"longitude":-84.38633,"reserved":0,"last_update":"0001-01-01T00:00:00Z","name_a2s":"Uncletopia | Atlanta | 3 | Stopwatch","protocol":17,"map":"workshop/koth_ashville_final.ugc2130459942","folder":"tf","game":"Team Fortress","app_id":440,"player_count":0,"max_players":24,"Bots":0,"server_type":"Dedicated","server_os":"Linux","password":true,"vac":true,"version":"7961495","steam_id":85568392924515187,"keywords":["cp","nocrits","nodmgspread","uncletopia"],"game_id":440,"stv_port":27036,"stv_name":"Uncletopia | Atlanta | 3 | Stopwatch | STV","players":null},{"server_id":401,"name":"Uncletopia | Atlanta | 4 | Community","name_short":"atl-4","host":"atl-1.us.uncletopia.com","port":27045,"enabled":true,"region":"us-east","cc":"us","latitude":33.753746,"longitude":-84.38633,"reserved":0,"last_update":"0001-01-01T00:00:00Z","name_a2s":"Uncletopia | Atlanta | 4 | Community","protocol":17,"map":"cp_sunshine","folder":"tf","game":"Team Fortress","app_id":440,"player_count":0,"max_players":24,"Bots":0,"server_type":"Dedicated","server_os":"Linux","password":true,"vac":true,"version":"7961495","steam_id":85568392924515188,"keywords":["cp","nocrits","nodmgspread","uncletopia"],"game_id":440,"stv_port":27046,"stv_name":"Uncletopia | Atlanta | 4 | Community | STV","players":null},{"server_id":2,"name":"Uncletopia | Chicago | 1 | All Maps","name_short":"chi-1","host":"chi-1.us.uncletopia.com","port":27015,"enabled":true,"region":"us-central","cc":"us","latitude":41.881832,"longitude":-87.62318,"reserved":0,"last_update":"0001-01-01T00:00:00Z","name_a2s":"Uncletopia | Chicago | 1 | All Maps","protocol":17,"map":"cp_gorge","folder":"tf","game":"Team Fortress","app_id":440,"player_count":24,"max_players":24,"Bots":0,"server_type":"Dedicated","server_os":"Linux","password":true,"vac":true,"version":"7961495","steam_id":85568392924469984,"keywords":["cp","nocrits","nodmgspread","uncletopia"],"game_id":440,"stv_port":27016,"stv_name":"Uncletopia | Chicago | 1 | All Maps | STV","players":[{"user_id":491,"name":"Jimmy","steam_id":76561198059948196,"connected_time":1313000000000,"state":"active","ping":88},{"user_id":514,"name":"badasscoolboy57","steam_id":76561198795412055,"connected_time":36000000000,"state":"active","ping":78},{"user_id":512,"name":"Knuckles","steam_id":76561198000704259,"connected_time":236000000000,"state":"active","ping":57},{"user_id":492,"name":"Nordie","steam_id":76561198102297774,"connected_time":1309000000000,"state":"active","ping":57},{"user_id":506,"name":"Amari","steam_id":76561198272446730,"connected_time":454000000000,"state":"active","ping":55},{"user_id":498,"name":"Quibl","steam_id":76561199110591930,"connected_time":834000000000,"state":"active","ping":94},{"user_id":503,"name":"Timber","steam_id":76561198156746320,"connected_time":477000000000,"state":"active","ping":45},{"user_id":495,"name":"Laura Palmer Gaming","steam_id":76561198282965733,"connected_time":1117000000000,"state":"active","ping":61},{"user_id":443,"name":"richard clock","steam_id":76561198048455671,"connected_time":3522000000000,"state":"active","ping":49},{"user_id":504,"name":"gamerfan539","steam_id":76561198803527852,"connected_time":472000000000,"state":"active","ping":60},{"user_id":477,"name":"RoFrogle","steam_id":76561199078941377,"connected_time":2304000000000,"state":"active","ping":63},{"user_id":500,"name":"UrFavFemboy","steam_id":76561199140460467,"connected_time":608000000000,"state":"active","ping":155},{"user_id":513,"name":"St4r_Str1ker","steam_id":76561198168463508,"connected_time":168000000000,"state":"active","ping":54},{"user_id":511,"name":"LACTAID","steam_id":76561198276585202,"connected_time":258000000000,"state":"active","ping":107},{"user_id":508,"name":"Nut Bustray","steam_id":76561198092403883,"connected_time":438000000000,"state":"active","ping":107},{"user_id":497,"name":"AbbyRoads","steam_id":76561198868564212,"connected_time":1100000000000,"state":"active","ping":83},{"user_id":456,"name":"beta central","steam_id":76561198301876831,"connected_time":3117000000000,"state":"active","ping":62},{"user_id":452,"name":"CherriKat","steam_id":76561198821297512,"connected_time":3158000000000,"state":"active","ping":100},{"user_id":481,"name":"Just washed","steam_id":76561199030160932,"connected_time":1917000000000,"state":"active","ping":85},{"user_id":509,"name":"artichoke","steam_id":76561198980994364,"connected_time":413000000000,"state":"active","ping":98},{"user_id":493,"name":"BigBubble42","steam_id":76561198136286123,"connected_time":1299000000000,"state":"active","ping":51},{"user_id":499,"name":"nonagon infinity","steam_id":76561198397662124,"connected_time":724000000000,"state":"active","ping":88},{"user_id":357,"name":"Bond","steam_id":76561198089262776,"connected_time":8807000000000,"state":"active","ping":80},{"user_id":478,"name":"Lone_Bacon2","steam_id":76561198067488643,"connected_time":2303000000000,"state":"active","ping":102}]},{"server_id":106,"name":"Uncletopia | Chicago | 2 | All Maps","name_short":"chi-2","host":"chi-1.us.uncletopia.com","port":27025,"enabled":true,"region":"us-central","cc":"us","latitude":41.881832,"longitude":-87.62318,"reserved":0,"last_update":"0001-01-01T00:00:00Z","name_a2s":"Uncletopia | Chicago | 2 | All Maps","protocol":17,"map":"pl_barnblitz","folder":"tf","game":"Team Fortress","app_id":440,"player_count":21,"max_players":24,"Bots":0,"server_type":"Dedicated","server_os":"Linux","password":true,"vac":true,"version":"7961495","steam_id":85568392924469985,"keywords":["nocrits","nodmgspread","payload","uncletopia"],"game_id":440,"stv_port":27026,"stv_name":"Uncletopia | Chicago | 2 | All Maps | STV","players":[{"user_id":447,"name":"wincel hampton","steam_id":76561198083095146,"connected_time":22000000000,"state":"connecting","ping":100},{"user_id":448,"name":"Mosquito Born Illness Survivor","steam_id":76561198097300909,"connected_time":21000000000,"state":"connecting","ping":102},{"user_id":410,"name":"Starfruit66","steam_id":76561198069917277,"connected_time":4035000000000,"state":"connecting","ping":120},{"user_id":391,"name":"A Rhino with Coronavirus","steam_id":76561197999451366,"connected_time":5204000000000,"state":"connecting","ping":77},{"user_id":449,"name":"joshua.theSAVAGE69","steam_id":76561198115458307,"connected_time":2000000000,"state":"connecting","ping":144},{"user_id":420,"name":"Broadsword #LGM","steam_id":76561198011160411,"connected_time":2626000000000,"state":"connecting","ping":104},{"user_id":427,"name":"vareh","steam_id":76561197993190926,"connected_time":1966000000000,"state":"connecting","ping":135},{"user_id":445,"name":"goop","steam_id":76561198214461775,"connected_time":353000000000,"state":"connecting","ping":94},{"user_id":441,"name":"TheSausageSwiper","steam_id":76561198972869845,"connected_time":1489000000000,"state":"connecting","ping":113},{"user_id":437,"name":"dirty30","steam_id":76561198021226566,"connected_time":1695000000000,"state":"connecting","ping":122},{"user_id":419,"name":"Duncan","steam_id":76561198042148095,"connected_time":2642000000000,"state":"connecting","ping":53},{"user_id":431,"name":"boof^","steam_id":76561198087074444,"connected_time":1868000000000,"state":"connecting","ping":93},{"user_id":446,"name":"anaidangel717","steam_id":76561199099121097,"connected_time":35000000000,"state":"connecting","ping":68},{"user_id":423,"name":"jstn","steam_id":76561198845283665,"connected_time":2327000000000,"state":"connecting","ping":95},{"user_id":444,"name":"Six Piece Chicken McNobody","steam_id":76561198129848222,"connected_time":978000000000,"state":"connecting","ping":65},{"user_id":399,"name":"bonk","steam_id":76561198922763623,"connected_time":5089000000000,"state":"connecting","ping":128},{"user_id":443,"name":"NoireThings","steam_id":76561199041728231,"connected_time":1006000000000,"state":"connecting","ping":59},{"user_id":389,"name":"Person","steam_id":76561198093244204,"connected_time":5618000000000,"state":"connecting","ping":93},{"user_id":438,"name":"DolphiN | RGL.gg","steam_id":76561198048614515,"connected_time":1670000000000,"state":"connecting","ping":71},{"user_id":404,"name":"Sexterminator","steam_id":76561199018767956,"connected_time":4961000000000,"state":"connecting","ping":58},{"user_id":434,"name":"i only ubercharge snipers","steam_id":76561198003995600,"connected_time":1807000000000,"state":"connecting","ping":103}]},{"server_id":402,"name":"Uncletopia | Chicago | 3 | All Maps","name_short":"chi-3","host":"chi-1.us.uncletopia.com","port":27035,"enabled":true,"region":"us-central","cc":"us","latitude":41.881832,"longitude":-87.62318,"reserved":0,"last_update":"0001-01-01T00:00:00Z","name_a2s":"Uncletopia | Chicago | 3 | All Maps","protocol":17,"map":"pl_goldrush","folder":"tf","game":"Team Fortress","app_id":440,"player_count":24,"max_players":24,"Bots":0,"server_type":"Dedicated","server_os":"Linux","password":true,"vac":true,"version":"7961495","steam_id":85568392924515191,"keywords":["nocrits","nodmgspread","payload","uncletopia"],"game_id":440,"stv_port":27036,"stv_name":"Uncletopia | Chicago | 3 | All Maps | STV","players":[{"user_id":328,"name":"BTS Fan #89321","steam_id":76561198088561849,"connected_time":101000000000,"state":"active","ping":55},{"user_id":321,"name":"carrot cake","steam_id":76561198055174915,"connected_time":392000000000,"state":"active","ping":66},{"user_id":298,"name":"Just Luck","steam_id":76561198294350105,"connected_time":2182000000000,"state":"active","ping":89},{"user_id":300,"name":"EL Matador","steam_id":76561197971206879,"connected_time":2168000000000,"state":"active","ping":76},{"user_id":265,"name":"while(1)","steam_id":76561198000876529,"connected_time":5041000000000,"state":"active","ping":53},{"user_id":302,"name":"TheChickenChuck","steam_id":76561199192686708,"connected_time":1888000000000,"state":"active","ping":100},{"user_id":322,"name":"Messyschmitt","steam_id":76561199501333770,"connected_time":379000000000,"state":"active","ping":83},{"user_id":269,"name":"j3nga","steam_id":76561198094296283,"connected_time":4917000000000,"state":"active","ping":90},{"user_id":319,"name":"Mr Drug Addict","steam_id":76561199062081467,"connected_time":483000000000,"state":"active","ping":77},{"user_id":317,"name":"kjc105","steam_id":76561198880364422,"connected_time":639000000000,"state":"active","ping":91},{"user_id":312,"name":"CyborgHexapus4","steam_id":76561198160335724,"connected_time":1399000000000,"state":"active","ping":104},{"user_id":324,"name":"frid","steam_id":76561198005806915,"connected_time":321000000000,"state":"active","ping":53},{"user_id":253,"name":"hej","steam_id":76561197996366940,"connected_time":6493000000000,"state":"active","ping":62},{"user_id":325,"name":"Motreir","steam_id":76561198151717946,"connected_time":318000000000,"state":"active","ping":82},{"user_id":279,"name":"Dim","steam_id":76561198061411324,"connected_time":3570000000000,"state":"active","ping":82},{"user_id":326,"name":"for the king","steam_id":76561197973488858,"connected_time":316000000000,"state":"active","ping":57},{"user_id":266,"name":"Mikke","steam_id":76561198170234003,"connected_time":5035000000000,"state":"active","ping":120},{"user_id":270,"name":"Swashb√ºkler","steam_id":76561197969421355,"connected_time":4820000000000,"state":"active","ping":58},{"user_id":304,"name":"FunGi","steam_id":76561198881418662,"connected_time":1799000000000,"state":"active","ping":87},{"user_id":208,"name":"TrashPanda (she/her)","steam_id":76561198447864095,"connected_time":8846000000000,"state":"active","ping":90},{"user_id":313,"name":"4 life","steam_id":76561198175961598,"connected_time":1381000000000,"state":"active","ping":110},{"user_id":286,"name":"MedRed‚Ñ¢ #IATAH","steam_id":76561198002962970,"connected_time":3258000000000,"state":"active","ping":93},{"user_id":318,"name":"vibes","steam_id":76561198050561115,"connected_time":499000000000,"state":"active","ping":95},{"user_id":327,"name":"Not Giga Chad","steam_id":76561198059785363,"connected_time":158000000000,"state":"active","ping":77}]},{"server_id":403,"name":"Uncletopia | Chicago | 4 | All Maps","name_short":"chi-4","host":"chi-1.us.uncletopia.com","port":27045,"enabled":true,"region":"us-central","cc":"us","latitude":41.881832,"longitude":-87.62318,"reserved":0,"last_update":"0001-01-01T00:00:00Z","name_a2s":"Uncletopia | Chicago | 4 | All Maps","protocol":17,"map":"pl_frontier_final","folder":"tf","game":"Team Fortress","app_id":440,"player_count":24,"max_players":24,"Bots":0,"server_type":"Dedicated","server_os":"Linux","password":true,"vac":true,"version":"7961495","steam_id":85568392924515193,"keywords":["nocrits","nodmgspread","payload","uncletopia"],"game_id":440,"stv_port":27046,"stv_name":"Uncletopia | Chicago | 4 | All Maps | STV","players":[{"user_id":151,"name":"Palamute Jho","steam_id":76561199219936729,"connected_time":4492000000000,"state":"active","ping":89},{"user_id":217,"name":"frenemy","steam_id":76561198011363677,"connected_time":379000000000,"state":"active","ping":51},{"user_id":213,"name":"00Lemon","steam_id":76561198068014451,"connected_time":759000000000,"state":"active","ping":71},{"user_id":225,"name":"Kittenpuke","steam_id":76561198067421412,"connected_time":188000000000,"state":"spawning","ping":90},{"user_id":229,"name":"moe","steam_id":76561198929586245,"connected_time":72000000000,"state":"active","ping":100},{"user_id":224,"name":"Jattiti","steam_id":76561199214217870,"connected_time":205000000000,"state":"active","ping":57},{"user_id":199,"name":"HOODOO_LOVER_2007","steam_id":76561199087691214,"connected_time":2113000000000,"state":"active","ping":89},{"user_id":220,"name":"Couriadore","steam_id":76561198055814008,"connected_time":242000000000,"state":"active","ping":61},{"user_id":218,"name":"iJohn914","steam_id":76561199184437454,"connected_time":346000000000,"state":"active","ping":97},{"user_id":205,"name":"membean_membean","steam_id":76561198973965925,"connected_time":1446000000000,"state":"active","ping":71},{"user_id":193,"name":"Calvin?","steam_id":76561198034069587,"connected_time":2305000000000,"state":"active","ping":72},{"user_id":214,"name":"Jennifer Aniston's Nipples","steam_id":76561198086107548,"connected_time":731000000000,"state":"active","ping":62},{"user_id":194,"name":"lcy13vv","steam_id":76561197995997446,"connected_time":2302000000000,"state":"active","ping":48},{"user_id":219,"name":"DavidX123","steam_id":76561198219687617,"connected_time":301000000000,"state":"active","ping":85},{"user_id":196,"name":"[GUT] RiDiK¬Æ","steam_id":76561197969756446,"connected_time":2247000000000,"state":"active","ping":53},{"user_id":226,"name":"Brock Obama","steam_id":76561198094643755,"connected_time":157000000000,"state":"active","ping":62},{"user_id":197,"name":"Tideflat","steam_id":76561198179850851,"connected_time":2246000000000,"state":"active","ping":99},{"user_id":212,"name":"jimmz","steam_id":76561199076776118,"connected_time":764000000000,"state":"active","ping":77},{"user_id":208,"name":"„ÇØ„Ç±„Ç§","steam_id":76561198215122444,"connected_time":1044000000000,"state":"active","ping":71},{"user_id":227,"name":"VHSTAPE","steam_id":76561198036560740,"connected_time":144000000000,"state":"active","ping":67},{"user_id":216,"name":"selling rice","steam_id":76561198063357023,"connected_time":532000000000,"state":"active","ping":91},{"user_id":200,"name":"Koishi","steam_id":76561198054541054,"connected_time":2044000000000,"state":"active","ping":53},{"user_id":221,"name":"Sheev Palpatine","steam_id":76561198252332430,"connected_time":242000000000,"state":"active","ping":65},{"user_id":228,"name":"og biden pack cart","steam_id":76561198253731826,"connected_time":122000000000,"state":"active","ping":64}]},{"server_id":36,"name":"Uncletopia | Chicago | 5 | All Maps","name_short":"chi-5","host":"chi-2.us.uncletopia.com","port":27015,"enabled":true,"region":"us-central","cc":"us","latitude":41.881832,"longitude":-87.62318,"reserved":0,"last_update":"0001-01-01T00:00:00Z","name_a2s":"Uncletopia | Chicago | 5 | All Maps","protocol":17,"map":"pl_borneo","folder":"tf","game":"Team Fortress","app_id":440,"player_count":24,"max_players":24,"Bots":0,"server_type":"Dedicated","server_os":"Linux","password":true,"vac":true,"version":"7961495","steam_id":85568392924866362,"keywords":["nocrits","nodmgspread","payload","uncletopia"],"game_id":440,"stv_port":27016,"stv_name":"Uncletopia | Chicago | 5 | All Maps | STV","players":[{"user_id":378,"name":"Connick The Hedgehog","steam_id":76561198388471011,"connected_time":902000000000,"state":"active","ping":75},{"user_id":371,"name":"Moodflame","steam_id":76561199079466529,"connected_time":1268000000000,"state":"active","ping":94},{"user_id":372,"name":"Rat_king","steam_id":76561199465689129,"connected_time":1229000000000,"state":"active","ping":80},{"user_id":365,"name":"._.","steam_id":76561198300316801,"connected_time":2354000000000,"state":"active","ping":57},{"user_id":335,"name":"Harness","steam_id":76561199031066548,"connected_time":3663000000000,"state":"active","ping":69},{"user_id":332,"name":"beats!","steam_id":76561199245717718,"connected_time":3739000000000,"state":"active","ping":51},{"user_id":367,"name":"Grimm - (RIP Rick May/Kitty0706","steam_id":76561199050642411,"connected_time":2134000000000,"state":"active","ping":88},{"user_id":376,"name":"Aster","steam_id":76561198037920420,"connected_time":937000000000,"state":"active","ping":79},{"user_id":336,"name":"Art","steam_id":76561198123802486,"connected_time":3661000000000,"state":"active","ping":84},{"user_id":345,"name":"SpyderMonkee777","steam_id":76561198170859026,"connected_time":3230000000000,"state":"active","ping":78},{"user_id":363,"name":"Squigly","steam_id":76561198084811625,"connected_time":2497000000000,"state":"active","ping":83},{"user_id":387,"name":"Onion My Ate Dog My","steam_id":76561198155848925,"connected_time":715000000000,"state":"active","ping":76},{"user_id":379,"name":"Vector","steam_id":76561199055958107,"connected_time":888000000000,"state":"active","ping":55},{"user_id":358,"name":"Synergy","steam_id":76561198098630198,"connected_time":2739000000000,"state":"active","ping":98},{"user_id":339,"name":"momazos diegos","steam_id":76561199220257695,"connected_time":3577000000000,"state":"active","ping":144},{"user_id":364,"name":"Whyamidoingthisaaaa","steam_id":76561199168837342,"connected_time":2491000000000,"state":"active","ping":75},{"user_id":380,"name":"Sir, this is a Wendy's","steam_id":76561198983656317,"connected_time":881000000000,"state":"active","ping":91},{"user_id":386,"name":"Eins Shinigami","steam_id":76561199030343810,"connected_time":803000000000,"state":"active","ping":57},{"user_id":382,"name":"PK","steam_id":76561198368722500,"connected_time":851000000000,"state":"active","ping":73},{"user_id":383,"name":"Bobbn","steam_id":76561198876124683,"connected_time":841000000000,"state":"active","ping":75},{"user_id":385,"name":"sasharudzik","steam_id":76561199126617781,"connected_time":834000000000,"state":"active","ping":73},{"user_id":266,"name":"Greaseball","steam_id":76561198240220178,"connected_time":8421000000000,"state":"active","ping":64},{"user_id":351,"name":"Sharp","steam_id":76561198044565001,"connected_time":2852000000000,"state":"active","ping":72},{"user_id":352,"name":"MechaSixVII","steam_id":76561198014927379,"connected_time":2852000000000,"state":"active","ping":75}]},{"server_id":37,"name":"Uncletopia | Chicago | 6 | All Maps","name_short":"chi-6","host":"chi-2.us.uncletopia.com","port":27025,"enabled":true,"region":"us-central","cc":"us","latitude":41.881832,"longitude":-87.62318,"reserved":0,"last_update":"0001-01-01T00:00:00Z","name_a2s":"Uncletopia | Chicago | 6 | All Maps","protocol":17,"map":"pl_swiftwater_final1","folder":"tf","game":"Team Fortress","app_id":440,"player_count":24,"max_players":24,"Bots":0,"server_type":"Dedicated","server_os":"Linux","password":true,"vac":true,"version":"7961495","steam_id":85568392924866363,"keywords":["nocrits","nodmgspread","payload","uncletopia"],"game_id":440,"stv_port":27026,"stv_name":"Uncletopia | Chicago | 6 | All Maps | STV","players":[{"user_id":24,"name":"Tri-Dot","steam_id":76561199075186597,"connected_time":6421000000000,"state":"active","ping":67},{"user_id":25,"name":"ShawnLmao","steam_id":76561198350691501,"connected_time":6337000000000,"state":"active","ping":81},{"user_id":114,"name":"mr poop","steam_id":76561199195196632,"connected_time":510000000000,"state":"active","ping":82},{"user_id":27,"name":"Dead Face","steam_id":76561198857643139,"connected_time":6172000000000,"state":"active","ping":62},{"user_id":117,"name":"hammythegreat #SaveTF2","steam_id":76561198079526946,"connected_time":478000000000,"state":"active","ping":94},{"user_id":93,"name":"sillylokisparkles","steam_id":76561198872251615,"connected_time":2096000000000,"state":"active","ping":84},{"user_id":72,"name":"Kart","steam_id":76561198045307014,"connected_time":3966000000000,"state":"active","ping":91},{"user_id":74,"name":"Flap","steam_id":76561198078889633,"connected_time":3855000000000,"state":"active","ping":58},{"user_id":123,"name":"Krabba Festival","steam_id":76561198044606327,"connected_time":216000000000,"state":"active","ping":136},{"user_id":115,"name":"goopyb00py","steam_id":76561198042572757,"connected_time":493000000000,"state":"active","ping":66},{"user_id":80,"name":"leeroy","steam_id":76561198226418600,"connected_time":3167000000000,"state":"active","ping":86},{"user_id":122,"name":"john morant","steam_id":76561198133102865,"connected_time":224000000000,"state":"active","ping":67},{"user_id":116,"name":"bingle","steam_id":76561198359413453,"connected_time":490000000000,"state":"active","ping":82},{"user_id":118,"name":"Chhaam","steam_id":76561198058508132,"connected_time":453000000000,"state":"active","ping":59},{"user_id":101,"name":"Ting","steam_id":76561198111669760,"connected_time":1659000000000,"state":"active","ping":68},{"user_id":124,"name":"hamilton","steam_id":76561198034096096,"connected_time":207000000000,"state":"active","ping":84},{"user_id":98,"name":"Average Anarchist","steam_id":76561199175442910,"connected_time":1935000000000,"state":"active","ping":82},{"user_id":106,"name":"Maurdakar","steam_id":76561197983420976,"connected_time":1367000000000,"state":"active","ping":85},{"user_id":121,"name":"asscastle 2","steam_id":76561198097330521,"connected_time":343000000000,"state":"active","ping":161},{"user_id":119,"name":"stryker pyro3400","steam_id":76561198835192516,"connected_time":416000000000,"state":"active","ping":66},{"user_id":120,"name":"pabbott123110","steam_id":76561199231739796,"connected_time":407000000000,"state":"active","ping":93},{"user_id":102,"name":"toastman","steam_id":76561198207073088,"connected_time":1641000000000,"state":"active","ping":76},{"user_id":111,"name":"PumpkinThink","steam_id":76561198393830529,"connected_time":927000000000,"state":"active","ping":66},{"user_id":103,"name":"Ginnunga","steam_id":76561198000320083,"connected_time":1518000000000,"state":"active","ping":109}]},{"server_id":38,"name":"Uncletopia | Chicago | 7 | Stopwatch","name_short":"chi-7","host":"chi-2.us.uncletopia.com","port":27035,"enabled":true,"region":"us-central","cc":"us","latitude":41.881832,"longitude":-87.62318,"reserved":0,"last_update":"0001-01-01T00:00:00Z","name_a2s":"Uncletopia | Chicago | 7 | Stopwatch","protocol":17,"map":"koth_highpass","folder":"tf","game":"Team Fortress","app_id":440,"player_count":0,"max_players":24,"Bots":0,"server_type":"Dedicated","server_os":"Linux","password":true,"vac":true,"version":"7961495","steam_id":85568392924866364,"keywords":["cp","nocrits","nodmgspread","uncletopia"],"game_id":440,"stv_port":27036,"stv_name":"Uncletopia | Chicago | 7 | Stopwatch | STV","players":null},{"server_id":39,"name":"Uncletopia | Chicago | 8 | Community","name_short":"chi-8","host":"chi-2.us.uncletopia.com","port":27045,"enabled":true,"region":"us-central","cc":"us","latitude":41.881832,"longitude":-87.62318,"reserved":0,"last_update":"0001-01-01T00:00:00Z","name_a2s":"Uncletopia | Chicago | 8 | Community","protocol":17,"map":"pl_pier","folder":"tf","game":"Team Fortress","app_id":440,"player_count":0,"max_players":24,"Bots":0,"server_type":"Dedicated","server_os":"Linux","password":true,"vac":true,"version":"7961495","steam_id":85568392924866365,"keywords":["nocrits","nodmgspread","payload","uncletopia"],"game_id":440,"stv_port":27046,"stv_name":"Uncletopia | Chicago | 8 | Community | STV","players":null},{"server_id":8,"name":"Uncletopia | Dallas | 1 | All Maps","name_short":"dal-1","host":"dal-1.us.uncletopia.com","port":27015,"enabled":true,"region":"us-central","cc":"us","latitude":32.779167,"longitude":-96.80889,"reserved":0,"last_update":"0001-01-01T00:00:00Z","name_a2s":"Uncletopia | Dallas | 1 | All Maps","protocol":17,"map":"pl_badwater","folder":"tf","game":"Team Fortress","app_id":440,"player_count":24,"max_players":24,"Bots":0,"server_type":"Dedicated","server_os":"Linux","password":true,"vac":true,"version":"7961495","steam_id":85568392924469986,"keywords":["nocrits","nodmgspread","payload","uncletopia"],"game_id":440,"stv_port":27016,"stv_name":"Uncletopia | Dallas | 1 | All Maps | STV","players":[{"user_id":321,"name":"banana gaming","steam_id":76561198334907218,"connected_time":1390000000000,"state":"active","ping":62},{"user_id":307,"name":"Sweet Tooth","steam_id":76561198830158092,"connected_time":3428000000000,"state":"active","ping":85},{"user_id":325,"name":"Birthday Power","steam_id":76561197978508626,"connected_time":666000000000,"state":"active","ping":62},{"user_id":320,"name":"tf2player001","steam_id":76561199497314797,"connected_time":1488000000000,"state":"active","ping":114},{"user_id":274,"name":"hunterzar","steam_id":76561198347666725,"connected_time":6573000000000,"state":"active","ping":85},{"user_id":294,"name":"mbell1199","steam_id":76561198827517736,"connected_time":4494000000000,"state":"active","ping":66},{"user_id":257,"name":"Hello World","steam_id":76561199093925982,"connected_time":7391000000000,"state":"active","ping":120},{"user_id":305,"name":"C4K3","steam_id":76561197996963285,"connected_time":3631000000000,"state":"active","ping":62},{"user_id":208,"name":"Certified Hood Classic","steam_id":76561199086159354,"connected_time":10324000000000,"state":"active","ping":59},{"user_id":281,"name":"chill","steam_id":76561198313364985,"connected_time":5732000000000,"state":"active","ping":88},{"user_id":314,"name":"Anstorner","steam_id":76561198274026015,"connected_time":2186000000000,"state":"active","ping":72},{"user_id":170,"name":"dance monkey","steam_id":76561198188722751,"connected_time":14109000000000,"state":"active","ping":89},{"user_id":326,"name":"NovaSc6ut","steam_id":76561198277163301,"connected_time":664000000000,"state":"active","ping":85},{"user_id":283,"name":"9AM | Jamal27","steam_id":76561198068654532,"connected_time":5681000000000,"state":"active","ping":105},{"user_id":327,"name":"Skip Hop Doo Bop","steam_id":76561199161571849,"connected_time":607000000000,"state":"active","ping":88},{"user_id":331,"name":"mold","steam_id":76561198159477619,"connected_time":12000000000,"state":"spawning","ping":63},{"user_id":306,"name":"penis atomizer 9000 üè≥Ô∏è?","steam_id":76561198864841966,"connected_time":3549000000000,"state":"active","ping":94},{"user_id":328,"name":"swagaholic","steam_id":76561199014715203,"connected_time":606000000000,"state":"active","ping":87},{"user_id":329,"name":"Comrade","steam_id":76561199056721863,"connected_time":576000000000,"state":"active","ping":74},{"user_id":313,"name":"SmokeyGalaxy","steam_id":76561198118780516,"connected_time":2225000000000,"state":"active","ping":61},{"user_id":319,"name":"Anthid","steam_id":76561198074493797,"connected_time":1803000000000,"state":"active","ping":60},{"user_id":218,"name":"Rappy \u003c3","steam_id":76561198105613110,"connected_time":10092000000000,"state":"active","ping":76},{"user_id":330,"name":"rumes","steam_id":76561198349219467,"connected_time":553000000000,"state":"active","ping":46},{"user_id":323,"name":"S√°bado Gigante","steam_id":76561197994685971,"connected_time":1275000000000,"state":"active","ping":84}]},{"server_id":108,"name":"Uncletopia | Dallas | 2 | All Maps","name_short":"dal-2","host":"dal-1.us.uncletopia.com","port":27025,"enabled":true,"region":"us-central","cc":"us","latitude":32.779167,"longitude":-96.80889,"reserved":0,"last_update":"0001-01-01T00:00:00Z","name_a2s":"Uncletopia | Dallas | 2 | All Maps","protocol":17,"map":"pl_goldrush","folder":"tf","game":"Team Fortress","app_id":440,"player_count":19,"max_players":24,"Bots":0,"server_type":"Dedicated","server_os":"Linux","password":true,"vac":true,"version":"7961495","steam_id":85568392924469988,"keywords":["nocrits","nodmgspread","payload","uncletopia"],"game_id":440,"stv_port":27026,"stv_name":"Uncletopia | Dallas | 2 | All Maps | STV","players":[{"user_id":345,"name":"Squibbzin","steam_id":76561198254519678,"connected_time":133000000000,"state":"active","ping":87},{"user_id":343,"name":"TechnoBear2099","steam_id":76561198238863596,"connected_time":170000000000,"state":"active","ping":44},{"user_id":331,"name":"Digit","steam_id":76561198156589157,"connected_time":1741000000000,"state":"active","ping":104},{"user_id":307,"name":"2002 Toyota Corolla VE","steam_id":76561198149172070,"connected_time":2862000000000,"state":"active","ping":45},{"user_id":346,"name":"sooley","steam_id":76561198134500189,"connected_time":84000000000,"state":"active","ping":69},{"user_id":275,"name":"hoOmIN","steam_id":76561198334947079,"connected_time":5369000000000,"state":"active","ping":74},{"user_id":266,"name":"Kirby.exe","steam_id":76561198242714582,"connected_time":5670000000000,"state":"active","ping":49},{"user_id":347,"name":"I have snorted 45 tons of meth","steam_id":76561199053084159,"connected_time":43000000000,"state":"active","ping":267},{"user_id":348,"name":"Duke_The_Dragon","steam_id":76561198412531804,"connected_time":35000000000,"state":"spawning","ping":200},{"user_id":308,"name":"Joe Biden","steam_id":76561198056170906,"connected_time":2856000000000,"state":"active","ping":97},{"user_id":349,"name":"uzr","steam_id":76561198799343084,"connected_time":23000000000,"state":"active","ping":72},{"user_id":350,"name":"Professor Shaggy","steam_id":76561198276926724,"connected_time":10000000000,"state":"spawning","ping":81},{"user_id":318,"name":"Fred Ott","steam_id":76561198099088693,"connected_time":2536000000000,"state":"active","ping":75},{"user_id":309,"name":"Gecem","steam_id":76561198945552630,"connected_time":2850000000000,"state":"active","ping":87},{"user_id":341,"name":"Reisalin Stout","steam_id":76561198272955205,"connected_time":1075000000000,"state":"active","ping":59},{"user_id":337,"name":"stuff","steam_id":76561198190770226,"connected_time":1311000000000,"state":"active","ping":96},{"user_id":263,"name":"Word To Your Mothership","steam_id":76561198034329138,"connected_time":6206000000000,"state":"active","ping":90},{"user_id":332,"name":"Big Sauce","steam_id":76561198046654750,"connected_time":1699000000000,"state":"active","ping":85},{"user_id":336,"name":"Bacon","steam_id":76561199078407152,"connected_time":1377000000000,"state":"active","ping":75}]},{"server_id":404,"name":"Uncletopia | Dallas | 3 | All Maps","name_short":"dal-3","host":"dal-1.us.uncletopia.com","port":27035,"enabled":true,"region":"us-central","cc":"us","latitude":32.779167,"longitude":-96.80889,"reserved":0,"last_update":"0001-01-01T00:00:00Z","name_a2s":"Uncletopia | Dallas | 3 | All Maps","protocol":17,"map":"koth_highpass","folder":"tf","game":"Team Fortress","app_id":440,"player_count":0,"max_players":24,"Bots":0,"server_type":"Dedicated","server_os":"Linux","password":true,"vac":true,"version":"7961495","steam_id":85568392924515219,"keywords":["cp","nocrits","nodmgspread","uncletopia"],"game_id":440,"stv_port":27036,"stv_name":"Uncletopia | Dallas | 3 | All Maps | STV","players":null},{"server_id":405,"name":"Uncletopia | Dallas | 4 | Community","name_short":"dal-4","host":"dal-1.us.uncletopia.com","port":27045,"enabled":true,"region":"us-central","cc":"us","latitude":32.779167,"longitude":-96.80889,"reserved":0,"last_update":"0001-01-01T00:00:00Z","name_a2s":"Uncletopia | Dallas | 4 | Community","protocol":17,"map":"workshop/pl_badwater_pro_v12.ugc2142942074","folder":"tf","game":"Team Fortress","app_id":440,"player_count":0,"max_players":24,"Bots":0,"server_type":"Dedicated","server_os":"Linux","password":true,"vac":true,"version":"7961495","steam_id":85568392924515220,"keywords":["nocrits","nodmgspread","payload","uncletopia"],"game_id":440,"stv_port":27046,"stv_name":"Uncletopia | Dallas | 4 | Community | STV","players":null},{"server_id":5,"name":"Uncletopia | Frankfurt | 1 | All Maps","name_short":"frk-1","host":"frk-1.de.uncletopia.com","port":27015,"enabled":true,"region":"eu","cc":"de","latitude":50.110924,"longitude":8.682127,"reserved":0,"last_update":"0001-01-01T00:00:00Z","name_a2s":"Uncletopia | Frankfurt | 1 | All Maps","protocol":17,"map":"pl_pier","folder":"tf","game":"Team Fortress","app_id":440,"player_count":24,"max_players":24,"Bots":0,"server_type":"Dedicated","server_os":"Linux","password":true,"vac":true,"version":"7961495","steam_id":85568392924469989,"keywords":["nocrits","nodmgspread","payload","uncletopia"],"game_id":440,"stv_port":27016,"stv_name":"Uncletopia | Frankfurt | 1 | All Maps | STV","players":[{"user_id":676,"name":"M√ºesli","steam_id":76561198183105149,"connected_time":2414000000000,"state":"active","ping":32},{"user_id":700,"name":"Koranae","steam_id":76561198343198306,"connected_time":1247000000000,"state":"active","ping":69},{"user_id":716,"name":"A.D.H.|Artem","steam_id":76561198041801369,"connected_time":448000000000,"state":"active","ping":75},{"user_id":677,"name":"Ixsus\u003c3","steam_id":76561198094756869,"connected_time":2357000000000,"state":"active","ping":60},{"user_id":717,"name":"Mr.Nannoldo","steam_id":76561198107373653,"connected_time":366000000000,"state":"active","ping":90},{"user_id":708,"name":"SUPER ASSFUCK RPG on Itch.io","steam_id":76561199084272069,"connected_time":862000000000,"state":"active","ping":67},{"user_id":709,"name":"Domrix","steam_id":76561199112813880,"connected_time":780000000000,"state":"active","ping":71},{"user_id":711,"name":"manure merchant","steam_id":76561198010109316,"connected_time":729000000000,"state":"active","ping":56},{"user_id":698,"name":"Boki","steam_id":76561198044553351,"connected_time":1355000000000,"state":"active","ping":83},{"user_id":673,"name":"Conan the Librarian","steam_id":76561198007224654,"connected_time":2655000000000,"state":"active","ping":52},{"user_id":712,"name":"Skyline","steam_id":76561198038653688,"connected_time":727000000000,"state":"active","ping":70},{"user_id":621,"name":"Arti_Chokes","steam_id":76561199213835861,"connected_time":5644000000000,"state":"active","ping":56},{"user_id":713,"name":"Namy","steam_id":76561198020493663,"connected_time":705000000000,"state":"active","ping":58},{"user_id":714,"name":"Captain Malarkey","steam_id":76561198869924281,"connected_time":688000000000,"state":"active","ping":162},{"user_id":719,"name":"Sergeant Pepper","steam_id":76561198259943381,"connected_time":177000000000,"state":"active","ping":86},{"user_id":706,"name":"Bill The Beekeeper","steam_id":76561198253502133,"connected_time":904000000000,"state":"active","ping":60},{"user_id":618,"name":"BabyFoxoti","steam_id":76561198974666142,"connected_time":5886000000000,"state":"active","ping":58},{"user_id":686,"name":"Yelowchy","steam_id":76561198199416121,"connected_time":2087000000000,"state":"active","ping":63},{"user_id":699,"name":"skippy","steam_id":76561198171958773,"connected_time":1264000000000,"state":"active","ping":65},{"user_id":718,"name":"layloc","steam_id":76561198094577180,"connected_time":354000000000,"state":"active","ping":90},{"user_id":654,"name":"balder","steam_id":76561198796325635,"connected_time":3760000000000,"state":"active","ping":76},{"user_id":688,"name":"slifty","steam_id":76561198166682199,"connected_time":2048000000000,"state":"active","ping":64},{"user_id":707,"name":"dopamine overdose","steam_id":76561199032511302,"connected_time":894000000000,"state":"active","ping":97},{"user_id":695,"name":"booba","steam_id":76561198158018284,"connected_time":1707000000000,"state":"active","ping":59}]},{"server_id":110,"name":"Uncletopia | Frankfurt | 2 | All Maps","name_short":"frk-2","host":"frk-1.de.uncletopia.com","port":27025,"enabled":true,"region":"eu","cc":"de","latitude":50.110924,"longitude":8.682127,"reserved":0,"last_update":"0001-01-01T00:00:00Z","name_a2s":"Uncletopia | Frankfurt | 2 | All Maps","protocol":17,"map":"cp_dustbowl","folder":"tf","game":"Team Fortress","app_id":440,"player_count":4,"max_players":24,"Bots":0,"server_type":"Dedicated","server_os":"Linux","password":true,"vac":true,"version":"7961495","steam_id":85568392924469990,"keywords":["cp","nocrits","nodmgspread","uncletopia"],"game_id":440,"stv_port":27026,"stv_name":"Uncletopia | Frankfurt | 2 | All Maps | STV","players":[{"user_id":628,"name":"^1MARAMA PALEX","steam_id":76561198311372563,"connected_time":317000000000,"state":"active","ping":70},{"user_id":606,"name":"Kasaichi","steam_id":76561198109301754,"connected_time":2817000000000,"state":"active","ping":49},{"user_id":609,"name":"The Storm That Is Approaching","steam_id":76561198982155864,"connected_time":2744000000000,"state":"active","ping":70},{"user_id":620,"name":"cecko","steam_id":76561198798721254,"connected_time":1533000000000,"state":"active","ping":66}]},{"server_id":308,"name":"Uncletopia | Frankfurt | 3 | All Maps","name_short":"frk-3","host":"frk-1.de.uncletopia.com","port":27035,"enabled":true,"region":"eu","cc":"de","latitude":50.110924,"longitude":8.682127,"reserved":0,"last_update":"0001-01-01T00:00:00Z","name_a2s":"Uncletopia | Frankfurt | 3 | All Maps","protocol":17,"map":"pl_swiftwater_final1","folder":"tf","game":"Team Fortress","app_id":440,"player_count":24,"max_players":24,"Bots":0,"server_type":"Dedicated","server_os":"Linux","password":true,"vac":true,"version":"7961495","steam_id":85568392924504274,"keywords":["nocrits","nodmgspread","payload","uncletopia"],"game_id":440,"stv_port":27036,"stv_name":"Uncletopia | Frankfurt | 3 | All Maps | STV","players":[{"user_id":682,"name":"blud thinks he cold","steam_id":76561199386061683,"connected_time":1990000000000,"state":"active","ping":90},{"user_id":686,"name":"rajAs","steam_id":76561198035928111,"connected_time":1786000000000,"state":"active","ping":84},{"user_id":688,"name":"say gex","steam_id":76561198265479349,"connected_time":1686000000000,"state":"active","ping":47},{"user_id":703,"name":"Cabbch","steam_id":76561198045955679,"connected_time":801000000000,"state":"active","ping":54},{"user_id":700,"name":"the cart is not movin lads","steam_id":76561199184578185,"connected_time":1011000000000,"state":"active","ping":63},{"user_id":699,"name":"Ender_DragonYT... GGDROP.COM","steam_id":76561198946735113,"connected_time":1126000000000,"state":"active","ping":75},{"user_id":689,"name":"Real (Real)","steam_id":76561198323425034,"connected_time":1651000000000,"state":"active","ping":60},{"user_id":701,"name":"BELADIT","steam_id":76561198011911501,"connected_time":1002000000000,"state":"active","ping":67},{"user_id":704,"name":"fl1p","steam_id":76561198148565659,"connected_time":649000000000,"state":"active","ping":75},{"user_id":680,"name":"S. Krypt","steam_id":76561199387501738,"connected_time":2148000000000,"state":"active","ping":58},{"user_id":684,"name":"Soerlssoelss√∂en","steam_id":76561197993060585,"connected_time":1909000000000,"state":"active","ping":74},{"user_id":663,"name":"CumbustiblePunda","steam_id":76561197974274677,"connected_time":3523000000000,"state":"active","ping":46},{"user_id":708,"name":"Hatebreeder","steam_id":76561198200046346,"connected_time":332000000000,"state":"active","ping":87},{"user_id":702,"name":"Dozer","steam_id":76561197998742338,"connected_time":916000000000,"state":"active","ping":72},{"user_id":607,"name":"Nickbro101","steam_id":76561198044271692,"connected_time":8383000000000,"state":"active","ping":62},{"user_id":608,"name":"Mario3ghj","steam_id":76561198069804561,"connected_time":8383000000000,"state":"active","ping":88},{"user_id":609,"name":"Arturias","steam_id":76561198188720263,"connected_time":8382000000000,"state":"active","ping":46},{"user_id":712,"name":"Morpheus","steam_id":76561198984889776,"connected_time":210000000000,"state":"active","ping":81},{"user_id":710,"name":"PainKiller","steam_id":76561198131355710,"connected_time":263000000000,"state":"active","ping":73},{"user_id":711,"name":"Antiparticle #SaveTF2","steam_id":76561197990545681,"connected_time":256000000000,"state":"active","ping":50},{"user_id":693,"name":"Voks_","steam_id":76561198159687785,"connected_time":1522000000000,"state":"active","ping":66},{"user_id":666,"name":"Cardamine","steam_id":76561198100619314,"connected_time":3234000000000,"state":"active","ping":73},{"user_id":707,"name":"MR BUBBLES","steam_id":76561198019005259,"connected_time":420000000000,"state":"active","ping":100},{"user_id":714,"name":"Marquis de Hoto","steam_id":76561198080687708,"connected_time":88000000000,"state":"active","ping":69}]},{"server_id":309,"name":"Uncletopia | Frankfurt | 4 | All Maps","name_short":"frk-4","host":"frk-1.de.uncletopia.com","port":27045,"enabled":true,"region":"eu","cc":"de","latitude":50.110924,"longitude":8.682127,"reserved":0,"last_update":"0001-01-01T00:00:00Z","name_a2s":"Uncletopia | Frankfurt | 4 | All Maps","protocol":17,"map":"pl_snowycoast","folder":"tf","game":"Team Fortress","app_id":440,"player_count":0,"max_players":24,"Bots":0,"server_type":"Dedicated","server_os":"Linux","password":true,"vac":true,"version":"7961495","steam_id":85568392924504275,"keywords":["nocrits","nodmgspread","payload","uncletopia"],"game_id":440,"stv_port":27046,"stv_name":"Uncletopia | Frankfurt | 4 | All Maps | STV","players":null},{"server_id":310,"name":"Uncletopia | Frankfurt | 5 | All Maps","name_short":"frk-5","host":"frk-1.de.uncletopia.com","port":27055,"enabled":true,"region":"eu","cc":"de","latitude":50.110924,"longitude":8.682127,"reserved":0,"last_update":"0001-01-01T00:00:00Z","name_a2s":"Uncletopia | Frankfurt | 5 | All Maps","protocol":17,"map":"cp_snakewater_final1","folder":"tf","game":"Team Fortress","app_id":440,"player_count":24,"max_players":24,"Bots":0,"server_type":"Dedicated","server_os":"Linux","password":true,"vac":true,"version":"7961495","steam_id":85568392924504277,"keywords":["cp","nocrits","nodmgspread","uncletopia"],"game_id":440,"stv_port":27056,"stv_name":"Uncletopia | Frankfurt | 5 | All Maps | STV","players":[{"user_id":669,"name":"Tomato","steam_id":76561199124472513,"connected_time":1071000000000,"state":"active","ping":190},{"user_id":665,"name":"cockroach","steam_id":76561198841841656,"connected_time":1672000000000,"state":"active","ping":65},{"user_id":667,"name":"tiia (fool)","steam_id":76561198046196005,"connected_time":1549000000000,"state":"active","ping":35},{"user_id":682,"name":"American Bottas","steam_id":76561198324268871,"connected_time":492000000000,"state":"active","ping":69},{"user_id":513,"name":"Duktigafred","steam_id":76561199211222396,"connected_time":10428000000000,"state":"active","ping":64},{"user_id":574,"name":"forsen tf2","steam_id":76561198125768571,"connected_time":8240000000000,"state":"active","ping":70},{"user_id":677,"name":"Tomex999","steam_id":76561198049587675,"connected_time":848000000000,"state":"active","ping":74},{"user_id":626,"name":"Ml√©ƒçn√Ω Cecek","steam_id":76561198138939377,"connected_time":4868000000000,"state":"active","ping":57},{"user_id":674,"name":"D0kai","steam_id":76561198389271720,"connected_time":975000000000,"state":"active","ping":62},{"user_id":683,"name":"goblin","steam_id":76561198170334258,"connected_time":469000000000,"state":"active","ping":75},{"user_id":660,"name":"Yip","steam_id":76561198946540436,"connected_time":2004000000000,"state":"active","ping":54},{"user_id":689,"name":"Jimmy Poppadopolos","steam_id":76561198044825612,"connected_time":360000000000,"state":"active","ping":61},{"user_id":656,"name":"cirrem","steam_id":76561198265192382,"connected_time":2160000000000,"state":"active","ping":59},{"user_id":684,"name":"Wildeshammer","steam_id":76561198132133702,"connected_time":431000000000,"state":"active","ping":34},{"user_id":649,"name":"Demo #saveTF2","steam_id":76561198102850854,"connected_time":2739000000000,"state":"active","ping":56},{"user_id":650,"name":"Zirif","steam_id":76561198116200959,"connected_time":2511000000000,"state":"active","ping":62},{"user_id":685,"name":"zvekan","steam_id":76561198381101196,"connected_time":427000000000,"state":"active","ping":52},{"user_id":670,"name":"Skarp","steam_id":76561198034398376,"connected_time":1071000000000,"state":"active","ping":46},{"user_id":632,"name":"Valfezant","steam_id":76561199063983797,"connected_time":4326000000000,"state":"active","ping":62},{"user_id":686,"name":"KarlRanzeier","steam_id":76561198066281337,"connected_time":415000000000,"state":"active","ping":47},{"user_id":676,"name":"Hyper","steam_id":76561198278194944,"connected_time":945000000000,"state":"active","ping":65},{"user_id":662,"name":"Hoffa","steam_id":76561197963748995,"connected_time":1990000000000,"state":"active","ping":66},{"user_id":643,"name":"Testicular torsion","steam_id":76561198119547399,"connected_time":4011000000000,"state":"active","ping":54},{"user_id":687,"name":"Orbit","steam_id":76561198242999878,"connected_time":382000000000,"state":"active","ping":71}]},{"server_id":311,"name":"Uncletopia | Frankfurt | 6 | All Maps","name_short":"frk-6","host":"frk-1.de.uncletopia.com","port":27065,"enabled":true,"region":"eu","cc":"de","latitude":50.110924,"longitude":8.682127,"reserved":0,"last_update":"0001-01-01T00:00:00Z","name_a2s":"Uncletopia | Frankfurt | 6 | All Maps","protocol":17,"map":"cp_process_final","folder":"tf","game":"Team Fortress","app_id":440,"player_count":24,"max_players":24,"Bots":0,"server_type":"Dedicated","server_os":"Linux","password":true,"vac":true,"version":"7961495","steam_id":85568392924504278,"keywords":["cp","nocrits","nodmgspread","uncletopia"],"game_id":440,"stv_port":27066,"stv_name":"Uncletopia | Frankfurt | 6 | All Maps | STV","players":[{"user_id":600,"name":"pootis sentry","steam_id":76561199225363633,"connected_time":962000000000,"state":"active","ping":112},{"user_id":619,"name":"noquieronitengo","steam_id":76561198108020034,"connected_time":89000000000,"state":"active","ping":69},{"user_id":568,"name":"Retz","steam_id":76561198252830166,"connected_time":3364000000000,"state":"active","ping":86},{"user_id":602,"name":"lugge","steam_id":76561197963937453,"connected_time":897000000000,"state":"active","ping":63},{"user_id":588,"name":"Kryastorm","steam_id":76561198045127892,"connected_time":1790000000000,"state":"active","ping":59},{"user_id":609,"name":"Pyep","steam_id":76561199273799263,"connected_time":427000000000,"state":"active","ping":46},{"user_id":598,"name":"Kuickfire","steam_id":76561198066476639,"connected_time":1149000000000,"state":"active","ping":99},{"user_id":618,"name":"Magiccomplex","steam_id":76561199203555188,"connected_time":212000000000,"state":"active","ping":49},{"user_id":620,"name":"LaZe","steam_id":76561198202191400,"connected_time":22000000000,"state":"active","ping":60},{"user_id":621,"name":"Remenos","steam_id":76561198029337778,"connected_time":21000000000,"state":"spawning","ping":96},{"user_id":596,"name":"Jojczak","steam_id":76561198134750964,"connected_time":1228000000000,"state":"active","ping":78},{"user_id":577,"name":"Rodak","steam_id":76561199135986344,"connected_time":2564000000000,"state":"active","ping":60},{"user_id":607,"name":"teetoi","steam_id":76561198269382352,"connected_time":736000000000,"state":"active","ping":73},{"user_id":570,"name":"grassesmode.exe","steam_id":76561198090167960,"connected_time":3316000000000,"state":"active","ping":98},{"user_id":615,"name":"NeonKapawn","steam_id":76561198108983778,"connected_time":253000000000,"state":"active","ping":45},{"user_id":576,"name":"Snowy","steam_id":76561198169992461,"connected_time":2692000000000,"state":"active","ping":56},{"user_id":594,"name":"‚ô• œü Frosty œü ‚ô•","steam_id":76561198048035879,"connected_time":1391000000000,"state":"active","ping":74},{"user_id":590,"name":"Snark gaming","steam_id":76561199058970916,"connected_time":1684000000000,"state":"active","ping":92},{"user_id":612,"name":"jalones al pecho","steam_id":76561198112986842,"connected_time":305000000000,"state":"active","ping":65},{"user_id":571,"name":"Pjuske","steam_id":76561198013943953,"connected_time":3312000000000,"state":"active","ping":57},{"user_id":616,"name":"Baba Sraka","steam_id":76561198128292318,"connected_time":249000000000,"state":"active","ping":130},{"user_id":575,"name":"mertefe","steam_id":76561199237126613,"connected_time":2911000000000,"state":"active","ping":115},{"user_id":586,"name":"ViperForty","steam_id":76561198987005981,"connected_time":1966000000000,"state":"active","ping":82},{"user_id":617,"name":"Dacrylis","steam_id":76561198090803893,"connected_time":248000000000,"state":"active","ping":75}]},{"server_id":23,"name":"Uncletopia | Frankfurt | 7 | Stopwatch","name_short":"frk-7","host":"frk-1.de.uncletopia.com","port":27075,"enabled":true,"region":"eu","cc":"de","latitude":50.110924,"longitude":8.682127,"reserved":0,"last_update":"0001-01-01T00:00:00Z","name_a2s":"Uncletopia | Frankfurt | 7 | Stopwatch","protocol":17,"map":"pl_swiftwater_final1","folder":"tf","game":"Team Fortress","app_id":440,"player_count":3,"max_players":24,"Bots":0,"server_type":"Dedicated","server_os":"Linux","password":true,"vac":true,"version":"7961495","steam_id":85568392924742827,"keywords":["nocrits","nodmgspread","payload","uncletopia"],"game_id":440,"stv_port":27076,"stv_name":"Uncletopia | Frankfurt | 7 | Stopwatch | STV","players":[{"user_id":27,"name":"VICTOR","steam_id":76561199498753063,"connected_time":2821000000000,"state":"active","ping":115},{"user_id":30,"name":"ran is running","steam_id":76561199443185667,"connected_time":1529000000000,"state":"active","ping":129},{"user_id":21,"name":"piss man (real)","steam_id":76561198839843428,"connected_time":5047000000000,"state":"active","ping":267}]},{"server_id":24,"name":"Uncletopia | Frankfurt | 8 | Community","name_short":"frk-8","host":"frk-1.de.uncletopia.com","port":27085,"enabled":true,"region":"eu","cc":"de","latitude":50.110924,"longitude":8.682127,"reserved":0,"last_update":"0001-01-01T00:00:00Z","name_a2s":"Uncletopia | Frankfurt | 8 | Community","protocol":17,"map":"workshop/pl_highwood_b13.ugc1769496557","folder":"tf","game":"Team Fortress","app_id":440,"player_count":0,"max_players":24,"Bots":0,"server_type":"Dedicated","server_os":"Linux","password":true,"vac":true,"version":"7961495","steam_id":85568392924742828,"keywords":["nocrits","nodmgspread","payload","uncletopia"],"game_id":440,"stv_port":27086,"stv_name":"Uncletopia | Frankfurt | 8 | Community | STV","players":null},{"server_id":202,"name":"Uncletopia | Hong Kong | 1 | All Maps","name_short":"hgk-1","host":"hgk-1.hk.uncletopia.com","port":27015,"enabled":true,"region":"asia","cc":"hk","latitude":22.302711,"longitude":114.177216,"reserved":0,"last_update":"0001-01-01T00:00:00Z","name_a2s":"Uncletopia | Hong Kong | 1 | All Maps","protocol":17,"map":"koth_viaduct","folder":"tf","game":"Team Fortress","app_id":440,"player_count":0,"max_players":24,"Bots":0,"server_type":"Dedicated","server_os":"Linux","password":true,"vac":true,"version":"7961495","steam_id":85568392924494504,"keywords":["cp","nocrits","nodmgspread","uncletopia"],"game_id":440,"stv_port":27016,"stv_name":"Uncletopia | Hong Kong | 1 | All Maps | STV","players":null},{"server_id":1,"name":"Uncletopia | Los Angeles | 1 | All Maps","name_short":"lax-1","host":"lax-1.us.uncletopia.com","port":27015,"enabled":true,"region":"us-west","cc":"us","latitude":33.94279,"longitude":-118.41004,"reserved":0,"last_update":"0001-01-01T00:00:00Z","name_a2s":"Uncletopia | Los Angeles | 1 | All Maps","protocol":17,"map":"pl_badwater","folder":"tf","game":"Team Fortress","app_id":440,"player_count":24,"max_players":24,"Bots":0,"server_type":"Dedicated","server_os":"Linux","password":true,"vac":true,"version":"7961495","steam_id":85568392924469991,"keywords":["nocrits","nodmgspread","payload","uncletopia"],"game_id":440,"stv_port":27016,"stv_name":"Uncletopia | Los Angeles | 1 | All Maps | STV","players":[{"user_id":211,"name":"nescoceo","steam_id":76561198040801160,"connected_time":2649000000000,"state":"active","ping":49},{"user_id":232,"name":"beans","steam_id":76561199082781884,"connected_time":5000000000,"state":"spawning","ping":44},{"user_id":197,"name":"Grim","steam_id":76561198016978310,"connected_time":4740000000000,"state":"active","ping":65},{"user_id":218,"name":"triph","steam_id":76561198067196509,"connected_time":2232000000000,"state":"active","ping":30},{"user_id":230,"name":"Californian (Derogatory)","steam_id":76561198077272494,"connected_time":540000000000,"state":"active","ping":103},{"user_id":140,"name":"unnamed","steam_id":76561198050225055,"connected_time":10064000000000,"state":"active","ping":45},{"user_id":192,"name":"lando.calrissian","steam_id":76561198145669711,"connected_time":5189000000000,"state":"active","ping":44},{"user_id":214,"name":"the pizza","steam_id":76561198221331476,"connected_time":2624000000000,"state":"active","ping":38},{"user_id":228,"name":"-rep furry femboy","steam_id":76561198065662025,"connected_time":685000000000,"state":"active","ping":57},{"user_id":224,"name":"mew","steam_id":76561198118644686,"connected_time":1327000000000,"state":"active","ping":58},{"user_id":210,"name":"‚ú™VincY -iwnl-","steam_id":76561198162395555,"connected_time":2655000000000,"state":"active","ping":66},{"user_id":225,"name":"Addy \u003c3","steam_id":76561198045819723,"connected_time":1279000000000,"state":"active","ping":120},{"user_id":223,"name":"d4ngerd4n","steam_id":76561198043758735,"connected_time":1813000000000,"state":"active","ping":63},{"user_id":231,"name":"fire","steam_id":76561198044354279,"connected_time":497000000000,"state":"active","ping":48},{"user_id":172,"name":"no vc no c","steam_id":76561197989503095,"connected_time":7566000000000,"state":"active","ping":162},{"user_id":178,"name":"Risky","steam_id":76561198231029328,"connected_time":6725000000000,"state":"active","ping":64},{"user_id":131,"name":"eggplantgirl‚ô•","steam_id":76561198811515692,"connected_time":11339000000000,"state":"active","ping":44},{"user_id":227,"name":"Deusaroni","steam_id":76561198061044052,"connected_time":905000000000,"state":"active","ping":141},{"user_id":187,"name":"birbneedsumseed","steam_id":76561198853439850,"connected_time":5712000000000,"state":"active","ping":45},{"user_id":205,"name":"heck","steam_id":76561198315694520,"connected_time":4020000000000,"state":"active","ping":45},{"user_id":229,"name":"BigGoose","steam_id":76561198833281392,"connected_time":654000000000,"state":"active","ping":74},{"user_id":136,"name":"Nyges","steam_id":76561198139236154,"connected_time":10635000000000,"state":"active","ping":58},{"user_id":217,"name":"Mr.Pan","steam_id":76561198069030613,"connected_time":2242000000000,"state":"active","ping":82},{"user_id":151,"name":"Boxcars","steam_id":76561198120978767,"connected_time":8765000000000,"state":"active","ping":52}]},{"server_id":112,"name":"Uncletopia | Los Angeles | 2 | All Maps","name_short":"lax-2","host":"lax-1.us.uncletopia.com","port":27025,"enabled":true,"region":"us-west","cc":"us","latitude":33.94279,"longitude":-118.41004,"reserved":0,"last_update":"0001-01-01T00:00:00Z","name_a2s":"Uncletopia | Los Angeles | 2 | All Maps","protocol":17,"map":"koth_cascade","folder":"tf","game":"Team Fortress","app_id":440,"player_count":0,"max_players":24,"Bots":0,"server_type":"Dedicated","server_os":"Linux","password":true,"vac":true,"version":"7961495","steam_id":85568392924469992,"keywords":["cp","nocrits","nodmgspread","uncletopia"],"game_id":440,"stv_port":27026,"stv_name":"Uncletopia | Los Angeles | 2 | All Maps | STV","players":null},{"server_id":324,"name":"Uncletopia | Los Angeles | 3 | All Maps","name_short":"lax-3","host":"lax-1.us.uncletopia.com","port":27035,"enabled":true,"region":"us-west","cc":"us","latitude":33.94279,"longitude":-118.41004,"reserved":0,"last_update":"0001-01-01T00:00:00Z","name_a2s":"Uncletopia | Los Angeles | 3 | All Maps","protocol":17,"map":"koth_viaduct","folder":"tf","game":"Team Fortress","app_id":440,"player_count":0,"max_players":24,"Bots":0,"server_type":"Dedicated","server_os":"Linux","password":true,"vac":true,"version":"7961495","steam_id":85568392924510198,"keywords":["cp","nocrits","nodmgspread","uncletopia"],"game_id":440,"stv_port":27036,"stv_name":"Uncletopia | Los Angeles | 3 | All Maps | STV","players":null},{"server_id":25,"name":"Uncletopia | Los Angeles | 4 | Stopwatch","name_short":"lax-4","host":"lax-1.us.uncletopia.com","port":27045,"enabled":true,"region":"us-west","cc":"us","latitude":33.94279,"longitude":-118.41004,"reserved":0,"last_update":"0001-01-01T00:00:00Z","name_a2s":"Uncletopia | Los Angeles | 4 | Stopwatch","protocol":17,"map":"workshop/cp_process_f12.ugc2302948105","folder":"tf","game":"Team Fortress","app_id":440,"player_count":0,"max_players":24,"Bots":0,"server_type":"Dedicated","server_os":"Linux","password":true,"vac":true,"version":"7961495","steam_id":85568392924510199,"keywords":["cp","nocrits","nodmgspread","uncletopia"],"game_id":440,"stv_port":27046,"stv_name":"Uncletopia | Los Angeles | 4 | Stopwatch | STV","players":null},{"server_id":11,"name":"Uncletopia | London | 1 | All Maps","name_short":"lon-1","host":"lon-1.uk.uncletopia.com","port":27015,"enabled":true,"region":"eu","cc":"gb","latitude":51.509865,"longitude":-0.118092,"reserved":0,"last_update":"0001-01-01T00:00:00Z","name_a2s":"Uncletopia | London | 1 | All Maps","protocol":17,"map":"cp_steel","folder":"tf","game":"Team Fortress","app_id":440,"player_count":24,"max_players":24,"Bots":0,"server_type":"Dedicated","server_os":"Linux","password":true,"vac":true,"version":"7961495","steam_id":85568392924367362,"keywords":["cp","nocrits","nodmgspread","uncletopia"],"game_id":440,"stv_port":27016,"stv_name":"Uncletopia | London | 1 | All Maps | STV","players":[{"user_id":632,"name":"Bradley","steam_id":76561198984603343,"connected_time":1650000000000,"state":"active","ping":62},{"user_id":614,"name":"gibb (official)","steam_id":76561198074097655,"connected_time":3161000000000,"state":"active","ping":88},{"user_id":633,"name":"sora","steam_id":76561198096547662,"connected_time":1645000000000,"state":"active","ping":49},{"user_id":645,"name":"ghost of scrampe yet to come","steam_id":76561198851157897,"connected_time":178000000000,"state":"active","ping":76},{"user_id":634,"name":"Dale ‚ù§","steam_id":76561197995189004,"connected_time":1645000000000,"state":"active","ping":61},{"user_id":615,"name":"ahab","steam_id":76561198049703177,"connected_time":3147000000000,"state":"active","ping":76},{"user_id":607,"name":"dogbowcar","steam_id":76561198046597584,"connected_time":3805000000000,"state":"active","ping":45},{"user_id":613,"name":"Anri Okita's Massive Milkers","steam_id":76561199186352720,"connected_time":3185000000000,"state":"active","ping":66},{"user_id":618,"name":"legalize marijuana","steam_id":76561198988882521,"connected_time":3045000000000,"state":"active","ping":83},{"user_id":631,"name":"Purps","steam_id":76561198053886680,"connected_time":1660000000000,"state":"active","ping":44},{"user_id":570,"name":"shooer!","steam_id":76561198110531281,"connected_time":8665000000000,"state":"active","ping":73},{"user_id":505,"name":"Lyra","steam_id":76561198043601838,"connected_time":16900000000000,"state":"active","ping":74},{"user_id":625,"name":"Dr. Funkenstein","steam_id":76561197977816210,"connected_time":2362000000000,"state":"active","ping":64},{"user_id":526,"name":"‚ù§aura‚ù§","steam_id":76561198066258544,"connected_time":14862000000000,"state":"active","ping":61},{"user_id":638,"name":"FROG IndigoJones","steam_id":76561198050284262,"connected_time":1170000000000,"state":"active","ping":49},{"user_id":640,"name":"whimsy.","steam_id":76561198878171763,"connected_time":642000000000,"state":"active","ping":53},{"user_id":641,"name":"randompixel","steam_id":76561198003941207,"connected_time":571000000000,"state":"active","ping":60},{"user_id":630,"name":"cazador","steam_id":76561198123096922,"connected_time":1739000000000,"state":"active","ping":96},{"user_id":617,"name":"so valid queen slay","steam_id":76561198190583242,"connected_time":3104000000000,"state":"active","ping":88},{"user_id":646,"name":"majora's boostio","steam_id":76561198392628642,"connected_time":93000000000,"state":"active","ping":28},{"user_id":648,"name":"KnugenIV","steam_id":76561198127091993,"connected_time":38000000000,"state":"active","ping":63},{"user_id":644,"name":"Splarvis","steam_id":76561198007792525,"connected_time":481000000000,"state":"active","ping":36},{"user_id":619,"name":"teddy","steam_id":76561198007436837,"connected_time":2884000000000,"state":"active","ping":42},{"user_id":643,"name":"Skinny101","steam_id":76561197985599360,"connected_time":543000000000,"state":"active","ping":55}]},{"server_id":114,"name":"Uncletopia | London | 2 | All Maps","name_short":"lon-2","host":"lon-1.uk.uncletopia.com","port":27025,"enabled":true,"region":"eu","cc":"gb","latitude":51.509865,"longitude":-0.118092,"reserved":0,"last_update":"0001-01-01T00:00:00Z","name_a2s":"Uncletopia | London | 2 | All Maps","protocol":17,"map":"cp_coldfront","folder":"tf","game":"Team Fortress","app_id":440,"player_count":18,"max_players":24,"Bots":0,"server_type":"Dedicated","server_os":"Linux","password":true,"vac":true,"version":"7961495","steam_id":85568392924470941,"keywords":["cp","nocrits","nodmgspread","uncletopia"],"game_id":440,"stv_port":27026,"stv_name":"Uncletopia | London | 2 | All Maps | STV","players":[{"user_id":609,"name":"Stern","steam_id":76561198065421312,"connected_time":650000000000,"state":"active","ping":31},{"user_id":612,"name":"shablool","steam_id":76561199192795613,"connected_time":222000000000,"state":"active","ping":92},{"user_id":597,"name":"Akio","steam_id":76561198197606282,"connected_time":1235000000000,"state":"active","ping":42},{"user_id":615,"name":"trum","steam_id":76561198055407861,"connected_time":54000000000,"state":"active","ping":90},{"user_id":616,"name":"Tort","steam_id":76561198329646769,"connected_time":27000000000,"state":"active","ping":59},{"user_id":577,"name":"KingGalaxyKnight","steam_id":76561198217130020,"connected_time":2387000000000,"state":"active","ping":70},{"user_id":599,"name":"SpacePig","steam_id":76561198044662873,"connected_time":1164000000000,"state":"active","ping":93},{"user_id":613,"name":"armadillo","steam_id":76561198324656652,"connected_time":166000000000,"state":"active","ping":46},{"user_id":604,"name":"NotChloe","steam_id":76561198080658092,"connected_time":860000000000,"state":"active","ping":54},{"user_id":553,"name":"DJANGO CHAINED #STOPTHEWAR","steam_id":76561198276681691,"connected_time":3086000000000,"state":"active","ping":43},{"user_id":593,"name":"big boy bobert","steam_id":76561198801207748,"connected_time":1567000000000,"state":"active","ping":128},{"user_id":601,"name":"..-. .- - / -. ..- -","steam_id":76561198138189069,"connected_time":1012000000000,"state":"active","ping":53},{"user_id":614,"name":"RealManiHACK","steam_id":76561198408081068,"connected_time":153000000000,"state":"active","ping":68},{"user_id":557,"name":"WHAT IS HE MAKING","steam_id":76561198798803845,"connected_time":3075000000000,"state":"active","ping":45},{"user_id":617,"name":"ramadan tiktok challenge","steam_id":76561198054414599,"connected_time":13000000000,"state":"active","ping":104},{"user_id":563,"name":"I am dating your grandmother","steam_id":76561198268159433,"connected_time":2948000000000,"state":"active","ping":88},{"user_id":592,"name":"Yisl","steam_id":76561198379536082,"connected_time":1706000000000,"state":"active","ping":96},{"user_id":570,"name":"baillement","steam_id":76561198088624259,"connected_time":2767000000000,"state":"active","ping":60}]},{"server_id":320,"name":"Uncletopia | London | 3 | All Maps","name_short":"lon-3","host":"lon-1.uk.uncletopia.com","port":27035,"enabled":true,"region":"eu","cc":"gb","latitude":51.509865,"longitude":-0.118092,"reserved":0,"last_update":"0001-01-01T00:00:00Z","name_a2s":"Uncletopia | London | 3 | All Maps","protocol":17,"map":"pl_barnblitz","folder":"tf","game":"Team Fortress","app_id":440,"player_count":20,"max_players":24,"Bots":0,"server_type":"Dedicated","server_os":"Linux","password":true,"vac":true,"version":"7961495","steam_id":85568392924510192,"keywords":["nocrits","nodmgspread","payload","uncletopia"],"game_id":440,"stv_port":27036,"stv_name":"Uncletopia | London | 3 | All Maps | STV","players":[{"user_id":743,"name":"Proper Noun","steam_id":76561198055264269,"connected_time":4144000000000,"state":"active","ping":72},{"user_id":807,"name":"nug","steam_id":76561198055396568,"connected_time":80000000000,"state":"active","ping":59},{"user_id":808,"name":"cat gaming","steam_id":76561198866194704,"connected_time":70000000000,"state":"active","ping":73},{"user_id":797,"name":"minimurx","steam_id":76561198858102095,"connected_time":1224000000000,"state":"active","ping":69},{"user_id":803,"name":"PositiveSniper","steam_id":76561198827001333,"connected_time":798000000000,"state":"active","ping":52},{"user_id":722,"name":"herbal tea","steam_id":76561197980736364,"connected_time":5639000000000,"state":"active","ping":88},{"user_id":781,"name":"Northvy","steam_id":76561198136732563,"connected_time":1771000000000,"state":"active","ping":41},{"user_id":800,"name":"milo","steam_id":76561198119016918,"connected_time":1034000000000,"state":"active","ping":61},{"user_id":768,"name":"zak","steam_id":76561197998895428,"connected_time":2628000000000,"state":"active","ping":65},{"user_id":773,"name":"Max","steam_id":76561198080956366,"connected_time":2260000000000,"state":"active","ping":97},{"user_id":809,"name":"foo","steam_id":76561198084451074,"connected_time":66000000000,"state":"active","ping":69},{"user_id":744,"name":"sv_MrGibbs","steam_id":76561198114071972,"connected_time":4110000000000,"state":"active","ping":45},{"user_id":804,"name":"Relic","steam_id":76561199499093258,"connected_time":585000000000,"state":"active","ping":67},{"user_id":787,"name":"heavy sings (real)","steam_id":76561199023804405,"connected_time":1541000000000,"state":"active","ping":61},{"user_id":805,"name":"MuchoBroke","steam_id":76561199389474207,"connected_time":559000000000,"state":"active","ping":44},{"user_id":783,"name":"Merciz","steam_id":76561197971808715,"connected_time":1709000000000,"state":"active","ping":91},{"user_id":741,"name":"flamingosaurus","steam_id":76561198051455397,"connected_time":4230000000000,"state":"active","ping":44},{"user_id":780,"name":"Trojan","steam_id":76561198034787330,"connected_time":1787000000000,"state":"active","ping":84},{"user_id":742,"name":"Odin","steam_id":76561198087800030,"connected_time":4157000000000,"state":"active","ping":32},{"user_id":796,"name":"MeleeMeta","steam_id":76561198237963558,"connected_time":1309000000000,"state":"active","ping":66}]},{"server_id":321,"name":"Uncletopia | London | 4 | All Maps","name_short":"lon-4","host":"lon-1.uk.uncletopia.com","port":27045,"enabled":true,"region":"eu","cc":"gb","latitude":51.509865,"longitude":-0.118092,"reserved":0,"last_update":"0001-01-01T00:00:00Z","name_a2s":"Uncletopia | London | 4 | All Maps","protocol":17,"map":"koth_cascade","folder":"tf","game":"Team Fortress","app_id":440,"player_count":24,"max_players":24,"Bots":0,"server_type":"Dedicated","server_os":"Linux","password":true,"vac":true,"version":"7961495","steam_id":85568392924510193,"keywords":["cp","nocrits","nodmgspread","uncletopia"],"game_id":440,"stv_port":27046,"stv_name":"Uncletopia | London | 4 | All Maps | STV","players":[{"user_id":37,"name":"CrangSign","steam_id":76561198370580355,"connected_time":358000000000,"state":"active","ping":410},{"user_id":4,"name":"Just Navlis","steam_id":76561198090479609,"connected_time":1413000000000,"state":"active","ping":57},{"user_id":6,"name":"psu","steam_id":76561198094652091,"connected_time":1397000000000,"state":"active","ping":82},{"user_id":12,"name":"hananamanna","steam_id":76561198006570285,"connected_time":1313000000000,"state":"active","ping":117},{"user_id":8,"name":"Edgebug Earl","steam_id":76561197970114051,"connected_time":1382000000000,"state":"active","ping":43},{"user_id":39,"name":"Dekiz65","steam_id":76561198296082142,"connected_time":271000000000,"state":"active","ping":108},{"user_id":10,"name":"Dr. Femboy Ghordbort","steam_id":76561198072320671,"connected_time":1375000000000,"state":"active","ping":44},{"user_id":11,"name":"Bobirulez","steam_id":76561198009125458,"connected_time":1336000000000,"state":"active","ping":70},{"user_id":13,"name":"Vershal Smershal","steam_id":76561198116223995,"connected_time":1308000000000,"state":"active","ping":57},{"user_id":14,"name":"agent youppii","steam_id":76561198055264447,"connected_time":1302000000000,"state":"active","ping":60},{"user_id":35,"name":"xavier","steam_id":76561198076494034,"connected_time":549000000000,"state":"active","ping":48},{"user_id":17,"name":"Dennis Delav","steam_id":76561198090419760,"connected_time":1224000000000,"state":"active","ping":57},{"user_id":25,"name":"Team Red Rocket","steam_id":76561198091064959,"connected_time":950000000000,"state":"active","ping":35},{"user_id":26,"name":"Joe Swanson","steam_id":76561198363287317,"connected_time":877000000000,"state":"active","ping":69},{"user_id":20,"name":"Spaguetti","steam_id":76561198002913092,"connected_time":1097000000000,"state":"active","ping":85},{"user_id":38,"name":"‚òÅ Lou1smeister ‚òÅ","steam_id":76561198004032968,"connected_time":357000000000,"state":"active","ping":74},{"user_id":27,"name":"Lithe","steam_id":76561198097130024,"connected_time":824000000000,"state":"active","ping":54},{"user_id":23,"name":"Birchly","steam_id":76561198140011785,"connected_time":1059000000000,"state":"active","ping":48},{"user_id":40,"name":"Qwerty","steam_id":76561198023525894,"connected_time":229000000000,"state":"active","ping":87},{"user_id":30,"name":"Gameing","steam_id":76561198199687607,"connected_time":680000000000,"state":"active","ping":76},{"user_id":36,"name":"Ghostler","steam_id":76561198008734235,"connected_time":523000000000,"state":"active","ping":42},{"user_id":32,"name":"Apparently God","steam_id":76561199472680998,"connected_time":614000000000,"state":"active","ping":55},{"user_id":33,"name":"tomydjoh","steam_id":76561198077421906,"connected_time":599000000000,"state":"active","ping":45},{"user_id":34,"name":"Creeperwinn-the-2st","steam_id":76561199080391190,"connected_time":593000000000,"state":"active","ping":67}]},{"server_id":21,"name":"Uncletopia | London | 5 | All Maps","name_short":"lon-5","host":"lon-1.uk.uncletopia.com","port":27055,"enabled":true,"region":"eu","cc":"gb","latitude":51.509865,"longitude":-0.118092,"reserved":0,"last_update":"0001-01-01T00:00:00Z","name_a2s":"Uncletopia | London | 5 | All Maps","protocol":17,"map":"pl_badwater","folder":"tf","game":"Team Fortress","app_id":440,"player_count":24,"max_players":24,"Bots":0,"server_type":"Dedicated","server_os":"Linux","password":true,"vac":true,"version":"7961495","steam_id":85568392924742829,"keywords":["nocrits","nodmgspread","payload","uncletopia"],"game_id":440,"stv_port":27056,"stv_name":"Uncletopia | London | 5 | All Maps | STV","players":[{"user_id":560,"name":"I will violate you","steam_id":76561198349830813,"connected_time":4328000000000,"state":"active","ping":49},{"user_id":592,"name":"Locke","steam_id":76561198339408300,"connected_time":2192000000000,"state":"active","ping":59},{"user_id":564,"name":"Ark-e","steam_id":76561198261870909,"connected_time":3775000000000,"state":"active","ping":39},{"user_id":588,"name":"sussy baka","steam_id":76561198368758532,"connected_time":2463000000000,"state":"active","ping":76},{"user_id":598,"name":"Herb","steam_id":76561198205266944,"connected_time":1651000000000,"state":"active","ping":49},{"user_id":610,"name":"Joo ‚ô¶","steam_id":76561197987609203,"connected_time":105000000000,"state":"active","ping":70},{"user_id":575,"name":"siriusplay116","steam_id":76561199403847433,"connected_time":2653000000000,"state":"active","ping":63},{"user_id":333,"name":"Zerosiini","steam_id":76561198113771976,"connected_time":16149000000000,"state":"active","ping":64},{"user_id":603,"name":"turtlemage","steam_id":76561198052452373,"connected_time":1276000000000,"state":"active","ping":46},{"user_id":580,"name":"Albon","steam_id":76561198060378881,"connected_time":2621000000000,"state":"active","ping":69},{"user_id":605,"name":"Dictatorial Karelian","steam_id":76561198196736457,"connected_time":970000000000,"state":"active","ping":79},{"user_id":608,"name":"Alcobra","steam_id":76561198134154962,"connected_time":145000000000,"state":"active","ping":101},{"user_id":515,"name":"Zonddey","steam_id":76561198134885222,"connected_time":7327000000000,"state":"active","ping":55},{"user_id":480,"name":"DiracDeltaFunction","steam_id":76561199201624841,"connected_time":9636000000000,"state":"active","ping":85},{"user_id":606,"name":"Jonno","steam_id":76561198023443744,"connected_time":586000000000,"state":"active","ping":51},{"user_id":574,"name":"Grog the caveman","steam_id":76561199040975062,"connected_time":3013000000000,"state":"active","ping":78},{"user_id":587,"name":"Musse","steam_id":76561198054731076,"connected_time":2509000000000,"state":"active","ping":72},{"user_id":609,"name":"A Very Disappointing Salad","steam_id":76561198020277939,"connected_time":144000000000,"state":"active","ping":56},{"user_id":607,"name":"Steen","steam_id":76561198122992510,"connected_time":578000000000,"state":"active","ping":59},{"user_id":600,"name":"Dirgodno","steam_id":76561199066932493,"connected_time":1607000000000,"state":"active","ping":74},{"user_id":519,"name":"jerkwaterberg","steam_id":76561198134165667,"connected_time":7254000000000,"state":"active","ping":48},{"user_id":585,"name":"Dr Bondus Bolongus Dongus","steam_id":76561198378657692,"connected_time":2549000000000,"state":"active","ping":47},{"user_id":611,"name":"RomAnjentululiantiarion","steam_id":76561198161417211,"connected_time":102000000000,"state":"active","ping":99},{"user_id":597,"name":"hawkblob","steam_id":76561198803720565,"connected_time":1989000000000,"state":"active","ping":76}]},{"server_id":22,"name":"Uncletopia | London | 6 | All Maps","name_short":"lon-6","host":"lon-1.uk.uncletopia.com","port":27065,"enabled":true,"region":"eu","cc":"gb","latitude":51.509865,"longitude":-0.118092,"reserved":0,"last_update":"0001-01-01T00:00:00Z","name_a2s":"Uncletopia | London | 6 | All Maps","protocol":17,"map":"cp_fastlane","folder":"tf","game":"Team Fortress","app_id":440,"player_count":0,"max_players":24,"Bots":0,"server_type":"Dedicated","server_os":"Linux","password":true,"vac":true,"version":"7961495","steam_id":85568392924742830,"keywords":["cp","nocrits","nodmgspread","uncletopia"],"game_id":440,"stv_port":27066,"stv_name":"Uncletopia | London | 6 | All Maps | STV","players":null},{"server_id":40,"name":"Uncletopia | London | 7 | Stopwatch","name_short":"lon-7","host":"lon-1.uk.uncletopia.com","port":27075,"enabled":true,"region":"eu","cc":"gb","latitude":51.509865,"longitude":-0.118092,"reserved":0,"last_update":"0001-01-01T00:00:00Z","name_a2s":"Uncletopia | London | 7 | Stopwatch","protocol":17,"map":"workshop/koth_product_final.ugc454272353","folder":"tf","game":"Team Fortress","app_id":440,"player_count":0,"max_players":24,"Bots":0,"server_type":"Dedicated","server_os":"Linux","password":true,"vac":true,"version":"7961495","steam_id":85568392924964314,"keywords":["cp","nocrits","nodmgspread","uncletopia"],"game_id":440,"stv_port":27076,"stv_name":"Uncletopia | London | 7 | Stopwatch | STV","players":null},{"server_id":41,"name":"Uncletopia | London | 8 | Community","name_short":"lon-8","host":"lon-1.uk.uncletopia.com","port":27085,"enabled":true,"region":"eu","cc":"gb","latitude":51.509865,"longitude":-0.118092,"reserved":0,"last_update":"0001-01-01T00:00:00Z","name_a2s":"Uncletopia | London | 8 | Community","protocol":17,"map":"workshop/koth_ramjam_rc1.ugc459778887","folder":"tf","game":"Team Fortress","app_id":440,"player_count":0,"max_players":24,"Bots":0,"server_type":"Dedicated","server_os":"Linux","password":true,"vac":true,"version":"7961495","steam_id":85568392924964315,"keywords":["cp","nocrits","nodmgspread","uncletopia"],"game_id":440,"stv_port":27086,"stv_name":"Uncletopia | London | 8 | Community | STV","players":null},{"server_id":300,"name":"Uncletopia | Montr√©al | 1 | One Thousand Uncles","name_short":"mtl-1","host":"mtl-1.ca.uncletopia.com","port":27015,"enabled":true,"region":"us-east","cc":"ca","latitude":45.50889,"longitude":-73.56167,"reserved":0,"last_update":"0001-01-01T00:00:00Z","name_a2s":"","protocol":0,"map":"","folder":"","game":"","app_id":0,"player_count":0,"max_players":0,"Bots":0,"server_type":"","server_os":"","password":false,"vac":false,"version":"","steam_id":0,"keywords":null,"game_id":0,"stv_port":0,"stv_name":"","players":null},{"server_id":301,"name":"Uncletopia | Montr√©al | 2 | One Thousand Uncles","name_short":"mtl-2","host":"mtl-1.ca.uncletopia.com","port":27025,"enabled":true,"region":"us-east","cc":"ca","latitude":45.50889,"longitude":-73.56167,"reserved":0,"last_update":"0001-01-01T00:00:00Z","name_a2s":"","protocol":0,"map":"","folder":"","game":"","app_id":0,"player_count":3,"max_players":0,"Bots":0,"server_type":"","server_os":"","password":false,"vac":false,"version":"","steam_id":0,"keywords":null,"game_id":0,"stv_port":0,"stv_name":"","players":[{"user_id":144,"name":"Flare Grylls","steam_id":76561199059253395,"connected_time":1055000000000,"state":"active","ping":44},{"user_id":161,"name":"Pissmass Pissman","steam_id":76561198409907417,"connected_time":501000000000,"state":"active","ping":118},{"user_id":162,"name":"Target practice","steam_id":76561198027102552,"connected_time":186000000000,"state":"active","ping":109}]},{"server_id":302,"name":"Uncletopia | Montr√©al | 3 | One Thousand Uncles","name_short":"mtl-3","host":"mtl-1.ca.uncletopia.com","port":27035,"enabled":true,"region":"us-east","cc":"ca","latitude":45.50889,"longitude":-73.56167,"reserved":0,"last_update":"0001-01-01T00:00:00Z","name_a2s":"","protocol":0,"map":"","folder":"","game":"","app_id":0,"player_count":0,"max_players":0,"Bots":0,"server_type":"","server_os":"","password":false,"vac":false,"version":"","steam_id":0,"keywords":null,"game_id":0,"stv_port":0,"stv_name":"","players":null},{"server_id":13,"name":"Uncletopia | New York City | 1 | All Maps","name_short":"nyc-1","host":"nyc-1.us.uncletopia.com","port":27015,"enabled":true,"region":"us-east","cc":"us","latitude":40.73061,"longitude":-73.93524,"reserved":0,"last_update":"0001-01-01T00:00:00Z","name_a2s":"Uncletopia | New York City | 1 | All Maps","protocol":17,"map":"pl_swiftwater_final1","folder":"tf","game":"Team Fortress","app_id":440,"player_count":24,"max_players":24,"Bots":0,"server_type":"Dedicated","server_os":"Linux","password":true,"vac":true,"version":"7961495","steam_id":85568392924469993,"keywords":["nocrits","nodmgspread","payload","uncletopia"],"game_id":440,"stv_port":27016,"stv_name":"Uncletopia | New York City | 1 | All Maps | STV","players":[{"user_id":637,"name":"Toast","steam_id":76561198401995265,"connected_time":196000000000,"state":"active","ping":74},{"user_id":618,"name":"Bubbly","steam_id":76561199014095959,"connected_time":933000000000,"state":"active","ping":54},{"user_id":623,"name":"fritzthecat","steam_id":76561199180497813,"connected_time":750000000000,"state":"active","ping":65},{"user_id":619,"name":"Jimbo Woyevodsk","steam_id":76561198068766153,"connected_time":930000000000,"state":"active","ping":43},{"user_id":588,"name":"Curse of the Blackened Eye","steam_id":76561198097175164,"connected_time":3255000000000,"state":"active","ping":71},{"user_id":621,"name":"judesro","steam_id":76561198352244888,"connected_time":914000000000,"state":"active","ping":69},{"user_id":624,"name":"Lemmy","steam_id":76561199038870751,"connected_time":715000000000,"state":"active","ping":133},{"user_id":625,"name":"Y Dough","steam_id":76561198003827633,"connected_time":712000000000,"state":"active","ping":123},{"user_id":568,"name":"Sha-Woompa","steam_id":76561199068063459,"connected_time":4982000000000,"state":"active","ping":69},{"user_id":635,"name":"Hook, Line, and Sphincter","steam_id":76561198078207743,"connected_time":394000000000,"state":"active","ping":42},{"user_id":634,"name":"Peepster","steam_id":76561198297854733,"connected_time":421000000000,"state":"active","ping":84},{"user_id":610,"name":"Rue","steam_id":76561198013135993,"connected_time":1541000000000,"state":"active","ping":59},{"user_id":627,"name":"D.T. Katze","steam_id":76561198002280813,"connected_time":652000000000,"state":"active","ping":59},{"user_id":628,"name":"burgergerrr rr","steam_id":76561198326620513,"connected_time":642000000000,"state":"active","ping":56},{"user_id":629,"name":"MeKaso TropStar","steam_id":76561199109895840,"connected_time":624000000000,"state":"active","ping":53},{"user_id":636,"name":"Cooler (Final Form)","steam_id":76561198188240066,"connected_time":237000000000,"state":"active","ping":77},{"user_id":581,"name":"George Holdin' W Bush","steam_id":76561198030066204,"connected_time":4149000000000,"state":"active","ping":40},{"user_id":631,"name":"NerdyEnforcement","steam_id":76561198437710820,"connected_time":583000000000,"state":"active","ping":79},{"user_id":632,"name":"Deputy Dog","steam_id":76561197960441667,"connected_time":566000000000,"state":"active","ping":89},{"user_id":633,"name":"Fat Kid In a Dragonball T-Shirt","steam_id":76561198182589975,"connected_time":511000000000,"state":"active","ping":62},{"user_id":638,"name":"sus bread_stain","steam_id":76561199230268075,"connected_time":189000000000,"state":"active","ping":88},{"user_id":639,"name":"Peri","steam_id":76561198255311543,"connected_time":172000000000,"state":"active","ping":70},{"user_id":523,"name":"Cat_Gaben","steam_id":76561198308094558,"connected_time":9990000000000,"state":"active","ping":68},{"user_id":585,"name":"Ice","steam_id":76561198069065342,"connected_time":3627000000000,"state":"active","ping":70}]},{"server_id":14,"name":"Uncletopia | New York City | 2 | All Maps","name_short":"nyc-2","host":"nyc-1.us.uncletopia.com","port":27025,"enabled":true,"region":"us-east","cc":"us","latitude":40.73061,"longitude":-73.93524,"reserved":0,"last_update":"0001-01-01T00:00:00Z","name_a2s":"Uncletopia | New York City | 2 | All Maps","protocol":17,"map":"pl_borneo","folder":"tf","game":"Team Fortress","app_id":440,"player_count":24,"max_players":24,"Bots":0,"server_type":"Dedicated","server_os":"Linux","password":true,"vac":true,"version":"7961495","steam_id":85568392924469994,"keywords":["nocrits","nodmgspread","payload","uncletopia"],"game_id":440,"stv_port":27026,"stv_name":"Uncletopia | New York City | 2 | All Maps | STV","players":[{"user_id":476,"name":"CuSO4","steam_id":76561199278147589,"connected_time":829000000000,"state":"active","ping":55},{"user_id":474,"name":"marcus tillius","steam_id":76561197982832274,"connected_time":1524000000000,"state":"active","ping":71},{"user_id":431,"name":"fear_the-penguins","steam_id":76561199013292217,"connected_time":3859000000000,"state":"active","ping":56},{"user_id":417,"name":"aurro","steam_id":76561198315692300,"connected_time":4898000000000,"state":"active","ping":49},{"user_id":451,"name":"mike penis","steam_id":76561198159339442,"connected_time":2767000000000,"state":"active","ping":76},{"user_id":444,"name":"Kritzburgh","steam_id":76561198149466938,"connected_time":3160000000000,"state":"active","ping":57},{"user_id":485,"name":"verycasual","steam_id":76561199204813145,"connected_time":217000000000,"state":"active","ping":72},{"user_id":483,"name":"custodian","steam_id":76561198058793778,"connected_time":302000000000,"state":"active","ping":60},{"user_id":477,"name":"Buttons :)","steam_id":76561198139478534,"connected_time":827000000000,"state":"active","ping":113},{"user_id":468,"name":"peniblor","steam_id":76561198307923786,"connected_time":1676000000000,"state":"active","ping":119},{"user_id":478,"name":"PossumZx","steam_id":76561198157831232,"connected_time":785000000000,"state":"active","ping":68},{"user_id":484,"name":"Frost Paraselene","steam_id":76561198007332517,"connected_time":263000000000,"state":"active","ping":109},{"user_id":447,"name":"trzepaczkaadam","steam_id":76561199480520243,"connected_time":3031000000000,"state":"active","ping":64},{"user_id":486,"name":"Dmonic Plays","steam_id":76561198006572380,"connected_time":186000000000,"state":"active","ping":83},{"user_id":487,"name":"zabloinkus","steam_id":76561198069967245,"connected_time":168000000000,"state":"active","ping":86},{"user_id":488,"name":"TheWallaby","steam_id":76561198948037546,"connected_time":167000000000,"state":"active","ping":46},{"user_id":492,"name":"American Dad","steam_id":76561198059711448,"connected_time":51000000000,"state":"active","ping":82},{"user_id":489,"name":"oopsboom24","steam_id":76561199105248648,"connected_time":132000000000,"state":"active","ping":89},{"user_id":479,"name":"OriOriOri","steam_id":76561198302640481,"connected_time":769000000000,"state":"active","ping":75},{"user_id":490,"name":"staks","steam_id":76561198059570070,"connected_time":94000000000,"state":"active","ping":57},{"user_id":491,"name":"gIBBY","steam_id":76561198080099598,"connected_time":87000000000,"state":"active","ping":44},{"user_id":481,"name":"qwerty nubbit","steam_id":76561198119732249,"connected_time":555000000000,"state":"active","ping":63},{"user_id":460,"name":"boykisser","steam_id":76561198375866407,"connected_time":2076000000000,"state":"active","ping":98},{"user_id":480,"name":"Orange Triangle","steam_id":76561198320498182,"connected_time":756000000000,"state":"active","ping":82}]},{"server_id":15,"name":"Uncletopia | New York City | 3 | Stopwatch","name_short":"nyc-3","host":"nyc-1.us.uncletopia.com","port":27035,"enabled":true,"region":"us-east","cc":"us","latitude":40.73061,"longitude":-73.93524,"reserved":0,"last_update":"0001-01-01T00:00:00Z","name_a2s":"Uncletopia | New York City | 3 | Stopwatch","protocol":17,"map":"workshop/koth_product_final.ugc454272353","folder":"tf","game":"Team Fortress","app_id":440,"player_count":0,"max_players":24,"Bots":0,"server_type":"Dedicated","server_os":"Linux","password":true,"vac":true,"version":"7961495","steam_id":85568392924742820,"keywords":["cp","nocrits","nodmgspread","uncletopia"],"game_id":440,"stv_port":27036,"stv_name":"Uncletopia | New York City | 3 | Stopwatch | STV","players":null},{"server_id":16,"name":"Uncletopia | New York City | 4 | Community","name_short":"nyc-4","host":"nyc-1.us.uncletopia.com","port":27045,"enabled":true,"region":"us-east","cc":"us","latitude":40.73061,"longitude":-73.93524,"reserved":0,"last_update":"0001-01-01T00:00:00Z","name_a2s":"Uncletopia | New York City | 4 | Community","protocol":17,"map":"workshop/pl_emerge_rc2.ugc888027758","folder":"tf","game":"Team Fortress","app_id":440,"player_count":0,"max_players":24,"Bots":0,"server_type":"Dedicated","server_os":"Linux","password":true,"vac":true,"version":"7961495","steam_id":85568392924742821,"keywords":["nocrits","nodmgspread","payload","uncletopia"],"game_id":440,"stv_port":27046,"stv_name":"Uncletopia | New York City | 4 | Community | STV","players":null},{"server_id":142,"name":"Uncletopia | S√£o Paulo | 1 | All Maps","name_short":"sao-1","host":"sao-1.br.uncletopia.com","port":27015,"enabled":true,"region":"sa","cc":"br","latitude":-23.533773,"longitude":-46.62529,"reserved":0,"last_update":"0001-01-01T00:00:00Z","name_a2s":"Uncletopia | S√£o Paulo | 1 | All Maps","protocol":17,"map":"pl_pier","folder":"tf","game":"Team Fortress","app_id":440,"player_count":3,"max_players":24,"Bots":0,"server_type":"Dedicated","server_os":"Linux","password":true,"vac":true,"version":"7961495","steam_id":85568392924469996,"keywords":["nocrits","nodmgspread","payload","uncletopia"],"game_id":440,"stv_port":27016,"stv_name":"Uncletopia | S√£o Paulo | 1 | All Maps | STV","players":[{"user_id":12,"name":"Random","steam_id":76561199183854535,"connected_time":353000000000,"state":"active","ping":51},{"user_id":13,"name":"Joyu","steam_id":76561199000122960,"connected_time":92000000000,"state":"active","ping":101},{"user_id":14,"name":"yujo dog :3","steam_id":76561198846667114,"connected_time":45000000000,"state":"active","ping":105}]},{"server_id":143,"name":"Uncletopia | S√£o Paulo | 2 | Community","name_short":"sao-2","host":"sao-2.br.uncletopia.com","port":27015,"enabled":true,"region":"sa","cc":"br","latitude":-23.533773,"longitude":-46.62529,"reserved":0,"last_update":"0001-01-01T00:00:00Z","name_a2s":"Uncletopia | S√£o Paulo | 2 | Community","protocol":17,"map":"workshop/koth_ashville_final.ugc2130459942","folder":"tf","game":"Team Fortress","app_id":440,"player_count":0,"max_players":24,"Bots":0,"server_type":"Dedicated","server_os":"Linux","password":true,"vac":true,"version":"7961495","steam_id":85568392924485349,"keywords":["cp","nocrits","nodmgspread","uncletopia"],"game_id":440,"stv_port":27016,"stv_name":"Uncletopia | S√£o Paulo | 2 | Community | STV","players":null},{"server_id":7,"name":"Uncletopia | Seattle | 1 | All Maps","name_short":"sea-1","host":"sea-1.us.uncletopia.com","port":27015,"enabled":true,"region":"us-west","cc":"us","latitude":47.608013,"longitude":-122.33517,"reserved":0,"last_update":"0001-01-01T00:00:00Z","name_a2s":"Uncletopia | Seattle | 1 | All Maps","protocol":17,"map":"pl_swiftwater_final1","folder":"tf","game":"Team Fortress","app_id":440,"player_count":24,"max_players":24,"Bots":0,"server_type":"Dedicated","server_os":"Linux","password":true,"vac":true,"version":"7961495","steam_id":85568392924469997,"keywords":["nocrits","nodmgspread","payload","uncletopia"],"game_id":440,"stv_port":27016,"stv_name":"Uncletopia | Seattle | 1 | All Maps | STV","players":[{"user_id":391,"name":"PLATNUMHANNYA","steam_id":76561198451426311,"connected_time":2403000000000,"state":"active","ping":45},{"user_id":337,"name":"Little Linguine","steam_id":76561198816986370,"connected_time":6177000000000,"state":"active","ping":44},{"user_id":408,"name":"Shabooyaroll-call","steam_id":76561198112306237,"connected_time":983000000000,"state":"active","ping":75},{"user_id":409,"name":"milk then cereal","steam_id":76561198047168548,"connected_time":960000000000,"state":"active","ping":73},{"user_id":414,"name":"rat who can kickflip","steam_id":76561198073620027,"connected_time":516000000000,"state":"active","ping":46},{"user_id":405,"name":"theslayert4","steam_id":76561199258578780,"connected_time":1022000000000,"state":"active","ping":46},{"user_id":336,"name":"Gm_Sweet","steam_id":76561199445091548,"connected_time":6399000000000,"state":"active","ping":58},{"user_id":400,"name":"Zee‚úû","steam_id":76561198274550638,"connected_time":1504000000000,"state":"active","ping":116},{"user_id":413,"name":"Wheaty","steam_id":76561198003553412,"connected_time":583000000000,"state":"active","ping":53},{"user_id":401,"name":"grape","steam_id":76561197993980328,"connected_time":1384000000000,"state":"active","ping":54},{"user_id":381,"name":"Noah1k","steam_id":76561199428633514,"connected_time":2762000000000,"state":"active","ping":60},{"user_id":399,"name":"Trapilicious","steam_id":76561198061430457,"connected_time":1601000000000,"state":"active","ping":112},{"user_id":383,"name":"ArjayTheWeenie","steam_id":76561198275999294,"connected_time":2717000000000,"state":"active","ping":45},{"user_id":388,"name":"Dingelsmurf the Orange","steam_id":76561198212489267,"connected_time":2606000000000,"state":"active","ping":90},{"user_id":373,"name":"Tom","steam_id":76561198070630154,"connected_time":4067000000000,"state":"active","ping":64},{"user_id":397,"name":"slushy :))","steam_id":76561198135281802,"connected_time":1619000000000,"state":"active","ping":37},{"user_id":410,"name":"look at me hector","steam_id":76561198168492250,"connected_time":948000000000,"state":"active","ping":66},{"user_id":402,"name":"owl","steam_id":76561198088403016,"connected_time":1132000000000,"state":"active","ping":151},{"user_id":404,"name":"Spam The Alien","steam_id":76561199122290968,"connected_time":1028000000000,"state":"active","ping":69},{"user_id":406,"name":"Furry Femboy Hooters (CEO)","steam_id":76561198097745857,"connected_time":1016000000000,"state":"active","ping":59},{"user_id":415,"name":"tophawkyy","steam_id":76561199075934685,"connected_time":265000000000,"state":"active","ping":82},{"user_id":347,"name":"TheMagicMrWaffle","steam_id":76561198104357256,"connected_time":5741000000000,"state":"active","ping":68},{"user_id":390,"name":"sillybillyfunnyfairy","steam_id":76561197999648153,"connected_time":2572000000000,"state":"active","ping":90},{"user_id":412,"name":"Impressive, very nice","steam_id":76561198046775352,"connected_time":844000000000,"state":"active","ping":60}]},{"server_id":119,"name":"Uncletopia | Seattle | 2 | All Maps","name_short":"sea-2","host":"sea-1.us.uncletopia.com","port":27025,"enabled":true,"region":"us-west","cc":"us","latitude":47.608013,"longitude":-122.33517,"reserved":0,"last_update":"0001-01-01T00:00:00Z","name_a2s":"Uncletopia | Seattle | 2 | All Maps","protocol":17,"map":"koth_viaduct","folder":"tf","game":"Team Fortress","app_id":440,"player_count":24,"max_players":24,"Bots":0,"server_type":"Dedicated","server_os":"Linux","password":true,"vac":true,"version":"7961495","steam_id":85568392924469998,"keywords":["cp","nocrits","nodmgspread","uncletopia"],"game_id":440,"stv_port":27026,"stv_name":"Uncletopia | Seattle | 2 | All Maps | STV","players":[{"user_id":82,"name":"JustaTroll","steam_id":76561198351004116,"connected_time":896000000000,"state":"active","ping":81},{"user_id":84,"name":"the juicy one","steam_id":76561198058956253,"connected_time":841000000000,"state":"active","ping":45},{"user_id":89,"name":"Goldensliv","steam_id":76561198161673891,"connected_time":544000000000,"state":"active","ping":69},{"user_id":90,"name":"Poundcake","steam_id":76561198042196918,"connected_time":251000000000,"state":"active","ping":44},{"user_id":71,"name":"Cael","steam_id":76561198136789464,"connected_time":1872000000000,"state":"active","ping":54},{"user_id":81,"name":"‚òÖDeebo‚òÖ","steam_id":76561198060081522,"connected_time":1015000000000,"state":"active","ping":84},{"user_id":60,"name":"vulture pupy","steam_id":76561198061963965,"connected_time":2486000000000,"state":"active","ping":47},{"user_id":56,"name":"drake on soldier","steam_id":76561198143132686,"connected_time":3081000000000,"state":"active","ping":72},{"user_id":29,"name":"ilyKittyXOXO","steam_id":76561198179569849,"connected_time":4024000000000,"state":"active","ping":83},{"user_id":74,"name":"miguelrodriguez2013","steam_id":76561198269253587,"connected_time":1715000000000,"state":"active","ping":59},{"user_id":68,"name":"Dreamzapp","steam_id":76561199084936632,"connected_time":2030000000000,"state":"active","ping":91},{"user_id":45,"name":"Botanics","steam_id":76561198137966109,"connected_time":3439000000000,"state":"active","ping":75},{"user_id":33,"name":"McSpazatron","steam_id":76561198955942148,"connected_time":3877000000000,"state":"active","ping":55},{"user_id":91,"name":"nifty","steam_id":76561198056630017,"connected_time":209000000000,"state":"active","ping":43},{"user_id":92,"name":"the Milky pirate","steam_id":76561198834350355,"connected_time":128000000000,"state":"active","ping":60},{"user_id":61,"name":"Stick","steam_id":76561198127495278,"connected_time":2472000000000,"state":"active","ping":58},{"user_id":69,"name":"wmjledger","steam_id":76561198443046861,"connected_time":2021000000000,"state":"active","ping":47},{"user_id":63,"name":"Preston","steam_id":76561198255721392,"connected_time":2331000000000,"state":"active","ping":116},{"user_id":72,"name":"Sprit ‚ô•","steam_id":76561198268780781,"connected_time":1867000000000,"state":"active","ping":95},{"user_id":85,"name":"Perry the Platypus","steam_id":76561198273045773,"connected_time":807000000000,"state":"active","ping":71},{"user_id":52,"name":"FireQuiz","steam_id":76561198107357249,"connected_time":3196000000000,"state":"active","ping":44},{"user_id":86,"name":"SpeedEagle","steam_id":76561198092623489,"connected_time":805000000000,"state":"active","ping":86},{"user_id":78,"name":"GooseWithAGibus","steam_id":76561198131567365,"connected_time":1259000000000,"state":"active","ping":58},{"user_id":88,"name":"Lard","steam_id":76561198290315229,"connected_time":753000000000,"state":"active","ping":69}]},{"server_id":406,"name":"Uncletopia | Seattle | 3 | Stopwatch","name_short":"sea-3","host":"sea-1.us.uncletopia.com","port":27035,"enabled":true,"region":"us-west","cc":"us","latitude":47.608013,"longitude":-122.33517,"reserved":0,"last_update":"0001-01-01T00:00:00Z","name_a2s":"Uncletopia | Seattle | 3 | Stopwatch","protocol":17,"map":"pl_pier","folder":"tf","game":"Team Fortress","app_id":440,"player_count":0,"max_players":24,"Bots":0,"server_type":"Dedicated","server_os":"Linux","password":true,"vac":true,"version":"7961495","steam_id":85568392924515217,"keywords":["nocrits","nodmgspread","payload","uncletopia"],"game_id":440,"stv_port":27036,"stv_name":"Uncletopia | Seattle | 3 | Stopwatch | STV","players":null},{"server_id":17,"name":"Uncletopia | San Francisco | 1 | All Maps","name_short":"sfo-1","host":"sfo-1.us.uncletopia.com","port":27015,"enabled":true,"region":"us-west","cc":"us","latitude":37.77397,"longitude":-122.4313,"reserved":0,"last_update":"0001-01-01T00:00:00Z","name_a2s":"Uncletopia | San Francisco | 1 | All Maps","protocol":17,"map":"koth_cascade","folder":"tf","game":"Team Fortress","app_id":440,"player_count":0,"max_players":24,"Bots":0,"server_type":"Dedicated","server_os":"Linux","password":true,"vac":true,"version":"7961495","steam_id":85568392924469999,"keywords":["cp","nocrits","nodmgspread","uncletopia"],"game_id":440,"stv_port":27016,"stv_name":"Uncletopia | San Francisco | 1 | All Maps | STV","players":null},{"server_id":18,"name":"Uncletopia | San Francisco | 2 | All Maps","name_short":"sfo-2","host":"sfo-1.us.uncletopia.com","port":27025,"enabled":true,"region":"us-west","cc":"us","latitude":37.77397,"longitude":-122.4313,"reserved":0,"last_update":"0001-01-01T00:00:00Z","name_a2s":"Uncletopia | San Francisco | 2 | All Maps","protocol":17,"map":"cp_sunshine","folder":"tf","game":"Team Fortress","app_id":440,"player_count":0,"max_players":24,"Bots":0,"server_type":"Dedicated","server_os":"Linux","password":true,"vac":true,"version":"7961495","steam_id":85568392924470000,"keywords":["cp","nocrits","nodmgspread","uncletopia"],"game_id":440,"stv_port":27026,"stv_name":"Uncletopia | San Francisco | 2 | All Maps | STV","players":null},{"server_id":19,"name":"Uncletopia | San Francisco | 3 | Stopwatch","name_short":"sfo-3","host":"sfo-1.us.uncletopia.com","port":27035,"enabled":true,"region":"us-west","cc":"us","latitude":37.77397,"longitude":-122.4313,"reserved":0,"last_update":"0001-01-01T00:00:00Z","name_a2s":"Uncletopia | San Francisco | 3 | Stopwatch","protocol":17,"map":"workshop/koth_ramjam_rc1.ugc459778887","folder":"tf","game":"Team Fortress","app_id":440,"player_count":0,"max_players":24,"Bots":0,"server_type":"Dedicated","server_os":"Linux","password":true,"vac":true,"version":"7961495","steam_id":85568392924742824,"keywords":["cp","nocrits","nodmgspread","uncletopia"],"game_id":440,"stv_port":27036,"stv_name":"Uncletopia | San Francisco | 3 | Stopwatch | STV","players":null},{"server_id":20,"name":"Uncletopia | San Francisco | 4 | Community","name_short":"sfo-4","host":"sfo-1.us.uncletopia.com","port":27045,"enabled":true,"region":"us-west","cc":"us","latitude":37.77397,"longitude":-122.4313,"reserved":0,"last_update":"0001-01-01T00:00:00Z","name_a2s":"Uncletopia | San Francisco | 4 | Community","protocol":17,"map":"pl_pier","folder":"tf","game":"Team Fortress","app_id":440,"player_count":0,"max_players":24,"Bots":0,"server_type":"Dedicated","server_os":"Linux","password":true,"vac":true,"version":"7961495","steam_id":85568392924742826,"keywords":["nocrits","nodmgspread","payload","uncletopia"],"game_id":440,"stv_port":27046,"stv_name":"Uncletopia | San Francisco | 4 | Community | STV","players":null},{"server_id":141,"name":"Uncletopia | Sydney | 1 | All Maps","name_short":"syd-1","host":"syd-1.au.uncletopia.com","port":27015,"enabled":true,"region":"au","cc":"au","latitude":-33.865143,"longitude":151.2099,"reserved":0,"last_update":"0001-01-01T00:00:00Z","name_a2s":"Uncletopia | Sydney | 1 | All Maps","protocol":17,"map":"koth_viaduct","folder":"tf","game":"Team Fortress","app_id":440,"player_count":0,"max_players":24,"Bots":0,"server_type":"Dedicated","server_os":"Linux","password":true,"vac":true,"version":"7961495","steam_id":85568392924470001,"keywords":["cp","nocrits","nodmgspread","uncletopia"],"game_id":440,"stv_port":27016,"stv_name":"Uncletopia | Sydney | 1 | All Maps | STV","players":null},{"server_id":123,"name":"Uncletopia | Sydney | 2 | All Maps","name_short":"syd-2","host":"syd-1.au.uncletopia.com","port":27025,"enabled":true,"region":"au","cc":"au","latitude":-33.865143,"longitude":151.2099,"reserved":0,"last_update":"0001-01-01T00:00:00Z","name_a2s":"Uncletopia | Sydney | 2 | All Maps","protocol":17,"map":"koth_lakeside_final","folder":"tf","game":"Team Fortress","app_id":440,"player_count":0,"max_players":24,"Bots":0,"server_type":"Dedicated","server_os":"Linux","password":true,"vac":true,"version":"7961495","steam_id":85568392924470002,"keywords":["cp","nocrits","nodmgspread","uncletopia"],"game_id":440,"stv_port":27026,"stv_name":"Uncletopia | Sydney | 2 | All Maps | STV","players":null},{"server_id":395,"name":"Uncletopia | Sydney | 3 | All Maps","name_short":"syd-3","host":"syd-1.au.uncletopia.com","port":27035,"enabled":true,"region":"au","cc":"au","latitude":-33.865143,"longitude":151.2099,"reserved":0,"last_update":"0001-01-01T00:00:00Z","name_a2s":"Uncletopia | Sydney | 3 | All Maps","protocol":17,"map":"pl_frontier_final","folder":"tf","game":"Team Fortress","app_id":440,"player_count":0,"max_players":24,"Bots":0,"server_type":"Dedicated","server_os":"Linux","password":true,"vac":true,"version":"7961495","steam_id":85568392925194467,"keywords":["nocrits","nodmgspread","payload","uncletopia"],"game_id":440,"stv_port":27036,"stv_name":"Uncletopia | Sydney | 3 | All Maps | STV","players":null},{"server_id":396,"name":"Uncletopia | Sydney | 4 | All Maps","name_short":"syd-4","host":"syd-1.au.uncletopia.com","port":27045,"enabled":true,"region":"au","cc":"au","latitude":-33.865143,"longitude":151.2099,"reserved":0,"last_update":"0001-01-01T00:00:00Z","name_a2s":"Uncletopia | Sydney | 4 | All Maps","protocol":17,"map":"cp_process_final","folder":"tf","game":"Team Fortress","app_id":440,"player_count":0,"max_players":24,"Bots":0,"server_type":"Dedicated","server_os":"Linux","password":true,"vac":true,"version":"7961495","steam_id":85568392925397958,"keywords":["cp","nocrits","nodmgspread","uncletopia"],"game_id":440,"stv_port":27046,"stv_name":"Uncletopia | Sydney | 4 | All Maps | STV","players":null},{"server_id":58,"name":"Uncletopia | Sydney | 5 | Stopwatch","name_short":"syd-5","host":"syd-1.au.uncletopia.com","port":27055,"enabled":true,"region":"au","cc":"au","latitude":-33.865143,"longitude":151.2099,"reserved":0,"last_update":"0001-01-01T00:00:00Z","name_a2s":"Uncletopia | Sydney | 5 | Stopwatch","protocol":17,"map":"pl_frontier_final","folder":"tf","game":"Team Fortress","app_id":440,"player_count":0,"max_players":24,"Bots":0,"server_type":"Dedicated","server_os":"Linux","password":true,"vac":true,"version":"7961495","steam_id":85568392925397959,"keywords":["nocrits","nodmgspread","payload","uncletopia"],"game_id":440,"stv_port":27056,"stv_name":"Uncletopia | Sydney | 5 | Stopwatch | STV","players":null},{"server_id":59,"name":"Uncletopia | Sydney | 6 | Community","name_short":"syd-6","host":"syd-1.au.uncletopia.com","port":27065,"enabled":true,"region":"au","cc":"au","latitude":-33.865143,"longitude":151.2099,"reserved":0,"last_update":"0001-01-01T00:00:00Z","name_a2s":"Uncletopia | Sydney | 6 | Community","protocol":17,"map":"cp_sunshine","folder":"tf","game":"Team Fortress","app_id":440,"player_count":0,"max_players":24,"Bots":0,"server_type":"Dedicated","server_os":"Linux","password":true,"vac":true,"version":"7961495","steam_id":85568392925397960,"keywords":["cp","nocrits","nodmgspread","uncletopia"],"game_id":440,"stv_port":27066,"stv_name":"Uncletopia | Sydney | 6 | Community | STV","players":null},{"server_id":49,"name":"Uncletopia | Warsaw | 1 | One Thousand Uncles","name_short":"waw-1","host":"waw-1.pl.uncletopia.com","port":27015,"enabled":true,"region":"eu","cc":"pl","latitude":52.2297,"longitude":21.017532,"reserved":0,"last_update":"0001-01-01T00:00:00Z","name_a2s":"Uncletopia | Warsaw | 1 | One Thousand Uncles","protocol":17,"map":"pl_badwater","folder":"tf","game":"Team Fortress","app_id":440,"player_count":29,"max_players":32,"Bots":16,"server_type":"Dedicated","server_os":"Linux","password":true,"vac":true,"version":"7961495","steam_id":85568392925397850,"keywords":["alltalk","bots","danepve","increased_maxplayers","nocrits","norespawntime","payload","uncletopia"],"game_id":440,"stv_port":0,"stv_name":"","players":[{"user_id":827,"name":"Tispy","steam_id":76561199207410049,"connected_time":1834000000000,"state":"active","ping":114},{"user_id":804,"name":"Magician Wen-li","steam_id":76561198189688217,"connected_time":2218000000000,"state":"active","ping":145},{"user_id":836,"name":"henrique_best","steam_id":76561199317304919,"connected_time":444000000000,"state":"active","ping":99},{"user_id":810,"name":"Isokaro","steam_id":76561198103276073,"connected_time":1885000000000,"state":"active","ping":46},{"user_id":759,"name":"Scout","steam_id":76561198992898803,"connected_time":5852000000000,"state":"active","ping":79},{"user_id":829,"name":"WillDragonangel","steam_id":76561198258025259,"connected_time":1471000000000,"state":"active","ping":172},{"user_id":748,"name":"the baddest boy in btd5","steam_id":76561199487914508,"connected_time":6824000000000,"state":"active","ping":48},{"user_id":841,"name":"nicknicker205","steam_id":76561199485490453,"connected_time":191000000000,"state":"active","ping":62},{"user_id":795,"name":"hmm yes","steam_id":76561198170322809,"connected_time":3683000000000,"state":"active","ping":78},{"user_id":842,"name":"China number 1","steam_id":76561198301727213,"connected_time":32000000000,"state":"active","ping":158},{"user_id":797,"name":"BreadBread06","steam_id":76561198196914050,"connected_time":3497000000000,"state":"active","ping":209},{"user_id":808,"name":"Benzo Fury","steam_id":76561198025259336,"connected_time":1996000000000,"state":"active","ping":79},{"user_id":744,"name":"DAMJANT2010","steam_id":76561199493932486,"connected_time":7231000000000,"state":"active","ping":95}]},{"server_id":50,"name":"Uncletopia | Warsaw | 2 | One Thousand Uncles","name_short":"waw-2","host":"waw-1.pl.uncletopia.com","port":27025,"enabled":true,"region":"eu","cc":"pl","latitude":52.2297,"longitude":21.017532,"reserved":0,"last_update":"0001-01-01T00:00:00Z","name_a2s":"Uncletopia | Warsaw | 2 | One Thousand Uncles","protocol":17,"map":"pl_goldrush","folder":"tf","game":"Team Fortress","app_id":440,"player_count":23,"max_players":32,"Bots":16,"server_type":"Dedicated","server_os":"Linux","password":true,"vac":true,"version":"7961495","steam_id":85568392925397851,"keywords":["alltalk","bots","danepve","increased_maxplayers","nocrits","norespawntime","payload","uncletopia"],"game_id":440,"stv_port":0,"stv_name":"","players":[{"user_id":591,"name":"Mario Bong","steam_id":76561198100898729,"connected_time":3767000000000,"state":"active","ping":176},{"user_id":633,"name":"Darkgege22","steam_id":76561198176636583,"connected_time":1928000000000,"state":"active","ping":84},{"user_id":635,"name":"kiki","steam_id":76561198838277022,"connected_time":1407000000000,"state":"active","ping":47},{"user_id":636,"name":"Owervatch_mooniyt trade.tf","steam_id":76561198953146376,"connected_time":1158000000000,"state":"active","ping":57},{"user_id":551,"name":"Max Power","steam_id":76561198019269089,"connected_time":6465000000000,"state":"active","ping":61},{"user_id":592,"name":"DarnRootinTootinBlootinScootin","steam_id":76561198126016824,"connected_time":3724000000000,"state":"active","ping":174},{"user_id":637,"name":"tf2 tourist","steam_id":76561198850438326,"connected_time":953000000000,"state":"active","ping":161}]},{"server_id":51,"name":"Uncletopia | Warsaw | 3 | All Maps","name_short":"waw-3","host":"waw-1.pl.uncletopia.com","port":27035,"enabled":true,"region":"eu","cc":"pl","latitude":52.2297,"longitude":21.017532,"reserved":0,"last_update":"0001-01-01T00:00:00Z","name_a2s":"Uncletopia | Warsaw | 3 | All Maps","protocol":17,"map":"pl_upward","folder":"tf","game":"Team Fortress","app_id":440,"player_count":20,"max_players":24,"Bots":0,"server_type":"Dedicated","server_os":"Linux","password":true,"vac":true,"version":"7961495","steam_id":85568392925397852,"keywords":["nocrits","nodmgspread","payload","uncletopia"],"game_id":440,"stv_port":27036,"stv_name":"Uncletopia | Warsaw | 3 | All Maps | STV","players":[{"user_id":119,"name":"Burrito","steam_id":76561198023919089,"connected_time":1746000000000,"state":"active","ping":94},{"user_id":146,"name":"Unemployedcamel","steam_id":76561198103908668,"connected_time":148000000000,"state":"active","ping":46},{"user_id":148,"name":"Sad Ancient Gear Gadget","steam_id":76561198067107185,"connected_time":68000000000,"state":"active","ping":163},{"user_id":127,"name":"Zeliow","steam_id":76561198013261349,"connected_time":1231000000000,"state":"active","ping":53},{"user_id":147,"name":"Flying skyhigh","steam_id":76561198372971096,"connected_time":117000000000,"state":"active","ping":82},{"user_id":121,"name":"Narshil","steam_id":76561198069740584,"connected_time":1674000000000,"state":"active","ping":150},{"user_id":125,"name":"TheCrucifist","steam_id":76561198799606610,"connected_time":1459000000000,"state":"active","ping":73},{"user_id":139,"name":"getGood","steam_id":76561198011896338,"connected_time":353000000000,"state":"active","ping":105},{"user_id":110,"name":"dbl290","steam_id":76561199016925320,"connected_time":2466000000000,"state":"active","ping":71},{"user_id":115,"name":"OhMyGrosch","steam_id":76561198361193051,"connected_time":1978000000000,"state":"active","ping":60},{"user_id":80,"name":"burn1n9","steam_id":76561198264195521,"connected_time":3925000000000,"state":"active","ping":75},{"user_id":131,"name":"The Big J","steam_id":76561198158202901,"connected_time":997000000000,"state":"active","ping":59},{"user_id":132,"name":"mex :3","steam_id":76561198091083324,"connected_time":979000000000,"state":"active","ping":59},{"user_id":93,"name":"‚ò≠ybercat","steam_id":76561198014070417,"connected_time":3132000000000,"state":"active","ping":63},{"user_id":117,"name":"Lennox","steam_id":76561198069063554,"connected_time":1941000000000,"state":"active","ping":60},{"user_id":135,"name":"ShadowRaze","steam_id":76561198322672808,"connected_time":816000000000,"state":"active","ping":84},{"user_id":141,"name":"Harvaa","steam_id":76561198173292590,"connected_time":314000000000,"state":"active","ping":45},{"user_id":142,"name":"Nothing wrong with Lolicon","steam_id":76561198073005560,"connected_time":312000000000,"state":"active","ping":75},{"user_id":143,"name":"Pruffle","steam_id":76561198377084417,"connected_time":310000000000,"state":"active","ping":39},{"user_id":144,"name":"Dominator","steam_id":76561198157733705,"connected_time":296000000000,"state":"active","ping":45}]},{"server_id":52,"name":"Uncletopia | Warsaw | 4 | All Maps","name_short":"waw-4","host":"waw-1.pl.uncletopia.com","port":27045,"enabled":true,"region":"eu","cc":"pl","latitude":52.2297,"longitude":21.017532,"reserved":0,"last_update":"0001-01-01T00:00:00Z","name_a2s":"Uncletopia | Warsaw | 4 | All Maps","protocol":17,"map":"pl_snowycoast","folder":"tf","game":"Team Fortress","app_id":440,"player_count":0,"max_players":24,"Bots":0,"server_type":"Dedicated","server_os":"Linux","password":true,"vac":true,"version":"7961495","steam_id":85568392925397853,"keywords":["nocrits","nodmgspread","payload","uncletopia"],"game_id":440,"stv_port":27046,"stv_name":"Uncletopia | Warsaw | 4 | All Maps | STV","players":null},{"server_id":53,"name":"Uncletopia | Warsaw | 5 | Stopwatch","name_short":"waw-5","host":"waw-1.pl.uncletopia.com","port":27055,"enabled":true,"region":"eu","cc":"pl","latitude":52.2297,"longitude":21.017532,"reserved":0,"last_update":"0001-01-01T00:00:00Z","name_a2s":"Uncletopia | Warsaw | 5 | Stopwatch","protocol":17,"map":"workshop/pl_barnblitz_pro7.ugc582280235","folder":"tf","game":"Team Fortress","app_id":440,"player_count":0,"max_players":24,"Bots":0,"server_type":"Dedicated","server_os":"Linux","password":true,"vac":true,"version":"7961495","steam_id":85568392925397854,"keywords":["nocrits","nodmgspread","payload","uncletopia"],"game_id":440,"stv_port":27056,"stv_name":"Uncletopia | Warsaw | 5 | Stopwatch | STV","players":null},{"server_id":54,"name":"Uncletopia | Warsaw | 6 | Community","name_short":"waw-6","host":"waw-1.pl.uncletopia.com","port":27065,"enabled":true,"region":"eu","cc":"pl","latitude":52.2297,"longitude":21.017532,"reserved":0,"last_update":"0001-01-01T00:00:00Z","name_a2s":"Uncletopia | Warsaw | 6 | Community","protocol":17,"map":"workshop/koth_synthetic_rc6a.ugc1549817316","folder":"tf","game":"Team Fortress","app_id":440,"player_count":0,"max_players":24,"Bots":0,"server_type":"Dedicated","server_os":"Linux","password":true,"vac":true,"version":"7961495","steam_id":85568392925397856,"keywords":["cp","nocrits","nodmgspread","uncletopia"],"game_id":440,"stv_port":27066,"stv_name":"Uncletopia | Warsaw | 6 | Community | STV","players":null}]}