{"status":true,"message":"","result":[{"server_id":9,"name":"Uncletopia | Atlanta | 1 | All Maps","name_short":"atl-1","host":"atl-1.us.uncletopia.com","port":27015,"enabled":true,"region":"us-east","cc":"us","latitude":33.753746,"longitude":-84.38633,"reserved":0,"last_update":"0001-01-01T00:00:00Z","name_a2s":"Uncletopia | Atlanta | 1 | All Maps","protocol":17,"map":"cp_well","folder":"tf","game":"Team Fortress","app_id":440,"player_count":24,"max_players":24,"Bots":0,"server_type":"Dedicated","server_os":"Linux","password":true,"vac":true,"version":"7757534","steam_id":85568392924469982,"keywords":["cp","nocrits","nodmgspread","uncletopia"],"game_id":440,"stv_port":27016,"stv_name":"Uncletopia | Atlanta | 1 | All Maps | STV","players":[{"user_id":231,"name":"Just Reni","steam_id":76561198065005979,"connected_time":925000000000,"state":"active","ping":86},{"user_id":235,"name":"B00G","steam_id":76561198049705966,"connected_time":845000000000,"state":"active","ping":72},{"user_id":229,"name":"Karma","steam_id":76561198030565234,"connected_time":943000000000,"state":"active","ping":70},{"user_id":232,"name":"Team farting twice","steam_id":76561198384098648,"connected_time":906000000000,"state":"active","ping":72},{"user_id":239,"name":"onahole","steam_id":76561198040723616,"connected_time":697000000000,"state":"active","ping":107},{"user_id":166,"name":"Deku Scrublord","steam_id":76561198036602402,"connected_time":5511000000000,"state":"active","ping":64},{"user_id":217,"name":"Vivi","steam_id":76561198132698345,"connected_time":1407000000000,"state":"active","ping":54},{"user_id":233,"name":"Kraftlos","steam_id":76561198074350350,"connected_time":883000000000,"state":"active","ping":76},{"user_id":240,"name":"pete_the_cat_2014","steam_id":76561198199266047,"connected_time":684000000000,"state":"active","ping":49},{"user_id":230,"name":"Le Pe√±a","steam_id":76561198864220668,"connected_time":931000000000,"state":"active","ping":85},{"user_id":234,"name":"William Wallace","steam_id":76561199343316814,"connected_time":873000000000,"state":"active","ping":60},{"user_id":150,"name":"Chris Pratt's pocket spaghetti","steam_id":76561198138347045,"connected_time":6853000000000,"state":"active","ping":60},{"user_id":194,"name":"angelina ajimu enjoyer","steam_id":76561198055407168,"connected_time":3153000000000,"state":"active","ping":59},{"user_id":216,"name":"nnobi","steam_id":76561198878729277,"connected_time":1428000000000,"state":"active","ping":57},{"user_id":242,"name":"Just PYE","steam_id":76561199439622967,"connected_time":217000000000,"state":"active","ping":71},{"user_id":219,"name":"Outlander","steam_id":76561197998995746,"connected_time":1345000000000,"state":"active","ping":89},{"user_id":244,"name":"Acro","steam_id":76561198320241952,"connected_time":44000000000,"state":"active","ping":82},{"user_id":182,"name":"trans rights","steam_id":76561198044183038,"connected_time":3855000000000,"state":"active","ping":52},{"user_id":220,"name":"Natural Stupidity","steam_id":76561198092894231,"connected_time":1319000000000,"state":"active","ping":93},{"user_id":228,"name":"ATL1 | on my hunting trip","steam_id":76561198315341646,"connected_time":1058000000000,"state":"active","ping":71},{"user_id":243,"name":"hunchback of gay paris","steam_id":76561198116741891,"connected_time":150000000000,"state":"active","ping":59},{"user_id":139,"name":"friend me and i will pocket you","steam_id":76561199383789041,"connected_time":7242000000000,"state":"active","ping":166},{"user_id":237,"name":"Falleax","steam_id":76561198021154908,"connected_time":821000000000,"state":"active","ping":61},{"user_id":238,"name":"KingTeddy","steam_id":76561198131757499,"connected_time":745000000000,"state":"active","ping":155}]},{"server_id":400,"name":"Uncletopia | Atlanta | 3 | Community","name_short":"atl-3","host":"atl-1.us.uncletopia.com","port":27035,"enabled":true,"region":"us-east","cc":"us","latitude":33.753746,"longitude":-84.38633,"reserved":0,"last_update":"0001-01-01T00:00:00Z","name_a2s":"Uncletopia | Atlanta | 3 | Community","protocol":17,"map":"workshop/pl_cashworks_final1.ugc2904065412","folder":"tf","game":"Team Fortress","app_id":440,"player_count":0,"max_players":32,"Bots":0,"server_type":"Dedicated","server_os":"Linux","password":true,"vac":true,"version":"7757534","steam_id":85568392924515187,"keywords":["increased_maxplayers","nocrits","nodmgspread","payload","uncletopia"],"game_id":440,"stv_port":27036,"stv_name":"Uncletopia | Atlanta | 3 | Community | STV","players":null},{"server_id":401,"name":"Uncletopia | Atlanta | 4 | No Payload","name_short":"atl-4","host":"atl-1.us.uncletopia.com","port":27045,"enabled":true,"region":"us-east","cc":"us","latitude":33.753746,"longitude":-84.38633,"reserved":0,"last_update":"0001-01-01T00:00:00Z","name_a2s":"","protocol":0,"map":"","folder":"","game":"","app_id":0,"player_count":0,"max_players":0,"Bots":0,"server_type":"","server_os":"","password":false,"vac":false,"version":"","steam_id":0,"keywords":null,"game_id":0,"stv_port":0,"stv_name":"","players":null},{"server_id":2,"name":"Uncletopia | Chicago | 1 | All Maps","name_short":"chi-1","host":"chi-1.us.uncletopia.com","port":27015,"enabled":true,"region":"us-central","cc":"us","latitude":41.881832,"longitude":-87.62318,"reserved":0,"last_update":"0001-01-01T00:00:00Z","name_a2s":"Uncletopia | Chicago | 1 | All Maps","protocol":17,"map":"pl_badwater","folder":"tf","game":"Team Fortress","app_id":440,"player_count":24,"max_players":24,"Bots":0,"server_type":"Dedicated","server_os":"Linux","password":true,"vac":true,"version":"7757534","steam_id":85568392924469984,"keywords":["nocrits","nodmgspread","payload","uncletopia"],"game_id":440,"stv_port":27016,"stv_name":"Uncletopia | Chicago | 1 | All Maps | STV","players":[{"user_id":529,"name":"No Telefrag Plz","steam_id":76561198113931312,"connected_time":3048000000000,"state":"active","ping":74},{"user_id":536,"name":"‚ù§‚ô°ÔΩ•ÔæüBubblesÔΩ•Ôæü‚ô°‚ù§","steam_id":76561198041057042,"connected_time":2166000000000,"state":"active","ping":64},{"user_id":566,"name":"Goober","steam_id":76561198105930089,"connected_time":145000000000,"state":"active","ping":65},{"user_id":565,"name":"squish","steam_id":76561198097657352,"connected_time":147000000000,"state":"active","ping":100},{"user_id":552,"name":"Quark","steam_id":76561198328155605,"connected_time":1001000000000,"state":"active","ping":52},{"user_id":567,"name":"Bungalow Bill","steam_id":76561198033536404,"connected_time":141000000000,"state":"active","ping":84},{"user_id":519,"name":"money getting 1 percenter","steam_id":76561198012796388,"connected_time":3875000000000,"state":"active","ping":46},{"user_id":527,"name":"bash -lc ./asshat.sh","steam_id":76561198004584315,"connected_time":3791000000000,"state":"active","ping":69},{"user_id":564,"name":"__Creed__","steam_id":76561198138564169,"connected_time":154000000000,"state":"active","ping":71},{"user_id":568,"name":"bakkhertz","steam_id":76561198046745579,"connected_time":136000000000,"state":"active","ping":109},{"user_id":561,"name":"Stone","steam_id":76561198122475920,"connected_time":621000000000,"state":"active","ping":166},{"user_id":560,"name":"Wipes-Pee-Hole","steam_id":76561198144420129,"connected_time":775000000000,"state":"active","ping":87},{"user_id":533,"name":"wheres my drink?","steam_id":76561198031675881,"connected_time":2289000000000,"state":"active","ping":46},{"user_id":569,"name":"PzVIIIMaus","steam_id":76561198346559365,"connected_time":134000000000,"state":"active","ping":46},{"user_id":493,"name":"I'LL KRUMP WITH YOU SWEETIE","steam_id":76561198146069114,"connected_time":6257000000000,"state":"active","ping":75},{"user_id":554,"name":"Neoplix","steam_id":76561199012756422,"connected_time":981000000000,"state":"active","ping":75},{"user_id":520,"name":"cheeburgr :)","steam_id":76561198131703086,"connected_time":3874000000000,"state":"active","ping":69},{"user_id":551,"name":"mcdoubble","steam_id":76561198089126832,"connected_time":1163000000000,"state":"active","ping":85},{"user_id":544,"name":"Pennis the Menace","steam_id":76561198254878037,"connected_time":2088000000000,"state":"active","ping":98},{"user_id":559,"name":"Fake Uncle","steam_id":76561198880227689,"connected_time":850000000000,"state":"active","ping":57},{"user_id":522,"name":":)","steam_id":76561198057717934,"connected_time":3860000000000,"state":"active","ping":45},{"user_id":558,"name":"zzZ","steam_id":76561198038486613,"connected_time":863000000000,"state":"active","ping":62},{"user_id":548,"name":"Professional Zoo Tycoon Player","steam_id":76561198013026044,"connected_time":1187000000000,"state":"active","ping":83},{"user_id":513,"name":"pelt","steam_id":76561197993593754,"connected_time":4448000000000,"state":"active","ping":50}]},{"server_id":106,"name":"Uncletopia | Chicago | 2 | All Maps","name_short":"chi-2","host":"chi-1.us.uncletopia.com","port":27025,"enabled":true,"region":"us-central","cc":"us","latitude":41.881832,"longitude":-87.62318,"reserved":0,"last_update":"0001-01-01T00:00:00Z","name_a2s":"Uncletopia | Chicago | 2 | All Maps","protocol":17,"map":"koth_cascade","folder":"tf","game":"Team Fortress","app_id":440,"player_count":3,"max_players":24,"Bots":0,"server_type":"Dedicated","server_os":"Linux","password":true,"vac":true,"version":"7757534","steam_id":85568392924469985,"keywords":["cp","nocrits","nodmgspread","uncletopia"],"game_id":440,"stv_port":27026,"stv_name":"Uncletopia | Chicago | 2 | All Maps | STV","players":[{"user_id":20,"name":"degroottalan8","steam_id":76561199106170656,"connected_time":451000000000,"state":"active","ping":90},{"user_id":21,"name":"BeanMan114","steam_id":76561199162701888,"connected_time":429000000000,"state":"active","ping":99},{"user_id":22,"name":"sax","steam_id":76561198094788852,"connected_time":267000000000,"state":"active","ping":44}]},{"server_id":402,"name":"Uncletopia | Chicago | 3 | All Maps","name_short":"chi-3","host":"chi-1.us.uncletopia.com","port":27035,"enabled":true,"region":"us-central","cc":"us","latitude":41.881832,"longitude":-87.62318,"reserved":0,"last_update":"0001-01-01T00:00:00Z","name_a2s":"Uncletopia | Chicago | 3 | All Maps","protocol":17,"map":"pl_badwater","folder":"tf","game":"Team Fortress","app_id":440,"player_count":24,"max_players":24,"Bots":0,"server_type":"Dedicated","server_os":"Linux","password":true,"vac":true,"version":"7757534","steam_id":85568392924515191,"keywords":["nocrits","nodmgspread","payload","uncletopia"],"game_id":440,"stv_port":27036,"stv_name":"Uncletopia | Chicago | 3 | All Maps | STV","players":[{"user_id":14,"name":"BeckBeck","steam_id":76561198316018749,"connected_time":2026000000000,"state":"active","ping":63},{"user_id":15,"name":"the_snoo_muffin","steam_id":76561198806184462,"connected_time":2003000000000,"state":"active","ping":83},{"user_id":59,"name":"Owl Pacino","steam_id":76561197979970666,"connected_time":151000000000,"state":"active","ping":55},{"user_id":54,"name":"CreativeUsername","steam_id":76561198186045503,"connected_time":347000000000,"state":"active","ping":49},{"user_id":33,"name":"replaycoding_","steam_id":76561198289737954,"connected_time":1043000000000,"state":"active","ping":94},{"user_id":26,"name":"braisoruel","steam_id":76561198946498774,"connected_time":1422000000000,"state":"active","ping":71},{"user_id":53,"name":"creeeeeee","steam_id":76561198392539722,"connected_time":355000000000,"state":"active","ping":81},{"user_id":56,"name":"nhbiker","steam_id":76561198081277675,"connected_time":310000000000,"state":"active","ping":59},{"user_id":30,"name":"Mr_Frosty","steam_id":76561199380389079,"connected_time":1174000000000,"state":"active","ping":113},{"user_id":34,"name":"Brain Tumor","steam_id":76561198805526881,"connected_time":1043000000000,"state":"active","ping":77},{"user_id":52,"name":"skilaruh","steam_id":76561198413172611,"connected_time":425000000000,"state":"active","ping":60},{"user_id":36,"name":"batheman63","steam_id":76561198881818552,"connected_time":970000000000,"state":"active","ping":78},{"user_id":37,"name":"Bad Hombre","steam_id":76561198046559176,"connected_time":930000000000,"state":"active","ping":45},{"user_id":38,"name":"Carl, Good to see you","steam_id":76561198070574075,"connected_time":913000000000,"state":"active","ping":73},{"user_id":57,"name":"Fresh Lychee","steam_id":76561198045399559,"connected_time":298000000000,"state":"active","ping":59},{"user_id":40,"name":"octanyl","steam_id":76561199239926014,"connected_time":897000000000,"state":"active","ping":65},{"user_id":51,"name":"Spex","steam_id":76561198404566859,"connected_time":583000000000,"state":"active","ping":80},{"user_id":42,"name":"Johnny Lawrence #JohnnyMaxxing","steam_id":76561199367141671,"connected_time":879000000000,"state":"active","ping":60},{"user_id":43,"name":"Soundproof","steam_id":76561198133392504,"connected_time":877000000000,"state":"active","ping":61},{"user_id":45,"name":"Cousin Corn on the Cob","steam_id":76561198049837377,"connected_time":855000000000,"state":"active","ping":47},{"user_id":46,"name":"The World's Softest Sandwich","steam_id":76561198015577707,"connected_time":827000000000,"state":"active","ping":79},{"user_id":47,"name":"stevemarshall","steam_id":76561198405982285,"connected_time":785000000000,"state":"active","ping":45},{"user_id":50,"name":"Filthy Acts at Reasonable Price","steam_id":76561198354615890,"connected_time":643000000000,"state":"active","ping":59},{"user_id":55,"name":"Average Engineer Main","steam_id":76561197999657118,"connected_time":327000000000,"state":"active","ping":84}]},{"server_id":403,"name":"Uncletopia | Chicago | 4 | All Maps","name_short":"chi-4","host":"chi-1.us.uncletopia.com","port":27045,"enabled":true,"region":"us-central","cc":"us","latitude":41.881832,"longitude":-87.62318,"reserved":0,"last_update":"0001-01-01T00:00:00Z","name_a2s":"Uncletopia | Chicago | 4 | All Maps","protocol":17,"map":"koth_lakeside_final","folder":"tf","game":"Team Fortress","app_id":440,"player_count":0,"max_players":24,"Bots":0,"server_type":"Dedicated","server_os":"Linux","password":true,"vac":true,"version":"7757534","steam_id":85568392924515193,"keywords":["cp","nocrits","nodmgspread","uncletopia"],"game_id":440,"stv_port":27046,"stv_name":"Uncletopia | Chicago | 4 | All Maps | STV","players":null},{"server_id":36,"name":"Uncletopia | Chicago | 5 | All Maps","name_short":"chi-5","host":"chi-2.us.uncletopia.com","port":27015,"enabled":true,"region":"us-central","cc":"us","latitude":41.881832,"longitude":-87.62318,"reserved":0,"last_update":"0001-01-01T00:00:00Z","name_a2s":"Uncletopia | Chicago | 5 | All Maps","protocol":17,"map":"pl_swiftwater_final1","folder":"tf","game":"Team Fortress","app_id":440,"player_count":24,"max_players":24,"Bots":0,"server_type":"Dedicated","server_os":"Linux","password":true,"vac":true,"version":"7757534","steam_id":85568392924866362,"keywords":["nocrits","nodmgspread","payload","uncletopia"],"game_id":440,"stv_port":27016,"stv_name":"Uncletopia | Chicago | 5 | All Maps | STV","players":[{"user_id":53,"name":"Coupon","steam_id":76561198111947598,"connected_time":2698000000000,"state":"active","ping":85},{"user_id":74,"name":"UNIT 220","steam_id":76561198042243497,"connected_time":969000000000,"state":"active","ping":65},{"user_id":65,"name":"Doc","steam_id":76561198044196439,"connected_time":2077000000000,"state":"active","ping":105},{"user_id":76,"name":"R.Y.","steam_id":76561199384459715,"connected_time":446000000000,"state":"active","ping":92},{"user_id":31,"name":"Flameskull500","steam_id":76561198215826393,"connected_time":4192000000000,"state":"active","ping":82},{"user_id":18,"name":"Effie","steam_id":76561198261842068,"connected_time":4861000000000,"state":"active","ping":102},{"user_id":32,"name":"_TheHorseMan_","steam_id":76561198177241254,"connected_time":4164000000000,"state":"active","ping":85},{"user_id":67,"name":"dog flattening machine","steam_id":76561198122487460,"connected_time":1499000000000,"state":"active","ping":75},{"user_id":79,"name":"wahooka","steam_id":76561197981211922,"connected_time":406000000000,"state":"active","ping":71},{"user_id":69,"name":"kitchen crusader","steam_id":76561199217620385,"connected_time":1474000000000,"state":"active","ping":68},{"user_id":72,"name":"Try Gardening","steam_id":76561198120311340,"connected_time":1352000000000,"state":"active","ping":47},{"user_id":75,"name":"dunbar","steam_id":76561198043873119,"connected_time":714000000000,"state":"active","ping":59},{"user_id":68,"name":"The Lelda of Zelda","steam_id":76561199120483390,"connected_time":1493000000000,"state":"active","ping":92},{"user_id":56,"name":"surrender to the void","steam_id":76561198055494039,"connected_time":2671000000000,"state":"active","ping":79},{"user_id":39,"name":"Detonator Dave","steam_id":76561198138221795,"connected_time":4005000000000,"state":"active","ping":71},{"user_id":40,"name":"primordialheath","steam_id":76561199386942638,"connected_time":3983000000000,"state":"active","ping":53},{"user_id":80,"name":"pablo","steam_id":76561198395577807,"connected_time":275000000000,"state":"active","ping":50},{"user_id":71,"name":"blanch","steam_id":76561198850629951,"connected_time":1443000000000,"state":"active","ping":72},{"user_id":63,"name":"magotago","steam_id":76561198013650292,"connected_time":2126000000000,"state":"active","ping":117},{"user_id":44,"name":"Windex","steam_id":76561198105561395,"connected_time":3918000000000,"state":"active","ping":89},{"user_id":78,"name":"Cooldude_15","steam_id":76561198346713382,"connected_time":427000000000,"state":"active","ping":45},{"user_id":60,"name":"BigWack","steam_id":76561198334878169,"connected_time":2616000000000,"state":"active","ping":92},{"user_id":59,"name":"xcolondi","steam_id":76561199000786530,"connected_time":2623000000000,"state":"active","ping":74},{"user_id":48,"name":"SSBM Pelican","steam_id":76561198040697907,"connected_time":3815000000000,"state":"active","ping":75}]},{"server_id":37,"name":"Uncletopia | Chicago | 6 | All Maps","name_short":"chi-6","host":"chi-2.us.uncletopia.com","port":27025,"enabled":true,"region":"us-central","cc":"us","latitude":41.881832,"longitude":-87.62318,"reserved":0,"last_update":"0001-01-01T00:00:00Z","name_a2s":"Uncletopia | Chicago | 6 | All Maps","protocol":17,"map":"koth_cascade","folder":"tf","game":"Team Fortress","app_id":440,"player_count":0,"max_players":24,"Bots":0,"server_type":"Dedicated","server_os":"Linux","password":true,"vac":true,"version":"7757534","steam_id":85568392924866363,"keywords":["cp","nocrits","nodmgspread","uncletopia"],"game_id":440,"stv_port":27026,"stv_name":"Uncletopia | Chicago | 6 | All Maps | STV","players":null},{"server_id":38,"name":"Uncletopia | Chicago | 7 | Stopwatch Beta","name_short":"chi-7","host":"chi-2.us.uncletopia.com","port":27035,"enabled":true,"region":"us-central","cc":"us","latitude":41.881832,"longitude":-87.62318,"reserved":0,"last_update":"0001-01-01T00:00:00Z","name_a2s":"Uncletopia | Chicago | 7 | Stopwatch Beta","protocol":17,"map":"pl_upward","folder":"tf","game":"Team Fortress","app_id":440,"player_count":0,"max_players":24,"Bots":0,"server_type":"Dedicated","server_os":"Linux","password":true,"vac":true,"version":"7757534","steam_id":85568392924866364,"keywords":["nocrits","nodmgspread","payload","uncletopia"],"game_id":440,"stv_port":27036,"stv_name":"Uncletopia | Chicago | 7 | Stopwatch Beta | STV","players":null},{"server_id":39,"name":"Uncletopia | Chicago | 8 | Community","name_short":"chi-8","host":"chi-2.us.uncletopia.com","port":27045,"enabled":true,"region":"us-central","cc":"us","latitude":41.881832,"longitude":-87.62318,"reserved":0,"last_update":"0001-01-01T00:00:00Z","name_a2s":"Uncletopia | Chicago | 8 | Community","protocol":17,"map":"pl_barnblitz","folder":"tf","game":"Team Fortress","app_id":440,"player_count":0,"max_players":24,"Bots":0,"server_type":"Dedicated","server_os":"Linux","password":true,"vac":true,"version":"7757534","steam_id":85568392924866365,"keywords":["nocrits","nodmgspread","payload","uncletopia"],"game_id":440,"stv_port":27046,"stv_name":"Uncletopia | Chicago | 8 | Community | STV","players":null},{"server_id":8,"name":"Uncletopia | Dallas | 1 | All Maps","name_short":"dal-1","host":"dal-1.us.uncletopia.com","port":27015,"enabled":true,"region":"us-central","cc":"us","latitude":32.779167,"longitude":-96.80889,"reserved":0,"last_update":"0001-01-01T00:00:00Z","name_a2s":"Uncletopia | Dallas | 1 | All Maps","protocol":17,"map":"pl_frontier_final","folder":"tf","game":"Team Fortress","app_id":440,"player_count":20,"max_players":24,"Bots":0,"server_type":"Dedicated","server_os":"Linux","password":true,"vac":true,"version":"7757534","steam_id":85568392924469986,"keywords":["nocrits","nodmgspread","payload","uncletopia"],"game_id":440,"stv_port":27016,"stv_name":"Uncletopia | Dallas | 1 | All Maps | STV","players":[{"user_id":129,"name":"momb","steam_id":76561198142234038,"connected_time":198000000000,"state":"connecting","ping":91},{"user_id":118,"name":"VenomSM","steam_id":76561198296235403,"connected_time":867000000000,"state":"connecting","ping":203},{"user_id":104,"name":"Faust main","steam_id":76561198971799149,"connected_time":2230000000000,"state":"connecting","ping":71},{"user_id":110,"name":"Rein","steam_id":76561198300340427,"connected_time":1781000000000,"state":"connecting","ping":103},{"user_id":121,"name":"cheeks","steam_id":76561197993371179,"connected_time":844000000000,"state":"connecting","ping":78},{"user_id":84,"name":"ShinGojirabrYT","steam_id":76561199199037141,"connected_time":3767000000000,"state":"connecting","ping":159},{"user_id":133,"name":"Zenn","steam_id":76561198032618254,"connected_time":20000000000,"state":"connecting","ping":142},{"user_id":134,"name":"[chef] iron","steam_id":76561197970888616,"connected_time":19000000000,"state":"connecting","ping":69},{"user_id":106,"name":"TTV/PolperLane","steam_id":76561198079439317,"connected_time":1823000000000,"state":"connecting","ping":83},{"user_id":125,"name":"gasparmx","steam_id":76561197998611994,"connected_time":412000000000,"state":"connecting","ping":126},{"user_id":89,"name":"Fishstall","steam_id":76561198038126034,"connected_time":3618000000000,"state":"connecting","ping":57},{"user_id":131,"name":"Zenny #saveMinecraft","steam_id":76561199105729447,"connected_time":80000000000,"state":"connecting","ping":59},{"user_id":126,"name":"sexypringle","steam_id":76561198401282091,"connected_time":380000000000,"state":"connecting","ping":71},{"user_id":124,"name":"JAke","steam_id":76561198141382684,"connected_time":661000000000,"state":"connecting","ping":128},{"user_id":103,"name":"DocLucky","steam_id":76561199093899249,"connected_time":2372000000000,"state":"connecting","ping":168},{"user_id":122,"name":"bottom pride burger","steam_id":76561198322247602,"connected_time":844000000000,"state":"connecting","ping":118},{"user_id":108,"name":"Jelpo","steam_id":76561198406920072,"connected_time":1791000000000,"state":"connecting","ping":88},{"user_id":92,"name":"Aonator","steam_id":76561198252312446,"connected_time":3314000000000,"state":"connecting","ping":111},{"user_id":81,"name":"TTV/ChadMorningWood","steam_id":76561198139832291,"connected_time":3857000000000,"state":"connecting","ping":78},{"user_id":109,"name":"Adam","steam_id":76561198045660732,"connected_time":1791000000000,"state":"connecting","ping":228}]},{"server_id":108,"name":"Uncletopia | Dallas | 2 | All Maps","name_short":"dal-2","host":"dal-1.us.uncletopia.com","port":27025,"enabled":true,"region":"us-central","cc":"us","latitude":32.779167,"longitude":-96.80889,"reserved":0,"last_update":"0001-01-01T00:00:00Z","name_a2s":"Uncletopia | Dallas | 2 | All Maps","protocol":17,"map":"koth_lakeside_final","folder":"tf","game":"Team Fortress","app_id":440,"player_count":0,"max_players":24,"Bots":0,"server_type":"Dedicated","server_os":"Linux","password":true,"vac":true,"version":"7757534","steam_id":85568392924469988,"keywords":["cp","nocrits","nodmgspread","uncletopia"],"game_id":440,"stv_port":27026,"stv_name":"Uncletopia | Dallas | 2 | All Maps | STV","players":null},{"server_id":5,"name":"Uncletopia | Frankfurt | 1 | All Maps","name_short":"frk-1","host":"frk-1.de.uncletopia.com","port":27015,"enabled":true,"region":"eu","cc":"de","latitude":50.110924,"longitude":8.682127,"reserved":0,"last_update":"0001-01-01T00:00:00Z","name_a2s":"Uncletopia | Frankfurt | 1 | All Maps","protocol":17,"map":"pl_upward","folder":"tf","game":"Team Fortress","app_id":440,"player_count":24,"max_players":24,"Bots":0,"server_type":"Dedicated","server_os":"Linux","password":true,"vac":true,"version":"7757534","steam_id":85568392924469989,"keywords":["nocrits","nodmgspread","payload","uncletopia"],"game_id":440,"stv_port":27016,"stv_name":"Uncletopia | Frankfurt | 1 | All Maps | STV","players":[{"user_id":171,"name":"citronous","steam_id":76561198093290934,"connected_time":20845000000000,"state":"active","ping":55},{"user_id":441,"name":"Hann√º","steam_id":76561197969886128,"connected_time":1010000000000,"state":"active","ping":67},{"user_id":415,"name":"Brynjolf","steam_id":76561198531978435,"connected_time":3325000000000,"state":"active","ping":75},{"user_id":446,"name":"DELEUZE","steam_id":76561199153001543,"connected_time":725000000000,"state":"active","ping":94},{"user_id":448,"name":"G6 sherlock","steam_id":76561198802967796,"connected_time":630000000000,"state":"active","ping":114},{"user_id":443,"name":"welcome to my estate","steam_id":76561198104896547,"connected_time":931000000000,"state":"active","ping":73},{"user_id":395,"name":"dotdotdot","steam_id":76561198057628751,"connected_time":4678000000000,"state":"active","ping":63},{"user_id":433,"name":"Chill Spirit","steam_id":76561198845001725,"connected_time":1598000000000,"state":"active","ping":47},{"user_id":457,"name":"Boki","steam_id":76561198044553351,"connected_time":263000000000,"state":"active","ping":76},{"user_id":430,"name":"Pestdoktor","steam_id":76561198058159271,"connected_time":2001000000000,"state":"active","ping":60},{"user_id":458,"name":"addicted","steam_id":76561199129801006,"connected_time":192000000000,"state":"active","ping":50},{"user_id":434,"name":"Anri Okita's Massive Milkers","steam_id":76561199186352720,"connected_time":1423000000000,"state":"active","ping":64},{"user_id":459,"name":"hourglass","steam_id":76561198166613799,"connected_time":169000000000,"state":"active","ping":93},{"user_id":439,"name":"EdSuedi","steam_id":76561199387956486,"connected_time":1063000000000,"state":"active","ping":50},{"user_id":431,"name":"Miss Bari","steam_id":76561198365286092,"connected_time":1971000000000,"state":"active","ping":48},{"user_id":417,"name":"Captain Saburov","steam_id":76561198135343869,"connected_time":3321000000000,"state":"active","ping":109},{"user_id":405,"name":"rain","steam_id":76561198083867904,"connected_time":4210000000000,"state":"active","ping":60},{"user_id":419,"name":"Noah May","steam_id":76561198411732527,"connected_time":3115000000000,"state":"active","ping":59},{"user_id":429,"name":"heavy sings (real)","steam_id":76561199023804405,"connected_time":2219000000000,"state":"active","ping":83},{"user_id":403,"name":"BluDiamynt","steam_id":76561198894231340,"connected_time":4446000000000,"state":"active","ping":63},{"user_id":432,"name":"LarsInABox","steam_id":76561198028329262,"connected_time":1715000000000,"state":"active","ping":75},{"user_id":389,"name":"Tea","steam_id":76561198799243030,"connected_time":5213000000000,"state":"active","ping":73},{"user_id":444,"name":"HEXXXXXXXXERII","steam_id":76561198149967445,"connected_time":929000000000,"state":"active","ping":46},{"user_id":462,"name":"One Shiny Boi‚Ñ¢","steam_id":76561198199193627,"connected_time":77000000000,"state":"active","ping":72}]},{"server_id":110,"name":"Uncletopia | Frankfurt | 2 | All Maps","name_short":"frk-2","host":"frk-1.de.uncletopia.com","port":27025,"enabled":true,"region":"eu","cc":"de","latitude":50.110924,"longitude":8.682127,"reserved":0,"last_update":"0001-01-01T00:00:00Z","name_a2s":"Uncletopia | Frankfurt | 2 | All Maps","protocol":17,"map":"pl_frontier_final","folder":"tf","game":"Team Fortress","app_id":440,"player_count":24,"max_players":24,"Bots":0,"server_type":"Dedicated","server_os":"Linux","password":true,"vac":true,"version":"7757534","steam_id":85568392924469990,"keywords":["nocrits","nodmgspread","payload","uncletopia"],"game_id":440,"stv_port":27026,"stv_name":"Uncletopia | Frankfurt | 2 | All Maps | STV","players":[{"user_id":574,"name":"Denialman (Muted)","steam_id":76561198309182092,"connected_time":67000000000,"state":"active","ping":71},{"user_id":539,"name":"joebot","steam_id":76561197975606100,"connected_time":1410000000000,"state":"active","ping":140},{"user_id":577,"name":"Enforcer02","steam_id":76561197966045944,"connected_time":20000000000,"state":"active","ping":52},{"user_id":573,"name":"Pingutaro","steam_id":76561198112803718,"connected_time":118000000000,"state":"active","ping":61},{"user_id":556,"name":"Trash","steam_id":76561198274105878,"connected_time":869000000000,"state":"active","ping":71},{"user_id":576,"name":"limdungbeetle","steam_id":76561198026160958,"connected_time":36000000000,"state":"spawning","ping":65},{"user_id":560,"name":"Acanda","steam_id":76561198123246537,"connected_time":616000000000,"state":"active","ping":49},{"user_id":580,"name":"Th√§as","steam_id":76561198264708239,"connected_time":5000000000,"state":"spawning","ping":86},{"user_id":571,"name":"jameso","steam_id":76561198064042970,"connected_time":179000000000,"state":"active","ping":71},{"user_id":569,"name":"Kavary","steam_id":76561198024792146,"connected_time":275000000000,"state":"active","ping":81},{"user_id":566,"name":"Testicular torsion","steam_id":76561198119547399,"connected_time":313000000000,"state":"active","ping":54},{"user_id":557,"name":"Peter Pats","steam_id":76561198418538887,"connected_time":830000000000,"state":"active","ping":91},{"user_id":468,"name":"Goliath","steam_id":76561198088583638,"connected_time":5681000000000,"state":"active","ping":46},{"user_id":578,"name":"Spike","steam_id":76561198306382723,"connected_time":19000000000,"state":"spawning","ping":59},{"user_id":540,"name":"Kwizine","steam_id":76561198147999400,"connected_time":1396000000000,"state":"active","ping":60},{"user_id":470,"name":"MrPOW","steam_id":76561197978597654,"connected_time":5604000000000,"state":"active","ping":60},{"user_id":543,"name":"The Bread Bringer","steam_id":76561198264079743,"connected_time":1371000000000,"state":"active","ping":47},{"user_id":567,"name":"Aquila","steam_id":76561198046440044,"connected_time":309000000000,"state":"active","ping":54},{"user_id":568,"name":"Aaron Rodgers Gaming","steam_id":76561198394221491,"connected_time":299000000000,"state":"active","ping":58},{"user_id":517,"name":"Plubu","steam_id":76561198082511092,"connected_time":2131000000000,"state":"active","ping":119},{"user_id":572,"name":"Michael","steam_id":76561198003146906,"connected_time":137000000000,"state":"active","ping":58},{"user_id":582,"name":"robbie","steam_id":76561198798195287,"connected_time":1000000000,"state":"spawning","ping":47},{"user_id":548,"name":"¬¨¬∞Nice","steam_id":76561198387871867,"connected_time":1329000000000,"state":"active","ping":79},{"user_id":581,"name":"fisch","steam_id":76561198382833003,"connected_time":5000000000,"state":"spawning","ping":59}]},{"server_id":308,"name":"Uncletopia | Frankfurt | 3 | All Maps","name_short":"frk-3","host":"frk-1.de.uncletopia.com","port":27035,"enabled":true,"region":"eu","cc":"de","latitude":50.110924,"longitude":8.682127,"reserved":0,"last_update":"0001-01-01T00:00:00Z","name_a2s":"Uncletopia | Frankfurt | 3 | All Maps","protocol":17,"map":"cp_snakewater_final1","folder":"tf","game":"Team Fortress","app_id":440,"player_count":23,"max_players":24,"Bots":0,"server_type":"Dedicated","server_os":"Linux","password":true,"vac":true,"version":"7757534","steam_id":85568392924504274,"keywords":["cp","nocrits","nodmgspread","uncletopia"],"game_id":440,"stv_port":27036,"stv_name":"Uncletopia | Frankfurt | 3 | All Maps | STV","players":[{"user_id":616,"name":"–ö–æ—Ç–ª–µ—Ç–∞ –ë–æ–≥–∞","steam_id":76561198014808352,"connected_time":2328000000000,"state":"active","ping":76},{"user_id":648,"name":"Schnitzel","steam_id":76561198262231733,"connected_time":897000000000,"state":"active","ping":60},{"user_id":560,"name":"Ash üíõ","steam_id":76561198260495385,"connected_time":4510000000000,"state":"active","ping":57},{"user_id":625,"name":"ChickyCoop","steam_id":76561199072983488,"connected_time":1500000000000,"state":"active","ping":79},{"user_id":638,"name":"alko_bone","steam_id":76561198557773514,"connected_time":1192000000000,"state":"active","ping":115},{"user_id":602,"name":"mumbler","steam_id":76561197970641239,"connected_time":2739000000000,"state":"active","ping":47},{"user_id":651,"name":"Teller is better than Penn","steam_id":76561198120166752,"connected_time":203000000000,"state":"active","ping":72},{"user_id":649,"name":"Dill Killem","steam_id":76561199071571354,"connected_time":442000000000,"state":"active","ping":65},{"user_id":626,"name":"Enigma","steam_id":76561198035401717,"connected_time":1499000000000,"state":"active","ping":61},{"user_id":591,"name":"Rad","steam_id":76561198001101843,"connected_time":3098000000000,"state":"active","ping":61},{"user_id":647,"name":"Fat Pigeon","steam_id":76561198817940142,"connected_time":1018000000000,"state":"active","ping":48},{"user_id":629,"name":"Random Cap","steam_id":76561198129271321,"connected_time":1481000000000,"state":"active","ping":48},{"user_id":631,"name":"SPONGE","steam_id":76561198040933472,"connected_time":1395000000000,"state":"active","ping":88},{"user_id":653,"name":"R!not","steam_id":76561197986328786,"connected_time":105000000000,"state":"active","ping":47},{"user_id":637,"name":"Andy","steam_id":76561198046918834,"connected_time":1218000000000,"state":"active","ping":71},{"user_id":654,"name":"Dooble donk man look at me donk","steam_id":76561198225523596,"connected_time":95000000000,"state":"active","ping":74},{"user_id":608,"name":"norespectforthedevil","steam_id":76561197998922218,"connected_time":2516000000000,"state":"active","ping":173},{"user_id":636,"name":"‚ô• Cirno ‚ô•","steam_id":76561198834982738,"connected_time":1253000000000,"state":"active","ping":76},{"user_id":642,"name":"lousof71","steam_id":76561199104427894,"connected_time":1105000000000,"state":"active","ping":87},{"user_id":643,"name":"TJoe_beastbiden","steam_id":76561198129092269,"connected_time":1104000000000,"state":"active","ping":46},{"user_id":644,"name":"Economic crisis","steam_id":76561198063562843,"connected_time":1089000000000,"state":"active","ping":48},{"user_id":645,"name":"mt","steam_id":76561197961319303,"connected_time":1081000000000,"state":"active","ping":45},{"user_id":646,"name":"trobin120","steam_id":76561199122420273,"connected_time":1074000000000,"state":"active","ping":135}]},{"server_id":309,"name":"Uncletopia | Frankfurt | 4 | All Maps","name_short":"frk-4","host":"frk-1.de.uncletopia.com","port":27045,"enabled":true,"region":"eu","cc":"de","latitude":50.110924,"longitude":8.682127,"reserved":0,"last_update":"0001-01-01T00:00:00Z","name_a2s":"Uncletopia | Frankfurt | 4 | All Maps","protocol":17,"map":"cp_process_final","folder":"tf","game":"Team Fortress","app_id":440,"player_count":23,"max_players":24,"Bots":0,"server_type":"Dedicated","server_os":"Linux","password":true,"vac":true,"version":"7757534","steam_id":85568392924504275,"keywords":["cp","nocrits","nodmgspread","uncletopia"],"game_id":440,"stv_port":27046,"stv_name":"Uncletopia | Frankfurt | 4 | All Maps | STV","players":[{"user_id":407,"name":"hora","steam_id":76561198404470526,"connected_time":1780000000000,"state":"active","ping":84},{"user_id":158,"name":"my head + the wall = \u003c3","steam_id":76561198058012525,"connected_time":17917000000000,"state":"active","ping":70},{"user_id":425,"name":"Frost","steam_id":76561199228878812,"connected_time":693000000000,"state":"active","ping":127},{"user_id":426,"name":"‚ô•Quirky Doge‚ô•","steam_id":76561198079410199,"connected_time":675000000000,"state":"active","ping":66},{"user_id":416,"name":"wolfenstein03","steam_id":76561198147173457,"connected_time":1128000000000,"state":"active","ping":64},{"user_id":435,"name":"Kingston's Finest Warrior","steam_id":76561198194327061,"connected_time":260000000000,"state":"active","ping":67},{"user_id":439,"name":"Chicker","steam_id":76561198809697283,"connected_time":148000000000,"state":"active","ping":54},{"user_id":436,"name":"i hate the lil bro meme","steam_id":76561198047359132,"connected_time":175000000000,"state":"active","ping":65},{"user_id":418,"name":"Udinese Dion","steam_id":76561198067931573,"connected_time":983000000000,"state":"active","ping":38},{"user_id":270,"name":"Vershal Smershal","steam_id":76561198116223995,"connected_time":11485000000000,"state":"active","ping":61},{"user_id":421,"name":"Chikapu_Xek","steam_id":76561198428023493,"connected_time":774000000000,"state":"active","ping":87},{"user_id":429,"name":"o_o","steam_id":76561198076494034,"connected_time":499000000000,"state":"active","ping":54},{"user_id":316,"name":"SIR MEPHEDRONE","steam_id":76561198302623594,"connected_time":7527000000000,"state":"active","ping":90},{"user_id":430,"name":"ArikMor","steam_id":76561199124472513,"connected_time":436000000000,"state":"active","ping":113},{"user_id":410,"name":"big boye","steam_id":76561198236073064,"connected_time":1742000000000,"state":"active","ping":68},{"user_id":381,"name":"Aaye","steam_id":76561198032322151,"connected_time":2862000000000,"state":"active","ping":146},{"user_id":401,"name":"Acid","steam_id":76561198102110680,"connected_time":2180000000000,"state":"active","ping":84},{"user_id":431,"name":"amazing gamer(not really)","steam_id":76561198847383267,"connected_time":403000000000,"state":"active","ping":98},{"user_id":389,"name":"Luuk","steam_id":76561198088266026,"connected_time":2623000000000,"state":"active","ping":41},{"user_id":438,"name":"f√©nix","steam_id":76561198083199151,"connected_time":150000000000,"state":"active","ping":62},{"user_id":434,"name":"SkaEEd","steam_id":76561198370722935,"connected_time":295000000000,"state":"active","ping":69},{"user_id":422,"name":"FoOzTV","steam_id":76561197998636728,"connected_time":772000000000,"state":"active","ping":74},{"user_id":441,"name":"badass","steam_id":76561198333549678,"connected_time":78000000000,"state":"active","ping":79}]},{"server_id":310,"name":"Uncletopia | Frankfurt | 5 | All Maps","name_short":"frk-5","host":"frk-1.de.uncletopia.com","port":27055,"enabled":true,"region":"eu","cc":"de","latitude":50.110924,"longitude":8.682127,"reserved":0,"last_update":"0001-01-01T00:00:00Z","name_a2s":"Uncletopia | Frankfurt | 5 | All Maps","protocol":17,"map":"koth_viaduct","folder":"tf","game":"Team Fortress","app_id":440,"player_count":0,"max_players":24,"Bots":0,"server_type":"Dedicated","server_os":"Linux","password":true,"vac":true,"version":"7757534","steam_id":85568392924504277,"keywords":["cp","nocrits","nodmgspread","uncletopia"],"game_id":440,"stv_port":27056,"stv_name":"Uncletopia | Frankfurt | 5 | All Maps | STV","players":null},{"server_id":311,"name":"Uncletopia | Frankfurt | 6 | All Maps","name_short":"frk-6","host":"frk-1.de.uncletopia.com","port":27065,"enabled":true,"region":"eu","cc":"de","latitude":50.110924,"longitude":8.682127,"reserved":0,"last_update":"0001-01-01T00:00:00Z","name_a2s":"Uncletopia | Frankfurt | 6 | All Maps","protocol":17,"map":"plr_hightower","folder":"tf","game":"Team Fortress","app_id":440,"player_count":23,"max_players":24,"Bots":0,"server_type":"Dedicated","server_os":"Linux","password":true,"vac":true,"version":"7757534","steam_id":85568392924504278,"keywords":["nocrits","nodmgspread","payload","uncletopia"],"game_id":440,"stv_port":27066,"stv_name":"Uncletopia | Frankfurt | 6 | All Maps | STV","players":[{"user_id":225,"name":"emko√ß","steam_id":76561198846782346,"connected_time":117000000000,"state":"active","ping":86},{"user_id":195,"name":"big hoops","steam_id":76561198004703799,"connected_time":2041000000000,"state":"active","ping":46},{"user_id":224,"name":"Hakan040404","steam_id":76561198251291714,"connected_time":261000000000,"state":"active","ping":53},{"user_id":201,"name":"Egap","steam_id":76561199070653454,"connected_time":1847000000000,"state":"active","ping":92},{"user_id":212,"name":"aRtaRt","steam_id":76561199051316171,"connected_time":1084000000000,"state":"active","ping":74},{"user_id":161,"name":"H2Orange","steam_id":76561198082128552,"connected_time":5645000000000,"state":"active","ping":76},{"user_id":203,"name":"fried","steam_id":76561198307522022,"connected_time":1720000000000,"state":"active","ping":56},{"user_id":204,"name":"M0rph","steam_id":76561198127339176,"connected_time":1694000000000,"state":"active","ping":59},{"user_id":219,"name":"chocolate flavoured femboy","steam_id":76561198819353867,"connected_time":655000000000,"state":"active","ping":54},{"user_id":158,"name":"Int3rnet","steam_id":76561198049289285,"connected_time":5995000000000,"state":"active","ping":68},{"user_id":205,"name":"Garden Freeman","steam_id":76561199073314677,"connected_time":1598000000000,"state":"active","ping":70},{"user_id":189,"name":"bap","steam_id":76561198828611418,"connected_time":2616000000000,"state":"active","ping":58},{"user_id":226,"name":"Thors","steam_id":76561197968739075,"connected_time":48000000000,"state":"active","ping":45},{"user_id":184,"name":"many thanks","steam_id":76561198089003514,"connected_time":3767000000000,"state":"active","ping":45},{"user_id":131,"name":"pitbull gaming","steam_id":76561198052412362,"connected_time":7029000000000,"state":"active","ping":67},{"user_id":207,"name":"GIA","steam_id":76561199216124328,"connected_time":1567000000000,"state":"active","ping":70},{"user_id":213,"name":"Deacon Dracul","steam_id":76561198046880663,"connected_time":1080000000000,"state":"active","ping":96},{"user_id":214,"name":"Flostro","steam_id":76561198259793697,"connected_time":922000000000,"state":"active","ping":47},{"user_id":215,"name":"Explosive Poptart","steam_id":76561198023918830,"connected_time":773000000000,"state":"active","ping":56},{"user_id":169,"name":"poopcorn","steam_id":76561198435246575,"connected_time":4985000000000,"state":"active","ping":58},{"user_id":220,"name":"cowboy","steam_id":76561198080361351,"connected_time":571000000000,"state":"active","ping":59},{"user_id":227,"name":"Ged","steam_id":76561198079288943,"connected_time":31000000000,"state":"active","ping":107},{"user_id":218,"name":"Bromoneto","steam_id":76561198876695014,"connected_time":744000000000,"state":"active","ping":70}]},{"server_id":23,"name":"Uncletopia | Frankfurt | 7 | Stopwatch Beta","name_short":"frk-7","host":"frk-1.de.uncletopia.com","port":27075,"enabled":true,"region":"eu","cc":"de","latitude":50.110924,"longitude":8.682127,"reserved":0,"last_update":"0001-01-01T00:00:00Z","name_a2s":"Uncletopia | Frankfurt | 7 | Stopwatch Beta","protocol":17,"map":"pl_frontier_final","folder":"tf","game":"Team Fortress","app_id":440,"player_count":0,"max_players":24,"Bots":0,"server_type":"Dedicated","server_os":"Linux","password":true,"vac":true,"version":"7757534","steam_id":85568392924742827,"keywords":["nocrits","nodmgspread","payload","uncletopia"],"game_id":440,"stv_port":27076,"stv_name":"Uncletopia | Frankfurt | 7 | Stopwatch Beta | STV","players":null},{"server_id":24,"name":"Uncletopia | Frankfurt | 8 | Community","name_short":"frk-8","host":"frk-1.de.uncletopia.com","port":27085,"enabled":true,"region":"eu","cc":"de","latitude":50.110924,"longitude":8.682127,"reserved":0,"last_update":"0001-01-01T00:00:00Z","name_a2s":"Uncletopia | Frankfurt | 8 | Community","protocol":17,"map":"workshop/cp_caldera_rc2.ugc2834196889","folder":"tf","game":"Team Fortress","app_id":440,"player_count":0,"max_players":24,"Bots":0,"server_type":"Dedicated","server_os":"Linux","password":true,"vac":true,"version":"7757534","steam_id":85568392924742828,"keywords":["cp","nocrits","nodmgspread","uncletopia"],"game_id":440,"stv_port":27086,"stv_name":"Uncletopia | Frankfurt | 8 | Community | STV","players":null},{"server_id":202,"name":"Uncletopia | Hong Kong | 1 | All Maps","name_short":"hgk-1","host":"hgk-1.hk.uncletopia.com","port":27015,"enabled":true,"region":"asia","cc":"hk","latitude":22.302711,"longitude":114.177216,"reserved":0,"last_update":"0001-01-01T00:00:00Z","name_a2s":"Uncletopia | Hong Kong | 1 | All Maps","protocol":17,"map":"pl_barnblitz","folder":"tf","game":"Team Fortress","app_id":440,"player_count":0,"max_players":24,"Bots":0,"server_type":"Dedicated","server_os":"Linux","password":true,"vac":true,"version":"7757534","steam_id":85568392924494504,"keywords":["nocrits","nodmgspread","payload","uncletopia"],"game_id":440,"stv_port":27016,"stv_name":"Uncletopia | Hong Kong | 1 | All Maps | STV","players":null},{"server_id":1,"name":"Uncletopia | Los Angeles | 1 | All Maps","name_short":"lax-1","host":"lax-1.us.uncletopia.com","port":27015,"enabled":true,"region":"us-west","cc":"us","latitude":33.94279,"longitude":-118.41004,"reserved":0,"last_update":"0001-01-01T00:00:00Z","name_a2s":"Uncletopia | Los Angeles | 1 | All Maps","protocol":17,"map":"pl_upward","folder":"tf","game":"Team Fortress","app_id":440,"player_count":24,"max_players":24,"Bots":0,"server_type":"Dedicated","server_os":"Linux","password":true,"vac":true,"version":"7757534","steam_id":85568392924469991,"keywords":["nocrits","nodmgspread","payload","uncletopia"],"game_id":440,"stv_port":27016,"stv_name":"Uncletopia | Los Angeles | 1 | All Maps | STV","players":[{"user_id":4,"name":"Nibotshooter","steam_id":76561199284825579,"connected_time":6158000000000,"state":"active","ping":78},{"user_id":57,"name":"toadlet","steam_id":76561198125261443,"connected_time":1388000000000,"state":"active","ping":82},{"user_id":67,"name":"matto1120","steam_id":76561198201321499,"connected_time":694000000000,"state":"active","ping":55},{"user_id":20,"name":"Just a little bit blue?","steam_id":76561199113013688,"connected_time":2785000000000,"state":"active","ping":46},{"user_id":68,"name":"Zebitron","steam_id":76561198162360436,"connected_time":624000000000,"state":"active","ping":85},{"user_id":69,"name":"Shook","steam_id":76561198054064995,"connected_time":623000000000,"state":"active","ping":87},{"user_id":21,"name":"-Saggins","steam_id":76561198130665627,"connected_time":2745000000000,"state":"active","ping":53},{"user_id":66,"name":"no vc no c","steam_id":76561197989503095,"connected_time":712000000000,"state":"active","ping":165},{"user_id":23,"name":"Andreshatesmondays","steam_id":76561198889349797,"connected_time":2682000000000,"state":"active","ping":58},{"user_id":72,"name":"TechnoFlare","steam_id":76561198067720081,"connected_time":456000000000,"state":"active","ping":54},{"user_id":73,"name":"Tlaloc","steam_id":76561198375215983,"connected_time":440000000000,"state":"active","ping":150},{"user_id":65,"name":"Koopa Paratroopa","steam_id":76561198035448426,"connected_time":730000000000,"state":"active","ping":75},{"user_id":29,"name":"summerlis","steam_id":76561198165324438,"connected_time":2277000000000,"state":"active","ping":44},{"user_id":31,"name":"Tort boi","steam_id":76561198125327110,"connected_time":2205000000000,"state":"active","ping":68},{"user_id":62,"name":"ForAPessimistImPrettyOptimistic","steam_id":76561198170128009,"connected_time":1126000000000,"state":"active","ping":72},{"user_id":36,"name":"Mirari","steam_id":76561198126889358,"connected_time":2062000000000,"state":"active","ping":118},{"user_id":75,"name":"Semj√©n Chungus","steam_id":76561198092398283,"connected_time":288000000000,"state":"active","ping":50},{"user_id":41,"name":"sweglord227","steam_id":76561198415510262,"connected_time":1993000000000,"state":"active","ping":104},{"user_id":42,"name":"the dishtv1605","steam_id":76561198061284371,"connected_time":1965000000000,"state":"active","ping":92},{"user_id":60,"name":"Bobby","steam_id":76561198164004939,"connected_time":1308000000000,"state":"active","ping":81},{"user_id":74,"name":"Wv1910","steam_id":76561198834804482,"connected_time":380000000000,"state":"active","ping":91},{"user_id":71,"name":"vncnt","steam_id":76561198046113319,"connected_time":579000000000,"state":"active","ping":75},{"user_id":51,"name":"umm yea um ok yea ummmmmm","steam_id":76561198054647777,"connected_time":1801000000000,"state":"active","ping":71},{"user_id":55,"name":"xbox record that","steam_id":76561198150117455,"connected_time":1535000000000,"state":"active","ping":47}]},{"server_id":112,"name":"Uncletopia | Los Angeles | 2 | All Maps","name_short":"lax-2","host":"lax-1.us.uncletopia.com","port":27025,"enabled":true,"region":"us-west","cc":"us","latitude":33.94279,"longitude":-118.41004,"reserved":0,"last_update":"0001-01-01T00:00:00Z","name_a2s":"Uncletopia | Los Angeles | 2 | All Maps","protocol":17,"map":"koth_cascade","folder":"tf","game":"Team Fortress","app_id":440,"player_count":0,"max_players":24,"Bots":0,"server_type":"Dedicated","server_os":"Linux","password":true,"vac":true,"version":"7757534","steam_id":85568392924469992,"keywords":["cp","nocrits","nodmgspread","uncletopia"],"game_id":440,"stv_port":27026,"stv_name":"Uncletopia | Los Angeles | 2 | All Maps | STV","players":null},{"server_id":324,"name":"Uncletopia | Los Angeles | 3 | All Maps","name_short":"lax-3","host":"lax-1.us.uncletopia.com","port":27035,"enabled":true,"region":"us-west","cc":"us","latitude":33.94279,"longitude":-118.41004,"reserved":0,"last_update":"0001-01-01T00:00:00Z","name_a2s":"Uncletopia | Los Angeles | 3 | All Maps","protocol":17,"map":"koth_highpass","folder":"tf","game":"Team Fortress","app_id":440,"player_count":0,"max_players":24,"Bots":0,"server_type":"Dedicated","server_os":"Linux","password":true,"vac":true,"version":"7757534","steam_id":85568392924510198,"keywords":["cp","nocrits","nodmgspread","uncletopia"],"game_id":440,"stv_port":27036,"stv_name":"Uncletopia | Los Angeles | 3 | All Maps | STV","players":null},{"server_id":25,"name":"Uncletopia | Los Angeles | 4 | Stopwatch Beta","name_short":"lax-4","host":"lax-1.us.uncletopia.com","port":27045,"enabled":true,"region":"us-west","cc":"us","latitude":33.94279,"longitude":-118.41004,"reserved":0,"last_update":"0001-01-01T00:00:00Z","name_a2s":"Uncletopia | Los Angeles | 4 | Stopwatch Beta","protocol":17,"map":"pl_frontier_final","folder":"tf","game":"Team Fortress","app_id":440,"player_count":0,"max_players":24,"Bots":0,"server_type":"Dedicated","server_os":"Linux","password":true,"vac":true,"version":"7757534","steam_id":85568392924510199,"keywords":["nocrits","nodmgspread","payload","uncletopia"],"game_id":440,"stv_port":27046,"stv_name":"Uncletopia | Los Angeles | 4 | Stopwatch Beta | STV","players":null},{"server_id":11,"name":"Uncletopia | London | 1 | All Maps","name_short":"lon-1","host":"lon-1.uk.uncletopia.com","port":27015,"enabled":true,"region":"eu","cc":"gb","latitude":51.509865,"longitude":-0.118092,"reserved":0,"last_update":"0001-01-01T00:00:00Z","name_a2s":"Uncletopia | London | 1 | All Maps","protocol":17,"map":"pl_snowycoast","folder":"tf","game":"Team Fortress","app_id":440,"player_count":24,"max_players":24,"Bots":0,"server_type":"Dedicated","server_os":"Linux","password":true,"vac":true,"version":"7757534","steam_id":85568392924367362,"keywords":["nocrits","nodmgspread","payload","uncletopia"],"game_id":440,"stv_port":27016,"stv_name":"Uncletopia | London | 1 | All Maps | STV","players":[{"user_id":357,"name":"JOHN GAMING (based)","steam_id":76561199085822219,"connected_time":476000000000,"state":"active","ping":80},{"user_id":312,"name":"Esther","steam_id":76561199474081953,"connected_time":3179000000000,"state":"active","ping":119},{"user_id":309,"name":"nudjura","steam_id":76561198281986139,"connected_time":3360000000000,"state":"active","ping":45},{"user_id":324,"name":"astra","steam_id":76561198042980579,"connected_time":2188000000000,"state":"active","ping":64},{"user_id":304,"name":"r06u3","steam_id":76561198254099253,"connected_time":3684000000000,"state":"active","ping":179},{"user_id":359,"name":"Aeglos","steam_id":76561198248698294,"connected_time":424000000000,"state":"active","ping":48},{"user_id":339,"name":"d u k k i","steam_id":76561198071807437,"connected_time":1710000000000,"state":"active","ping":84},{"user_id":360,"name":"B@yka","steam_id":76561198986736592,"connected_time":413000000000,"state":"active","ping":75},{"user_id":313,"name":"Amon Gus","steam_id":76561199094540960,"connected_time":3131000000000,"state":"active","ping":76},{"user_id":345,"name":"dominus.","steam_id":76561199065917088,"connected_time":1371000000000,"state":"active","ping":60},{"user_id":343,"name":"SOPHIIEE","steam_id":76561198443798981,"connected_time":1393000000000,"state":"active","ping":58},{"user_id":310,"name":"elv√Øs | P.U.R","steam_id":76561198988496941,"connected_time":3227000000000,"state":"active","ping":66},{"user_id":363,"name":"Bob Sacamano","steam_id":76561198085610701,"connected_time":202000000000,"state":"active","ping":120},{"user_id":358,"name":"Does he know?","steam_id":76561198048453764,"connected_time":457000000000,"state":"active","ping":56},{"user_id":355,"name":"dec","steam_id":76561198009660168,"connected_time":578000000000,"state":"active","ping":52},{"user_id":326,"name":"Spotmonkey","steam_id":76561198003994092,"connected_time":2119000000000,"state":"active","ping":58},{"user_id":332,"name":"porridge","steam_id":76561198044585737,"connected_time":2000000000000,"state":"active","ping":46},{"user_id":353,"name":"Great recession of 2008","steam_id":76561198881151562,"connected_time":622000000000,"state":"active","ping":86},{"user_id":290,"name":"‚ô• Purple Scoot ‚ô• | P.U.R.","steam_id":76561198965998351,"connected_time":5011000000000,"state":"active","ping":79},{"user_id":354,"name":"Katie","steam_id":76561198056193753,"connected_time":600000000000,"state":"active","ping":46},{"user_id":330,"name":"Jelatina","steam_id":76561198844707787,"connected_time":2080000000000,"state":"active","ping":107},{"user_id":316,"name":"REDZED","steam_id":76561198419203843,"connected_time":2880000000000,"state":"active","ping":113},{"user_id":342,"name":"KPhii","steam_id":76561198970587061,"connected_time":1407000000000,"state":"active","ping":74},{"user_id":362,"name":"0","steam_id":76561198341802044,"connected_time":364000000000,"state":"active","ping":102}]},{"server_id":114,"name":"Uncletopia | London | 2 | All Maps","name_short":"lon-2","host":"lon-1.uk.uncletopia.com","port":27025,"enabled":true,"region":"eu","cc":"gb","latitude":51.509865,"longitude":-0.118092,"reserved":0,"last_update":"0001-01-01T00:00:00Z","name_a2s":"Uncletopia | London | 2 | All Maps","protocol":17,"map":"cp_process_final","folder":"tf","game":"Team Fortress","app_id":440,"player_count":24,"max_players":24,"Bots":0,"server_type":"Dedicated","server_os":"Linux","password":true,"vac":true,"version":"7757534","steam_id":85568392924470941,"keywords":["cp","nocrits","nodmgspread","uncletopia"],"game_id":440,"stv_port":27026,"stv_name":"Uncletopia | London | 2 | All Maps | STV","players":[{"user_id":207,"name":"OutOfDucks","steam_id":76561198166376227,"connected_time":732000000000,"state":"active","ping":66},{"user_id":212,"name":"astigmatic","steam_id":76561199103959197,"connected_time":344000000000,"state":"active","ping":96},{"user_id":192,"name":"Ghorkin","steam_id":76561198070923312,"connected_time":1250000000000,"state":"active","ping":482},{"user_id":203,"name":"Omni // Feoraz","steam_id":76561197964320557,"connected_time":895000000000,"state":"active","ping":64},{"user_id":210,"name":"Bugozzi Studios","steam_id":76561199020903774,"connected_time":370000000000,"state":"active","ping":65},{"user_id":194,"name":"Fish_n_Chips","steam_id":76561199039556489,"connected_time":1125000000000,"state":"active","ping":99},{"user_id":186,"name":"–ü–µ—Å –ü–∞—Ç—Ä–æ–Ω","steam_id":76561198273199378,"connected_time":1537000000000,"state":"active","ping":78},{"user_id":171,"name":"Gaius","steam_id":76561198188174963,"connected_time":2210000000000,"state":"active","ping":45},{"user_id":205,"name":"mex :3","steam_id":76561198091083324,"connected_time":815000000000,"state":"active","ping":71},{"user_id":206,"name":"Loberless","steam_id":76561198277844777,"connected_time":804000000000,"state":"active","ping":45},{"user_id":196,"name":"akela","steam_id":76561198122010232,"connected_time":1089000000000,"state":"active","ping":116},{"user_id":202,"name":"etc","steam_id":76561197998394797,"connected_time":932000000000,"state":"active","ping":59},{"user_id":213,"name":"OurCommunist","steam_id":76561198810972185,"connected_time":310000000000,"state":"active","ping":61},{"user_id":166,"name":"Mad Cat Kivima","steam_id":76561198028959678,"connected_time":2440000000000,"state":"active","ping":107},{"user_id":154,"name":"Da","steam_id":76561199178772551,"connected_time":2925000000000,"state":"active","ping":98},{"user_id":29,"name":"silenk","steam_id":76561198367689055,"connected_time":9138000000000,"state":"active","ping":84},{"user_id":198,"name":"The Big J","steam_id":76561198158202901,"connected_time":1029000000000,"state":"active","ping":60},{"user_id":175,"name":"Flex","steam_id":76561197970482191,"connected_time":2089000000000,"state":"active","ping":57},{"user_id":204,"name":"hideki","steam_id":76561198030728517,"connected_time":847000000000,"state":"active","ping":55},{"user_id":200,"name":"Simple Giggenomics","steam_id":76561198070986689,"connected_time":1000000000000,"state":"active","ping":51},{"user_id":201,"name":"kiki","steam_id":76561198838277022,"connected_time":963000000000,"state":"active","ping":78},{"user_id":170,"name":"Puck :))","steam_id":76561198378295653,"connected_time":2312000000000,"state":"active","ping":75},{"user_id":188,"name":"punchmypotatoes","steam_id":76561198091255731,"connected_time":1498000000000,"state":"active","ping":55},{"user_id":189,"name":"Babylon's Degree In Medicine","steam_id":76561198314919758,"connected_time":1477000000000,"state":"active","ping":59}]},{"server_id":320,"name":"Uncletopia | London | 3 | All Maps","name_short":"lon-3","host":"lon-1.uk.uncletopia.com","port":27035,"enabled":true,"region":"eu","cc":"gb","latitude":51.509865,"longitude":-0.118092,"reserved":0,"last_update":"0001-01-01T00:00:00Z","name_a2s":"Uncletopia | London | 3 | All Maps","protocol":17,"map":"cp_mountainlab","folder":"tf","game":"Team Fortress","app_id":440,"player_count":24,"max_players":24,"Bots":0,"server_type":"Dedicated","server_os":"Linux","password":true,"vac":true,"version":"7757534","steam_id":85568392924510192,"keywords":["cp","nocrits","nodmgspread","uncletopia"],"game_id":440,"stv_port":27036,"stv_name":"Uncletopia | London | 3 | All Maps | STV","players":[{"user_id":780,"name":"eeeeee","steam_id":76561198017786875,"connected_time":2952000000000,"state":"active","ping":60},{"user_id":774,"name":"she is a bad engi main","steam_id":76561198334042273,"connected_time":3420000000000,"state":"active","ping":56},{"user_id":790,"name":"Sgreff","steam_id":76561198036304365,"connected_time":1276000000000,"state":"active","ping":45},{"user_id":709,"name":"Mr. Mundy","steam_id":76561198132008918,"connected_time":5903000000000,"state":"active","ping":89},{"user_id":791,"name":"Nouth","steam_id":76561198027054119,"connected_time":1259000000000,"state":"active","ping":75},{"user_id":794,"name":"Jonas Destark","steam_id":76561198030327441,"connected_time":1029000000000,"state":"active","ping":57},{"user_id":707,"name":"Hexagon","steam_id":76561198151205758,"connected_time":6302000000000,"state":"active","ping":60},{"user_id":792,"name":"lizard","steam_id":76561198974014926,"connected_time":1176000000000,"state":"active","ping":90},{"user_id":803,"name":"azzy","steam_id":76561198061293740,"connected_time":480000000000,"state":"active","ping":75},{"user_id":793,"name":"ran is running","steam_id":76561199443185667,"connected_time":1112000000000,"state":"active","ping":139},{"user_id":745,"name":"der er myrer under min hud","steam_id":76561198204171871,"connected_time":4577000000000,"state":"active","ping":86},{"user_id":795,"name":"God's Goofiest Goober","steam_id":76561198103175187,"connected_time":1016000000000,"state":"active","ping":74},{"user_id":776,"name":"Kurage","steam_id":76561198021221288,"connected_time":3211000000000,"state":"active","ping":74},{"user_id":805,"name":"knipje","steam_id":76561198085061953,"connected_time":226000000000,"state":"active","ping":46},{"user_id":732,"name":"moser23","steam_id":76561197960543171,"connected_time":5106000000000,"state":"active","ping":55},{"user_id":785,"name":"Carrotcracker","steam_id":76561198034862396,"connected_time":2387000000000,"state":"active","ping":69},{"user_id":622,"name":"It's a me Malario","steam_id":76561198176546013,"connected_time":11730000000000,"state":"active","ping":49},{"user_id":797,"name":"‚àö(-Wolf)","steam_id":76561198024769704,"connected_time":939000000000,"state":"active","ping":94},{"user_id":807,"name":"sanootkay","steam_id":76561198199993245,"connected_time":92000000000,"state":"active","ping":78},{"user_id":746,"name":"walluu","steam_id":76561198121830870,"connected_time":4549000000000,"state":"active","ping":88},{"user_id":799,"name":"aGreedGryphon","steam_id":76561198245175308,"connected_time":902000000000,"state":"active","ping":50},{"user_id":775,"name":"Noodle","steam_id":76561198306486695,"connected_time":3230000000000,"state":"active","ping":64},{"user_id":802,"name":"Cuthbert","steam_id":76561198204649481,"connected_time":689000000000,"state":"active","ping":110},{"user_id":804,"name":"Ahegao_Crusader","steam_id":76561198273434019,"connected_time":413000000000,"state":"active","ping":56}]},{"server_id":321,"name":"Uncletopia | London | 4 | All Maps","name_short":"lon-4","host":"lon-1.uk.uncletopia.com","port":27045,"enabled":true,"region":"eu","cc":"gb","latitude":51.509865,"longitude":-0.118092,"reserved":0,"last_update":"0001-01-01T00:00:00Z","name_a2s":"Uncletopia | London | 4 | All Maps","protocol":17,"map":"pl_barnblitz","folder":"tf","game":"Team Fortress","app_id":440,"player_count":15,"max_players":24,"Bots":0,"server_type":"Dedicated","server_os":"Linux","password":true,"vac":true,"version":"7757534","steam_id":85568392924510193,"keywords":["nocrits","nodmgspread","payload","uncletopia"],"game_id":440,"stv_port":27046,"stv_name":"Uncletopia | London | 4 | All Maps | STV","players":[{"user_id":390,"name":"El Bick√≥","steam_id":76561198797297295,"connected_time":132000000000,"state":"active","ping":89},{"user_id":395,"name":"Barneeyy","steam_id":76561198252413532,"connected_time":2000000000,"state":"spawning","ping":48},{"user_id":393,"name":"Lone Stranger","steam_id":76561198994639500,"connected_time":125000000000,"state":"active","ping":94},{"user_id":392,"name":"Xiqui","steam_id":76561198818386611,"connected_time":127000000000,"state":"active","ping":77},{"user_id":389,"name":"Joel!","steam_id":76561198155422742,"connected_time":175000000000,"state":"active","ping":61},{"user_id":367,"name":"Vultige","steam_id":76561198070719128,"connected_time":1339000000000,"state":"active","ping":75},{"user_id":394,"name":"StarFins","steam_id":76561199026540529,"connected_time":119000000000,"state":"active","ping":79},{"user_id":358,"name":"the cool D","steam_id":76561198170609049,"connected_time":1980000000000,"state":"active","ping":75},{"user_id":357,"name":"pizzaboob","steam_id":76561198097507847,"connected_time":2020000000000,"state":"active","ping":77},{"user_id":360,"name":"Ches subtly into Pizzaboo","steam_id":76561198067204908,"connected_time":1926000000000,"state":"active","ping":56},{"user_id":361,"name":"Parapluie","steam_id":76561197971640301,"connected_time":1877000000000,"state":"active","ping":41},{"user_id":372,"name":"kilo","steam_id":76561198015641339,"connected_time":1138000000000,"state":"active","ping":89},{"user_id":373,"name":"Chambersite","steam_id":76561198197022399,"connected_time":1133000000000,"state":"active","ping":79},{"user_id":375,"name":"Mr Lidl","steam_id":76561198426522902,"connected_time":1104000000000,"state":"active","ping":55},{"user_id":376,"name":"Silvan","steam_id":76561198415391988,"connected_time":1091000000000,"state":"active","ping":47}]},{"server_id":21,"name":"Uncletopia | London | 5 | All Maps","name_short":"lon-5","host":"lon-1.uk.uncletopia.com","port":27055,"enabled":true,"region":"eu","cc":"gb","latitude":51.509865,"longitude":-0.118092,"reserved":0,"last_update":"0001-01-01T00:00:00Z","name_a2s":"Uncletopia | London | 5 | All Maps","protocol":17,"map":"pl_frontier_final","folder":"tf","game":"Team Fortress","app_id":440,"player_count":24,"max_players":24,"Bots":0,"server_type":"Dedicated","server_os":"Linux","password":true,"vac":true,"version":"7757534","steam_id":85568392924742829,"keywords":["nocrits","nodmgspread","payload","uncletopia"],"game_id":440,"stv_port":27056,"stv_name":"Uncletopia | London | 5 | All Maps | STV","players":[{"user_id":168,"name":"Ecton","steam_id":76561198025103720,"connected_time":1143000000000,"state":"active","ping":54},{"user_id":173,"name":"D_Ink","steam_id":76561198267716662,"connected_time":530000000000,"state":"active","ping":42},{"user_id":155,"name":"Dewotter","steam_id":76561198007653168,"connected_time":1804000000000,"state":"active","ping":57},{"user_id":137,"name":"muZ","steam_id":76561198060145190,"connected_time":2931000000000,"state":"active","ping":64},{"user_id":166,"name":"Nydra","steam_id":76561198063916730,"connected_time":1180000000000,"state":"active","ping":58},{"user_id":172,"name":"Gandhi the Grater","steam_id":76561198051198555,"connected_time":638000000000,"state":"active","ping":57},{"user_id":135,"name":"I.C. Wiener","steam_id":76561197999912254,"connected_time":3042000000000,"state":"active","ping":97},{"user_id":150,"name":"i...must..kill.all","steam_id":76561198089330547,"connected_time":1891000000000,"state":"active","ping":56},{"user_id":55,"name":"Mazata","steam_id":76561198104303163,"connected_time":8572000000000,"state":"active","ping":55},{"user_id":147,"name":"mr beast","steam_id":76561198118407436,"connected_time":1901000000000,"state":"active","ping":44},{"user_id":158,"name":"Duke Fishlord","steam_id":76561198079928327,"connected_time":1567000000000,"state":"active","ping":76},{"user_id":171,"name":"Tri-","steam_id":76561198133524794,"connected_time":1050000000000,"state":"active","ping":38},{"user_id":144,"name":"Munki on phone","steam_id":76561198056798791,"connected_time":1995000000000,"state":"active","ping":57},{"user_id":157,"name":"Drdarlekzzz","steam_id":76561198160141785,"connected_time":1759000000000,"state":"active","ping":44},{"user_id":149,"name":"EEEEEH","steam_id":76561198126717413,"connected_time":1893000000000,"state":"active","ping":83},{"user_id":122,"name":"pineapple","steam_id":76561199006566423,"connected_time":4486000000000,"state":"active","ping":84},{"user_id":152,"name":"Laru","steam_id":76561197998838438,"connected_time":1849000000000,"state":"active","ping":65},{"user_id":175,"name":"Space Rimmer","steam_id":76561198069243201,"connected_time":256000000000,"state":"active","ping":47},{"user_id":154,"name":"Jappe","steam_id":76561198075398492,"connected_time":1832000000000,"state":"active","ping":87},{"user_id":161,"name":"lettuce at 58p","steam_id":76561199401283123,"connected_time":1392000000000,"state":"active","ping":52},{"user_id":143,"name":"SpilledMilk","steam_id":76561198174123971,"connected_time":2758000000000,"state":"active","ping":67},{"user_id":176,"name":"gengar supremacy","steam_id":76561199238737169,"connected_time":219000000000,"state":"active","ping":65},{"user_id":156,"name":"Kamanie","steam_id":76561198135448255,"connected_time":1802000000000,"state":"active","ping":62},{"user_id":165,"name":"',:^)","steam_id":76561198038123509,"connected_time":1343000000000,"state":"active","ping":168}]},{"server_id":22,"name":"Uncletopia | London | 6 | All Maps","name_short":"lon-6","host":"lon-1.uk.uncletopia.com","port":27065,"enabled":true,"region":"eu","cc":"gb","latitude":51.509865,"longitude":-0.118092,"reserved":0,"last_update":"0001-01-01T00:00:00Z","name_a2s":"Uncletopia | London | 6 | All Maps","protocol":17,"map":"pl_barnblitz","folder":"tf","game":"Team Fortress","app_id":440,"player_count":24,"max_players":24,"Bots":0,"server_type":"Dedicated","server_os":"Linux","password":true,"vac":true,"version":"7757534","steam_id":85568392924742830,"keywords":["nocrits","nodmgspread","payload","uncletopia"],"game_id":440,"stv_port":27066,"stv_name":"Uncletopia | London | 6 | All Maps | STV","players":[{"user_id":327,"name":"rolmos","steam_id":76561198024121853,"connected_time":1962000000000,"state":"active","ping":76},{"user_id":339,"name":"Dr Sex","steam_id":76561198029044617,"connected_time":673000000000,"state":"active","ping":46},{"user_id":340,"name":"warpig","steam_id":76561199226313309,"connected_time":632000000000,"state":"active","ping":129},{"user_id":258,"name":"tm","steam_id":76561198256619964,"connected_time":6125000000000,"state":"active","ping":79},{"user_id":254,"name":"near dt, mi","steam_id":76561198163244605,"connected_time":6330000000000,"state":"active","ping":71},{"user_id":349,"name":"NoFoxGiven","steam_id":76561197997458434,"connected_time":178000000000,"state":"active","ping":48},{"user_id":306,"name":"DelT","steam_id":76561198204007537,"connected_time":4205000000000,"state":"active","ping":63},{"user_id":316,"name":"Uncle Owen","steam_id":76561198157999291,"connected_time":3171000000000,"state":"active","ping":88},{"user_id":331,"name":"Baki ‡∂û","steam_id":76561198193615529,"connected_time":1733000000000,"state":"active","ping":63},{"user_id":296,"name":"Technic","steam_id":76561198128096130,"connected_time":4669000000000,"state":"active","ping":54},{"user_id":336,"name":"MAKENTAKEN","steam_id":76561199127359587,"connected_time":1331000000000,"state":"active","ping":99},{"user_id":342,"name":"Juiceydough","steam_id":76561197997323419,"connected_time":571000000000,"state":"active","ping":88},{"user_id":244,"name":"kill","steam_id":76561198147277460,"connected_time":7481000000000,"state":"active","ping":65},{"user_id":338,"name":"original juice","steam_id":76561198023211417,"connected_time":749000000000,"state":"active","ping":47},{"user_id":245,"name":"·óúÀ∞·óú","steam_id":76561198148074472,"connected_time":7473000000000,"state":"active","ping":49},{"user_id":297,"name":"GMsU | Rebikas","steam_id":76561198077053764,"connected_time":4659000000000,"state":"active","ping":54},{"user_id":335,"name":"glyph","steam_id":76561197980736364,"connected_time":1424000000000,"state":"active","ping":86},{"user_id":225,"name":"New","steam_id":76561198402195911,"connected_time":8639000000000,"state":"active","ping":122},{"user_id":348,"name":"SWAY","steam_id":76561198865753833,"connected_time":396000000000,"state":"active","ping":55},{"user_id":344,"name":"quickfast","steam_id":76561199438900919,"connected_time":568000000000,"state":"active","ping":47},{"user_id":309,"name":"GMsU | DaLuigi","steam_id":76561198054486188,"connected_time":4104000000000,"state":"active","ping":59},{"user_id":345,"name":"macferdinand80","steam_id":76561199095597139,"connected_time":516000000000,"state":"active","ping":182},{"user_id":304,"name":"After8","steam_id":76561198090750865,"connected_time":4340000000000,"state":"active","ping":75},{"user_id":318,"name":"GMsU | AuxiliusM","steam_id":76561198071903356,"connected_time":3170000000000,"state":"active","ping":58}]},{"server_id":40,"name":"Uncletopia | London | 7 | No Payload","name_short":"lon-7","host":"lon-1.uk.uncletopia.com","port":27075,"enabled":true,"region":"eu","cc":"gb","latitude":51.509865,"longitude":-0.118092,"reserved":0,"last_update":"0001-01-01T00:00:00Z","name_a2s":"Uncletopia | London | 7 | No Payload","protocol":17,"map":"koth_harvest_final","folder":"tf","game":"Team Fortress","app_id":440,"player_count":0,"max_players":24,"Bots":0,"server_type":"Dedicated","server_os":"Linux","password":true,"vac":true,"version":"7757534","steam_id":85568392924964314,"keywords":["cp","nocrits","nodmgspread","uncletopia"],"game_id":440,"stv_port":27076,"stv_name":"Uncletopia | London | 7 | No Payload | STV","players":null},{"server_id":41,"name":"Uncletopia | London | 8 | Community","name_short":"lon-8","host":"lon-1.uk.uncletopia.com","port":27085,"enabled":true,"region":"eu","cc":"gb","latitude":51.509865,"longitude":-0.118092,"reserved":0,"last_update":"0001-01-01T00:00:00Z","name_a2s":"Uncletopia | London | 8 | Community","protocol":17,"map":"workshop/koth_kemptown_rc1.ugc767410655","folder":"tf","game":"Team Fortress","app_id":440,"player_count":1,"max_players":24,"Bots":0,"server_type":"Dedicated","server_os":"Linux","password":true,"vac":true,"version":"7757534","steam_id":85568392924964315,"keywords":["cp","nocrits","nodmgspread","uncletopia"],"game_id":440,"stv_port":27086,"stv_name":"Uncletopia | London | 8 | Community | STV","players":[{"user_id":14,"name":"Chris","steam_id":76561198018626828,"connected_time":228000000000,"state":"active","ping":41}]},{"server_id":300,"name":"Uncletopia | Montr√©al | 1 | All Maps","name_short":"mtl-1","host":"mtl-1.ca.uncletopia.com","port":27015,"enabled":true,"region":"us-east","cc":"ca","latitude":45.50889,"longitude":-73.56167,"reserved":0,"last_update":"0001-01-01T00:00:00Z","name_a2s":"Uncletopia | Montr√©al | 1 | All Maps","protocol":17,"map":"pl_snowycoast","folder":"tf","game":"Team Fortress","app_id":440,"player_count":0,"max_players":24,"Bots":0,"server_type":"Dedicated","server_os":"Linux","password":true,"vac":true,"version":"7757534","steam_id":85568392924500087,"keywords":["nocrits","nodmgspread","payload","uncletopia"],"game_id":440,"stv_port":27016,"stv_name":"Uncletopia | Montr√©al | 1 | All Maps | STV","players":null},{"server_id":301,"name":"Uncletopia | Montr√©al | 2 | All Maps","name_short":"mtl-2","host":"mtl-1.ca.uncletopia.com","port":27025,"enabled":true,"region":"us-east","cc":"ca","latitude":45.50889,"longitude":-73.56167,"reserved":0,"last_update":"0001-01-01T00:00:00Z","name_a2s":"Uncletopia | Montr√©al | 2 | All Maps","protocol":17,"map":"pl_snowycoast","folder":"tf","game":"Team Fortress","app_id":440,"player_count":0,"max_players":24,"Bots":0,"server_type":"Dedicated","server_os":"Linux","password":true,"vac":true,"version":"7757534","steam_id":85568392924500088,"keywords":["nocrits","nodmgspread","payload","uncletopia"],"game_id":440,"stv_port":27026,"stv_name":"Uncletopia | Montr√©al | 2 | All Maps | STV","players":null},{"server_id":302,"name":"Uncletopia | Montr√©al | 3 | All Maps","name_short":"mtl-3","host":"mtl-1.ca.uncletopia.com","port":27035,"enabled":true,"region":"us-east","cc":"ca","latitude":45.50889,"longitude":-73.56167,"reserved":0,"last_update":"0001-01-01T00:00:00Z","name_a2s":"Uncletopia | Montr√©al | 3 | All Maps","protocol":17,"map":"cp_process_final","folder":"tf","game":"Team Fortress","app_id":440,"player_count":13,"max_players":24,"Bots":0,"server_type":"Dedicated","server_os":"Linux","password":true,"vac":true,"version":"7757534","steam_id":85568392924500089,"keywords":["cp","nocrits","nodmgspread","uncletopia"],"game_id":440,"stv_port":27036,"stv_name":"Uncletopia | Montr√©al | 3 | All Maps | STV","players":[{"user_id":3,"name":"LazyCat","steam_id":76561198012861648,"connected_time":2151000000000,"state":"active","ping":69},{"user_id":20,"name":"wagwoogus","steam_id":76561198111259720,"connected_time":181000000000,"state":"active","ping":106},{"user_id":5,"name":"‚ô°a femboy‚ô°","steam_id":76561199212971864,"connected_time":1567000000000,"state":"active","ping":70},{"user_id":6,"name":"I like pasta","steam_id":76561199140303246,"connected_time":1540000000000,"state":"active","ping":108},{"user_id":8,"name":"WhyAmIHere","steam_id":76561198271076276,"connected_time":1216000000000,"state":"active","ping":47},{"user_id":9,"name":"Black Sheep","steam_id":76561198042244701,"connected_time":1058000000000,"state":"active","ping":131},{"user_id":10,"name":"captaincaptain","steam_id":76561198135644587,"connected_time":797000000000,"state":"active","ping":71},{"user_id":11,"name":"Achi","steam_id":76561199097601364,"connected_time":631000000000,"state":"active","ping":119},{"user_id":12,"name":"sebastianbal0606","steam_id":76561199355544523,"connected_time":610000000000,"state":"active","ping":124},{"user_id":13,"name":"hooty","steam_id":76561199043415746,"connected_time":454000000000,"state":"active","ping":155},{"user_id":17,"name":"Trolldier 76","steam_id":76561198036504161,"connected_time":245000000000,"state":"active","ping":170},{"user_id":18,"name":"OneFestiveCorvid","steam_id":76561199012953221,"connected_time":241000000000,"state":"active","ping":72},{"user_id":19,"name":"Bronze Age GRINDSET","steam_id":76561198859118263,"connected_time":219000000000,"state":"active","ping":56}]},{"server_id":303,"name":"Uncletopia | Montr√©al | 4 | No Payload","name_short":"mtl-4","host":"mtl-1.ca.uncletopia.com","port":27045,"enabled":true,"region":"us-east","cc":"ca","latitude":45.50889,"longitude":-73.56167,"reserved":0,"last_update":"0001-01-01T00:00:00Z","name_a2s":"Uncletopia | Montr√©al | 4 | No Payload","protocol":17,"map":"pl_borneo","folder":"tf","game":"Team Fortress","app_id":440,"player_count":0,"max_players":24,"Bots":0,"server_type":"Dedicated","server_os":"Linux","password":true,"vac":true,"version":"7757534","steam_id":85568392924500090,"keywords":["nocrits","nodmgspread","payload","uncletopia"],"game_id":440,"stv_port":27046,"stv_name":"Uncletopia | Montr√©al | 4 | No Payload | STV","players":null},{"server_id":13,"name":"Uncletopia | New York City | 1 | All Maps","name_short":"nyc-1","host":"nyc-1.us.uncletopia.com","port":27015,"enabled":true,"region":"us-east","cc":"us","latitude":40.73061,"longitude":-73.93524,"reserved":0,"last_update":"0001-01-01T00:00:00Z","name_a2s":"Uncletopia | New York City | 1 | All Maps","protocol":17,"map":"cp_steel","folder":"tf","game":"Team Fortress","app_id":440,"player_count":24,"max_players":24,"Bots":0,"server_type":"Dedicated","server_os":"Linux","password":true,"vac":true,"version":"7757534","steam_id":85568392924469993,"keywords":["cp","nocrits","nodmgspread","uncletopia"],"game_id":440,"stv_port":27016,"stv_name":"Uncletopia | New York City | 1 | All Maps | STV","players":[{"user_id":106,"name":"Julia","steam_id":76561198175727790,"connected_time":670000000000,"state":"active","ping":118},{"user_id":84,"name":"Spike Bones","steam_id":76561198234926120,"connected_time":2084000000000,"state":"active","ping":82},{"user_id":29,"name":"ShadBad","steam_id":76561198248287390,"connected_time":6368000000000,"state":"active","ping":137},{"user_id":96,"name":"Rockguy21","steam_id":76561198121303359,"connected_time":1487000000000,"state":"active","ping":56},{"user_id":81,"name":"Pickle Chips","steam_id":76561198271951504,"connected_time":2191000000000,"state":"active","ping":45},{"user_id":118,"name":"wizorb","steam_id":76561198002172674,"connected_time":213000000000,"state":"active","ping":91},{"user_id":40,"name":"you should sleep naked","steam_id":76561198103496593,"connected_time":4939000000000,"state":"active","ping":62},{"user_id":120,"name":"Henchman","steam_id":76561198095646680,"connected_time":117000000000,"state":"active","ping":103},{"user_id":108,"name":"Smiles","steam_id":76561198107197973,"connected_time":634000000000,"state":"active","ping":89},{"user_id":122,"name":"punished_kong","steam_id":76561198973620882,"connected_time":90000000000,"state":"active","ping":79},{"user_id":74,"name":"Swifgz","steam_id":76561198162875756,"connected_time":3089000000000,"state":"active","ping":45},{"user_id":117,"name":"Mr. Videogame","steam_id":76561198007087691,"connected_time":277000000000,"state":"active","ping":57},{"user_id":109,"name":"[BBW] Justario","steam_id":76561198016095410,"connected_time":630000000000,"state":"active","ping":45},{"user_id":86,"name":"ml is fake cs","steam_id":76561198350747953,"connected_time":2063000000000,"state":"active","ping":58},{"user_id":93,"name":"Scrumlet","steam_id":76561198339806643,"connected_time":1549000000000,"state":"active","ping":88},{"user_id":116,"name":"Dark Saturday","steam_id":76561198152056777,"connected_time":318000000000,"state":"spawning","ping":145},{"user_id":87,"name":"lwyr","steam_id":76561198007982579,"connected_time":2060000000000,"state":"active","ping":45},{"user_id":103,"name":"Brown_Dream","steam_id":76561198975766145,"connected_time":959000000000,"state":"active","ping":83},{"user_id":80,"name":"CrustyCapybara","steam_id":76561199450398030,"connected_time":2508000000000,"state":"active","ping":70},{"user_id":100,"name":"DO NOT call me BART SIMPSON!!","steam_id":76561198069113375,"connected_time":1341000000000,"state":"active","ping":57},{"user_id":112,"name":"drdonutman","steam_id":76561197998488821,"connected_time":533000000000,"state":"active","ping":75},{"user_id":119,"name":"touca","steam_id":76561198986534519,"connected_time":190000000000,"state":"active","ping":120},{"user_id":111,"name":"neet","steam_id":76561197968115168,"connected_time":624000000000,"state":"active","ping":46},{"user_id":91,"name":"Plutia","steam_id":76561197996787193,"connected_time":1899000000000,"state":"active","ping":71}]},{"server_id":14,"name":"Uncletopia | New York City | 2 | All Maps","name_short":"nyc-2","host":"nyc-1.us.uncletopia.com","port":27025,"enabled":true,"region":"us-east","cc":"us","latitude":40.73061,"longitude":-73.93524,"reserved":0,"last_update":"0001-01-01T00:00:00Z","name_a2s":"Uncletopia | New York City | 2 | All Maps","protocol":17,"map":"pl_frontier_final","folder":"tf","game":"Team Fortress","app_id":440,"player_count":24,"max_players":24,"Bots":0,"server_type":"Dedicated","server_os":"Linux","password":true,"vac":true,"version":"7757534","steam_id":85568392924469994,"keywords":["nocrits","nodmgspread","payload","uncletopia"],"game_id":440,"stv_port":27026,"stv_name":"Uncletopia | New York City | 2 | All Maps | STV","players":[{"user_id":229,"name":"soup","steam_id":76561198099977572,"connected_time":1156000000000,"state":"active","ping":75},{"user_id":232,"name":"De_pressed","steam_id":76561198154619174,"connected_time":946000000000,"state":"active","ping":87},{"user_id":244,"name":"The Land Admiral","steam_id":76561198159356609,"connected_time":296000000000,"state":"active","ping":56},{"user_id":210,"name":"Grandpa Simpson (Official)","steam_id":76561198057607033,"connected_time":1847000000000,"state":"active","ping":72},{"user_id":237,"name":"Cookie","steam_id":76561198047736899,"connected_time":824000000000,"state":"active","ping":32},{"user_id":211,"name":"DubiousDodo","steam_id":76561198828172686,"connected_time":1773000000000,"state":"active","ping":154},{"user_id":248,"name":"dakota__","steam_id":76561198076596506,"connected_time":82000000000,"state":"active","ping":79},{"user_id":185,"name":"Justin Roiland ( Innocent )","steam_id":76561198121926605,"connected_time":4216000000000,"state":"active","ping":100},{"user_id":199,"name":"Ramblet","steam_id":76561199026783260,"connected_time":2793000000000,"state":"active","ping":62},{"user_id":228,"name":"Dorothy","steam_id":76561198152455316,"connected_time":1268000000000,"state":"active","ping":154},{"user_id":195,"name":"Windy Writer","steam_id":76561198048217633,"connected_time":3873000000000,"state":"active","ping":74},{"user_id":235,"name":"craxyt","steam_id":76561198050192689,"connected_time":890000000000,"state":"active","ping":115},{"user_id":246,"name":"Suco Celestial","steam_id":76561198269606088,"connected_time":269000000000,"state":"active","ping":156},{"user_id":57,"name":"bingle","steam_id":76561197997139225,"connected_time":13568000000000,"state":"active","ping":51},{"user_id":240,"name":"Sprinklingmydoughnut","steam_id":76561198168009092,"connected_time":651000000000,"state":"active","ping":87},{"user_id":217,"name":"Violet42","steam_id":76561198072927887,"connected_time":1645000000000,"state":"active","ping":50},{"user_id":238,"name":"mac","steam_id":76561198043039518,"connected_time":815000000000,"state":"active","ping":65},{"user_id":236,"name":"jujube","steam_id":76561198069415057,"connected_time":888000000000,"state":"active","ping":44},{"user_id":243,"name":"Mackola","steam_id":76561198125958792,"connected_time":634000000000,"state":"active","ping":62},{"user_id":203,"name":"Benky","steam_id":76561198062469194,"connected_time":2152000000000,"state":"active","ping":118},{"user_id":222,"name":"xbox","steam_id":76561199028457134,"connected_time":1533000000000,"state":"active","ping":56},{"user_id":230,"name":"newport menthol 100s CEO","steam_id":76561198050976060,"connected_time":1151000000000,"state":"active","ping":60},{"user_id":247,"name":"Aizek","steam_id":76561198051792318,"connected_time":121000000000,"state":"active","ping":182},{"user_id":225,"name":"Cecil","steam_id":76561199309028776,"connected_time":1484000000000,"state":"active","ping":50}]},{"server_id":15,"name":"Uncletopia | New York City | 3 | Stopwatch Beta","name_short":"nyc-3","host":"nyc-1.us.uncletopia.com","port":27035,"enabled":true,"region":"us-east","cc":"us","latitude":40.73061,"longitude":-73.93524,"reserved":0,"last_update":"0001-01-01T00:00:00Z","name_a2s":"Uncletopia | New York City | 3 | Stopwatch Beta","protocol":17,"map":"cp_snakewater_final1","folder":"tf","game":"Team Fortress","app_id":440,"player_count":0,"max_players":24,"Bots":0,"server_type":"Dedicated","server_os":"Linux","password":true,"vac":true,"version":"7757534","steam_id":85568392924742820,"keywords":["cp","nocrits","nodmgspread","uncletopia"],"game_id":440,"stv_port":27036,"stv_name":"Uncletopia | New York City | 3 | Stopwatch Beta | STV","players":null},{"server_id":16,"name":"Uncletopia | New York City | 4 | Community","name_short":"nyc-4","host":"nyc-1.us.uncletopia.com","port":27045,"enabled":true,"region":"us-east","cc":"us","latitude":40.73061,"longitude":-73.93524,"reserved":0,"last_update":"0001-01-01T00:00:00Z","name_a2s":"Uncletopia | New York City | 4 | Community","protocol":17,"map":"workshop/cp_logjam_rc12.ugc454812035","folder":"tf","game":"Team Fortress","app_id":440,"player_count":0,"max_players":24,"Bots":0,"server_type":"Dedicated","server_os":"Linux","password":true,"vac":true,"version":"7757534","steam_id":85568392924742821,"keywords":["cp","nocrits","nodmgspread","uncletopia"],"game_id":440,"stv_port":27046,"stv_name":"Uncletopia | New York City | 4 | Community | STV","players":null},{"server_id":142,"name":"Uncletopia | S√£o Paulo | 1 | All Maps","name_short":"sao-1","host":"sao-1.br.uncletopia.com","port":27015,"enabled":true,"region":"sa","cc":"br","latitude":-23.533773,"longitude":-46.62529,"reserved":0,"last_update":"0001-01-01T00:00:00Z","name_a2s":"Uncletopia | S√£o Paulo | 1 | All Maps","protocol":17,"map":"koth_cascade","folder":"tf","game":"Team Fortress","app_id":440,"player_count":0,"max_players":24,"Bots":0,"server_type":"Dedicated","server_os":"Linux","password":true,"vac":true,"version":"7757534","steam_id":85568392924469996,"keywords":["cp","nocrits","nodmgspread","uncletopia"],"game_id":440,"stv_port":27016,"stv_name":"Uncletopia | S√£o Paulo | 1 | All Maps | STV","players":null},{"server_id":143,"name":"Uncletopia | S√£o Paulo | 2 | All Maps","name_short":"sao-2","host":"sao-2.br.uncletopia.com","port":27015,"enabled":true,"region":"sa","cc":"br","latitude":-23.533773,"longitude":-46.62529,"reserved":0,"last_update":"0001-01-01T00:00:00Z","name_a2s":"Uncletopia | S√£o Paulo | 2 | All Maps","protocol":17,"map":"cp_dustbowl","folder":"tf","game":"Team Fortress","app_id":440,"player_count":0,"max_players":24,"Bots":0,"server_type":"Dedicated","server_os":"Linux","password":true,"vac":true,"version":"7757534","steam_id":85568392924485349,"keywords":["cp","nocrits","nodmgspread","uncletopia"],"game_id":440,"stv_port":27016,"stv_name":"Uncletopia | S√£o Paulo | 2 | All Maps | STV","players":null},{"server_id":7,"name":"Uncletopia | Seattle | 1 | All Maps","name_short":"sea-1","host":"sea-1.us.uncletopia.com","port":27015,"enabled":true,"region":"us-west","cc":"us","latitude":47.608013,"longitude":-122.33517,"reserved":0,"last_update":"0001-01-01T00:00:00Z","name_a2s":"Uncletopia | Seattle | 1 | All Maps","protocol":17,"map":"cp_dustbowl","folder":"tf","game":"Team Fortress","app_id":440,"player_count":24,"max_players":24,"Bots":0,"server_type":"Dedicated","server_os":"Linux","password":true,"vac":true,"version":"7757534","steam_id":85568392924469997,"keywords":["cp","nocrits","nodmgspread","uncletopia"],"game_id":440,"stv_port":27016,"stv_name":"Uncletopia | Seattle | 1 | All Maps | STV","players":[{"user_id":245,"name":"resh","steam_id":76561198239598834,"connected_time":3164000000000,"state":"active","ping":136},{"user_id":293,"name":"oil","steam_id":76561198099980149,"connected_time":898000000000,"state":"active","ping":78},{"user_id":277,"name":"„Ä£dust„Ä£ -she/it-","steam_id":76561198045218909,"connected_time":1523000000000,"state":"active","ping":44},{"user_id":274,"name":"Thurricane","steam_id":76561198410724666,"connected_time":1818000000000,"state":"active","ping":115},{"user_id":248,"name":"Zeora","steam_id":76561198799145251,"connected_time":3087000000000,"state":"active","ping":130},{"user_id":294,"name":"giant_dork","steam_id":76561199105606956,"connected_time":859000000000,"state":"active","ping":120},{"user_id":296,"name":"KingTinkerer","steam_id":76561198226856548,"connected_time":671000000000,"state":"active","ping":77},{"user_id":253,"name":"faye","steam_id":76561198254541066,"connected_time":3013000000000,"state":"active","ping":75},{"user_id":292,"name":"5392vin","steam_id":76561198880493511,"connected_time":903000000000,"state":"active","ping":63},{"user_id":258,"name":"Gooner Witch","steam_id":76561198305488625,"connected_time":2960000000000,"state":"active","ping":69},{"user_id":249,"name":"StarWither","steam_id":76561198383264295,"connected_time":3079000000000,"state":"active","ping":54},{"user_id":172,"name":"Mom","steam_id":76561198207936000,"connected_time":8429000000000,"state":"active","ping":62},{"user_id":233,"name":"corporation","steam_id":76561198281612642,"connected_time":3592000000000,"state":"active","ping":52},{"user_id":298,"name":"Pheasant President","steam_id":76561198315295873,"connected_time":487000000000,"state":"active","ping":73},{"user_id":208,"name":"Moon Sugar Dealer","steam_id":76561198095634877,"connected_time":5846000000000,"state":"active","ping":96},{"user_id":297,"name":"HaphazardHazel","steam_id":76561198316812693,"connected_time":506000000000,"state":"active","ping":135},{"user_id":240,"name":"LILIUM","steam_id":76561198086591493,"connected_time":3350000000000,"state":"active","ping":91},{"user_id":272,"name":"I live in your walls. Its fun","steam_id":76561199074001829,"connected_time":2099000000000,"state":"active","ping":102},{"user_id":232,"name":"Path To Victory","steam_id":76561198026958898,"connected_time":3609000000000,"state":"active","ping":106},{"user_id":288,"name":"JayJayMed320 (She/Her)","steam_id":76561198286568264,"connected_time":1144000000000,"state":"active","ping":41},{"user_id":295,"name":"Scromch","steam_id":76561198045211728,"connected_time":701000000000,"state":"active","ping":76},{"user_id":283,"name":"shane","steam_id":76561198060491451,"connected_time":1474000000000,"state":"active","ping":94},{"user_id":281,"name":"The Super Mario Bros. Movie","steam_id":76561198871692156,"connected_time":1503000000000,"state":"active","ping":59},{"user_id":276,"name":"how do i control my guy?","steam_id":76561198158855211,"connected_time":1544000000000,"state":"active","ping":45}]},{"server_id":119,"name":"Uncletopia | Seattle | 2 | All Maps","name_short":"sea-2","host":"sea-1.us.uncletopia.com","port":27025,"enabled":true,"region":"us-west","cc":"us","latitude":47.608013,"longitude":-122.33517,"reserved":0,"last_update":"0001-01-01T00:00:00Z","name_a2s":"Uncletopia | Seattle | 2 | All Maps","protocol":17,"map":"pl_upward","folder":"tf","game":"Team Fortress","app_id":440,"player_count":18,"max_players":24,"Bots":0,"server_type":"Dedicated","server_os":"Linux","password":true,"vac":true,"version":"7757534","steam_id":85568392924469998,"keywords":["nocrits","nodmgspread","payload","uncletopia"],"game_id":440,"stv_port":27026,"stv_name":"Uncletopia | Seattle | 2 | All Maps | STV","players":[{"user_id":364,"name":"Smile","steam_id":76561198110008786,"connected_time":601000000000,"state":"active","ping":56},{"user_id":349,"name":"Ziggie Smalls","steam_id":76561198804592809,"connected_time":1557000000000,"state":"active","ping":44},{"user_id":369,"name":"Nolan (Femboy)","steam_id":76561198082534795,"connected_time":31000000000,"state":"active","ping":109},{"user_id":334,"name":"Chewei","steam_id":76561198065723797,"connected_time":2565000000000,"state":"active","ping":72},{"user_id":325,"name":"Little Linguine","steam_id":76561198816986370,"connected_time":4068000000000,"state":"active","ping":54},{"user_id":348,"name":"captain red","steam_id":76561198191587983,"connected_time":1564000000000,"state":"active","ping":77},{"user_id":370,"name":"Sh3ba Spaniel","steam_id":76561198047412394,"connected_time":23000000000,"state":"spawning","ping":124},{"user_id":352,"name":"basil nendoroid Ôø•5800","steam_id":76561198798667624,"connected_time":1506000000000,"state":"active","ping":34},{"user_id":295,"name":"picea","steam_id":76561198134664196,"connected_time":6001000000000,"state":"active","ping":63},{"user_id":353,"name":"gun spy gaming","steam_id":76561198880739963,"connected_time":1503000000000,"state":"active","ping":56},{"user_id":363,"name":"Tom","steam_id":76561198070630154,"connected_time":1071000000000,"state":"active","ping":74},{"user_id":371,"name":"Ryan","steam_id":76561198397037834,"connected_time":23000000000,"state":"active","ping":85},{"user_id":368,"name":"‚§£RASCAL","steam_id":76561198269038647,"connected_time":230000000000,"state":"active","ping":62},{"user_id":366,"name":"Combustionaut","steam_id":76561198164877813,"connected_time":421000000000,"state":"active","ping":53},{"user_id":367,"name":"uzr","steam_id":76561198799343084,"connected_time":255000000000,"state":"active","ping":207},{"user_id":355,"name":"Chuck Tucson`","steam_id":76561197991896434,"connected_time":1464000000000,"state":"active","ping":77},{"user_id":359,"name":"Fuzzycoco","steam_id":76561198154714679,"connected_time":1285000000000,"state":"active","ping":38},{"user_id":361,"name":"Resident Thrussy Lender","steam_id":76561198071790583,"connected_time":1161000000000,"state":"active","ping":110}]},{"server_id":406,"name":"Uncletopia | Seattle | 3 | Stopwatch Beta","name_short":"sea-3","host":"sea-1.us.uncletopia.com","port":27035,"enabled":true,"region":"us-west","cc":"us","latitude":47.608013,"longitude":-122.33517,"reserved":0,"last_update":"0001-01-01T00:00:00Z","name_a2s":"Uncletopia | Seattle | 3 | Stopwatch Beta","protocol":17,"map":"cp_metalworks","folder":"tf","game":"Team Fortress","app_id":440,"player_count":0,"max_players":24,"Bots":0,"server_type":"Dedicated","server_os":"Linux","password":true,"vac":true,"version":"7757534","steam_id":85568392924515217,"keywords":["cp","nocrits","nodmgspread","uncletopia"],"game_id":440,"stv_port":27036,"stv_name":"Uncletopia | Seattle | 3 | Stopwatch Beta | STV","players":null},{"server_id":17,"name":"Uncletopia | San Francisco | 1 | All Maps","name_short":"sfo-1","host":"sfo-1.us.uncletopia.com","port":27015,"enabled":true,"region":"us-west","cc":"us","latitude":37.77397,"longitude":-122.4313,"reserved":0,"last_update":"0001-01-01T00:00:00Z","name_a2s":"Uncletopia | San Francisco | 1 | All Maps","protocol":17,"map":"pl_frontier_final","folder":"tf","game":"Team Fortress","app_id":440,"player_count":0,"max_players":24,"Bots":0,"server_type":"Dedicated","server_os":"Linux","password":true,"vac":true,"version":"7757534","steam_id":85568392924469999,"keywords":["nocrits","nodmgspread","payload","uncletopia"],"game_id":440,"stv_port":27016,"stv_name":"Uncletopia | San Francisco | 1 | All Maps | STV","players":null},{"server_id":18,"name":"Uncletopia | San Francisco | 2 | All Maps","name_short":"sfo-2","host":"sfo-1.us.uncletopia.com","port":27025,"enabled":true,"region":"us-west","cc":"us","latitude":37.77397,"longitude":-122.4313,"reserved":0,"last_update":"0001-01-01T00:00:00Z","name_a2s":"Uncletopia | San Francisco | 2 | All Maps","protocol":17,"map":"pl_swiftwater_final1","folder":"tf","game":"Team Fortress","app_id":440,"player_count":0,"max_players":24,"Bots":0,"server_type":"Dedicated","server_os":"Linux","password":true,"vac":true,"version":"7757534","steam_id":85568392924470000,"keywords":["nocrits","nodmgspread","payload","uncletopia"],"game_id":440,"stv_port":27026,"stv_name":"Uncletopia | San Francisco | 2 | All Maps | STV","players":null},{"server_id":19,"name":"Uncletopia | San Francisco | 3 | Stopwatch Beta","name_short":"sfo-3","host":"sfo-1.us.uncletopia.com","port":27035,"enabled":true,"region":"us-west","cc":"us","latitude":37.77397,"longitude":-122.4313,"reserved":0,"last_update":"0001-01-01T00:00:00Z","name_a2s":"Uncletopia | San Francisco | 3 | Stopwatch Beta","protocol":17,"map":"pl_borneo","folder":"tf","game":"Team Fortress","app_id":440,"player_count":0,"max_players":24,"Bots":0,"server_type":"Dedicated","server_os":"Linux","password":true,"vac":true,"version":"7757534","steam_id":85568392924742824,"keywords":["nocrits","nodmgspread","payload","uncletopia"],"game_id":440,"stv_port":27036,"stv_name":"Uncletopia | San Francisco | 3 | Stopwatch Beta | STV","players":null},{"server_id":20,"name":"Uncletopia | San Francisco | 4 | Community","name_short":"sfo-4","host":"sfo-1.us.uncletopia.com","port":27045,"enabled":true,"region":"us-west","cc":"us","latitude":37.77397,"longitude":-122.4313,"reserved":0,"last_update":"0001-01-01T00:00:00Z","name_a2s":"Uncletopia | San Francisco | 4 | Community","protocol":17,"map":"koth_highpass","folder":"tf","game":"Team Fortress","app_id":440,"player_count":0,"max_players":24,"Bots":0,"server_type":"Dedicated","server_os":"Linux","password":true,"vac":true,"version":"7757534","steam_id":85568392924742826,"keywords":["cp","nocrits","nodmgspread","uncletopia"],"game_id":440,"stv_port":27046,"stv_name":"Uncletopia | San Francisco | 4 | Community | STV","players":null},{"server_id":141,"name":"Uncletopia | Sydney | 1 | All Maps","name_short":"syd-1","host":"syd-1.au.uncletopia.com","port":27015,"enabled":true,"region":"au","cc":"au","latitude":-33.865143,"longitude":151.2099,"reserved":0,"last_update":"0001-01-01T00:00:00Z","name_a2s":"Uncletopia | Sydney | 1 | All Maps","protocol":17,"map":"cp_sunshine","folder":"tf","game":"Team Fortress","app_id":440,"player_count":1,"max_players":24,"Bots":0,"server_type":"Dedicated","server_os":"Linux","password":true,"vac":true,"version":"7757534","steam_id":85568392924470001,"keywords":["cp","nocrits","nodmgspread","uncletopia"],"game_id":440,"stv_port":27016,"stv_name":"Uncletopia | Sydney | 1 | All Maps | STV","players":[{"user_id":3,"name":"ziah","steam_id":76561198159375596,"connected_time":763000000000,"state":"active","ping":50}]},{"server_id":123,"name":"Uncletopia | Sydney | 2 | All Maps","name_short":"syd-2","host":"syd-1.au.uncletopia.com","port":27025,"enabled":true,"region":"au","cc":"au","latitude":-33.865143,"longitude":151.2099,"reserved":0,"last_update":"0001-01-01T00:00:00Z","name_a2s":"Uncletopia | Sydney | 2 | All Maps","protocol":17,"map":"koth_viaduct","folder":"tf","game":"Team Fortress","app_id":440,"player_count":0,"max_players":24,"Bots":0,"server_type":"Dedicated","server_os":"Linux","password":true,"vac":true,"version":"7757534","steam_id":85568392924470002,"keywords":["cp","nocrits","nodmgspread","uncletopia"],"game_id":440,"stv_port":27026,"stv_name":"Uncletopia | Sydney | 2 | All Maps | STV","players":null},{"server_id":395,"name":"Uncletopia | Sydney | 3 | All Maps","name_short":"syd-3","host":"syd-1.au.uncletopia.com","port":27035,"enabled":true,"region":"au","cc":"au","latitude":-33.865143,"longitude":151.2099,"reserved":0,"last_update":"0001-01-01T00:00:00Z","name_a2s":"Uncletopia | Sydney | 3 | All Maps","protocol":17,"map":"pl_upward","folder":"tf","game":"Team Fortress","app_id":440,"player_count":0,"max_players":24,"Bots":0,"server_type":"Dedicated","server_os":"Linux","password":true,"vac":true,"version":"7757534","steam_id":85568392925194467,"keywords":["nocrits","nodmgspread","payload","uncletopia"],"game_id":440,"stv_port":27036,"stv_name":"Uncletopia | Sydney | 3 | All Maps | STV","players":null},{"server_id":396,"name":"Uncletopia | Sydney | 4 | All Maps","name_short":"syd-4","host":"syd-1.au.uncletopia.com","port":27045,"enabled":true,"region":"au","cc":"au","latitude":-33.865143,"longitude":151.2099,"reserved":0,"last_update":"0001-01-01T00:00:00Z","name_a2s":"Uncletopia | Sydney | 4 | All Maps","protocol":17,"map":"koth_lakeside_final","folder":"tf","game":"Team Fortress","app_id":440,"player_count":0,"max_players":24,"Bots":0,"server_type":"Dedicated","server_os":"Linux","password":true,"vac":true,"version":"7757534","steam_id":85568392925397958,"keywords":["cp","nocrits","nodmgspread","uncletopia"],"game_id":440,"stv_port":27046,"stv_name":"Uncletopia | Sydney | 4 | All Maps | STV","players":null},{"server_id":58,"name":"Uncletopia | Sydney | 5 | Stopwatch Beta","name_short":"syd-5","host":"syd-1.au.uncletopia.com","port":27055,"enabled":true,"region":"au","cc":"au","latitude":-33.865143,"longitude":151.2099,"reserved":0,"last_update":"0001-01-01T00:00:00Z","name_a2s":"Uncletopia | Sydney | 5 | Stopwatch Beta","protocol":17,"map":"koth_highpass","folder":"tf","game":"Team Fortress","app_id":440,"player_count":0,"max_players":24,"Bots":0,"server_type":"Dedicated","server_os":"Linux","password":true,"vac":true,"version":"7757534","steam_id":85568392925397959,"keywords":["cp","nocrits","nodmgspread","uncletopia"],"game_id":440,"stv_port":27056,"stv_name":"Uncletopia | Sydney | 5 | Stopwatch Beta | STV","players":null},{"server_id":59,"name":"Uncletopia | Sydney | 6 | Community","name_short":"syd-6","host":"syd-1.au.uncletopia.com","port":27065,"enabled":true,"region":"au","cc":"au","latitude":-33.865143,"longitude":151.2099,"reserved":0,"last_update":"0001-01-01T00:00:00Z","name_a2s":"Uncletopia | Sydney | 6 | Community","protocol":17,"map":"cp_sunshine","folder":"tf","game":"Team Fortress","app_id":440,"player_count":0,"max_players":24,"Bots":0,"server_type":"Dedicated","server_os":"Linux","password":true,"vac":true,"version":"7757534","steam_id":85568392925397960,"keywords":["cp","nocrits","nodmgspread","uncletopia"],"game_id":440,"stv_port":27066,"stv_name":"Uncletopia | Sydney | 6 | Community | STV","players":null},{"server_id":49,"name":"Uncletopia | Warsaw | 1 | All Maps","name_short":"waw-1","host":"waw-1.pl.uncletopia.com","port":27015,"enabled":true,"region":"eu","cc":"pl","latitude":52.2297,"longitude":21.017532,"reserved":0,"last_update":"0001-01-01T00:00:00Z","name_a2s":"","protocol":0,"map":"","folder":"","game":"","app_id":0,"player_count":0,"max_players":0,"Bots":0,"server_type":"","server_os":"","password":false,"vac":false,"version":"","steam_id":0,"keywords":null,"game_id":0,"stv_port":0,"stv_name":"","players":null},{"server_id":50,"name":"Uncletopia | Warsaw | 2 | All Maps","name_short":"waw-2","host":"waw-1.pl.uncletopia.com","port":27025,"enabled":true,"region":"eu","cc":"pl","latitude":52.2297,"longitude":21.017532,"reserved":0,"last_update":"0001-01-01T00:00:00Z","name_a2s":"Uncletopia | Warsaw | 2 | All Maps","protocol":17,"map":"pl_upward","folder":"tf","game":"Team Fortress","app_id":440,"player_count":0,"max_players":24,"Bots":0,"server_type":"Dedicated","server_os":"Linux","password":true,"vac":true,"version":"7757534","steam_id":85568392925397851,"keywords":["nocrits","nodmgspread","payload","uncletopia"],"game_id":440,"stv_port":27026,"stv_name":"Uncletopia | Warsaw | 2 | All Maps | STV","players":null},{"server_id":51,"name":"Uncletopia | Warsaw | 3 | All Maps","name_short":"waw-3","host":"waw-1.pl.uncletopia.com","port":27035,"enabled":true,"region":"eu","cc":"pl","latitude":52.2297,"longitude":21.017532,"reserved":0,"last_update":"0001-01-01T00:00:00Z","name_a2s":"Uncletopia | Warsaw | 3 | All Maps","protocol":17,"map":"cp_snakewater_final1","folder":"tf","game":"Team Fortress","app_id":440,"player_count":0,"max_players":24,"Bots":0,"server_type":"Dedicated","server_os":"Linux","password":true,"vac":true,"version":"7757534","steam_id":85568392925397852,"keywords":["cp","nocrits","nodmgspread","uncletopia"],"game_id":440,"stv_port":27036,"stv_name":"Uncletopia | Warsaw | 3 | All Maps | STV","players":null},{"server_id":52,"name":"Uncletopia | Warsaw | 4 | All Maps","name_short":"waw-4","host":"waw-1.pl.uncletopia.com","port":27045,"enabled":true,"region":"eu","cc":"pl","latitude":52.2297,"longitude":21.017532,"reserved":0,"last_update":"0001-01-01T00:00:00Z","name_a2s":"Uncletopia | Warsaw | 4 | All Maps","protocol":17,"map":"pl_borneo","folder":"tf","game":"Team Fortress","app_id":440,"player_count":0,"max_players":24,"Bots":0,"server_type":"Dedicated","server_os":"Linux","password":true,"vac":true,"version":"7757534","steam_id":85568392925397853,"keywords":["nocrits","nodmgspread","payload","uncletopia"],"game_id":440,"stv_port":27046,"stv_name":"Uncletopia | Warsaw | 4 | All Maps | STV","players":null},{"server_id":53,"name":"Uncletopia | Warsaw | 5 | Stopwatch Beta","name_short":"waw-5","host":"waw-1.pl.uncletopia.com","port":27055,"enabled":true,"region":"eu","cc":"pl","latitude":52.2297,"longitude":21.017532,"reserved":0,"last_update":"0001-01-01T00:00:00Z","name_a2s":"Uncletopia | Warsaw | 5 | Stopwatch Beta","protocol":17,"map":"pl_barnblitz","folder":"tf","game":"Team Fortress","app_id":440,"player_count":0,"max_players":24,"Bots":0,"server_type":"Dedicated","server_os":"Linux","password":true,"vac":true,"version":"7757534","steam_id":85568392925397854,"keywords":["nocrits","nodmgspread","payload","uncletopia"],"game_id":440,"stv_port":27056,"stv_name":"Uncletopia | Warsaw | 5 | Stopwatch Beta | STV","players":null},{"server_id":54,"name":"Uncletopia | Warsaw | 6 | Community","name_short":"waw-6","host":"waw-1.pl.uncletopia.com","port":27065,"enabled":true,"region":"eu","cc":"pl","latitude":52.2297,"longitude":21.017532,"reserved":0,"last_update":"0001-01-01T00:00:00Z","name_a2s":"Uncletopia | Warsaw | 6 | Community","protocol":17,"map":"workshop/koth_trenchfoot_b1a.ugc731436616","folder":"tf","game":"Team Fortress","app_id":440,"player_count":0,"max_players":24,"Bots":0,"server_type":"Dedicated","server_os":"Linux","password":true,"vac":true,"version":"7757534","steam_id":85568392925397856,"keywords":["cp","nocrits","nodmgspread","uncletopia"],"game_id":440,"stv_port":27066,"stv_name":"Uncletopia | Warsaw | 6 | Community | STV","players":null}]}