{"status":true,"message":"","result":[{"server_id":9,"name":"Uncletopia | Atlanta | 1 | All Maps","name_short":"atl-1","host":"atl-1.us.uncletopia.com","port":27015,"enabled":true,"region":"us-east","cc":"us","latitude":33.753746,"longitude":-84.38633,"reserved":0,"last_update":"0001-01-01T00:00:00Z","name_a2s":"Uncletopia | Atlanta | 1 | All Maps","protocol":17,"map":"pl_borneo","folder":"tf","game":"Team Fortress","app_id":440,"player_count":24,"max_players":24,"Bots":0,"server_type":"Dedicated","server_os":"Linux","password":true,"vac":true,"version":"7882260","steam_id":85568392924469982,"keywords":["nocrits","nodmgspread","payload","uncletopia"],"game_id":440,"stv_port":27016,"stv_name":"Uncletopia | Atlanta | 1 | All Maps | STV","players":[{"user_id":397,"name":"Mossed Ball","steam_id":76561199031256509,"connected_time":322000000000,"state":"active","ping":83},{"user_id":322,"name":"Sophie","steam_id":76561198170408057,"connected_time":5753000000000,"state":"active","ping":55},{"user_id":391,"name":"JellyParrot","steam_id":76561199190990163,"connected_time":701000000000,"state":"active","ping":59},{"user_id":392,"name":"ash","steam_id":76561198127890645,"connected_time":656000000000,"state":"active","ping":63},{"user_id":358,"name":"Rockhead","steam_id":76561197995196535,"connected_time":3026000000000,"state":"active","ping":74},{"user_id":333,"name":"very angry Jin","steam_id":76561198119873148,"connected_time":4991000000000,"state":"active","ping":77},{"user_id":386,"name":"MDMA","steam_id":76561198155990611,"connected_time":903000000000,"state":"active","ping":107},{"user_id":395,"name":"Cooldog","steam_id":76561198080548713,"connected_time":591000000000,"state":"active","ping":72},{"user_id":382,"name":"cfs._","steam_id":76561198052978969,"connected_time":1185000000000,"state":"active","ping":66},{"user_id":370,"name":"HARRY B HOLE","steam_id":76561198842067238,"connected_time":1882000000000,"state":"active","ping":66},{"user_id":378,"name":"ALBINO LESBIAN MIDGET","steam_id":76561198122691714,"connected_time":1234000000000,"state":"active","ping":72},{"user_id":277,"name":"Rin \"Hindwing\" Redtail","steam_id":76561199074865638,"connected_time":9582000000000,"state":"active","ping":60},{"user_id":377,"name":"Shame","steam_id":76561198100490994,"connected_time":1516000000000,"state":"active","ping":60},{"user_id":389,"name":"good soup guy","steam_id":76561199210237835,"connected_time":843000000000,"state":"active","ping":92},{"user_id":337,"name":"nomad","steam_id":76561197998740399,"connected_time":4563000000000,"state":"active","ping":72},{"user_id":304,"name":"TL gaming","steam_id":76561198276735535,"connected_time":6903000000000,"state":"active","ping":138},{"user_id":398,"name":"Average Detroit Citizen","steam_id":76561199091290729,"connected_time":191000000000,"state":"active","ping":89},{"user_id":374,"name":"Tankless Water Heater","steam_id":76561198014574925,"connected_time":1776000000000,"state":"active","ping":98},{"user_id":394,"name":"king10100000000","steam_id":76561199074676352,"connected_time":638000000000,"state":"active","ping":84},{"user_id":341,"name":"Crumbledorf","steam_id":76561198986546469,"connected_time":4282000000000,"state":"active","ping":78},{"user_id":376,"name":"Matt","steam_id":76561198008108521,"connected_time":1639000000000,"state":"active","ping":95},{"user_id":390,"name":"Tue","steam_id":76561198181668501,"connected_time":779000000000,"state":"active","ping":65},{"user_id":334,"name":"Toonice","steam_id":76561198402994885,"connected_time":4987000000000,"state":"active","ping":89},{"user_id":367,"name":"not_pro_yet","steam_id":76561198262838300,"connected_time":2231000000000,"state":"active","ping":67}]},{"server_id":104,"name":"Uncletopia | Atlanta | 2 | All Maps","name_short":"atl-2","host":"atl-1.us.uncletopia.com","port":27025,"enabled":true,"region":"us-east","cc":"us","latitude":33.753746,"longitude":-84.38633,"reserved":0,"last_update":"0001-01-01T00:00:00Z","name_a2s":"Uncletopia | Atlanta | 2 | All Maps","protocol":17,"map":"pl_frontier_final","folder":"tf","game":"Team Fortress","app_id":440,"player_count":24,"max_players":24,"Bots":0,"server_type":"Dedicated","server_os":"Linux","password":true,"vac":true,"version":"7882260","steam_id":85568392924469983,"keywords":["nocrits","nodmgspread","payload","uncletopia"],"game_id":440,"stv_port":27026,"stv_name":"Uncletopia | Atlanta | 2 | All Maps | STV","players":[{"user_id":328,"name":"FHC | Nyle","steam_id":76561198045652639,"connected_time":346000000000,"state":"active","ping":119},{"user_id":229,"name":"SeaBass","steam_id":76561198278914206,"connected_time":6676000000000,"state":"active","ping":67},{"user_id":324,"name":"Some random dude","steam_id":76561199477705792,"connected_time":616000000000,"state":"active","ping":111},{"user_id":322,"name":"correctedwolf42","steam_id":76561198988908375,"connected_time":738000000000,"state":"active","ping":72},{"user_id":315,"name":"Myn","steam_id":76561198055438857,"connected_time":1347000000000,"state":"active","ping":82},{"user_id":301,"name":"ElJuren","steam_id":76561199204654872,"connected_time":1910000000000,"state":"active","ping":61},{"user_id":329,"name":"Cybercat","steam_id":76561199120774107,"connected_time":333000000000,"state":"active","ping":114},{"user_id":330,"name":"crittr","steam_id":76561198014302068,"connected_time":298000000000,"state":"active","ping":57},{"user_id":331,"name":"dr sex, md (sexologist)","steam_id":76561198115874625,"connected_time":283000000000,"state":"active","ping":75},{"user_id":332,"name":"greg club","steam_id":76561198370506193,"connected_time":263000000000,"state":"active","ping":38},{"user_id":303,"name":"Frontier Psychiatrist","steam_id":76561198038689088,"connected_time":1885000000000,"state":"active","ping":94},{"user_id":238,"name":"F_L BongRipper","steam_id":76561198047136927,"connected_time":5768000000000,"state":"active","ping":71},{"user_id":325,"name":"Jazz hates Jazz","steam_id":76561199053475022,"connected_time":594000000000,"state":"active","ping":59},{"user_id":333,"name":"tulpa","steam_id":76561198013253513,"connected_time":237000000000,"state":"active","ping":57},{"user_id":304,"name":"SCATTER","steam_id":76561198405168492,"connected_time":1785000000000,"state":"active","ping":90},{"user_id":305,"name":"Baker","steam_id":76561198055196430,"connected_time":1783000000000,"state":"active","ping":81},{"user_id":334,"name":"schnedwob","steam_id":76561197999146588,"connected_time":237000000000,"state":"active","ping":74},{"user_id":326,"name":"bean goblin #savetf2","steam_id":76561199185148234,"connected_time":379000000000,"state":"active","ping":113},{"user_id":318,"name":"Kris","steam_id":76561198133882561,"connected_time":1013000000000,"state":"active","ping":102},{"user_id":335,"name":"just a gamer","steam_id":76561199208833695,"connected_time":230000000000,"state":"active","ping":76},{"user_id":316,"name":"AdorableMew","steam_id":76561198186706405,"connected_time":1340000000000,"state":"active","ping":77},{"user_id":336,"name":"lozeev","steam_id":76561198291541516,"connected_time":225000000000,"state":"active","ping":116},{"user_id":319,"name":"Sagoogoo","steam_id":76561198176061614,"connected_time":1004000000000,"state":"active","ping":87},{"user_id":339,"name":"luigiluigi09","steam_id":76561199073416585,"connected_time":39000000000,"state":"active","ping":123}]},{"server_id":400,"name":"Uncletopia | Atlanta | 3 | Community","name_short":"atl-3","host":"atl-1.us.uncletopia.com","port":27035,"enabled":true,"region":"us-east","cc":"us","latitude":33.753746,"longitude":-84.38633,"reserved":0,"last_update":"0001-01-01T00:00:00Z","name_a2s":"Uncletopia | Atlanta | 3 | Community","protocol":17,"map":"workshop/rd_asteroid_redux_b1.ugc2154902912","folder":"tf","game":"Team Fortress","app_id":440,"player_count":19,"max_players":24,"Bots":0,"server_type":"Dedicated","server_os":"Linux","password":true,"vac":true,"version":"7882260","steam_id":85568392924515187,"keywords":["beta","nocrits","nodmgspread","rd","uncletopia"],"game_id":440,"stv_port":27036,"stv_name":"Uncletopia | Atlanta | 3 | Community | STV","players":[{"user_id":274,"name":"TheParanoidAndroid","steam_id":76561198024940715,"connected_time":1632000000000,"state":"active","ping":70},{"user_id":131,"name":"KennytheHedgehog","steam_id":76561198094607721,"connected_time":8178000000000,"state":"active","ping":72},{"user_id":298,"name":"Paul F. Aldridge","steam_id":76561198353942162,"connected_time":137000000000,"state":"active","ping":79},{"user_id":262,"name":"Skipz","steam_id":76561198425244550,"connected_time":2701000000000,"state":"active","ping":60},{"user_id":130,"name":"Cubert","steam_id":76561198045494151,"connected_time":8183000000000,"state":"active","ping":86},{"user_id":299,"name":"White_Wizard_Named_Corona","steam_id":76561198055652735,"connected_time":72000000000,"state":"active","ping":95},{"user_id":239,"name":"The King","steam_id":76561198402120625,"connected_time":3241000000000,"state":"active","ping":73},{"user_id":244,"name":"Marie","steam_id":76561198056104899,"connected_time":3162000000000,"state":"active","ping":87},{"user_id":300,"name":"Spy (I Love spy)","steam_id":76561199138738952,"connected_time":62000000000,"state":"active","ping":88},{"user_id":301,"name":"Poop_toast","steam_id":76561199251933053,"connected_time":60000000000,"state":"spawning","ping":290},{"user_id":245,"name":"who ate the cheese","steam_id":76561198275408467,"connected_time":3149000000000,"state":"active","ping":46},{"user_id":277,"name":"Musica Universalis","steam_id":76561198184794174,"connected_time":1475000000000,"state":"active","ping":80},{"user_id":285,"name":"I am a mooshroom","steam_id":76561198104198295,"connected_time":1091000000000,"state":"active","ping":78},{"user_id":280,"name":"zam","steam_id":76561198295713840,"connected_time":1353000000000,"state":"active","ping":78},{"user_id":281,"name":"evolutionary sleeper","steam_id":76561198125328737,"connected_time":1335000000000,"state":"active","ping":76},{"user_id":223,"name":"Zoawsome","steam_id":76561198018758753,"connected_time":4529000000000,"state":"active","ping":69},{"user_id":292,"name":"xXMLGDOODXx","steam_id":76561198080758365,"connected_time":853000000000,"state":"active","ping":68},{"user_id":295,"name":"Grand","steam_id":76561198290143399,"connected_time":678000000000,"state":"active","ping":81},{"user_id":284,"name":"Zixzs","steam_id":76561198055504126,"connected_time":1265000000000,"state":"active","ping":80}]},{"server_id":401,"name":"Uncletopia | Atlanta | 4 | No Payload","name_short":"atl-4","host":"atl-1.us.uncletopia.com","port":27045,"enabled":true,"region":"us-east","cc":"us","latitude":33.753746,"longitude":-84.38633,"reserved":0,"last_update":"0001-01-01T00:00:00Z","name_a2s":"","protocol":0,"map":"","folder":"","game":"","app_id":0,"player_count":0,"max_players":0,"Bots":0,"server_type":"","server_os":"","password":false,"vac":false,"version":"","steam_id":0,"keywords":null,"game_id":0,"stv_port":0,"stv_name":"","players":null},{"server_id":2,"name":"Uncletopia | Chicago | 1 | All Maps","name_short":"chi-1","host":"chi-1.us.uncletopia.com","port":27015,"enabled":true,"region":"us-central","cc":"us","latitude":41.881832,"longitude":-87.62318,"reserved":0,"last_update":"0001-01-01T00:00:00Z","name_a2s":"Uncletopia | Chicago | 1 | All Maps","protocol":17,"map":"koth_suijin","folder":"tf","game":"Team Fortress","app_id":440,"player_count":20,"max_players":24,"Bots":0,"server_type":"Dedicated","server_os":"Linux","password":true,"vac":true,"version":"7882260","steam_id":85568392924469984,"keywords":["cp","nocrits","nodmgspread","uncletopia"],"game_id":440,"stv_port":27016,"stv_name":"Uncletopia | Chicago | 1 | All Maps | STV","players":[{"user_id":458,"name":"sweaver","steam_id":76561199156551835,"connected_time":1378000000000,"state":"active","ping":55},{"user_id":470,"name":"Giovanni573","steam_id":76561198893868040,"connected_time":47000000000,"state":"active","ping":70},{"user_id":464,"name":"Swifgz","steam_id":76561198162875756,"connected_time":739000000000,"state":"active","ping":60},{"user_id":369,"name":"INVEST IN SKYNET::τRU τAO","steam_id":76561198144436132,"connected_time":10725000000000,"state":"active","ping":87},{"user_id":465,"name":"Adam (Cursed Confetti Creature)","steam_id":76561198317690197,"connected_time":663000000000,"state":"active","ping":37},{"user_id":467,"name":"Space Lizard","steam_id":76561198056798193,"connected_time":559000000000,"state":"active","ping":73},{"user_id":460,"name":"LeadHickory","steam_id":76561198219756521,"connected_time":1006000000000,"state":"active","ping":83},{"user_id":445,"name":"Pheonix","steam_id":76561199470538309,"connected_time":2720000000000,"state":"active","ping":51},{"user_id":468,"name":"asbestos","steam_id":76561198079178866,"connected_time":234000000000,"state":"active","ping":62},{"user_id":432,"name":"Dot.","steam_id":76561198149463984,"connected_time":3999000000000,"state":"active","ping":52},{"user_id":472,"name":"Rec","steam_id":76561198022813906,"connected_time":30000000000,"state":"active","ping":53},{"user_id":433,"name":"Metroid Prime 4","steam_id":76561198121326917,"connected_time":3989000000000,"state":"active","ping":48},{"user_id":471,"name":"Mecha","steam_id":76561198014927379,"connected_time":44000000000,"state":"active","ping":58},{"user_id":473,"name":"Oni","steam_id":76561198112066584,"connected_time":24000000000,"state":"active","ping":66},{"user_id":462,"name":"TobyTurner32","steam_id":76561198018801418,"connected_time":814000000000,"state":"active","ping":76},{"user_id":469,"name":"God's Drunkest Driver","steam_id":76561198165175875,"connected_time":155000000000,"state":"active","ping":46},{"user_id":442,"name":"Praise_to_the_Flashlight!","steam_id":76561199001728789,"connected_time":2903000000000,"state":"active","ping":52},{"user_id":410,"name":"Ras","steam_id":76561198123546775,"connected_time":6470000000000,"state":"active","ping":76},{"user_id":463,"name":"Noodle","steam_id":76561198040872617,"connected_time":810000000000,"state":"active","ping":97},{"user_id":430,"name":"jpuzza","steam_id":76561198035535731,"connected_time":4031000000000,"state":"active","ping":71}]},{"server_id":106,"name":"Uncletopia | Chicago | 2 | All Maps","name_short":"chi-2","host":"chi-1.us.uncletopia.com","port":27025,"enabled":true,"region":"us-central","cc":"us","latitude":41.881832,"longitude":-87.62318,"reserved":0,"last_update":"0001-01-01T00:00:00Z","name_a2s":"Uncletopia | Chicago | 2 | All Maps","protocol":17,"map":"pl_upward","folder":"tf","game":"Team Fortress","app_id":440,"player_count":24,"max_players":24,"Bots":0,"server_type":"Dedicated","server_os":"Linux","password":true,"vac":true,"version":"7882260","steam_id":85568392924469985,"keywords":["nocrits","nodmgspread","payload","uncletopia"],"game_id":440,"stv_port":27026,"stv_name":"Uncletopia | Chicago | 2 | All Maps | STV","players":[{"user_id":376,"name":"das boot","steam_id":76561198953844914,"connected_time":449000000000,"state":"active","ping":163},{"user_id":325,"name":"Literally a Trans Woman","steam_id":76561198054639925,"connected_time":3506000000000,"state":"active","ping":55},{"user_id":360,"name":"HFMurasama","steam_id":76561198272021214,"connected_time":1709000000000,"state":"active","ping":102},{"user_id":373,"name":"Grilled Jizo","steam_id":76561199250875340,"connected_time":821000000000,"state":"active","ping":75},{"user_id":374,"name":"Hooked","steam_id":76561198007302139,"connected_time":696000000000,"state":"active","ping":85},{"user_id":361,"name":"mewtrino","steam_id":76561198094623251,"connected_time":1708000000000,"state":"active","ping":67},{"user_id":353,"name":"Spicy Jumbo Big Daddy","steam_id":76561198076364318,"connected_time":2060000000000,"state":"active","ping":56},{"user_id":367,"name":"Lucon","steam_id":76561198067147724,"connected_time":1532000000000,"state":"active","ping":60},{"user_id":344,"name":"MooleTheDoole","steam_id":76561199216480625,"connected_time":2716000000000,"state":"active","ping":65},{"user_id":378,"name":"Snazzy_","steam_id":76561198014803098,"connected_time":297000000000,"state":"active","ping":71},{"user_id":368,"name":"CopMCcopper","steam_id":76561198236011194,"connected_time":1469000000000,"state":"active","ping":64},{"user_id":337,"name":"OffKey","steam_id":76561198017660927,"connected_time":3032000000000,"state":"active","ping":45},{"user_id":377,"name":"Goober","steam_id":76561198988863807,"connected_time":391000000000,"state":"active","ping":80},{"user_id":371,"name":"gideon nav my beloved","steam_id":76561198259092181,"connected_time":1152000000000,"state":"active","ping":66},{"user_id":264,"name":"igotmail","steam_id":76561198070631899,"connected_time":7120000000000,"state":"active","ping":73},{"user_id":339,"name":"PoisonIvy","steam_id":76561198072384574,"connected_time":2899000000000,"state":"active","ping":51},{"user_id":375,"name":"Agnos","steam_id":76561198241498776,"connected_time":531000000000,"state":"active","ping":59},{"user_id":355,"name":"Clean Lines","steam_id":76561197960691518,"connected_time":2054000000000,"state":"active","ping":55},{"user_id":356,"name":"GooniOoni","steam_id":76561198102154561,"connected_time":2012000000000,"state":"active","ping":45},{"user_id":295,"name":"Sahbi","steam_id":76561199196292242,"connected_time":5330000000000,"state":"active","ping":70},{"user_id":365,"name":"HooDoo","steam_id":76561198088994018,"connected_time":1662000000000,"state":"active","ping":119},{"user_id":379,"name":"Furious George","steam_id":76561198405111646,"connected_time":238000000000,"state":"active","ping":101},{"user_id":322,"name":"Mr.noob","steam_id":76561199200442395,"connected_time":3627000000000,"state":"active","ping":173},{"user_id":343,"name":"lance armstrong fan","steam_id":76561198350747953,"connected_time":2734000000000,"state":"active","ping":60}]},{"server_id":402,"name":"Uncletopia | Chicago | 3 | All Maps","name_short":"chi-3","host":"chi-1.us.uncletopia.com","port":27035,"enabled":true,"region":"us-central","cc":"us","latitude":41.881832,"longitude":-87.62318,"reserved":0,"last_update":"0001-01-01T00:00:00Z","name_a2s":"Uncletopia | Chicago | 3 | All Maps","protocol":17,"map":"pl_pier","folder":"tf","game":"Team Fortress","app_id":440,"player_count":24,"max_players":24,"Bots":0,"server_type":"Dedicated","server_os":"Linux","password":true,"vac":true,"version":"7882260","steam_id":85568392924515191,"keywords":["nocrits","nodmgspread","payload","uncletopia"],"game_id":440,"stv_port":27036,"stv_name":"Uncletopia | Chicago | 3 | All Maps | STV","players":[{"user_id":442,"name":"RoFrogle","steam_id":76561199078941377,"connected_time":2258000000000,"state":"active","ping":68},{"user_id":478,"name":"sharkbyt3","steam_id":76561197985793803,"connected_time":676000000000,"state":"active","ping":65},{"user_id":456,"name":"obi-wan kenobi","steam_id":76561199064050951,"connected_time":1563000000000,"state":"active","ping":109},{"user_id":380,"name":"Apetometrist","steam_id":76561198045391635,"connected_time":7105000000000,"state":"active","ping":66},{"user_id":489,"name":"bedshitter","steam_id":76561199090468595,"connected_time":238000000000,"state":"active","ping":115},{"user_id":493,"name":"i want to be there","steam_id":76561198868600487,"connected_time":78000000000,"state":"active","ping":112},{"user_id":414,"name":"|WS| Don't_Taze_Me_Bro","steam_id":76561198043289495,"connected_time":4178000000000,"state":"active","ping":75},{"user_id":470,"name":"xiii","steam_id":76561198079416036,"connected_time":1215000000000,"state":"active","ping":44},{"user_id":428,"name":"Uso","steam_id":76561198012093238,"connected_time":3565000000000,"state":"active","ping":52},{"user_id":434,"name":"MINILEGOLAS","steam_id":76561198859362058,"connected_time":3182000000000,"state":"active","ping":100},{"user_id":491,"name":"Callahan","steam_id":76561197976928457,"connected_time":215000000000,"state":"active","ping":108},{"user_id":433,"name":"matt","steam_id":76561198151093701,"connected_time":3427000000000,"state":"active","ping":58},{"user_id":469,"name":"freyja","steam_id":76561198249206656,"connected_time":1233000000000,"state":"active","ping":72},{"user_id":476,"name":"demoknight tf2","steam_id":76561198070393998,"connected_time":752000000000,"state":"active","ping":71},{"user_id":494,"name":"The Power","steam_id":76561198060566884,"connected_time":63000000000,"state":"active","ping":144},{"user_id":395,"name":"Rukh","steam_id":76561197999361315,"connected_time":5815000000000,"state":"active","ping":87},{"user_id":495,"name":"nav","steam_id":76561198872608266,"connected_time":52000000000,"state":"active","ping":74},{"user_id":471,"name":"gome","steam_id":76561198080784921,"connected_time":1198000000000,"state":"active","ping":75},{"user_id":479,"name":"ceres","steam_id":76561198291976960,"connected_time":637000000000,"state":"active","ping":105},{"user_id":449,"name":"Unsalted Fry","steam_id":76561199258136693,"connected_time":1977000000000,"state":"active","ping":100},{"user_id":488,"name":"Epha","steam_id":76561198079379951,"connected_time":255000000000,"state":"active","ping":62},{"user_id":400,"name":"ashsillygoober","steam_id":76561199454622997,"connected_time":5538000000000,"state":"active","ping":85},{"user_id":492,"name":"Glue Gulper","steam_id":76561198158014525,"connected_time":191000000000,"state":"active","ping":59},{"user_id":487,"name":"Jango","steam_id":76561198121922413,"connected_time":267000000000,"state":"active","ping":112}]},{"server_id":403,"name":"Uncletopia | Chicago | 4 | All Maps","name_short":"chi-4","host":"chi-1.us.uncletopia.com","port":27045,"enabled":true,"region":"us-central","cc":"us","latitude":41.881832,"longitude":-87.62318,"reserved":0,"last_update":"0001-01-01T00:00:00Z","name_a2s":"Uncletopia | Chicago | 4 | All Maps","protocol":17,"map":"pl_swiftwater_final1","folder":"tf","game":"Team Fortress","app_id":440,"player_count":22,"max_players":24,"Bots":0,"server_type":"Dedicated","server_os":"Linux","password":true,"vac":true,"version":"7882260","steam_id":85568392924515193,"keywords":["nocrits","nodmgspread","payload","uncletopia"],"game_id":440,"stv_port":27046,"stv_name":"Uncletopia | Chicago | 4 | All Maps | STV","players":[{"user_id":136,"name":"!! NOT A FLYING TOY !!","steam_id":76561198069735882,"connected_time":844000000000,"state":"active","ping":74},{"user_id":94,"name":"zzzPoison","steam_id":76561198302928116,"connected_time":2779000000000,"state":"active","ping":57},{"user_id":88,"name":"asm_ghost","steam_id":76561199205363547,"connected_time":3496000000000,"state":"active","ping":129},{"user_id":127,"name":"AreYouMyMummy?","steam_id":76561197995101745,"connected_time":1135000000000,"state":"active","ping":59},{"user_id":100,"name":"MEATBALL","steam_id":76561198028499312,"connected_time":2436000000000,"state":"active","ping":63},{"user_id":137,"name":"ElChuchoXf","steam_id":76561199235124146,"connected_time":99000000000,"state":"active","ping":149},{"user_id":99,"name":"your wickedness is cringe","steam_id":76561198016826181,"connected_time":2458000000000,"state":"active","ping":67},{"user_id":120,"name":"DaBananaCatOfPower","steam_id":76561198169902353,"connected_time":1741000000000,"state":"active","ping":66},{"user_id":102,"name":"BetoelAff es","steam_id":76561198377842585,"connected_time":2383000000000,"state":"active","ping":120},{"user_id":103,"name":"SABONER","steam_id":76561198056871257,"connected_time":2379000000000,"state":"active","ping":63},{"user_id":105,"name":"Radish Master","steam_id":76561198072523811,"connected_time":2313000000000,"state":"active","ping":36},{"user_id":106,"name":"Cabbage Master","steam_id":76561198109237516,"connected_time":2307000000000,"state":"active","ping":72},{"user_id":130,"name":"gonk","steam_id":76561198061206732,"connected_time":1092000000000,"state":"active","ping":84},{"user_id":122,"name":"darps","steam_id":76561198105227318,"connected_time":1505000000000,"state":"active","ping":45},{"user_id":131,"name":"pizzaschnoesel","steam_id":76561198143534694,"connected_time":1075000000000,"state":"active","ping":160},{"user_id":111,"name":"brian.dahlmann","steam_id":76561198360431651,"connected_time":1993000000000,"state":"active","ping":83},{"user_id":133,"name":"cardsfish","steam_id":76561199195316687,"connected_time":997000000000,"state":"active","ping":59},{"user_id":134,"name":"Tux Paint","steam_id":76561199110827677,"connected_time":984000000000,"state":"active","ping":83},{"user_id":125,"name":"WANNA SPOON TONIGHT?","steam_id":76561199039152146,"connected_time":1342000000000,"state":"active","ping":64},{"user_id":115,"name":"Sergeant Joker #savetf2","steam_id":76561198854616604,"connected_time":1962000000000,"state":"active","ping":60},{"user_id":124,"name":"Cosmic sR","steam_id":76561198081738675,"connected_time":1363000000000,"state":"active","ping":85},{"user_id":117,"name":"Wolf Hat","steam_id":76561198099996051,"connected_time":1867000000000,"state":"active","ping":59}]},{"server_id":36,"name":"Uncletopia | Chicago | 5 | All Maps","name_short":"chi-5","host":"chi-2.us.uncletopia.com","port":27015,"enabled":true,"region":"us-central","cc":"us","latitude":41.881832,"longitude":-87.62318,"reserved":0,"last_update":"0001-01-01T00:00:00Z","name_a2s":"Uncletopia | Chicago | 5 | All Maps","protocol":17,"map":"pl_borneo","folder":"tf","game":"Team Fortress","app_id":440,"player_count":24,"max_players":24,"Bots":0,"server_type":"Dedicated","server_os":"Linux","password":true,"vac":true,"version":"7882260","steam_id":85568392924866362,"keywords":["nocrits","nodmgspread","payload","uncletopia"],"game_id":440,"stv_port":27016,"stv_name":"Uncletopia | Chicago | 5 | All Maps | STV","players":[{"user_id":233,"name":"PageBoiSkull","steam_id":76561198237353578,"connected_time":493000000000,"state":"active","ping":108},{"user_id":185,"name":"Sysadmin Stress Release","steam_id":76561197997326384,"connected_time":3190000000000,"state":"active","ping":68},{"user_id":234,"name":"VenANON","steam_id":76561198055676240,"connected_time":478000000000,"state":"active","ping":75},{"user_id":245,"name":"HUGEcroissantfan","steam_id":76561198076693017,"connected_time":166000000000,"state":"active","ping":104},{"user_id":208,"name":"Yarch0","steam_id":76561199106172477,"connected_time":1925000000000,"state":"active","ping":110},{"user_id":236,"name":"sithreis","steam_id":76561198000564263,"connected_time":451000000000,"state":"active","ping":63},{"user_id":235,"name":"LerN","steam_id":76561198083463877,"connected_time":476000000000,"state":"active","ping":58},{"user_id":216,"name":"Skellacat","steam_id":76561199090786845,"connected_time":1539000000000,"state":"active","ping":56},{"user_id":237,"name":"inphlate","steam_id":76561199016973013,"connected_time":444000000000,"state":"active","ping":68},{"user_id":222,"name":"YaBoi0_0","steam_id":76561198024122526,"connected_time":1006000000000,"state":"active","ping":68},{"user_id":190,"name":"chetan.nanda.nelluri","steam_id":76561199323410857,"connected_time":3159000000000,"state":"active","ping":64},{"user_id":246,"name":"Wounded","steam_id":76561199440954924,"connected_time":138000000000,"state":"active","ping":133},{"user_id":238,"name":"cataconik","steam_id":76561198145530829,"connected_time":441000000000,"state":"active","ping":83},{"user_id":244,"name":"ghastlierest gamer","steam_id":76561198057374871,"connected_time":247000000000,"state":"active","ping":61},{"user_id":240,"name":"Vortiger","steam_id":76561198275813176,"connected_time":387000000000,"state":"active","ping":102},{"user_id":225,"name":"lanoc","steam_id":76561198055415367,"connected_time":934000000000,"state":"active","ping":60},{"user_id":241,"name":"bladees saddest, realest verse","steam_id":76561198098099826,"connected_time":362000000000,"state":"active","ping":91},{"user_id":226,"name":"Olive","steam_id":76561198003474783,"connected_time":907000000000,"state":"active","ping":89},{"user_id":229,"name":"Skyline","steam_id":76561198018382060,"connected_time":801000000000,"state":"active","ping":57},{"user_id":242,"name":"yaldabaoth","steam_id":76561198084606869,"connected_time":347000000000,"state":"active","ping":47},{"user_id":228,"name":"all_classics","steam_id":76561198012738913,"connected_time":887000000000,"state":"active","ping":84},{"user_id":231,"name":"Centipede on a Game Boy","steam_id":76561199016285746,"connected_time":726000000000,"state":"active","ping":79},{"user_id":247,"name":"The Horselords and Animal Gods","steam_id":76561197975094050,"connected_time":92000000000,"state":"active","ping":112},{"user_id":243,"name":"☹","steam_id":76561198804763186,"connected_time":345000000000,"state":"active","ping":61}]},{"server_id":37,"name":"Uncletopia | Chicago | 6 | All Maps","name_short":"chi-6","host":"chi-2.us.uncletopia.com","port":27025,"enabled":true,"region":"us-central","cc":"us","latitude":41.881832,"longitude":-87.62318,"reserved":0,"last_update":"0001-01-01T00:00:00Z","name_a2s":"Uncletopia | Chicago | 6 | All Maps","protocol":17,"map":"pl_frontier_final","folder":"tf","game":"Team Fortress","app_id":440,"player_count":5,"max_players":24,"Bots":0,"server_type":"Dedicated","server_os":"Linux","password":true,"vac":true,"version":"7882260","steam_id":85568392924866363,"keywords":["nocrits","nodmgspread","payload","uncletopia"],"game_id":440,"stv_port":27026,"stv_name":"Uncletopia | Chicago | 6 | All Maps | STV","players":[{"user_id":6,"name":"Sandwich","steam_id":76561198303689896,"connected_time":1291000000000,"state":"active","ping":72},{"user_id":7,"name":"carlos.t","steam_id":76561198849981462,"connected_time":1257000000000,"state":"active","ping":50},{"user_id":8,"name":"Chickenwing","steam_id":76561199347103141,"connected_time":954000000000,"state":"active","ping":71},{"user_id":10,"name":"Ringo Barrs","steam_id":76561198043906449,"connected_time":431000000000,"state":"active","ping":53},{"user_id":11,"name":"Czar","steam_id":76561198834572665,"connected_time":219000000000,"state":"active","ping":41}]},{"server_id":38,"name":"Uncletopia | Chicago | 7 | Stopwatch Beta","name_short":"chi-7","host":"chi-2.us.uncletopia.com","port":27035,"enabled":true,"region":"us-central","cc":"us","latitude":41.881832,"longitude":-87.62318,"reserved":0,"last_update":"0001-01-01T00:00:00Z","name_a2s":"Uncletopia | Chicago | 7 | Stopwatch Beta","protocol":17,"map":"koth_lakeside_final","folder":"tf","game":"Team Fortress","app_id":440,"player_count":0,"max_players":24,"Bots":0,"server_type":"Dedicated","server_os":"Linux","password":true,"vac":true,"version":"7882260","steam_id":85568392924866364,"keywords":["cp","nocrits","nodmgspread","uncletopia"],"game_id":440,"stv_port":27036,"stv_name":"Uncletopia | Chicago | 7 | Stopwatch Beta | STV","players":null},{"server_id":39,"name":"Uncletopia | Chicago | 8 | Community","name_short":"chi-8","host":"chi-2.us.uncletopia.com","port":27045,"enabled":true,"region":"us-central","cc":"us","latitude":41.881832,"longitude":-87.62318,"reserved":0,"last_update":"0001-01-01T00:00:00Z","name_a2s":"Uncletopia | Chicago | 8 | Community","protocol":17,"map":"workshop/koth_product_final.ugc454272353","folder":"tf","game":"Team Fortress","app_id":440,"player_count":0,"max_players":24,"Bots":0,"server_type":"Dedicated","server_os":"Linux","password":true,"vac":true,"version":"7882260","steam_id":85568392924866365,"keywords":["cp","nocrits","nodmgspread","uncletopia"],"game_id":440,"stv_port":27046,"stv_name":"Uncletopia | Chicago | 8 | Community | STV","players":null},{"server_id":8,"name":"Uncletopia | Dallas | 1 | All Maps","name_short":"dal-1","host":"dal-1.us.uncletopia.com","port":27015,"enabled":true,"region":"us-central","cc":"us","latitude":32.779167,"longitude":-96.80889,"reserved":0,"last_update":"0001-01-01T00:00:00Z","name_a2s":"Uncletopia | Dallas | 1 | All Maps","protocol":17,"map":"cp_sunshine","folder":"tf","game":"Team Fortress","app_id":440,"player_count":24,"max_players":24,"Bots":0,"server_type":"Dedicated","server_os":"Linux","password":true,"vac":true,"version":"7882260","steam_id":85568392924469986,"keywords":["cp","nocrits","nodmgspread","uncletopia"],"game_id":440,"stv_port":27016,"stv_name":"Uncletopia | Dallas | 1 | All Maps | STV","players":[{"user_id":314,"name":"Greg Boberton 2012","steam_id":76561198983566026,"connected_time":6053000000000,"state":"active","ping":77},{"user_id":362,"name":"ZERGBERG","steam_id":76561198142126940,"connected_time":1476000000000,"state":"active","ping":49},{"user_id":381,"name":"glowskull","steam_id":76561198013650292,"connected_time":465000000000,"state":"active","ping":105},{"user_id":294,"name":"J.G. Klaus","steam_id":76561198001111196,"connected_time":8461000000000,"state":"active","ping":55},{"user_id":355,"name":"SmokeyGalaxy","steam_id":76561198118780516,"connected_time":2056000000000,"state":"active","ping":93},{"user_id":385,"name":"Broadsword","steam_id":76561198011160411,"connected_time":156000000000,"state":"active","ping":86},{"user_id":357,"name":"Treespeaker","steam_id":76561199231793576,"connected_time":1990000000000,"state":"active","ping":69},{"user_id":365,"name":"Heathcliff","steam_id":76561198044288534,"connected_time":1391000000000,"state":"active","ping":89},{"user_id":375,"name":"ChaoticAngel","steam_id":76561198293528217,"connected_time":1240000000000,"state":"active","ping":82},{"user_id":380,"name":"Fightin Cow","steam_id":76561198080941486,"connected_time":501000000000,"state":"active","ping":55},{"user_id":377,"name":"basket","steam_id":76561199486768009,"connected_time":1154000000000,"state":"active","ping":74},{"user_id":333,"name":"0x01FE","steam_id":76561198838881917,"connected_time":4111000000000,"state":"active","ping":64},{"user_id":331,"name":"pogo","steam_id":76561198148913461,"connected_time":4139000000000,"state":"active","ping":90},{"user_id":360,"name":"Pinetree w/ apples.","steam_id":76561198105411709,"connected_time":1673000000000,"state":"active","ping":106},{"user_id":386,"name":"brains","steam_id":76561198197388678,"connected_time":91000000000,"state":"active","ping":73},{"user_id":387,"name":"sly","steam_id":76561198139240845,"connected_time":66000000000,"state":"active","ping":89},{"user_id":368,"name":"Crazy Insane Proboscis Monkey","steam_id":76561198061011176,"connected_time":1367000000000,"state":"active","ping":93},{"user_id":359,"name":"Darling","steam_id":76561198127525888,"connected_time":1745000000000,"state":"active","ping":47},{"user_id":388,"name":"bottom pride burger","steam_id":76561198322247602,"connected_time":43000000000,"state":"active","ping":92},{"user_id":369,"name":"Shifter","steam_id":76561198837204401,"connected_time":1366000000000,"state":"active","ping":79},{"user_id":370,"name":"LtK","steam_id":76561197993180943,"connected_time":1348000000000,"state":"active","ping":45},{"user_id":371,"name":"leumas","steam_id":76561198240408540,"connected_time":1330000000000,"state":"active","ping":94},{"user_id":372,"name":"souljaboytellem.com","steam_id":76561198111975583,"connected_time":1319000000000,"state":"active","ping":60},{"user_id":382,"name":"The Spanked Monkey","steam_id":76561198128293111,"connected_time":464000000000,"state":"active","ping":84}]},{"server_id":108,"name":"Uncletopia | Dallas | 2 | All Maps","name_short":"dal-2","host":"dal-1.us.uncletopia.com","port":27025,"enabled":true,"region":"us-central","cc":"us","latitude":32.779167,"longitude":-96.80889,"reserved":0,"last_update":"0001-01-01T00:00:00Z","name_a2s":"Uncletopia | Dallas | 2 | All Maps","protocol":17,"map":"pl_snowycoast","folder":"tf","game":"Team Fortress","app_id":440,"player_count":23,"max_players":24,"Bots":0,"server_type":"Dedicated","server_os":"Linux","password":true,"vac":true,"version":"7882260","steam_id":85568392924469988,"keywords":["nocrits","nodmgspread","payload","uncletopia"],"game_id":440,"stv_port":27026,"stv_name":"Uncletopia | Dallas | 2 | All Maps | STV","players":[{"user_id":357,"name":"G-G-G-GAMERSHOT","steam_id":76561198798980951,"connected_time":898000000000,"state":"active","ping":76},{"user_id":368,"name":"webaline","steam_id":76561199052450127,"connected_time":256000000000,"state":"active","ping":77},{"user_id":358,"name":"mcjuice","steam_id":76561198087730829,"connected_time":884000000000,"state":"active","ping":73},{"user_id":356,"name":"Scout from Team Fortress 2","steam_id":76561199471318186,"connected_time":930000000000,"state":"active","ping":93},{"user_id":324,"name":"Skab","steam_id":76561199126112357,"connected_time":2879000000000,"state":"active","ping":79},{"user_id":308,"name":"juju_kungfu","steam_id":76561198151291219,"connected_time":3440000000000,"state":"active","ping":95},{"user_id":325,"name":"SaberAthena782","steam_id":76561199445700766,"connected_time":2844000000000,"state":"active","ping":173},{"user_id":364,"name":"Crispy","steam_id":76561198037481161,"connected_time":646000000000,"state":"active","ping":68},{"user_id":371,"name":"Frost ♥","steam_id":76561198168870617,"connected_time":98000000000,"state":"active","ping":91},{"user_id":334,"name":"Doomagedden","steam_id":76561198272589475,"connected_time":2122000000000,"state":"active","ping":67},{"user_id":366,"name":"Mr. Bixby","steam_id":76561198868839264,"connected_time":388000000000,"state":"active","ping":55},{"user_id":354,"name":"Xavibite","steam_id":76561198209380493,"connected_time":939000000000,"state":"active","ping":77},{"user_id":355,"name":"icm2008","steam_id":76561199277408836,"connected_time":939000000000,"state":"active","ping":99},{"user_id":362,"name":"payload","steam_id":76561198063475894,"connected_time":679000000000,"state":"active","ping":66},{"user_id":317,"name":"DMM","steam_id":76561198065426171,"connected_time":3070000000000,"state":"active","ping":53},{"user_id":370,"name":"Analogous","steam_id":76561198242842394,"connected_time":121000000000,"state":"active","ping":58},{"user_id":339,"name":"Treb","steam_id":76561197972961422,"connected_time":2029000000000,"state":"active","ping":88},{"user_id":369,"name":"spiderguy","steam_id":76561198412074955,"connected_time":215000000000,"state":"active","ping":65},{"user_id":361,"name":"basil","steam_id":76561198075758026,"connected_time":723000000000,"state":"active","ping":86},{"user_id":331,"name":"Eins","steam_id":76561199030343810,"connected_time":2692000000000,"state":"active","ping":64},{"user_id":342,"name":"Jester","steam_id":76561198153102922,"connected_time":1667000000000,"state":"active","ping":51},{"user_id":306,"name":"❤ Ashley ❤","steam_id":76561198056428303,"connected_time":3542000000000,"state":"active","ping":75},{"user_id":265,"name":"dweamy","steam_id":76561198119181880,"connected_time":5588000000000,"state":"active","ping":76}]},{"server_id":5,"name":"Uncletopia | Frankfurt | 1 | All Maps","name_short":"frk-1","host":"frk-1.de.uncletopia.com","port":27015,"enabled":true,"region":"eu","cc":"de","latitude":50.110924,"longitude":8.682127,"reserved":0,"last_update":"0001-01-01T00:00:00Z","name_a2s":"Uncletopia | Frankfurt | 1 | All Maps","protocol":17,"map":"koth_lakeside_final","folder":"tf","game":"Team Fortress","app_id":440,"player_count":23,"max_players":24,"Bots":0,"server_type":"Dedicated","server_os":"Linux","password":true,"vac":true,"version":"7882260","steam_id":85568392924469989,"keywords":["cp","nocrits","nodmgspread","uncletopia"],"game_id":440,"stv_port":27016,"stv_name":"Uncletopia | Frankfurt | 1 | All Maps | STV","players":[{"user_id":781,"name":"The Mask...","steam_id":76561198052402891,"connected_time":2859000000000,"state":"active","ping":52},{"user_id":813,"name":"Jonathan","steam_id":76561198087988880,"connected_time":1349000000000,"state":"active","ping":44},{"user_id":814,"name":"☞LaZe☜","steam_id":76561198202191400,"connected_time":1348000000000,"state":"active","ping":60},{"user_id":810,"name":"HUGO","steam_id":76561198317134996,"connected_time":1540000000000,"state":"active","ping":89},{"user_id":837,"name":"LANGERS","steam_id":76561198046966693,"connected_time":58000000000,"state":"active","ping":53},{"user_id":815,"name":"Fat Pigeon","steam_id":76561198817940142,"connected_time":1342000000000,"state":"active","ping":46},{"user_id":829,"name":"La-Li-Lu-Le-Lo","steam_id":76561198047990600,"connected_time":704000000000,"state":"active","ping":55},{"user_id":796,"name":"MoonDroid","steam_id":76561198023027016,"connected_time":2302000000000,"state":"active","ping":38},{"user_id":816,"name":"Elsuedi","steam_id":76561198074722832,"connected_time":1327000000000,"state":"active","ping":46},{"user_id":791,"name":"Pain in a Box","steam_id":76561197990777173,"connected_time":2485000000000,"state":"active","ping":91},{"user_id":824,"name":"selex61","steam_id":76561198240117088,"connected_time":1048000000000,"state":"active","ping":72},{"user_id":817,"name":"X-tis","steam_id":76561198043837480,"connected_time":1322000000000,"state":"active","ping":67},{"user_id":828,"name":"Tea guy","steam_id":76561198797847641,"connected_time":813000000000,"state":"active","ping":71},{"user_id":802,"name":"Stigurna","steam_id":76561198063906822,"connected_time":1845000000000,"state":"active","ping":94},{"user_id":835,"name":"Flostro","steam_id":76561198259793697,"connected_time":497000000000,"state":"active","ping":70},{"user_id":820,"name":"Chuckstarrious","steam_id":76561198029531334,"connected_time":1225000000000,"state":"active","ping":52},{"user_id":762,"name":"Repa24","steam_id":76561198033016390,"connected_time":4447000000000,"state":"active","ping":71},{"user_id":819,"name":"dongus","steam_id":76561198042774930,"connected_time":1252000000000,"state":"active","ping":73},{"user_id":833,"name":"dog","steam_id":76561198063919822,"connected_time":592000000000,"state":"active","ping":53},{"user_id":760,"name":"KooK","steam_id":76561198805501766,"connected_time":4675000000000,"state":"active","ping":84},{"user_id":836,"name":"DobreStarachowickie","steam_id":76561198027126737,"connected_time":333000000000,"state":"active","ping":62},{"user_id":823,"name":"Kai","steam_id":76561198105338895,"connected_time":1143000000000,"state":"active","ping":82},{"user_id":788,"name":"Uber","steam_id":76561198036528206,"connected_time":2661000000000,"state":"active","ping":70}]},{"server_id":110,"name":"Uncletopia | Frankfurt | 2 | All Maps","name_short":"frk-2","host":"frk-1.de.uncletopia.com","port":27025,"enabled":true,"region":"eu","cc":"de","latitude":50.110924,"longitude":8.682127,"reserved":0,"last_update":"0001-01-01T00:00:00Z","name_a2s":"Uncletopia | Frankfurt | 2 | All Maps","protocol":17,"map":"pl_swiftwater_final1","folder":"tf","game":"Team Fortress","app_id":440,"player_count":22,"max_players":24,"Bots":0,"server_type":"Dedicated","server_os":"Linux","password":true,"vac":true,"version":"7882260","steam_id":85568392924469990,"keywords":["nocrits","nodmgspread","payload","uncletopia"],"game_id":440,"stv_port":27026,"stv_name":"Uncletopia | Frankfurt | 2 | All Maps | STV","players":[{"user_id":341,"name":"useless_water","steam_id":76561198106787375,"connected_time":3881000000000,"state":"active","ping":69},{"user_id":327,"name":"Dr. Trustmeonthisone","steam_id":76561198009884765,"connected_time":5195000000000,"state":"active","ping":92},{"user_id":367,"name":"Worcestershire","steam_id":76561197982352114,"connected_time":875000000000,"state":"active","ping":50},{"user_id":377,"name":"Carrotcracker","steam_id":76561198034862396,"connected_time":621000000000,"state":"active","ping":68},{"user_id":368,"name":"Opti","steam_id":76561197968902518,"connected_time":872000000000,"state":"active","ping":56},{"user_id":387,"name":"turn the fridge on","steam_id":76561199480942903,"connected_time":142000000000,"state":"active","ping":64},{"user_id":381,"name":"AwterSix","steam_id":76561198042561678,"connected_time":241000000000,"state":"active","ping":55},{"user_id":359,"name":"Lorenzo Lovers","steam_id":76561198073973581,"connected_time":1640000000000,"state":"active","ping":75},{"user_id":340,"name":"Benoldo","steam_id":76561198405481293,"connected_time":3890000000000,"state":"active","ping":56},{"user_id":345,"name":"Ostara","steam_id":76561198200054489,"connected_time":3747000000000,"state":"active","ping":81},{"user_id":370,"name":"Benpl","steam_id":76561198084890757,"connected_time":709000000000,"state":"active","ping":61},{"user_id":379,"name":"LordTrap.exe","steam_id":76561198318089716,"connected_time":533000000000,"state":"active","ping":62},{"user_id":347,"name":"Kelpy G gaming","steam_id":76561198056995633,"connected_time":3717000000000,"state":"active","ping":73},{"user_id":382,"name":"Mammut","steam_id":76561198056773933,"connected_time":206000000000,"state":"active","ping":45},{"user_id":383,"name":"Covetousix","steam_id":76561198293936824,"connected_time":205000000000,"state":"active","ping":75},{"user_id":363,"name":"SuperBob103","steam_id":76561199175360012,"connected_time":1553000000000,"state":"active","ping":60},{"user_id":378,"name":"Jack_26","steam_id":76561198034566531,"connected_time":615000000000,"state":"active","ping":95},{"user_id":372,"name":"eeeeee","steam_id":76561198017786875,"connected_time":681000000000,"state":"active","ping":59},{"user_id":389,"name":"Julius catius","steam_id":76561198134156264,"connected_time":130000000000,"state":"active","ping":88},{"user_id":385,"name":"Shrimp","steam_id":76561198245939970,"connected_time":188000000000,"state":"active","ping":84},{"user_id":386,"name":"XFACTOR | {Moshik Roth}","steam_id":76561198352842114,"connected_time":174000000000,"state":"active","ping":109},{"user_id":390,"name":"mumbler","steam_id":76561197970641239,"connected_time":113000000000,"state":"active","ping":36}]},{"server_id":308,"name":"Uncletopia | Frankfurt | 3 | All Maps","name_short":"frk-3","host":"frk-1.de.uncletopia.com","port":27035,"enabled":true,"region":"eu","cc":"de","latitude":50.110924,"longitude":8.682127,"reserved":0,"last_update":"0001-01-01T00:00:00Z","name_a2s":"Uncletopia | Frankfurt | 3 | All Maps","protocol":17,"map":"pl_upward","folder":"tf","game":"Team Fortress","app_id":440,"player_count":23,"max_players":24,"Bots":0,"server_type":"Dedicated","server_os":"Linux","password":true,"vac":true,"version":"7882260","steam_id":85568392924504274,"keywords":["nocrits","nodmgspread","payload","uncletopia"],"game_id":440,"stv_port":27036,"stv_name":"Uncletopia | Frankfurt | 3 | All Maps | STV","players":[{"user_id":489,"name":"Cannabis Enjoyer","steam_id":76561198051685232,"connected_time":79000000000,"state":"active","ping":51},{"user_id":487,"name":"Cataleptic","steam_id":76561197997966949,"connected_time":330000000000,"state":"active","ping":70},{"user_id":472,"name":"Seals4Arms","steam_id":76561198993514131,"connected_time":1029000000000,"state":"active","ping":82},{"user_id":469,"name":"DrExplosive","steam_id":76561198063678579,"connected_time":1181000000000,"state":"active","ping":58},{"user_id":467,"name":"tiia","steam_id":76561198046196005,"connected_time":1228000000000,"state":"active","ping":42},{"user_id":491,"name":"GAETA ELECTRONICOS DEPORTES","steam_id":76561199042470246,"connected_time":32000000000,"state":"active","ping":45},{"user_id":411,"name":"Mi Manchi","steam_id":76561198171573129,"connected_time":6847000000000,"state":"active","ping":47},{"user_id":471,"name":"Wardruna96","steam_id":76561199057083828,"connected_time":1093000000000,"state":"active","ping":89},{"user_id":473,"name":"☁⭍ qBowN∼","steam_id":76561198000980532,"connected_time":1015000000000,"state":"active","ping":46},{"user_id":421,"name":"Vershal Smershal","steam_id":76561198116223995,"connected_time":6292000000000,"state":"active","ping":60},{"user_id":458,"name":"Garoiop","steam_id":76561198082326459,"connected_time":2321000000000,"state":"active","ping":47},{"user_id":483,"name":"BD[PL]","steam_id":76561198115995871,"connected_time":645000000000,"state":"active","ping":75},{"user_id":456,"name":"Milosz52","steam_id":76561199060940204,"connected_time":2342000000000,"state":"active","ping":74},{"user_id":426,"name":"Bajas","steam_id":76561198179339326,"connected_time":5702000000000,"state":"active","ping":76},{"user_id":454,"name":"The Funnytaker","steam_id":76561198049457308,"connected_time":2618000000000,"state":"active","ping":59},{"user_id":466,"name":"XXVIII","steam_id":76561198139717833,"connected_time":1348000000000,"state":"active","ping":70},{"user_id":474,"name":"Sebbo","steam_id":76561197976991134,"connected_time":988000000000,"state":"active","ping":73},{"user_id":490,"name":"Joe12000","steam_id":76561198160817969,"connected_time":62000000000,"state":"active","ping":59},{"user_id":475,"name":"Ghasst","steam_id":76561198042327953,"connected_time":985000000000,"state":"active","ping":66},{"user_id":408,"name":"rob","steam_id":76561198122211848,"connected_time":7289000000000,"state":"active","ping":83},{"user_id":477,"name":"Tapet","steam_id":76561197998808674,"connected_time":963000000000,"state":"active","ping":59},{"user_id":486,"name":"Fifourche","steam_id":76561198078209480,"connected_time":489000000000,"state":"active","ping":66},{"user_id":478,"name":"lycoris","steam_id":76561197988085026,"connected_time":902000000000,"state":"active","ping":60}]},{"server_id":309,"name":"Uncletopia | Frankfurt | 4 | All Maps","name_short":"frk-4","host":"frk-1.de.uncletopia.com","port":27045,"enabled":true,"region":"eu","cc":"de","latitude":50.110924,"longitude":8.682127,"reserved":0,"last_update":"0001-01-01T00:00:00Z","name_a2s":"Uncletopia | Frankfurt | 4 | All Maps","protocol":17,"map":"cp_steel","folder":"tf","game":"Team Fortress","app_id":440,"player_count":9,"max_players":24,"Bots":0,"server_type":"Dedicated","server_os":"Linux","password":true,"vac":true,"version":"7882260","steam_id":85568392924504275,"keywords":["cp","nocrits","nodmgspread","uncletopia"],"game_id":440,"stv_port":27046,"stv_name":"Uncletopia | Frankfurt | 4 | All Maps | STV","players":[{"user_id":484,"name":"MellowBoy-2354","steam_id":76561199080630632,"connected_time":3427000000000,"state":"active","ping":176},{"user_id":512,"name":"Piteras","steam_id":76561198858532207,"connected_time":906000000000,"state":"active","ping":70},{"user_id":400,"name":"dotdotdot","steam_id":76561198057628751,"connected_time":8751000000000,"state":"active","ping":60},{"user_id":520,"name":"Mr_Pulse_","steam_id":76561198095001602,"connected_time":696000000000,"state":"active","ping":86},{"user_id":504,"name":"Bobo","steam_id":76561198052308399,"connected_time":1650000000000,"state":"active","ping":56},{"user_id":514,"name":"DeBlauwe","steam_id":76561198003140896,"connected_time":885000000000,"state":"active","ping":44},{"user_id":481,"name":"StumpKnuckle","steam_id":76561197995325320,"connected_time":4334000000000,"state":"active","ping":65},{"user_id":518,"name":"Check Your Posture!","steam_id":76561198097466136,"connected_time":811000000000,"state":"active","ping":61},{"user_id":506,"name":"Hat Lover","steam_id":76561198312283433,"connected_time":1629000000000,"state":"active","ping":83}]},{"server_id":310,"name":"Uncletopia | Frankfurt | 5 | All Maps","name_short":"frk-5","host":"frk-1.de.uncletopia.com","port":27055,"enabled":true,"region":"eu","cc":"de","latitude":50.110924,"longitude":8.682127,"reserved":0,"last_update":"0001-01-01T00:00:00Z","name_a2s":"Uncletopia | Frankfurt | 5 | All Maps","protocol":17,"map":"plr_hightower","folder":"tf","game":"Team Fortress","app_id":440,"player_count":24,"max_players":24,"Bots":0,"server_type":"Dedicated","server_os":"Linux","password":true,"vac":true,"version":"7882260","steam_id":85568392924504277,"keywords":["nocrits","nodmgspread","payload","uncletopia"],"game_id":440,"stv_port":27056,"stv_name":"Uncletopia | Frankfurt | 5 | All Maps | STV","players":[{"user_id":593,"name":"Nyhde","steam_id":76561198012771416,"connected_time":131000000000,"state":"active","ping":94},{"user_id":520,"name":"TheWerelizard","steam_id":76561198060638325,"connected_time":4758000000000,"state":"active","ping":38},{"user_id":521,"name":"Ixsus\u003c3","steam_id":76561198094756869,"connected_time":4446000000000,"state":"active","ping":48},{"user_id":532,"name":"HetNet","steam_id":76561198207584963,"connected_time":4208000000000,"state":"active","ping":77},{"user_id":550,"name":"Sabour","steam_id":76561197963965445,"connected_time":3667000000000,"state":"active","ping":59},{"user_id":566,"name":"Racco Slava Ukraina","steam_id":76561198198855238,"connected_time":1843000000000,"state":"active","ping":57},{"user_id":594,"name":"Fjellape","steam_id":76561198094819884,"connected_time":90000000000,"state":"active","ping":89},{"user_id":586,"name":"R@DIO","steam_id":76561197995533046,"connected_time":768000000000,"state":"active","ping":75},{"user_id":587,"name":"Paladin","steam_id":76561198042593027,"connected_time":757000000000,"state":"active","ping":82},{"user_id":529,"name":"Froggo","steam_id":76561198013713935,"connected_time":4250000000000,"state":"active","ping":102},{"user_id":533,"name":"Tin","steam_id":76561198022201818,"connected_time":4206000000000,"state":"active","ping":45},{"user_id":591,"name":"Kaputo :3","steam_id":76561198062559523,"connected_time":376000000000,"state":"active","ping":79},{"user_id":575,"name":"󠁳⁧⁧ Kruthal","steam_id":76561198245726582,"connected_time":1391000000000,"state":"active","ping":75},{"user_id":592,"name":"Dakeyras","steam_id":76561198057069564,"connected_time":241000000000,"state":"active","ping":112},{"user_id":514,"name":"Scoot","steam_id":76561198202930408,"connected_time":5773000000000,"state":"active","ping":59},{"user_id":578,"name":"Mega Saturn","steam_id":76561198024750500,"connected_time":1200000000000,"state":"active","ping":98},{"user_id":558,"name":"Isuurn","steam_id":76561198150201094,"connected_time":2682000000000,"state":"active","ping":77},{"user_id":503,"name":"boy toy wrangler","steam_id":76561198208740557,"connected_time":6575000000000,"state":"active","ping":46},{"user_id":563,"name":"Sgt.Adamen152","steam_id":76561198315452726,"connected_time":1928000000000,"state":"active","ping":71},{"user_id":588,"name":"dochris.2","steam_id":76561198026478625,"connected_time":667000000000,"state":"active","ping":45},{"user_id":583,"name":"I.C. Wiener","steam_id":76561197999912254,"connected_time":896000000000,"state":"active","ping":104},{"user_id":595,"name":"I Don't Know","steam_id":76561198841011430,"connected_time":66000000000,"state":"active","ping":64},{"user_id":570,"name":"CoCoIncorporate","steam_id":76561198049967229,"connected_time":1815000000000,"state":"active","ping":67},{"user_id":590,"name":"sareena","steam_id":76561198810194062,"connected_time":585000000000,"state":"active","ping":74}]},{"server_id":311,"name":"Uncletopia | Frankfurt | 6 | All Maps","name_short":"frk-6","host":"frk-1.de.uncletopia.com","port":27065,"enabled":true,"region":"eu","cc":"de","latitude":50.110924,"longitude":8.682127,"reserved":0,"last_update":"0001-01-01T00:00:00Z","name_a2s":"Uncletopia | Frankfurt | 6 | All Maps","protocol":17,"map":"cp_sunshine","folder":"tf","game":"Team Fortress","app_id":440,"player_count":5,"max_players":24,"Bots":0,"server_type":"Dedicated","server_os":"Linux","password":true,"vac":true,"version":"7882260","steam_id":85568392924504278,"keywords":["cp","nocrits","nodmgspread","uncletopia"],"game_id":440,"stv_port":27066,"stv_name":"Uncletopia | Frankfurt | 6 | All Maps | STV","players":[{"user_id":746,"name":"Playad","steam_id":76561198977412147,"connected_time":1282000000000,"state":"spawning","ping":48},{"user_id":649,"name":"Drakehellstone","steam_id":76561199112627742,"connected_time":8141000000000,"state":"spawning","ping":47},{"user_id":692,"name":"omnibombulator","steam_id":76561198025858897,"connected_time":4666000000000,"state":"spawning","ping":66},{"user_id":693,"name":"Dewotter","steam_id":76561198007653168,"connected_time":4649000000000,"state":"spawning","ping":80},{"user_id":737,"name":"Have A Blessed Day","steam_id":76561198030956814,"connected_time":2608000000000,"state":"spawning","ping":87}]},{"server_id":23,"name":"Uncletopia | Frankfurt | 7 | Stopwatch Beta","name_short":"frk-7","host":"frk-1.de.uncletopia.com","port":27075,"enabled":true,"region":"eu","cc":"de","latitude":50.110924,"longitude":8.682127,"reserved":0,"last_update":"0001-01-01T00:00:00Z","name_a2s":"Uncletopia | Frankfurt | 7 | Stopwatch Beta","protocol":17,"map":"pl_borneo","folder":"tf","game":"Team Fortress","app_id":440,"player_count":0,"max_players":24,"Bots":0,"server_type":"Dedicated","server_os":"Linux","password":true,"vac":true,"version":"7882260","steam_id":85568392924742827,"keywords":["nocrits","nodmgspread","payload","uncletopia"],"game_id":440,"stv_port":27076,"stv_name":"Uncletopia | Frankfurt | 7 | Stopwatch Beta | STV","players":null},{"server_id":24,"name":"Uncletopia | Frankfurt | 8 | Community","name_short":"frk-8","host":"frk-1.de.uncletopia.com","port":27085,"enabled":true,"region":"eu","cc":"de","latitude":50.110924,"longitude":8.682127,"reserved":0,"last_update":"0001-01-01T00:00:00Z","name_a2s":"Uncletopia | Frankfurt | 8 | Community","protocol":17,"map":"workshop/koth_product_final.ugc454272353","folder":"tf","game":"Team Fortress","app_id":440,"player_count":2,"max_players":24,"Bots":0,"server_type":"Dedicated","server_os":"Linux","password":true,"vac":true,"version":"7882260","steam_id":85568392924742828,"keywords":["cp","nocrits","nodmgspread","uncletopia"],"game_id":440,"stv_port":27086,"stv_name":"Uncletopia | Frankfurt | 8 | Community | STV","players":[{"user_id":30,"name":"k3n8k1","steam_id":76561199185253785,"connected_time":672000000000,"state":"active","ping":64},{"user_id":31,"name":"marzka","steam_id":76561199224860294,"connected_time":662000000000,"state":"active","ping":65}]},{"server_id":202,"name":"Uncletopia | Hong Kong | 1 | All Maps","name_short":"hgk-1","host":"hgk-1.hk.uncletopia.com","port":27015,"enabled":true,"region":"asia","cc":"hk","latitude":22.302711,"longitude":114.177216,"reserved":0,"last_update":"0001-01-01T00:00:00Z","name_a2s":"Uncletopia | Hong Kong | 1 | All Maps","protocol":17,"map":"koth_viaduct","folder":"tf","game":"Team Fortress","app_id":440,"player_count":0,"max_players":24,"Bots":0,"server_type":"Dedicated","server_os":"Linux","password":true,"vac":true,"version":"7882260","steam_id":85568392924494504,"keywords":["cp","nocrits","nodmgspread","uncletopia"],"game_id":440,"stv_port":27016,"stv_name":"Uncletopia | Hong Kong | 1 | All Maps | STV","players":null},{"server_id":1,"name":"Uncletopia | Los Angeles | 1 | All Maps","name_short":"lax-1","host":"lax-1.us.uncletopia.com","port":27015,"enabled":true,"region":"us-west","cc":"us","latitude":33.94279,"longitude":-118.41004,"reserved":0,"last_update":"0001-01-01T00:00:00Z","name_a2s":"Uncletopia | Los Angeles | 1 | All Maps","protocol":17,"map":"pl_borneo","folder":"tf","game":"Team Fortress","app_id":440,"player_count":0,"max_players":24,"Bots":0,"server_type":"Dedicated","server_os":"Linux","password":true,"vac":true,"version":"7882260","steam_id":85568392924469991,"keywords":["nocrits","nodmgspread","payload","uncletopia"],"game_id":440,"stv_port":27016,"stv_name":"Uncletopia | Los Angeles | 1 | All Maps | STV","players":null},{"server_id":112,"name":"Uncletopia | Los Angeles | 2 | All Maps","name_short":"lax-2","host":"lax-1.us.uncletopia.com","port":27025,"enabled":true,"region":"us-west","cc":"us","latitude":33.94279,"longitude":-118.41004,"reserved":0,"last_update":"0001-01-01T00:00:00Z","name_a2s":"Uncletopia | Los Angeles | 2 | All Maps","protocol":17,"map":"pl_upward","folder":"tf","game":"Team Fortress","app_id":440,"player_count":24,"max_players":24,"Bots":0,"server_type":"Dedicated","server_os":"Linux","password":true,"vac":true,"version":"7882260","steam_id":85568392924469992,"keywords":["nocrits","nodmgspread","payload","uncletopia"],"game_id":440,"stv_port":27026,"stv_name":"Uncletopia | Los Angeles | 2 | All Maps | STV","players":[{"user_id":202,"name":"BIgboy535","steam_id":76561198798967935,"connected_time":325000000000,"state":"active","ping":128},{"user_id":193,"name":"SpecialForce19","steam_id":76561198120974644,"connected_time":827000000000,"state":"active","ping":120},{"user_id":194,"name":"Lord jellyfish","steam_id":76561198099255487,"connected_time":813000000000,"state":"active","ping":122},{"user_id":192,"name":"wafflehamster2000","steam_id":76561198849161820,"connected_time":953000000000,"state":"active","ping":130},{"user_id":154,"name":"Murr","steam_id":76561198046532308,"connected_time":3753000000000,"state":"active","ping":57},{"user_id":168,"name":"Op banana","steam_id":76561198303231451,"connected_time":2576000000000,"state":"active","ping":73},{"user_id":212,"name":"EJ","steam_id":76561198126224944,"connected_time":78000000000,"state":"active","ping":46},{"user_id":184,"name":"Interesting Name","steam_id":76561198197733222,"connected_time":1210000000000,"state":"active","ping":48},{"user_id":130,"name":"bluetreefrog","steam_id":76561198057965826,"connected_time":5751000000000,"state":"active","ping":119},{"user_id":203,"name":"teag2","steam_id":76561198076447485,"connected_time":319000000000,"state":"active","ping":66},{"user_id":208,"name":"Chongo B Vibin'","steam_id":76561198017604393,"connected_time":242000000000,"state":"active","ping":45},{"user_id":26,"name":"msay","steam_id":76561198170888029,"connected_time":13127000000000,"state":"active","ping":138},{"user_id":187,"name":"[El Fail] MR.BadassMCLee","steam_id":76561198043787818,"connected_time":1195000000000,"state":"active","ping":61},{"user_id":132,"name":"Defeat","steam_id":76561198065203818,"connected_time":5654000000000,"state":"active","ping":60},{"user_id":210,"name":"zeplinnn","steam_id":76561198301300987,"connected_time":137000000000,"state":"active","ping":70},{"user_id":134,"name":"Trotsky Gaming","steam_id":76561199101638460,"connected_time":5429000000000,"state":"active","ping":84},{"user_id":158,"name":"Chirp","steam_id":76561198240780230,"connected_time":3514000000000,"state":"active","ping":45},{"user_id":211,"name":"shakoiwa","steam_id":76561199059441773,"connected_time":137000000000,"state":"active","ping":55},{"user_id":209,"name":"Corpe","steam_id":76561198054490549,"connected_time":210000000000,"state":"active","ping":89},{"user_id":201,"name":"I'm So Fucking Cool","steam_id":76561198098418071,"connected_time":368000000000,"state":"active","ping":51},{"user_id":189,"name":"Robertred","steam_id":76561199062495086,"connected_time":1161000000000,"state":"active","ping":125},{"user_id":206,"name":"Arched","steam_id":76561198985975285,"connected_time":269000000000,"state":"active","ping":85},{"user_id":213,"name":"Spectre1578","steam_id":76561198953243633,"connected_time":22000000000,"state":"spawning","ping":122},{"user_id":207,"name":"SneekiCheekiQbone","steam_id":76561198045077980,"connected_time":255000000000,"state":"active","ping":43}]},{"server_id":324,"name":"Uncletopia | Los Angeles | 3 | All Maps","name_short":"lax-3","host":"lax-1.us.uncletopia.com","port":27035,"enabled":true,"region":"us-west","cc":"us","latitude":33.94279,"longitude":-118.41004,"reserved":0,"last_update":"0001-01-01T00:00:00Z","name_a2s":"Uncletopia | Los Angeles | 3 | All Maps","protocol":17,"map":"cp_dustbowl","folder":"tf","game":"Team Fortress","app_id":440,"player_count":24,"max_players":24,"Bots":0,"server_type":"Dedicated","server_os":"Linux","password":true,"vac":true,"version":"7882260","steam_id":85568392924510198,"keywords":["cp","nocrits","nodmgspread","uncletopia"],"game_id":440,"stv_port":27036,"stv_name":"Uncletopia | Los Angeles | 3 | All Maps | STV","players":[{"user_id":269,"name":"An00bis","steam_id":76561198044084508,"connected_time":1341000000000,"state":"active","ping":65},{"user_id":216,"name":"green234isfine","steam_id":76561199205223152,"connected_time":4766000000000,"state":"active","ping":134},{"user_id":284,"name":"basmati jarate","steam_id":76561198319442494,"connected_time":332000000000,"state":"active","ping":56},{"user_id":270,"name":"Shadow","steam_id":76561198197327722,"connected_time":1308000000000,"state":"active","ping":92},{"user_id":262,"name":"SlitherDoodle","steam_id":76561198000275473,"connected_time":1895000000000,"state":"active","ping":70},{"user_id":271,"name":"Grim","steam_id":76561198016978310,"connected_time":1275000000000,"state":"active","ping":69},{"user_id":272,"name":"Juul Room","steam_id":76561198132867238,"connected_time":1203000000000,"state":"active","ping":83},{"user_id":274,"name":"Ablaze","steam_id":76561198860659664,"connected_time":903000000000,"state":"active","ping":139},{"user_id":225,"name":"ShellBug","steam_id":76561198144187527,"connected_time":4335000000000,"state":"active","ping":117},{"user_id":259,"name":"Pyro Lover 69","steam_id":76561198294761033,"connected_time":2287000000000,"state":"active","ping":116},{"user_id":266,"name":"Boone","steam_id":76561198398931575,"connected_time":1684000000000,"state":"active","ping":56},{"user_id":285,"name":"r0biN","steam_id":76561198097861434,"connected_time":189000000000,"state":"active","ping":69},{"user_id":256,"name":"Buswolley","steam_id":76561197995205571,"connected_time":2692000000000,"state":"active","ping":57},{"user_id":281,"name":"Majestic-A","steam_id":76561198988062101,"connected_time":685000000000,"state":"active","ping":62},{"user_id":230,"name":"Lotus Cookie","steam_id":76561199482553414,"connected_time":4195000000000,"state":"active","ping":69},{"user_id":231,"name":"NicolaChiara","steam_id":76561198227287880,"connected_time":4192000000000,"state":"active","ping":64},{"user_id":257,"name":"Garfelf","steam_id":76561198419850129,"connected_time":2671000000000,"state":"active","ping":77},{"user_id":277,"name":"Abaddon","steam_id":76561198030992243,"connected_time":827000000000,"state":"active","ping":114},{"user_id":254,"name":"TTV/ChadMorningWood","steam_id":76561198139832291,"connected_time":2813000000000,"state":"active","ping":49},{"user_id":286,"name":"Tocha","steam_id":76561198119725400,"connected_time":55000000000,"state":"active","ping":104},{"user_id":264,"name":"CadenLCheese","steam_id":76561199105517435,"connected_time":1839000000000,"state":"active","ping":88},{"user_id":278,"name":"Mifune","steam_id":76561198838596371,"connected_time":825000000000,"state":"active","ping":95},{"user_id":280,"name":"Major Depression","steam_id":76561198018103878,"connected_time":714000000000,"state":"active","ping":117},{"user_id":283,"name":"edgar","steam_id":76561198087200115,"connected_time":612000000000,"state":"active","ping":70}]},{"server_id":25,"name":"Uncletopia | Los Angeles | 4 | Stopwatch Beta","name_short":"lax-4","host":"lax-1.us.uncletopia.com","port":27045,"enabled":true,"region":"us-west","cc":"us","latitude":33.94279,"longitude":-118.41004,"reserved":0,"last_update":"0001-01-01T00:00:00Z","name_a2s":"Uncletopia | Los Angeles | 4 | Stopwatch Beta","protocol":17,"map":"koth_lakeside_final","folder":"tf","game":"Team Fortress","app_id":440,"player_count":0,"max_players":24,"Bots":0,"server_type":"Dedicated","server_os":"Linux","password":true,"vac":true,"version":"7882260","steam_id":85568392924510199,"keywords":["cp","nocrits","nodmgspread","uncletopia"],"game_id":440,"stv_port":27046,"stv_name":"Uncletopia | Los Angeles | 4 | Stopwatch Beta | STV","players":null},{"server_id":11,"name":"Uncletopia | London | 1 | All Maps","name_short":"lon-1","host":"lon-1.uk.uncletopia.com","port":27015,"enabled":true,"region":"eu","cc":"gb","latitude":51.509865,"longitude":-0.118092,"reserved":0,"last_update":"0001-01-01T00:00:00Z","name_a2s":"Uncletopia | London | 1 | All Maps","protocol":17,"map":"pl_pier","folder":"tf","game":"Team Fortress","app_id":440,"player_count":24,"max_players":24,"Bots":0,"server_type":"Dedicated","server_os":"Linux","password":true,"vac":true,"version":"7882260","steam_id":85568392924367362,"keywords":["nocrits","nodmgspread","payload","uncletopia"],"game_id":440,"stv_port":27016,"stv_name":"Uncletopia | London | 1 | All Maps | STV","players":[{"user_id":690,"name":"okzq","steam_id":76561199105796083,"connected_time":6701000000000,"state":"active","ping":81},{"user_id":750,"name":"Anri Okita's Massive Milkers","steam_id":76561199186352720,"connected_time":1586000000000,"state":"active","ping":46},{"user_id":760,"name":"Alienketchup","steam_id":76561197970585162,"connected_time":532000000000,"state":"active","ping":77},{"user_id":743,"name":"Medic","steam_id":76561198148359093,"connected_time":2739000000000,"state":"active","ping":39},{"user_id":707,"name":"BuzzBees ❤","steam_id":76561198101502273,"connected_time":5321000000000,"state":"active","ping":53},{"user_id":729,"name":"The Lady","steam_id":76561198029895809,"connected_time":3324000000000,"state":"active","ping":86},{"user_id":763,"name":"something","steam_id":76561198198581615,"connected_time":316000000000,"state":"active","ping":58},{"user_id":768,"name":"spaghettisaucerer","steam_id":76561198145133200,"connected_time":146000000000,"state":"active","ping":58},{"user_id":744,"name":"Aroo","steam_id":76561198132601368,"connected_time":2687000000000,"state":"active","ping":76},{"user_id":719,"name":"puck","steam_id":76561198121260981,"connected_time":3848000000000,"state":"active","ping":42},{"user_id":700,"name":"Cabbch","steam_id":76561198045955679,"connected_time":6105000000000,"state":"active","ping":59},{"user_id":764,"name":"MrBreast (REAL)","steam_id":76561197989524651,"connected_time":308000000000,"state":"active","ping":59},{"user_id":755,"name":"hi :o","steam_id":76561198049312442,"connected_time":1315000000000,"state":"active","ping":51},{"user_id":757,"name":"whimsy.","steam_id":76561198878171763,"connected_time":1121000000000,"state":"active","ping":50},{"user_id":704,"name":"KittyKate ❤","steam_id":76561198116340817,"connected_time":5476000000000,"state":"active","ping":62},{"user_id":761,"name":"Udinese Dion","steam_id":76561198067931573,"connected_time":476000000000,"state":"active","ping":61},{"user_id":758,"name":"♥ImWithMilk","steam_id":76561198269577569,"connected_time":793000000000,"state":"active","ping":52},{"user_id":769,"name":"Thors","steam_id":76561197968739075,"connected_time":53000000000,"state":"active","ping":44},{"user_id":727,"name":"Gubbly Bubbins","steam_id":76561198101451654,"connected_time":3438000000000,"state":"active","ping":46},{"user_id":746,"name":"goff","steam_id":76561198118989010,"connected_time":2396000000000,"state":"active","ping":52},{"user_id":738,"name":"Joy","steam_id":76561198155314925,"connected_time":2960000000000,"state":"active","ping":58},{"user_id":748,"name":"KPhii","steam_id":76561198970587061,"connected_time":1691000000000,"state":"active","ping":65},{"user_id":762,"name":"Milk","steam_id":76561198125876588,"connected_time":463000000000,"state":"active","ping":46},{"user_id":767,"name":"wG Domo","steam_id":76561198056790920,"connected_time":236000000000,"state":"active","ping":57}]},{"server_id":114,"name":"Uncletopia | London | 2 | All Maps","name_short":"lon-2","host":"lon-1.uk.uncletopia.com","port":27025,"enabled":true,"region":"eu","cc":"gb","latitude":51.509865,"longitude":-0.118092,"reserved":0,"last_update":"0001-01-01T00:00:00Z","name_a2s":"Uncletopia | London | 2 | All Maps","protocol":17,"map":"ctf_2fort","folder":"tf","game":"Team Fortress","app_id":440,"player_count":21,"max_players":24,"Bots":0,"server_type":"Dedicated","server_os":"Linux","password":true,"vac":true,"version":"7882260","steam_id":85568392924470941,"keywords":["ctf","nocrits","nodmgspread","uncletopia"],"game_id":440,"stv_port":27026,"stv_name":"Uncletopia | London | 2 | All Maps | STV","players":[{"user_id":125,"name":"UnusedEngine","steam_id":76561199281868902,"connected_time":12343000000000,"state":"active","ping":52},{"user_id":297,"name":"Fizik","steam_id":76561198065548086,"connected_time":3060000000000,"state":"active","ping":59},{"user_id":299,"name":"ldshwt","steam_id":76561198090364357,"connected_time":2952000000000,"state":"active","ping":59},{"user_id":211,"name":"Weebot00","steam_id":76561199479204459,"connected_time":6662000000000,"state":"active","ping":60},{"user_id":329,"name":"First Class Gamer","steam_id":76561198871136698,"connected_time":47000000000,"state":"active","ping":38},{"user_id":298,"name":"Flying skyhigh","steam_id":76561198372971096,"connected_time":3054000000000,"state":"active","ping":65},{"user_id":176,"name":"Chief Executive Officer of Sex","steam_id":76561198385989487,"connected_time":8172000000000,"state":"active","ping":97},{"user_id":209,"name":"Gregory","steam_id":76561198970302963,"connected_time":6854000000000,"state":"active","ping":74},{"user_id":322,"name":"Miedzan","steam_id":76561198405250516,"connected_time":413000000000,"state":"active","ping":90},{"user_id":36,"name":"Gravy","steam_id":76561198029548074,"connected_time":18248000000000,"state":"active","ping":60},{"user_id":326,"name":"Scrabbel Egg","steam_id":76561198064357933,"connected_time":290000000000,"state":"active","ping":46},{"user_id":327,"name":"Zarden","steam_id":76561198080638451,"connected_time":240000000000,"state":"active","ping":54},{"user_id":304,"name":"Suspicious Viktor","steam_id":76561198136496249,"connected_time":2319000000000,"state":"active","ping":70},{"user_id":328,"name":"Jørn","steam_id":76561199073257952,"connected_time":222000000000,"state":"active","ping":63},{"user_id":215,"name":"Syd","steam_id":76561198020515027,"connected_time":6377000000000,"state":"active","ping":83},{"user_id":300,"name":"Sylvanas","steam_id":76561198154904165,"connected_time":2937000000000,"state":"active","ping":102},{"user_id":330,"name":"The destroyer of foreskin","steam_id":76561198135275966,"connected_time":0,"state":"spawning","ping":0},{"user_id":323,"name":"Sofuskaka","steam_id":76561198079340749,"connected_time":385000000000,"state":"active","ping":61},{"user_id":234,"name":"HerrMyrddin","steam_id":76561198045778215,"connected_time":4628000000000,"state":"active","ping":67},{"user_id":288,"name":"the honey monster","steam_id":76561198012351808,"connected_time":3460000000000,"state":"active","ping":40},{"user_id":225,"name":"Meddler","steam_id":76561198033001402,"connected_time":5312000000000,"state":"active","ping":47}]},{"server_id":320,"name":"Uncletopia | London | 3 | All Maps","name_short":"lon-3","host":"lon-1.uk.uncletopia.com","port":27035,"enabled":true,"region":"eu","cc":"gb","latitude":51.509865,"longitude":-0.118092,"reserved":0,"last_update":"0001-01-01T00:00:00Z","name_a2s":"Uncletopia | London | 3 | All Maps","protocol":17,"map":"pl_goldrush","folder":"tf","game":"Team Fortress","app_id":440,"player_count":18,"max_players":24,"Bots":0,"server_type":"Dedicated","server_os":"Linux","password":true,"vac":true,"version":"7882260","steam_id":85568392924510192,"keywords":["nocrits","nodmgspread","payload","uncletopia"],"game_id":440,"stv_port":27036,"stv_name":"Uncletopia | London | 3 | All Maps | STV","players":[{"user_id":672,"name":"Sande","steam_id":76561198275239290,"connected_time":2939000000000,"state":"active","ping":85},{"user_id":713,"name":"jake!","steam_id":76561198100181258,"connected_time":541000000000,"state":"active","ping":60},{"user_id":727,"name":"Tea Follet","steam_id":76561198852408734,"connected_time":93000000000,"state":"spawning","ping":113},{"user_id":716,"name":"Ecy","steam_id":76561198110756682,"connected_time":392000000000,"state":"active","ping":57},{"user_id":692,"name":"TheBeardedM1G","steam_id":76561198040208946,"connected_time":1721000000000,"state":"active","ping":45},{"user_id":633,"name":"Lyncurion","steam_id":76561199260022725,"connected_time":5132000000000,"state":"active","ping":83},{"user_id":708,"name":"Juiceydough","steam_id":76561197997323419,"connected_time":622000000000,"state":"active","ping":88},{"user_id":718,"name":"ABbott_","steam_id":76561198030528873,"connected_time":295000000000,"state":"active","ping":55},{"user_id":698,"name":"BomberNote","steam_id":76561198085392317,"connected_time":1327000000000,"state":"active","ping":81},{"user_id":724,"name":"Voks_","steam_id":76561198159687785,"connected_time":186000000000,"state":"active","ping":78},{"user_id":721,"name":"juicy","steam_id":76561198127264835,"connected_time":224000000000,"state":"active","ping":48},{"user_id":695,"name":"Rolloden","steam_id":76561198069414404,"connected_time":1438000000000,"state":"active","ping":67},{"user_id":728,"name":"powej","steam_id":76561198056381418,"connected_time":84000000000,"state":"active","ping":30},{"user_id":651,"name":"TPC","steam_id":76561198127380768,"connected_time":4197000000000,"state":"active","ping":102},{"user_id":664,"name":"dogs_drink_water","steam_id":76561198296630670,"connected_time":3177000000000,"state":"active","ping":65},{"user_id":725,"name":"Maybe_Stunner","steam_id":76561199085822219,"connected_time":155000000000,"state":"active","ping":84},{"user_id":689,"name":"Snake-chan","steam_id":76561199044755854,"connected_time":2121000000000,"state":"active","ping":84},{"user_id":697,"name":"GuSkand","steam_id":76561198043775605,"connected_time":1419000000000,"state":"active","ping":86}]},{"server_id":321,"name":"Uncletopia | London | 4 | All Maps","name_short":"lon-4","host":"lon-1.uk.uncletopia.com","port":27045,"enabled":true,"region":"eu","cc":"gb","latitude":51.509865,"longitude":-0.118092,"reserved":0,"last_update":"0001-01-01T00:00:00Z","name_a2s":"Uncletopia | London | 4 | All Maps","protocol":17,"map":"ctf_well","folder":"tf","game":"Team Fortress","app_id":440,"player_count":13,"max_players":24,"Bots":0,"server_type":"Dedicated","server_os":"Linux","password":true,"vac":true,"version":"7882260","steam_id":85568392924510193,"keywords":["ctf","nocrits","nodmgspread","uncletopia"],"game_id":440,"stv_port":27046,"stv_name":"Uncletopia | London | 4 | All Maps | STV","players":[{"user_id":551,"name":"OkamiSumo","steam_id":76561198271644152,"connected_time":8000000000,"state":"spawning","ping":81},{"user_id":531,"name":"Chicken pot pie","steam_id":76561198084997090,"connected_time":1841000000000,"state":"active","ping":42},{"user_id":485,"name":"Fu Manchu","steam_id":76561197995224539,"connected_time":4491000000000,"state":"active","ping":58},{"user_id":477,"name":"Orbit","steam_id":76561198242999878,"connected_time":4964000000000,"state":"active","ping":54},{"user_id":543,"name":"isaku","steam_id":76561198092648865,"connected_time":479000000000,"state":"active","ping":77},{"user_id":541,"name":"=flashpoint=","steam_id":76561197976774456,"connected_time":941000000000,"state":"active","ping":44},{"user_id":522,"name":"Thing","steam_id":76561197997904403,"connected_time":2659000000000,"state":"active","ping":87},{"user_id":547,"name":"big poo","steam_id":76561198129157178,"connected_time":408000000000,"state":"active","ping":81},{"user_id":513,"name":"Baton De Leon","steam_id":76561198353944785,"connected_time":3136000000000,"state":"active","ping":84},{"user_id":528,"name":"James","steam_id":76561198168882012,"connected_time":2097000000000,"state":"active","ping":43},{"user_id":467,"name":"biohazard.pt","steam_id":76561198088367808,"connected_time":5859000000000,"state":"active","ping":65},{"user_id":471,"name":"Pai Gregório","steam_id":76561197998349793,"connected_time":5593000000000,"state":"active","ping":60},{"user_id":494,"name":"kaelan","steam_id":76561198001425310,"connected_time":4414000000000,"state":"active","ping":74}]},{"server_id":21,"name":"Uncletopia | London | 5 | All Maps","name_short":"lon-5","host":"lon-1.uk.uncletopia.com","port":27055,"enabled":true,"region":"eu","cc":"gb","latitude":51.509865,"longitude":-0.118092,"reserved":0,"last_update":"0001-01-01T00:00:00Z","name_a2s":"Uncletopia | London | 5 | All Maps","protocol":17,"map":"ctf_2fort","folder":"tf","game":"Team Fortress","app_id":440,"player_count":6,"max_players":24,"Bots":0,"server_type":"Dedicated","server_os":"Linux","password":true,"vac":true,"version":"7882260","steam_id":85568392924742829,"keywords":["ctf","nocrits","nodmgspread","uncletopia"],"game_id":440,"stv_port":27056,"stv_name":"Uncletopia | London | 5 | All Maps | STV","players":[{"user_id":93,"name":"Cezarion","steam_id":76561198392507893,"connected_time":2527000000000,"state":"active","ping":78},{"user_id":91,"name":"unforeseen consequences","steam_id":76561198377702281,"connected_time":3808000000000,"state":"active","ping":49},{"user_id":92,"name":"Raine","steam_id":76561198098860903,"connected_time":3079000000000,"state":"active","ping":58},{"user_id":83,"name":"Spectre","steam_id":76561198163819482,"connected_time":4345000000000,"state":"active","ping":61},{"user_id":87,"name":"Banatical Bean","steam_id":76561198122356617,"connected_time":4235000000000,"state":"active","ping":58},{"user_id":88,"name":"mi cara cuando","steam_id":76561199387584010,"connected_time":4204000000000,"state":"active","ping":83}]},{"server_id":22,"name":"Uncletopia | London | 6 | All Maps","name_short":"lon-6","host":"lon-1.uk.uncletopia.com","port":27065,"enabled":true,"region":"eu","cc":"gb","latitude":51.509865,"longitude":-0.118092,"reserved":0,"last_update":"0001-01-01T00:00:00Z","name_a2s":"Uncletopia | London | 6 | All Maps","protocol":17,"map":"pl_swiftwater_final1","folder":"tf","game":"Team Fortress","app_id":440,"player_count":24,"max_players":24,"Bots":0,"server_type":"Dedicated","server_os":"Linux","password":true,"vac":true,"version":"7882260","steam_id":85568392924742830,"keywords":["nocrits","nodmgspread","payload","uncletopia"],"game_id":440,"stv_port":27066,"stv_name":"Uncletopia | London | 6 | All Maps | STV","players":[{"user_id":614,"name":"Jade_Gaming","steam_id":76561198148271880,"connected_time":113000000000,"state":"active","ping":56},{"user_id":613,"name":"Doggo225","steam_id":76561198166707002,"connected_time":150000000000,"state":"active","ping":39},{"user_id":610,"name":"Bacon Whisperer","steam_id":76561198342781924,"connected_time":543000000000,"state":"active","ping":97},{"user_id":568,"name":"Malte","steam_id":76561198326324739,"connected_time":2794000000000,"state":"active","ping":60},{"user_id":594,"name":"BingusDingus","steam_id":76561198310983903,"connected_time":1194000000000,"state":"active","ping":49},{"user_id":540,"name":"that fat croc from donkey kong","steam_id":76561198159172495,"connected_time":4670000000000,"state":"active","ping":82},{"user_id":599,"name":"JDB","steam_id":76561197965177298,"connected_time":957000000000,"state":"active","ping":41},{"user_id":611,"name":"Falxo","steam_id":76561198025717005,"connected_time":540000000000,"state":"active","ping":56},{"user_id":524,"name":"Lessoz","steam_id":76561199211572036,"connected_time":5345000000000,"state":"active","ping":89},{"user_id":590,"name":"Beri The Catthem","steam_id":76561198988363799,"connected_time":1432000000000,"state":"active","ping":60},{"user_id":615,"name":"oskar.collins2","steam_id":76561199092232637,"connected_time":102000000000,"state":"active","ping":76},{"user_id":603,"name":"FNAF_ENJOYER💜","steam_id":76561198854862770,"connected_time":868000000000,"state":"active","ping":116},{"user_id":616,"name":"After8","steam_id":76561198090750865,"connected_time":91000000000,"state":"active","ping":71},{"user_id":575,"name":"☁ Lou1smeister ☁","steam_id":76561198004032968,"connected_time":2458000000000,"state":"active","ping":67},{"user_id":596,"name":"Malai","steam_id":76561198062537014,"connected_time":1108000000000,"state":"active","ping":77},{"user_id":608,"name":"Dan86130","steam_id":76561199187190436,"connected_time":642000000000,"state":"active","ping":67},{"user_id":556,"name":"Uncle Owen","steam_id":76561198157999291,"connected_time":3903000000000,"state":"active","ping":81},{"user_id":598,"name":"Maldom","steam_id":76561198000687053,"connected_time":1044000000000,"state":"active","ping":59},{"user_id":601,"name":"Fernando","steam_id":76561198815899688,"connected_time":905000000000,"state":"active","ping":90},{"user_id":607,"name":"source radio","steam_id":76561197972287320,"connected_time":654000000000,"state":"active","ping":81},{"user_id":606,"name":"Talvy","steam_id":76561198009083535,"connected_time":728000000000,"state":"active","ping":83},{"user_id":588,"name":"Gun Spy","steam_id":76561198112689672,"connected_time":1504000000000,"state":"active","ping":38},{"user_id":537,"name":"Xiqui","steam_id":76561198818386611,"connected_time":5054000000000,"state":"active","ping":84},{"user_id":591,"name":"Roza The Catgirl","steam_id":76561198303232001,"connected_time":1341000000000,"state":"active","ping":59}]},{"server_id":40,"name":"Uncletopia | London | 7 | No Payload","name_short":"lon-7","host":"lon-1.uk.uncletopia.com","port":27075,"enabled":true,"region":"eu","cc":"gb","latitude":51.509865,"longitude":-0.118092,"reserved":0,"last_update":"0001-01-01T00:00:00Z","name_a2s":"Uncletopia | London | 7 | No Payload","protocol":17,"map":"koth_nucleus","folder":"tf","game":"Team Fortress","app_id":440,"player_count":0,"max_players":24,"Bots":0,"server_type":"Dedicated","server_os":"Linux","password":true,"vac":true,"version":"7882260","steam_id":85568392924964314,"keywords":["cp","nocrits","nodmgspread","uncletopia"],"game_id":440,"stv_port":27076,"stv_name":"Uncletopia | London | 7 | No Payload | STV","players":null},{"server_id":41,"name":"Uncletopia | London | 8 | Community","name_short":"lon-8","host":"lon-1.uk.uncletopia.com","port":27085,"enabled":true,"region":"eu","cc":"gb","latitude":51.509865,"longitude":-0.118092,"reserved":0,"last_update":"0001-01-01T00:00:00Z","name_a2s":"Uncletopia | London | 8 | Community","protocol":17,"map":"workshop/koth_slaughter_rc1.ugc1712845210","folder":"tf","game":"Team Fortress","app_id":440,"player_count":0,"max_players":24,"Bots":0,"server_type":"Dedicated","server_os":"Linux","password":true,"vac":true,"version":"7882260","steam_id":85568392924964315,"keywords":["cp","nocrits","nodmgspread","uncletopia"],"game_id":440,"stv_port":27086,"stv_name":"Uncletopia | London | 8 | Community | STV","players":null},{"server_id":300,"name":"Uncletopia | Montréal | 1 | All Maps","name_short":"mtl-1","host":"mtl-1.ca.uncletopia.com","port":27015,"enabled":true,"region":"us-east","cc":"ca","latitude":45.50889,"longitude":-73.56167,"reserved":0,"last_update":"0001-01-01T00:00:00Z","name_a2s":"Uncletopia | Montréal | 1 | All Maps","protocol":17,"map":"pl_frontier_final","folder":"tf","game":"Team Fortress","app_id":440,"player_count":0,"max_players":24,"Bots":0,"server_type":"Dedicated","server_os":"Linux","password":true,"vac":true,"version":"7882260","steam_id":85568392924500087,"keywords":["nocrits","nodmgspread","payload","uncletopia"],"game_id":440,"stv_port":27016,"stv_name":"Uncletopia | Montréal | 1 | All Maps | STV","players":null},{"server_id":301,"name":"Uncletopia | Montréal | 2 | All Maps","name_short":"mtl-2","host":"mtl-1.ca.uncletopia.com","port":27025,"enabled":true,"region":"us-east","cc":"ca","latitude":45.50889,"longitude":-73.56167,"reserved":0,"last_update":"0001-01-01T00:00:00Z","name_a2s":"Uncletopia | Montréal | 2 | All Maps","protocol":17,"map":"koth_cascade","folder":"tf","game":"Team Fortress","app_id":440,"player_count":0,"max_players":24,"Bots":0,"server_type":"Dedicated","server_os":"Linux","password":true,"vac":true,"version":"7882260","steam_id":85568392924500088,"keywords":["cp","nocrits","nodmgspread","uncletopia"],"game_id":440,"stv_port":27026,"stv_name":"Uncletopia | Montréal | 2 | All Maps | STV","players":null},{"server_id":302,"name":"Uncletopia | Montréal | 3 | All Maps","name_short":"mtl-3","host":"mtl-1.ca.uncletopia.com","port":27035,"enabled":true,"region":"us-east","cc":"ca","latitude":45.50889,"longitude":-73.56167,"reserved":0,"last_update":"0001-01-01T00:00:00Z","name_a2s":"Uncletopia | Montréal | 3 | All Maps","protocol":17,"map":"koth_harvest_final","folder":"tf","game":"Team Fortress","app_id":440,"player_count":0,"max_players":24,"Bots":0,"server_type":"Dedicated","server_os":"Linux","password":true,"vac":true,"version":"7882260","steam_id":85568392924500089,"keywords":["cp","nocrits","nodmgspread","uncletopia"],"game_id":440,"stv_port":27036,"stv_name":"Uncletopia | Montréal | 3 | All Maps | STV","players":null},{"server_id":303,"name":"Uncletopia | Montréal | 4 | No Payload","name_short":"mtl-4","host":"mtl-1.ca.uncletopia.com","port":27045,"enabled":true,"region":"us-east","cc":"ca","latitude":45.50889,"longitude":-73.56167,"reserved":0,"last_update":"0001-01-01T00:00:00Z","name_a2s":"Uncletopia | Montréal | 4 | No Payload","protocol":17,"map":"koth_highpass","folder":"tf","game":"Team Fortress","app_id":440,"player_count":0,"max_players":24,"Bots":0,"server_type":"Dedicated","server_os":"Linux","password":true,"vac":true,"version":"7882260","steam_id":85568392924500090,"keywords":["cp","nocrits","nodmgspread","uncletopia"],"game_id":440,"stv_port":27046,"stv_name":"Uncletopia | Montréal | 4 | No Payload | STV","players":null},{"server_id":13,"name":"Uncletopia | New York City | 1 | All Maps","name_short":"nyc-1","host":"nyc-1.us.uncletopia.com","port":27015,"enabled":true,"region":"us-east","cc":"us","latitude":40.73061,"longitude":-73.93524,"reserved":0,"last_update":"0001-01-01T00:00:00Z","name_a2s":"Uncletopia | New York City | 1 | All Maps","protocol":17,"map":"pl_badwater","folder":"tf","game":"Team Fortress","app_id":440,"player_count":24,"max_players":24,"Bots":0,"server_type":"Dedicated","server_os":"Linux","password":true,"vac":true,"version":"7882260","steam_id":85568392924469993,"keywords":["nocrits","nodmgspread","payload","uncletopia"],"game_id":440,"stv_port":27016,"stv_name":"Uncletopia | New York City | 1 | All Maps | STV","players":[{"user_id":436,"name":"Thedarkdot","steam_id":76561199200787877,"connected_time":803000000000,"state":"active","ping":52},{"user_id":373,"name":"Combine Carl #farmville","steam_id":76561198305740611,"connected_time":5873000000000,"state":"active","ping":92},{"user_id":406,"name":"Timon's high on crack cocaine!","steam_id":76561198180396430,"connected_time":2747000000000,"state":"active","ping":53},{"user_id":446,"name":"Atlas (Skylar)","steam_id":76561198041531774,"connected_time":353000000000,"state":"active","ping":66},{"user_id":427,"name":"Hoenut","steam_id":76561198079676597,"connected_time":1670000000000,"state":"active","ping":90},{"user_id":421,"name":"tydogzilla","steam_id":76561198054254518,"connected_time":2075000000000,"state":"active","ping":44},{"user_id":407,"name":"meat glasses","steam_id":76561198046742645,"connected_time":2743000000000,"state":"active","ping":60},{"user_id":410,"name":"Provocator","steam_id":76561197961830410,"connected_time":2705000000000,"state":"active","ping":98},{"user_id":393,"name":"mayo","steam_id":76561198964101426,"connected_time":4738000000000,"state":"active","ping":38},{"user_id":445,"name":"Menacing Pile of Frogs","steam_id":76561198360134800,"connected_time":441000000000,"state":"active","ping":54},{"user_id":377,"name":"Syrix","steam_id":76561198017328672,"connected_time":5579000000000,"state":"active","ping":97},{"user_id":432,"name":"drewskidoo","steam_id":76561198012117488,"connected_time":1475000000000,"state":"active","ping":48},{"user_id":435,"name":"Diet Cum Guzzler","steam_id":76561198124333199,"connected_time":1128000000000,"state":"active","ping":122},{"user_id":444,"name":"StupidMemes","steam_id":76561198253547727,"connected_time":455000000000,"state":"active","ping":60},{"user_id":442,"name":"agert","steam_id":76561199028751406,"connected_time":603000000000,"state":"active","ping":88},{"user_id":370,"name":"Sensitive Shooter","steam_id":76561198041439581,"connected_time":5991000000000,"state":"active","ping":59},{"user_id":423,"name":"twitch.tv/frimpimy","steam_id":76561198142605675,"connected_time":1875000000000,"state":"active","ping":73},{"user_id":448,"name":"you forgot the sauce","steam_id":76561198387016713,"connected_time":109000000000,"state":"active","ping":61},{"user_id":441,"name":"eepy.....","steam_id":76561198218897541,"connected_time":629000000000,"state":"active","ping":50},{"user_id":447,"name":"FattSucc","steam_id":76561198009500503,"connected_time":230000000000,"state":"active","ping":95},{"user_id":426,"name":"Moss","steam_id":76561198338718491,"connected_time":1781000000000,"state":"active","ping":62},{"user_id":412,"name":"concrete_car","steam_id":76561198388207363,"connected_time":2677000000000,"state":"active","ping":69},{"user_id":415,"name":"emseaeye","steam_id":76561198161499803,"connected_time":2261000000000,"state":"active","ping":56},{"user_id":380,"name":"glue sniffer","steam_id":76561198044689778,"connected_time":5312000000000,"state":"active","ping":46}]},{"server_id":14,"name":"Uncletopia | New York City | 2 | All Maps","name_short":"nyc-2","host":"nyc-1.us.uncletopia.com","port":27025,"enabled":true,"region":"us-east","cc":"us","latitude":40.73061,"longitude":-73.93524,"reserved":0,"last_update":"0001-01-01T00:00:00Z","name_a2s":"Uncletopia | New York City | 2 | All Maps","protocol":17,"map":"cp_sunshine","folder":"tf","game":"Team Fortress","app_id":440,"player_count":24,"max_players":24,"Bots":0,"server_type":"Dedicated","server_os":"Linux","password":true,"vac":true,"version":"7882260","steam_id":85568392924469994,"keywords":["cp","nocrits","nodmgspread","uncletopia"],"game_id":440,"stv_port":27026,"stv_name":"Uncletopia | New York City | 2 | All Maps | STV","players":[{"user_id":320,"name":"[GUT] RiDiK®","steam_id":76561197969756446,"connected_time":3258000000000,"state":"active","ping":72},{"user_id":363,"name":"Koala Bear","steam_id":76561198118025990,"connected_time":418000000000,"state":"active","ping":85},{"user_id":340,"name":"a literal slave","steam_id":76561199389283507,"connected_time":1275000000000,"state":"active","ping":64},{"user_id":344,"name":"Bymo","steam_id":76561199037626505,"connected_time":917000000000,"state":"active","ping":55},{"user_id":332,"name":"Red Future","steam_id":76561198205420063,"connected_time":1865000000000,"state":"active","ping":81},{"user_id":348,"name":"Person","steam_id":76561198093244204,"connected_time":738000000000,"state":"active","ping":64},{"user_id":358,"name":"Chaotic Rushu","steam_id":76561198170054407,"connected_time":556000000000,"state":"active","ping":68},{"user_id":366,"name":"The Nikocado Enjoyer","steam_id":76561198263154374,"connected_time":3000000000,"state":"spawning","ping":56},{"user_id":352,"name":"SoulRift27","steam_id":76561198036327396,"connected_time":702000000000,"state":"active","ping":76},{"user_id":331,"name":"shploopie","steam_id":76561198264289810,"connected_time":1876000000000,"state":"active","ping":55},{"user_id":354,"name":"Dreysidel","steam_id":76561198056496183,"connected_time":676000000000,"state":"active","ping":57},{"user_id":357,"name":"LazyKoala99","steam_id":76561199183623672,"connected_time":593000000000,"state":"active","ping":141},{"user_id":364,"name":"0","steam_id":76561198046055673,"connected_time":372000000000,"state":"active","ping":60},{"user_id":285,"name":"Chechens Spotted","steam_id":76561199028910893,"connected_time":4669000000000,"state":"active","ping":64},{"user_id":341,"name":"Ja","steam_id":76561198396340174,"connected_time":1232000000000,"state":"active","ping":62},{"user_id":334,"name":"Two-Teste Tommy","steam_id":76561198064308936,"connected_time":1821000000000,"state":"active","ping":60},{"user_id":365,"name":"ppman","steam_id":76561198272574743,"connected_time":356000000000,"state":"active","ping":70},{"user_id":353,"name":"Mailer","steam_id":76561198062690074,"connected_time":701000000000,"state":"active","ping":130},{"user_id":351,"name":"rack","steam_id":76561198966980576,"connected_time":727000000000,"state":"active","ping":42},{"user_id":361,"name":"The Cool Man","steam_id":76561198096420556,"connected_time":512000000000,"state":"active","ping":103},{"user_id":342,"name":"Hope","steam_id":76561199201900779,"connected_time":1227000000000,"state":"active","ping":74},{"user_id":318,"name":"n_sacco","steam_id":76561198432818448,"connected_time":3453000000000,"state":"active","ping":75},{"user_id":316,"name":"Rori","steam_id":76561198052582902,"connected_time":3634000000000,"state":"active","ping":44},{"user_id":362,"name":"darkjustin54","steam_id":76561198060056280,"connected_time":509000000000,"state":"active","ping":66}]},{"server_id":15,"name":"Uncletopia | New York City | 3 | Stopwatch Beta","name_short":"nyc-3","host":"nyc-1.us.uncletopia.com","port":27035,"enabled":true,"region":"us-east","cc":"us","latitude":40.73061,"longitude":-73.93524,"reserved":0,"last_update":"0001-01-01T00:00:00Z","name_a2s":"Uncletopia | New York City | 3 | Stopwatch Beta","protocol":17,"map":"workshop/pl_badwater_pro_v12.ugc2142942074","folder":"tf","game":"Team Fortress","app_id":440,"player_count":0,"max_players":24,"Bots":0,"server_type":"Dedicated","server_os":"Linux","password":true,"vac":true,"version":"7882260","steam_id":85568392924742820,"keywords":["nocrits","nodmgspread","payload","uncletopia"],"game_id":440,"stv_port":27036,"stv_name":"Uncletopia | New York City | 3 | Stopwatch Beta | STV","players":null},{"server_id":16,"name":"Uncletopia | New York City | 4 | Community","name_short":"nyc-4","host":"nyc-1.us.uncletopia.com","port":27045,"enabled":true,"region":"us-east","cc":"us","latitude":40.73061,"longitude":-73.93524,"reserved":0,"last_update":"0001-01-01T00:00:00Z","name_a2s":"Uncletopia | New York City | 4 | Community","protocol":17,"map":"workshop/cp_snowbase_b18.ugc2081770490","folder":"tf","game":"Team Fortress","app_id":440,"player_count":0,"max_players":24,"Bots":0,"server_type":"Dedicated","server_os":"Linux","password":true,"vac":true,"version":"7882260","steam_id":85568392924742821,"keywords":["cp","nocrits","nodmgspread","uncletopia"],"game_id":440,"stv_port":27046,"stv_name":"Uncletopia | New York City | 4 | Community | STV","players":null},{"server_id":142,"name":"Uncletopia | São Paulo | 1 | All Maps","name_short":"sao-1","host":"sao-1.br.uncletopia.com","port":27015,"enabled":true,"region":"sa","cc":"br","latitude":-23.533773,"longitude":-46.62529,"reserved":0,"last_update":"0001-01-01T00:00:00Z","name_a2s":"Uncletopia | São Paulo | 1 | All Maps","protocol":17,"map":"koth_viaduct","folder":"tf","game":"Team Fortress","app_id":440,"player_count":0,"max_players":24,"Bots":0,"server_type":"Dedicated","server_os":"Linux","password":true,"vac":true,"version":"7882260","steam_id":85568392924469996,"keywords":["cp","nocrits","nodmgspread","uncletopia"],"game_id":440,"stv_port":27016,"stv_name":"Uncletopia | São Paulo | 1 | All Maps | STV","players":null},{"server_id":143,"name":"Uncletopia | São Paulo | 2 | All Maps","name_short":"sao-2","host":"sao-2.br.uncletopia.com","port":27015,"enabled":true,"region":"sa","cc":"br","latitude":-23.533773,"longitude":-46.62529,"reserved":0,"last_update":"0001-01-01T00:00:00Z","name_a2s":"Uncletopia | São Paulo | 2 | All Maps","protocol":17,"map":"pl_frontier_final","folder":"tf","game":"Team Fortress","app_id":440,"player_count":17,"max_players":24,"Bots":0,"server_type":"Dedicated","server_os":"Linux","password":true,"vac":true,"version":"7882260","steam_id":85568392924485349,"keywords":["nocrits","nodmgspread","payload","uncletopia"],"game_id":440,"stv_port":27016,"stv_name":"Uncletopia | São Paulo | 2 | All Maps | STV","players":[{"user_id":363,"name":"ayu","steam_id":76561197977365746,"connected_time":535000000000,"state":"active","ping":45},{"user_id":318,"name":"Theoddsguy29","steam_id":76561199091865854,"connected_time":2355000000000,"state":"active","ping":99},{"user_id":290,"name":"Biel_","steam_id":76561198409177443,"connected_time":4178000000000,"state":"active","ping":46},{"user_id":326,"name":"Pathetic","steam_id":76561198051056987,"connected_time":1902000000000,"state":"active","ping":60},{"user_id":330,"name":"ＥｎｄｅｒＮｅｃｒｏ","steam_id":76561198044304293,"connected_time":1552000000000,"state":"active","ping":32},{"user_id":358,"name":"nemo","steam_id":76561198083783451,"connected_time":721000000000,"state":"active","ping":60},{"user_id":333,"name":"Dark","steam_id":76561198329194526,"connected_time":1490000000000,"state":"active","ping":45},{"user_id":324,"name":"jao","steam_id":76561198408082822,"connected_time":1941000000000,"state":"active","ping":46},{"user_id":366,"name":"Rick Hydian","steam_id":76561198060909306,"connected_time":351000000000,"state":"active","ping":44},{"user_id":355,"name":"Gigi","steam_id":76561198348971878,"connected_time":786000000000,"state":"active","ping":53},{"user_id":273,"name":"SPYRYTTS","steam_id":76561197983312920,"connected_time":5180000000000,"state":"active","ping":45},{"user_id":364,"name":"isinho","steam_id":76561198836637592,"connected_time":456000000000,"state":"active","ping":46},{"user_id":305,"name":"Mikael_01","steam_id":76561199080253129,"connected_time":2969000000000,"state":"active","ping":57},{"user_id":338,"name":"-] K o Я n [-","steam_id":76561197978905832,"connected_time":1311000000000,"state":"active","ping":67},{"user_id":365,"name":"URSS","steam_id":76561198950413602,"connected_time":426000000000,"state":"active","ping":35},{"user_id":240,"name":"chuck testa","steam_id":76561199136985273,"connected_time":6362000000000,"state":"active","ping":116},{"user_id":342,"name":"ｅｍｐｔｙ ｌｕｎｇｓ","steam_id":76561197991428853,"connected_time":1179000000000,"state":"active","ping":37}]},{"server_id":7,"name":"Uncletopia | Seattle | 1 | All Maps","name_short":"sea-1","host":"sea-1.us.uncletopia.com","port":27015,"enabled":true,"region":"us-west","cc":"us","latitude":47.608013,"longitude":-122.33517,"reserved":0,"last_update":"0001-01-01T00:00:00Z","name_a2s":"Uncletopia | Seattle | 1 | All Maps","protocol":17,"map":"pl_swiftwater_final1","folder":"tf","game":"Team Fortress","app_id":440,"player_count":24,"max_players":24,"Bots":0,"server_type":"Dedicated","server_os":"Linux","password":true,"vac":true,"version":"7882260","steam_id":85568392924469997,"keywords":["nocrits","nodmgspread","payload","uncletopia"],"game_id":440,"stv_port":27016,"stv_name":"Uncletopia | Seattle | 1 | All Maps | STV","players":[{"user_id":242,"name":"Pneumo.","steam_id":76561197987911883,"connected_time":649000000000,"state":"active","ping":69},{"user_id":116,"name":"MisterManne","steam_id":76561198106598600,"connected_time":12808000000000,"state":"active","ping":56},{"user_id":206,"name":"Slothy","steam_id":76561198967069349,"connected_time":3589000000000,"state":"active","ping":57},{"user_id":234,"name":"Satori Komeiji","steam_id":76561198158211423,"connected_time":1634000000000,"state":"active","ping":74},{"user_id":227,"name":"Alltrex","steam_id":76561198202254225,"connected_time":2295000000000,"state":"active","ping":45},{"user_id":248,"name":"Dirt Mammal","steam_id":76561198040781653,"connected_time":198000000000,"state":"active","ping":53},{"user_id":180,"name":"exephur","steam_id":76561198135763234,"connected_time":5477000000000,"state":"active","ping":61},{"user_id":244,"name":"Cutcleaner","steam_id":76561199000925667,"connected_time":573000000000,"state":"active","ping":133},{"user_id":208,"name":"Fh","steam_id":76561198000903511,"connected_time":3528000000000,"state":"active","ping":72},{"user_id":239,"name":"bocaJ","steam_id":76561198374535092,"connected_time":1299000000000,"state":"active","ping":75},{"user_id":232,"name":"Henchie!","steam_id":76561198047567464,"connected_time":1788000000000,"state":"active","ping":96},{"user_id":182,"name":"Hindmost","steam_id":76561199081837220,"connected_time":5454000000000,"state":"active","ping":112},{"user_id":212,"name":"jon pickle water","steam_id":76561199036212135,"connected_time":3233000000000,"state":"active","ping":67},{"user_id":238,"name":"Peppy","steam_id":76561198866629645,"connected_time":1473000000000,"state":"active","ping":60},{"user_id":215,"name":"Raian","steam_id":76561199138048671,"connected_time":3204000000000,"state":"active","ping":68},{"user_id":243,"name":"Dr.Blunt","steam_id":76561198096333958,"connected_time":591000000000,"state":"active","ping":91},{"user_id":247,"name":"rad killl raccoon","steam_id":76561198980975595,"connected_time":318000000000,"state":"active","ping":62},{"user_id":249,"name":"Arsonist Goose","steam_id":76561198147441830,"connected_time":61000000000,"state":"active","ping":70},{"user_id":245,"name":"Space⭐Taffy","steam_id":76561198002271720,"connected_time":558000000000,"state":"active","ping":132},{"user_id":224,"name":"Themasterman75","steam_id":76561199385573293,"connected_time":2444000000000,"state":"active","ping":72},{"user_id":236,"name":"Smashy","steam_id":76561198030704307,"connected_time":1581000000000,"state":"active","ping":59},{"user_id":250,"name":"Clump","steam_id":76561198049690860,"connected_time":7000000000,"state":"spawning","ping":51},{"user_id":193,"name":"Frank West","steam_id":76561198388032598,"connected_time":5012000000000,"state":"active","ping":67},{"user_id":241,"name":"Integral","steam_id":76561198158225481,"connected_time":665000000000,"state":"active","ping":85}]},{"server_id":119,"name":"Uncletopia | Seattle | 2 | All Maps","name_short":"sea-2","host":"sea-1.us.uncletopia.com","port":27025,"enabled":true,"region":"us-west","cc":"us","latitude":47.608013,"longitude":-122.33517,"reserved":0,"last_update":"0001-01-01T00:00:00Z","name_a2s":"Uncletopia | Seattle | 2 | All Maps","protocol":17,"map":"cp_gorge","folder":"tf","game":"Team Fortress","app_id":440,"player_count":24,"max_players":24,"Bots":0,"server_type":"Dedicated","server_os":"Linux","password":true,"vac":true,"version":"7882260","steam_id":85568392924469998,"keywords":["cp","nocrits","nodmgspread","uncletopia"],"game_id":440,"stv_port":27026,"stv_name":"Uncletopia | Seattle | 2 | All Maps | STV","players":[{"user_id":118,"name":"reiidaya","steam_id":76561198325306660,"connected_time":3535000000000,"state":"active","ping":53},{"user_id":144,"name":"SnoDot","steam_id":76561198062209970,"connected_time":2031000000000,"state":"active","ping":35},{"user_id":174,"name":"the","steam_id":76561198003226288,"connected_time":308000000000,"state":"active","ping":119},{"user_id":162,"name":"MrYadaization","steam_id":76561198050770818,"connected_time":896000000000,"state":"active","ping":59},{"user_id":135,"name":"Heatseeker","steam_id":76561198084093538,"connected_time":2571000000000,"state":"active","ping":89},{"user_id":165,"name":"Lawyer","steam_id":76561197974126447,"connected_time":792000000000,"state":"active","ping":81},{"user_id":142,"name":"incompetentmedic","steam_id":76561199466073856,"connected_time":2333000000000,"state":"active","ping":118},{"user_id":145,"name":"Silver","steam_id":76561199120117013,"connected_time":1956000000000,"state":"active","ping":61},{"user_id":138,"name":"AudaCD","steam_id":76561198202775853,"connected_time":2491000000000,"state":"active","ping":79},{"user_id":127,"name":"Francis Cockrel 2016","steam_id":76561198078391538,"connected_time":3063000000000,"state":"active","ping":117},{"user_id":120,"name":"Jacob Hornberger 2016","steam_id":76561198204549723,"connected_time":3346000000000,"state":"active","ping":107},{"user_id":161,"name":"Mr Boombastic","steam_id":76561198004916219,"connected_time":916000000000,"state":"active","ping":87},{"user_id":171,"name":"Kbity","steam_id":76561198117708658,"connected_time":636000000000,"state":"active","ping":70},{"user_id":158,"name":"Big Juicy","steam_id":76561198018062350,"connected_time":1341000000000,"state":"active","ping":65},{"user_id":146,"name":"dweaver","steam_id":76561198119610135,"connected_time":1947000000000,"state":"active","ping":89},{"user_id":175,"name":"SCUD missile up your ass","steam_id":76561198066452726,"connected_time":302000000000,"state":"active","ping":75},{"user_id":163,"name":"Qwal0x","steam_id":76561198298324396,"connected_time":894000000000,"state":"active","ping":71},{"user_id":159,"name":"Silexos","steam_id":76561198267639877,"connected_time":1314000000000,"state":"active","ping":70},{"user_id":170,"name":"Owner of Serial Experiments Lai","steam_id":76561198160513092,"connected_time":697000000000,"state":"active","ping":154},{"user_id":176,"name":"Ockulus","steam_id":76561199069638460,"connected_time":83000000000,"state":"active","ping":79},{"user_id":173,"name":"Hector Salamanca","steam_id":76561199103213955,"connected_time":496000000000,"state":"active","ping":98},{"user_id":153,"name":"sillyjack","steam_id":76561198844273999,"connected_time":1687000000000,"state":"active","ping":46},{"user_id":154,"name":"Nac-Nud","steam_id":76561198804758365,"connected_time":1668000000000,"state":"active","ping":147},{"user_id":164,"name":"Sudsen","steam_id":76561198370603787,"connected_time":866000000000,"state":"active","ping":68}]},{"server_id":406,"name":"Uncletopia | Seattle | 3 | Stopwatch Beta","name_short":"sea-3","host":"sea-1.us.uncletopia.com","port":27035,"enabled":true,"region":"us-west","cc":"us","latitude":47.608013,"longitude":-122.33517,"reserved":0,"last_update":"0001-01-01T00:00:00Z","name_a2s":"Uncletopia | Seattle | 3 | Stopwatch Beta","protocol":17,"map":"koth_viaduct","folder":"tf","game":"Team Fortress","app_id":440,"player_count":0,"max_players":24,"Bots":0,"server_type":"Dedicated","server_os":"Linux","password":true,"vac":true,"version":"7882260","steam_id":85568392924515217,"keywords":["cp","nocrits","nodmgspread","uncletopia"],"game_id":440,"stv_port":27036,"stv_name":"Uncletopia | Seattle | 3 | Stopwatch Beta | STV","players":null},{"server_id":17,"name":"Uncletopia | San Francisco | 1 | All Maps","name_short":"sfo-1","host":"sfo-1.us.uncletopia.com","port":27015,"enabled":true,"region":"us-west","cc":"us","latitude":37.77397,"longitude":-122.4313,"reserved":0,"last_update":"0001-01-01T00:00:00Z","name_a2s":"Uncletopia | San Francisco | 1 | All Maps","protocol":17,"map":"koth_viaduct","folder":"tf","game":"Team Fortress","app_id":440,"player_count":0,"max_players":24,"Bots":0,"server_type":"Dedicated","server_os":"Linux","password":true,"vac":true,"version":"7882260","steam_id":85568392924469999,"keywords":["cp","nocrits","nodmgspread","uncletopia"],"game_id":440,"stv_port":27016,"stv_name":"Uncletopia | San Francisco | 1 | All Maps | STV","players":null},{"server_id":18,"name":"Uncletopia | San Francisco | 2 | All Maps","name_short":"sfo-2","host":"sfo-1.us.uncletopia.com","port":27025,"enabled":true,"region":"us-west","cc":"us","latitude":37.77397,"longitude":-122.4313,"reserved":0,"last_update":"0001-01-01T00:00:00Z","name_a2s":"Uncletopia | San Francisco | 2 | All Maps","protocol":17,"map":"pl_hoodoo_final","folder":"tf","game":"Team Fortress","app_id":440,"player_count":24,"max_players":24,"Bots":0,"server_type":"Dedicated","server_os":"Linux","password":true,"vac":true,"version":"7882260","steam_id":85568392924470000,"keywords":["nocrits","nodmgspread","payload","uncletopia"],"game_id":440,"stv_port":27026,"stv_name":"Uncletopia | San Francisco | 2 | All Maps | STV","players":[{"user_id":538,"name":"moopmop","steam_id":76561198065224965,"connected_time":369000000000,"state":"active","ping":45},{"user_id":485,"name":"ThatGamingKiwi","steam_id":76561199170522237,"connected_time":4182000000000,"state":"active","ping":127},{"user_id":513,"name":"bonnie the bunny","steam_id":76561199078721319,"connected_time":1439000000000,"state":"active","ping":85},{"user_id":541,"name":"reymundo","steam_id":76561197989412830,"connected_time":108000000000,"state":"active","ping":70},{"user_id":531,"name":"Jomdac","steam_id":76561198150447896,"connected_time":733000000000,"state":"active","ping":54},{"user_id":524,"name":"Scorpion","steam_id":76561198325651066,"connected_time":1124000000000,"state":"active","ping":69},{"user_id":470,"name":"cozy","steam_id":76561199044037628,"connected_time":4941000000000,"state":"active","ping":141},{"user_id":532,"name":"hex","steam_id":76561198099439655,"connected_time":678000000000,"state":"active","ping":129},{"user_id":509,"name":"Team Fortress 2","steam_id":76561198335865111,"connected_time":1544000000000,"state":"active","ping":65},{"user_id":528,"name":"Nuck Chorris","steam_id":76561197962588421,"connected_time":859000000000,"state":"active","ping":58},{"user_id":511,"name":"Seshreb","steam_id":76561198846614634,"connected_time":1516000000000,"state":"active","ping":71},{"user_id":512,"name":"cookypuss","steam_id":76561197961275239,"connected_time":1475000000000,"state":"active","ping":65},{"user_id":446,"name":"(Past Tense)","steam_id":76561197996279335,"connected_time":6111000000000,"state":"active","ping":105},{"user_id":540,"name":"bcizzo","steam_id":76561197994399953,"connected_time":135000000000,"state":"active","ping":55},{"user_id":529,"name":"NotSharky","steam_id":76561198078910436,"connected_time":840000000000,"state":"active","ping":55},{"user_id":533,"name":"Triforce141","steam_id":76561198063896776,"connected_time":660000000000,"state":"active","ping":75},{"user_id":516,"name":"Drakon","steam_id":76561198078210822,"connected_time":1376000000000,"state":"active","ping":74},{"user_id":534,"name":"SAD MOSCOVIA","steam_id":76561198101081520,"connected_time":621000000000,"state":"active","ping":82},{"user_id":517,"name":"Jovo","steam_id":76561197993265970,"connected_time":1371000000000,"state":"active","ping":60},{"user_id":542,"name":"iamoctopii","steam_id":76561198876901076,"connected_time":97000000000,"state":"active","ping":166},{"user_id":525,"name":"Irase","steam_id":76561198065354440,"connected_time":921000000000,"state":"active","ping":66},{"user_id":537,"name":"DuhDaddyD","steam_id":76561198950033870,"connected_time":455000000000,"state":"active","ping":83},{"user_id":486,"name":"PinguEnjoyer6","steam_id":76561199186723516,"connected_time":4091000000000,"state":"active","ping":47},{"user_id":453,"name":"helen keller","steam_id":76561197979870540,"connected_time":5966000000000,"state":"active","ping":105}]},{"server_id":19,"name":"Uncletopia | San Francisco | 3 | Stopwatch Beta","name_short":"sfo-3","host":"sfo-1.us.uncletopia.com","port":27035,"enabled":true,"region":"us-west","cc":"us","latitude":37.77397,"longitude":-122.4313,"reserved":0,"last_update":"0001-01-01T00:00:00Z","name_a2s":"Uncletopia | San Francisco | 3 | Stopwatch Beta","protocol":17,"map":"pl_snowycoast","folder":"tf","game":"Team Fortress","app_id":440,"player_count":0,"max_players":24,"Bots":0,"server_type":"Dedicated","server_os":"Linux","password":true,"vac":true,"version":"7882260","steam_id":85568392924742824,"keywords":["nocrits","nodmgspread","payload","uncletopia"],"game_id":440,"stv_port":27036,"stv_name":"Uncletopia | San Francisco | 3 | Stopwatch Beta | STV","players":null},{"server_id":20,"name":"Uncletopia | San Francisco | 4 | Community","name_short":"sfo-4","host":"sfo-1.us.uncletopia.com","port":27045,"enabled":true,"region":"us-west","cc":"us","latitude":37.77397,"longitude":-122.4313,"reserved":0,"last_update":"0001-01-01T00:00:00Z","name_a2s":"Uncletopia | San Francisco | 4 | Community","protocol":17,"map":"workshop/cp_glacier_rc6.ugc2905735376","folder":"tf","game":"Team Fortress","app_id":440,"player_count":0,"max_players":24,"Bots":0,"server_type":"Dedicated","server_os":"Linux","password":true,"vac":true,"version":"7882260","steam_id":85568392924742826,"keywords":["cp","nocrits","nodmgspread","uncletopia"],"game_id":440,"stv_port":27046,"stv_name":"Uncletopia | San Francisco | 4 | Community | STV","players":null},{"server_id":141,"name":"Uncletopia | Sydney | 1 | All Maps","name_short":"syd-1","host":"syd-1.au.uncletopia.com","port":27015,"enabled":true,"region":"au","cc":"au","latitude":-33.865143,"longitude":151.2099,"reserved":0,"last_update":"0001-01-01T00:00:00Z","name_a2s":"Uncletopia | Sydney | 1 | All Maps","protocol":17,"map":"cp_sunshine","folder":"tf","game":"Team Fortress","app_id":440,"player_count":0,"max_players":24,"Bots":0,"server_type":"Dedicated","server_os":"Linux","password":true,"vac":true,"version":"7882260","steam_id":85568392924470001,"keywords":["cp","nocrits","nodmgspread","uncletopia"],"game_id":440,"stv_port":27016,"stv_name":"Uncletopia | Sydney | 1 | All Maps | STV","players":null},{"server_id":123,"name":"Uncletopia | Sydney | 2 | All Maps","name_short":"syd-2","host":"syd-1.au.uncletopia.com","port":27025,"enabled":true,"region":"au","cc":"au","latitude":-33.865143,"longitude":151.2099,"reserved":0,"last_update":"0001-01-01T00:00:00Z","name_a2s":"Uncletopia | Sydney | 2 | All Maps","protocol":17,"map":"pl_upward","folder":"tf","game":"Team Fortress","app_id":440,"player_count":0,"max_players":24,"Bots":0,"server_type":"Dedicated","server_os":"Linux","password":true,"vac":true,"version":"7882260","steam_id":85568392924470002,"keywords":["nocrits","nodmgspread","payload","uncletopia"],"game_id":440,"stv_port":27026,"stv_name":"Uncletopia | Sydney | 2 | All Maps | STV","players":null},{"server_id":395,"name":"Uncletopia | Sydney | 3 | All Maps","name_short":"syd-3","host":"syd-1.au.uncletopia.com","port":27035,"enabled":true,"region":"au","cc":"au","latitude":-33.865143,"longitude":151.2099,"reserved":0,"last_update":"0001-01-01T00:00:00Z","name_a2s":"Uncletopia | Sydney | 3 | All Maps","protocol":17,"map":"pl_badwater","folder":"tf","game":"Team Fortress","app_id":440,"player_count":0,"max_players":24,"Bots":0,"server_type":"Dedicated","server_os":"Linux","password":true,"vac":true,"version":"7882260","steam_id":85568392925194467,"keywords":["nocrits","nodmgspread","payload","uncletopia"],"game_id":440,"stv_port":27036,"stv_name":"Uncletopia | Sydney | 3 | All Maps | STV","players":null},{"server_id":396,"name":"Uncletopia | Sydney | 4 | All Maps","name_short":"syd-4","host":"syd-1.au.uncletopia.com","port":27045,"enabled":true,"region":"au","cc":"au","latitude":-33.865143,"longitude":151.2099,"reserved":0,"last_update":"0001-01-01T00:00:00Z","name_a2s":"Uncletopia | Sydney | 4 | All Maps","protocol":17,"map":"cp_altitude","folder":"tf","game":"Team Fortress","app_id":440,"player_count":0,"max_players":24,"Bots":0,"server_type":"Dedicated","server_os":"Linux","password":true,"vac":true,"version":"7882260","steam_id":85568392925397958,"keywords":["cp","nocrits","nodmgspread","uncletopia"],"game_id":440,"stv_port":27046,"stv_name":"Uncletopia | Sydney | 4 | All Maps | STV","players":null},{"server_id":58,"name":"Uncletopia | Sydney | 5 | Stopwatch Beta","name_short":"syd-5","host":"syd-1.au.uncletopia.com","port":27055,"enabled":true,"region":"au","cc":"au","latitude":-33.865143,"longitude":151.2099,"reserved":0,"last_update":"0001-01-01T00:00:00Z","name_a2s":"Uncletopia | Sydney | 5 | Stopwatch Beta","protocol":17,"map":"koth_viaduct","folder":"tf","game":"Team Fortress","app_id":440,"player_count":0,"max_players":24,"Bots":0,"server_type":"Dedicated","server_os":"Linux","password":true,"vac":true,"version":"7882260","steam_id":85568392925397959,"keywords":["cp","nocrits","nodmgspread","uncletopia"],"game_id":440,"stv_port":27056,"stv_name":"Uncletopia | Sydney | 5 | Stopwatch Beta | STV","players":null},{"server_id":59,"name":"Uncletopia | Sydney | 6 | Community","name_short":"syd-6","host":"syd-1.au.uncletopia.com","port":27065,"enabled":true,"region":"au","cc":"au","latitude":-33.865143,"longitude":151.2099,"reserved":0,"last_update":"0001-01-01T00:00:00Z","name_a2s":"Uncletopia | Sydney | 6 | Community","protocol":17,"map":"workshop/pl_corrode_rc2.ugc546577989","folder":"tf","game":"Team Fortress","app_id":440,"player_count":1,"max_players":24,"Bots":0,"server_type":"Dedicated","server_os":"Linux","password":true,"vac":true,"version":"7882260","steam_id":85568392925397960,"keywords":["nocrits","nodmgspread","payload","uncletopia"],"game_id":440,"stv_port":27066,"stv_name":"Uncletopia | Sydney | 6 | Community | STV","players":[{"user_id":14,"name":"Shocking","steam_id":76561199333984258,"connected_time":61000000000,"state":"active","ping":237}]},{"server_id":49,"name":"Uncletopia | Warsaw | 1 | All Maps","name_short":"waw-1","host":"waw-1.pl.uncletopia.com","port":27015,"enabled":true,"region":"eu","cc":"pl","latitude":52.2297,"longitude":21.017532,"reserved":0,"last_update":"0001-01-01T00:00:00Z","name_a2s":"","protocol":0,"map":"","folder":"","game":"","app_id":0,"player_count":0,"max_players":0,"Bots":0,"server_type":"","server_os":"","password":false,"vac":false,"version":"","steam_id":0,"keywords":null,"game_id":0,"stv_port":0,"stv_name":"","players":null},{"server_id":50,"name":"Uncletopia | Warsaw | 2 | All Maps","name_short":"waw-2","host":"waw-1.pl.uncletopia.com","port":27025,"enabled":true,"region":"eu","cc":"pl","latitude":52.2297,"longitude":21.017532,"reserved":0,"last_update":"0001-01-01T00:00:00Z","name_a2s":"Uncletopia | Warsaw | 2 | All Maps","protocol":17,"map":"koth_viaduct","folder":"tf","game":"Team Fortress","app_id":440,"player_count":0,"max_players":24,"Bots":0,"server_type":"Dedicated","server_os":"Linux","password":true,"vac":true,"version":"7882260","steam_id":85568392925397851,"keywords":["cp","nocrits","nodmgspread","uncletopia"],"game_id":440,"stv_port":27026,"stv_name":"Uncletopia | Warsaw | 2 | All Maps | STV","players":null},{"server_id":51,"name":"Uncletopia | Warsaw | 3 | All Maps","name_short":"waw-3","host":"waw-1.pl.uncletopia.com","port":27035,"enabled":true,"region":"eu","cc":"pl","latitude":52.2297,"longitude":21.017532,"reserved":0,"last_update":"0001-01-01T00:00:00Z","name_a2s":"Uncletopia | Warsaw | 3 | All Maps","protocol":17,"map":"pl_swiftwater_final1","folder":"tf","game":"Team Fortress","app_id":440,"player_count":0,"max_players":24,"Bots":0,"server_type":"Dedicated","server_os":"Linux","password":true,"vac":true,"version":"7882260","steam_id":85568392925397852,"keywords":["nocrits","nodmgspread","payload","uncletopia"],"game_id":440,"stv_port":27036,"stv_name":"Uncletopia | Warsaw | 3 | All Maps | STV","players":null},{"server_id":52,"name":"Uncletopia | Warsaw | 4 | All Maps","name_short":"waw-4","host":"waw-1.pl.uncletopia.com","port":27045,"enabled":true,"region":"eu","cc":"pl","latitude":52.2297,"longitude":21.017532,"reserved":0,"last_update":"0001-01-01T00:00:00Z","name_a2s":"Uncletopia | Warsaw | 4 | All Maps","protocol":17,"map":"koth_cascade","folder":"tf","game":"Team Fortress","app_id":440,"player_count":0,"max_players":24,"Bots":0,"server_type":"Dedicated","server_os":"Linux","password":true,"vac":true,"version":"7882260","steam_id":85568392925397853,"keywords":["cp","nocrits","nodmgspread","uncletopia"],"game_id":440,"stv_port":27046,"stv_name":"Uncletopia | Warsaw | 4 | All Maps | STV","players":null},{"server_id":53,"name":"Uncletopia | Warsaw | 5 | Stopwatch Beta","name_short":"waw-5","host":"waw-1.pl.uncletopia.com","port":27055,"enabled":true,"region":"eu","cc":"pl","latitude":52.2297,"longitude":21.017532,"reserved":0,"last_update":"0001-01-01T00:00:00Z","name_a2s":"Uncletopia | Warsaw | 5 | Stopwatch Beta","protocol":17,"map":"cp_granary","folder":"tf","game":"Team Fortress","app_id":440,"player_count":0,"max_players":24,"Bots":0,"server_type":"Dedicated","server_os":"Linux","password":true,"vac":true,"version":"7882260","steam_id":85568392925397854,"keywords":["cp","nocrits","nodmgspread","uncletopia"],"game_id":440,"stv_port":27056,"stv_name":"Uncletopia | Warsaw | 5 | Stopwatch Beta | STV","players":null},{"server_id":54,"name":"Uncletopia | Warsaw | 6 | Community","name_short":"waw-6","host":"waw-1.pl.uncletopia.com","port":27065,"enabled":true,"region":"eu","cc":"pl","latitude":52.2297,"longitude":21.017532,"reserved":0,"last_update":"0001-01-01T00:00:00Z","name_a2s":"Uncletopia | Warsaw | 6 | Community","protocol":17,"map":"workshop/koth_bagel_rc6.ugc2514036946","folder":"tf","game":"Team Fortress","app_id":440,"player_count":0,"max_players":24,"Bots":0,"server_type":"Dedicated","server_os":"Linux","password":true,"vac":true,"version":"7882260","steam_id":85568392925397856,"keywords":["cp","nocrits","nodmgspread","uncletopia"],"game_id":440,"stv_port":27066,"stv_name":"Uncletopia | Warsaw | 6 | Community | STV","players":null}]}