{"status":true,"message":"","result":[{"server_id":9,"name":"Uncletopia | Atlanta | 1 | All Maps","name_short":"atl-1","host":"atl-1.us.uncletopia.com","port":27015,"enabled":true,"region":"us-east","cc":"us","latitude":33.753746,"longitude":-84.38633,"reserved":0,"last_update":"0001-01-01T00:00:00Z","name_a2s":"Uncletopia | Atlanta | 1 | All Maps","protocol":17,"map":"pl_swiftwater_final1","folder":"tf","game":"Team Fortress","app_id":440,"player_count":24,"max_players":24,"Bots":0,"server_type":"Dedicated","server_os":"Linux","password":true,"vac":true,"version":"7723704","steam_id":85568392924469982,"keywords":["nocrits","nodmgspread","payload","uncletopia"],"game_id":440,"stv_port":27016,"stv_name":"Uncletopia | Atlanta | 1 | All Maps | STV","players":[{"user_id":754,"name":"ÿßŸÜÿ™ÿ≠ÿ± Ÿäÿß ÿßÿ®ŸÜ ÿßŸÑŸÖÿ™","steam_id":76561198326987939,"connected_time":5025000000000,"state":"active","ping":71},{"user_id":781,"name":"Red","steam_id":76561197998285162,"connected_time":2624000000000,"state":"active","ping":84},{"user_id":784,"name":"Zeetch","steam_id":76561198110579765,"connected_time":1821000000000,"state":"active","ping":74},{"user_id":796,"name":"BONERPHONE","steam_id":76561198332877441,"connected_time":942000000000,"state":"active","ping":74},{"user_id":757,"name":"AtlasWarMachine","steam_id":76561198309487226,"connected_time":4498000000000,"state":"active","ping":95},{"user_id":802,"name":"DoomwyteShroom","steam_id":76561198250419416,"connected_time":96000000000,"state":"active","ping":83},{"user_id":785,"name":"Omega Move","steam_id":76561198031577205,"connected_time":1817000000000,"state":"active","ping":71},{"user_id":689,"name":"Sassafrazz","steam_id":76561198036032168,"connected_time":8370000000000,"state":"active","ping":64},{"user_id":789,"name":"Chef","steam_id":76561198086523798,"connected_time":1424000000000,"state":"active","ping":62},{"user_id":798,"name":"Dextstuff2319","steam_id":76561198014936997,"connected_time":873000000000,"state":"active","ping":71},{"user_id":799,"name":"ATL1 | J O V A","steam_id":76561198090333536,"connected_time":852000000000,"state":"active","ping":62},{"user_id":803,"name":"peachy","steam_id":76561198026664629,"connected_time":66000000000,"state":"active","ping":57},{"user_id":800,"name":"Karma's Kringle Caper","steam_id":76561198059385185,"connected_time":792000000000,"state":"active","ping":88},{"user_id":804,"name":"Fermenting Kiwi","steam_id":76561198253303497,"connected_time":64000000000,"state":"active","ping":127},{"user_id":794,"name":"Esau","steam_id":76561198110449520,"connected_time":1085000000000,"state":"active","ping":70},{"user_id":673,"name":"ATL1 | eish","steam_id":76561198089463603,"connected_time":8615000000000,"state":"active","ping":121},{"user_id":801,"name":"facade","steam_id":76561199157009256,"connected_time":780000000000,"state":"active","ping":96},{"user_id":773,"name":"Cyclops_672","steam_id":76561198080169497,"connected_time":3376000000000,"state":"active","ping":54},{"user_id":748,"name":"namaste at home dad","steam_id":76561198056971063,"connected_time":5275000000000,"state":"active","ping":34},{"user_id":767,"name":"ATL0 Dedi Le4n!!!","steam_id":76561198045522596,"connected_time":3771000000000,"state":"active","ping":71},{"user_id":749,"name":"AloXii","steam_id":76561198182420874,"connected_time":5270000000000,"state":"active","ping":60},{"user_id":805,"name":"Pyro","steam_id":76561198315825042,"connected_time":62000000000,"state":"active","ping":112},{"user_id":795,"name":"DO NOT call me BART SIMPSON!!","steam_id":76561198069113375,"connected_time":1048000000000,"state":"active","ping":91},{"user_id":786,"name":"Murk Wahlberg","steam_id":76561198131467867,"connected_time":1815000000000,"state":"active","ping":103}]},{"server_id":400,"name":"Uncletopia | Atlanta | 3 | Stopwatch Beta","name_short":"atl-3","host":"atl-1.us.uncletopia.com","port":27035,"enabled":true,"region":"us-east","cc":"us","latitude":33.753746,"longitude":-84.38633,"reserved":0,"last_update":"0001-01-01T00:00:00Z","name_a2s":"Uncletopia | Atlanta | 3 | Stopwatch Beta","protocol":17,"map":"koth_cascade","folder":"tf","game":"Team Fortress","app_id":440,"player_count":0,"max_players":24,"Bots":0,"server_type":"Dedicated","server_os":"Linux","password":true,"vac":true,"version":"7723704","steam_id":85568392924515187,"keywords":["cp","nocrits","nodmgspread","uncletopia"],"game_id":440,"stv_port":27036,"stv_name":"Uncletopia | Atlanta | 3 | Stopwatch Beta | STV","players":null},{"server_id":401,"name":"Uncletopia | Atlanta | 4 | No Payload","name_short":"atl-4","host":"atl-1.us.uncletopia.com","port":27045,"enabled":true,"region":"us-east","cc":"us","latitude":33.753746,"longitude":-84.38633,"reserved":0,"last_update":"0001-01-01T00:00:00Z","name_a2s":"Uncletopia | Atlanta | 4 | No Payload","protocol":17,"map":"ctf_landfall","folder":"tf","game":"Team Fortress","app_id":440,"player_count":0,"max_players":24,"Bots":0,"server_type":"Dedicated","server_os":"Linux","password":true,"vac":true,"version":"7723704","steam_id":85568392924515188,"keywords":["ctf","nocrits","nodmgspread","uncletopia"],"game_id":440,"stv_port":27046,"stv_name":"Uncletopia | Atlanta | 4 | No Payload | STV","players":null},{"server_id":2,"name":"Uncletopia | Chicago | 1 | All Maps","name_short":"chi-1","host":"chi-1.us.uncletopia.com","port":27015,"enabled":true,"region":"us-central","cc":"us","latitude":41.881832,"longitude":-87.62318,"reserved":0,"last_update":"0001-01-01T00:00:00Z","name_a2s":"Uncletopia | Chicago | 1 | All Maps","protocol":17,"map":"pl_upward","folder":"tf","game":"Team Fortress","app_id":440,"player_count":20,"max_players":24,"Bots":0,"server_type":"Dedicated","server_os":"Linux","password":true,"vac":true,"version":"7723704","steam_id":85568392924469984,"keywords":["nocrits","nodmgspread","payload","uncletopia"],"game_id":440,"stv_port":27016,"stv_name":"Uncletopia | Chicago | 1 | All Maps | STV","players":[{"user_id":724,"name":"Thatoneguybunchanumbers","steam_id":76561198028039160,"connected_time":2156000000000,"state":"spawning","ping":76},{"user_id":741,"name":"Rukks","steam_id":76561197993918954,"connected_time":1195000000000,"state":"active","ping":80},{"user_id":746,"name":"SleepyAardvark37","steam_id":76561198114220228,"connected_time":922000000000,"state":"spawning","ping":55},{"user_id":707,"name":"Cdesmondd","steam_id":76561198072774462,"connected_time":4063000000000,"state":"spawning","ping":50},{"user_id":740,"name":"festivities","steam_id":76561198069407799,"connected_time":1311000000000,"state":"active","ping":195},{"user_id":680,"name":"Gamut","steam_id":76561199185822800,"connected_time":6130000000000,"state":"spawning","ping":59},{"user_id":725,"name":"HELP ME, the engineer","steam_id":76561198035698704,"connected_time":2142000000000,"state":"spawning","ping":94},{"user_id":695,"name":"Sudo","steam_id":76561198123714026,"connected_time":5092000000000,"state":"spawning","ping":101},{"user_id":733,"name":"NovaSc6ut","steam_id":76561198277163301,"connected_time":1638000000000,"state":"spawning","ping":63},{"user_id":728,"name":"IIP","steam_id":76561198286102406,"connected_time":1660000000000,"state":"spawning","ping":75},{"user_id":718,"name":"jade","steam_id":76561198044363630,"connected_time":3115000000000,"state":"active","ping":149},{"user_id":754,"name":"SHARK THAT EATS L E A N B E E F","steam_id":76561198271947627,"connected_time":32000000000,"state":"spawning","ping":80},{"user_id":658,"name":"Nuen","steam_id":76561198936096111,"connected_time":7583000000000,"state":"spawning","ping":75},{"user_id":735,"name":"roma","steam_id":76561198028811916,"connected_time":1593000000000,"state":"spawning","ping":64},{"user_id":736,"name":"CptFoley191","steam_id":76561197970891415,"connected_time":1560000000000,"state":"spawning","ping":113},{"user_id":737,"name":"Merkat201","steam_id":76561198813267339,"connected_time":1502000000000,"state":"spawning","ping":86},{"user_id":705,"name":"VibingVicinity","steam_id":76561198208211285,"connected_time":4171000000000,"state":"active","ping":151},{"user_id":748,"name":"Strange Festive Femboy","steam_id":76561198050385093,"connected_time":593000000000,"state":"spawning","ping":91},{"user_id":739,"name":"Sposeidon","steam_id":76561199044781490,"connected_time":1431000000000,"state":"active","ping":249},{"user_id":752,"name":"Gabinator32","steam_id":76561198872467183,"connected_time":302000000000,"state":"spawning","ping":44}]},{"server_id":106,"name":"Uncletopia | Chicago | 2 | All Maps","name_short":"chi-2","host":"chi-1.us.uncletopia.com","port":27025,"enabled":true,"region":"us-central","cc":"us","latitude":41.881832,"longitude":-87.62318,"reserved":0,"last_update":"0001-01-01T00:00:00Z","name_a2s":"Uncletopia | Chicago | 2 | All Maps","protocol":17,"map":"pl_badwater","folder":"tf","game":"Team Fortress","app_id":440,"player_count":24,"max_players":24,"Bots":0,"server_type":"Dedicated","server_os":"Linux","password":true,"vac":true,"version":"7723704","steam_id":85568392924469985,"keywords":["nocrits","nodmgspread","payload","uncletopia"],"game_id":440,"stv_port":27026,"stv_name":"Uncletopia | Chicago | 2 | All Maps | STV","players":[{"user_id":743,"name":"John Fortnite Kennedy","steam_id":76561198075501786,"connected_time":1191000000000,"state":"active","ping":54},{"user_id":746,"name":"Hummus Enjoyer","steam_id":76561198105213446,"connected_time":984000000000,"state":"active","ping":82},{"user_id":770,"name":"Candy Sparkles","steam_id":76561198126871264,"connected_time":418000000000,"state":"active","ping":84},{"user_id":764,"name":"SilentFootba11","steam_id":76561199006570947,"connected_time":502000000000,"state":"active","ping":63},{"user_id":747,"name":"Jovyel","steam_id":76561198118777065,"connected_time":980000000000,"state":"active","ping":82},{"user_id":748,"name":"Golden Robot","steam_id":76561198149576075,"connected_time":974000000000,"state":"active","ping":89},{"user_id":749,"name":"Spike Bones","steam_id":76561198234926120,"connected_time":956000000000,"state":"active","ping":79},{"user_id":763,"name":"honked off the bobo","steam_id":76561198123287268,"connected_time":519000000000,"state":"active","ping":44},{"user_id":765,"name":"Nitty-Gritty","steam_id":76561198198243021,"connected_time":490000000000,"state":"active","ping":54},{"user_id":700,"name":"VulKaal","steam_id":76561198067882872,"connected_time":5257000000000,"state":"active","ping":72},{"user_id":751,"name":"BORN IN GOOP RAISED IN POOP","steam_id":76561198095909397,"connected_time":931000000000,"state":"active","ping":75},{"user_id":752,"name":"bladees saddest, realest verse","steam_id":76561198098099826,"connected_time":927000000000,"state":"active","ping":91},{"user_id":773,"name":"Ping","steam_id":76561199206514106,"connected_time":268000000000,"state":"active","ping":53},{"user_id":728,"name":"‚Ä∫ snow","steam_id":76561198109783729,"connected_time":2869000000000,"state":"active","ping":45},{"user_id":766,"name":"Merry Matches_","steam_id":76561198048925904,"connected_time":465000000000,"state":"active","ping":113},{"user_id":762,"name":"adorable","steam_id":76561199065645094,"connected_time":680000000000,"state":"active","ping":74},{"user_id":767,"name":"fice (autumnheals)","steam_id":76561198860361610,"connected_time":464000000000,"state":"active","ping":75},{"user_id":768,"name":"Bee","steam_id":76561198074681324,"connected_time":462000000000,"state":"active","ping":71},{"user_id":729,"name":"azure","steam_id":76561198067497459,"connected_time":2792000000000,"state":"active","ping":70},{"user_id":769,"name":"Oakspace_","steam_id":76561198132487015,"connected_time":453000000000,"state":"active","ping":79},{"user_id":760,"name":"valtiel","steam_id":76561198165212575,"connected_time":775000000000,"state":"active","ping":74},{"user_id":761,"name":"Gods Most Schizophrenic Soldier","steam_id":76561198061446656,"connected_time":770000000000,"state":"active","ping":150},{"user_id":771,"name":"nipplefisher","steam_id":76561199398064035,"connected_time":410000000000,"state":"active","ping":66},{"user_id":775,"name":"TheMemeNinja","steam_id":76561198939053223,"connected_time":157000000000,"state":"active","ping":55}]},{"server_id":402,"name":"Uncletopia | Chicago | 3 | All Maps","name_short":"chi-3","host":"chi-1.us.uncletopia.com","port":27035,"enabled":true,"region":"us-central","cc":"us","latitude":41.881832,"longitude":-87.62318,"reserved":0,"last_update":"0001-01-01T00:00:00Z","name_a2s":"Uncletopia | Chicago | 3 | All Maps","protocol":17,"map":"cp_dustbowl","folder":"tf","game":"Team Fortress","app_id":440,"player_count":23,"max_players":24,"Bots":0,"server_type":"Dedicated","server_os":"Linux","password":true,"vac":true,"version":"7723704","steam_id":85568392924515191,"keywords":["cp","nocrits","nodmgspread","uncletopia"],"game_id":440,"stv_port":27036,"stv_name":"Uncletopia | Chicago | 3 | All Maps | STV","players":[{"user_id":611,"name":"Nerd Killer","steam_id":76561198037072888,"connected_time":1640000000000,"state":"active","ping":47},{"user_id":616,"name":"Gyroic","steam_id":76561198063556027,"connected_time":1228000000000,"state":"active","ping":53},{"user_id":586,"name":"CherryYeti","steam_id":76561199221441151,"connected_time":4074000000000,"state":"active","ping":105},{"user_id":580,"name":"methanar/brandon","steam_id":76561198049489349,"connected_time":4311000000000,"state":"active","ping":99},{"user_id":627,"name":"masonramsey","steam_id":76561198235872190,"connected_time":796000000000,"state":"active","ping":101},{"user_id":607,"name":"walrus2","steam_id":76561199079614516,"connected_time":1886000000000,"state":"active","ping":53},{"user_id":613,"name":"TrolleyCB","steam_id":76561198068347371,"connected_time":1370000000000,"state":"active","ping":126},{"user_id":629,"name":"dingus","steam_id":76561198128742436,"connected_time":423000000000,"state":"active","ping":48},{"user_id":582,"name":"Vaqxinelol","steam_id":76561198027299003,"connected_time":4277000000000,"state":"active","ping":61},{"user_id":583,"name":"Webi Wabo","steam_id":76561198799224408,"connected_time":4160000000000,"state":"active","ping":59},{"user_id":614,"name":"Iggy!","steam_id":76561198035671259,"connected_time":1309000000000,"state":"active","ping":63},{"user_id":512,"name":"timestew","steam_id":76561198367583372,"connected_time":10181000000000,"state":"active","ping":76},{"user_id":594,"name":"Cleric.UTC.TF2","steam_id":76561198045887994,"connected_time":2407000000000,"state":"active","ping":45},{"user_id":595,"name":"MoonWolf","steam_id":76561198095735033,"connected_time":2361000000000,"state":"active","ping":78},{"user_id":615,"name":"sprunk","steam_id":76561198061768122,"connected_time":1301000000000,"state":"active","ping":63},{"user_id":617,"name":"_DrunkenGibberish_","steam_id":76561199123070071,"connected_time":1185000000000,"state":"active","ping":100},{"user_id":619,"name":"ReformedOrthodoxRabbiBillClinto","steam_id":76561198401455467,"connected_time":1060000000000,"state":"active","ping":105},{"user_id":620,"name":"new crossbow :D","steam_id":76561198332704108,"connected_time":1060000000000,"state":"active","ping":54},{"user_id":624,"name":"kab789","steam_id":76561198069842202,"connected_time":917000000000,"state":"active","ping":60},{"user_id":625,"name":"Homer Simpson","steam_id":76561198181058745,"connected_time":909000000000,"state":"active","ping":91},{"user_id":626,"name":"Garfussy Exclusive Gynecologist","steam_id":76561198123087907,"connected_time":902000000000,"state":"active","ping":82},{"user_id":587,"name":"Smuggley","steam_id":76561198078130271,"connected_time":3987000000000,"state":"active","ping":85},{"user_id":262,"name":"{[F.H]} Hydroida","steam_id":76561197999797274,"connected_time":29558000000000,"state":"active","ping":59}]},{"server_id":403,"name":"Uncletopia | Chicago | 4 | All Maps","name_short":"chi-4","host":"chi-1.us.uncletopia.com","port":27045,"enabled":true,"region":"us-central","cc":"us","latitude":41.881832,"longitude":-87.62318,"reserved":0,"last_update":"0001-01-01T00:00:00Z","name_a2s":"Uncletopia | Chicago | 4 | All Maps","protocol":17,"map":"pl_barnblitz","folder":"tf","game":"Team Fortress","app_id":440,"player_count":23,"max_players":24,"Bots":0,"server_type":"Dedicated","server_os":"Linux","password":true,"vac":true,"version":"7723704","steam_id":85568392924515193,"keywords":["nocrits","nodmgspread","payload","uncletopia"],"game_id":440,"stv_port":27046,"stv_name":"Uncletopia | Chicago | 4 | All Maps | STV","players":[{"user_id":663,"name":"WONDER.","steam_id":76561198092527854,"connected_time":2753000000000,"state":"active","ping":99},{"user_id":648,"name":"Now I'm a Little Motivated","steam_id":76561198069580305,"connected_time":3904000000000,"state":"active","ping":52},{"user_id":656,"name":"hfs","steam_id":76561198153020266,"connected_time":3369000000000,"state":"active","ping":71},{"user_id":676,"name":"The Great Mighty Poo","steam_id":76561199158397833,"connected_time":480000000000,"state":"active","ping":68},{"user_id":678,"name":"Seal","steam_id":76561197970204043,"connected_time":218000000000,"state":"active","ping":76},{"user_id":617,"name":"ClericsRose","steam_id":76561198011013806,"connected_time":5953000000000,"state":"active","ping":83},{"user_id":662,"name":"AlecTheNefarious","steam_id":76561198035291230,"connected_time":2765000000000,"state":"active","ping":59},{"user_id":632,"name":"veryscaryguy666","steam_id":76561198041052514,"connected_time":5126000000000,"state":"active","ping":74},{"user_id":620,"name":"Lumpy","steam_id":76561198058840585,"connected_time":5703000000000,"state":"active","ping":77},{"user_id":679,"name":"SuppleSchlong","steam_id":76561197963363115,"connected_time":177000000000,"state":"active","ping":90},{"user_id":573,"name":"lanoc","steam_id":76561198055415367,"connected_time":8927000000000,"state":"active","ping":57},{"user_id":658,"name":"josh","steam_id":76561198111565081,"connected_time":3161000000000,"state":"active","ping":105},{"user_id":680,"name":"Faraday","steam_id":76561198089928357,"connected_time":72000000000,"state":"active","ping":60},{"user_id":671,"name":"jt","steam_id":76561198059575962,"connected_time":984000000000,"state":"active","ping":56},{"user_id":657,"name":"weeb_whacker #Jenius","steam_id":76561198187098041,"connected_time":3280000000000,"state":"active","ping":57},{"user_id":615,"name":"KOTH_SHE/HERVEST","steam_id":76561198029274581,"connected_time":6207000000000,"state":"active","ping":62},{"user_id":566,"name":"java","steam_id":76561198030276792,"connected_time":9189000000000,"state":"active","ping":64},{"user_id":670,"name":"Andrew","steam_id":76561198216167781,"connected_time":1314000000000,"state":"active","ping":65},{"user_id":600,"name":"Glass Joe","steam_id":76561198317365741,"connected_time":7285000000000,"state":"active","ping":64},{"user_id":675,"name":"emukill","steam_id":76561198053143720,"connected_time":523000000000,"state":"active","ping":103},{"user_id":666,"name":"Ashley?!","steam_id":76561198056152479,"connected_time":2443000000000,"state":"active","ping":135},{"user_id":672,"name":"Jello","steam_id":76561198890633732,"connected_time":721000000000,"state":"active","ping":92},{"user_id":660,"name":"gautamaYBT","steam_id":76561198133616658,"connected_time":3126000000000,"state":"active","ping":96}]},{"server_id":36,"name":"Uncletopia | Chicago | 5 | All Maps","name_short":"chi-5","host":"chi-2.us.uncletopia.com","port":27015,"enabled":true,"region":"us-central","cc":"us","latitude":41.881832,"longitude":-87.62318,"reserved":0,"last_update":"0001-01-01T00:00:00Z","name_a2s":"Uncletopia | Chicago | 5 | All Maps","protocol":17,"map":"koth_cascade","folder":"tf","game":"Team Fortress","app_id":440,"player_count":0,"max_players":24,"Bots":0,"server_type":"Dedicated","server_os":"Linux","password":true,"vac":true,"version":"7723704","steam_id":85568392924866362,"keywords":["cp","nocrits","nodmgspread","uncletopia"],"game_id":440,"stv_port":27016,"stv_name":"Uncletopia | Chicago | 5 | All Maps | STV","players":null},{"server_id":37,"name":"Uncletopia | Chicago | 6 | All Maps","name_short":"chi-6","host":"chi-2.us.uncletopia.com","port":27025,"enabled":true,"region":"us-central","cc":"us","latitude":41.881832,"longitude":-87.62318,"reserved":0,"last_update":"0001-01-01T00:00:00Z","name_a2s":"Uncletopia | Chicago | 6 | All Maps","protocol":17,"map":"plr_nightfall_final","folder":"tf","game":"Team Fortress","app_id":440,"player_count":0,"max_players":24,"Bots":0,"server_type":"Dedicated","server_os":"Linux","password":true,"vac":true,"version":"7723704","steam_id":85568392924866363,"keywords":["nocrits","nodmgspread","payload","uncletopia"],"game_id":440,"stv_port":27026,"stv_name":"Uncletopia | Chicago | 6 | All Maps | STV","players":null},{"server_id":38,"name":"Uncletopia | Chicago | 7 | Stopwatch Beta","name_short":"chi-7","host":"chi-2.us.uncletopia.com","port":27035,"enabled":true,"region":"us-central","cc":"us","latitude":41.881832,"longitude":-87.62318,"reserved":0,"last_update":"0001-01-01T00:00:00Z","name_a2s":"Uncletopia | Chicago | 7 | Stopwatch Beta","protocol":17,"map":"pl_upward","folder":"tf","game":"Team Fortress","app_id":440,"player_count":1,"max_players":24,"Bots":0,"server_type":"Dedicated","server_os":"Linux","password":true,"vac":true,"version":"7723704","steam_id":85568392924866364,"keywords":["nocrits","nodmgspread","payload","uncletopia"],"game_id":440,"stv_port":27036,"stv_name":"Uncletopia | Chicago | 7 | Stopwatch Beta | STV","players":[{"user_id":59,"name":"alt of alt","steam_id":76561199367926736,"connected_time":124000000000,"state":"active","ping":390}]},{"server_id":39,"name":"Uncletopia | Chicago | 8 | Community","name_short":"chi-8","host":"chi-2.us.uncletopia.com","port":27045,"enabled":true,"region":"us-central","cc":"us","latitude":41.881832,"longitude":-87.62318,"reserved":0,"last_update":"0001-01-01T00:00:00Z","name_a2s":"Uncletopia | Chicago | 8 | Community","protocol":17,"map":"workshop/koth_ashville_final.ugc2130459942","folder":"tf","game":"Team Fortress","app_id":440,"player_count":0,"max_players":24,"Bots":0,"server_type":"Dedicated","server_os":"Linux","password":true,"vac":true,"version":"7723704","steam_id":85568392924866365,"keywords":["cp","nocrits","nodmgspread","uncletopia"],"game_id":440,"stv_port":27046,"stv_name":"Uncletopia | Chicago | 8 | Community | STV","players":null},{"server_id":8,"name":"Uncletopia | Dallas | 1 | All Maps","name_short":"dal-1","host":"dal-1.us.uncletopia.com","port":27015,"enabled":true,"region":"us-central","cc":"us","latitude":32.779167,"longitude":-96.80889,"reserved":0,"last_update":"0001-01-01T00:00:00Z","name_a2s":"Uncletopia | Dallas | 1 | All Maps","protocol":17,"map":"pl_barnblitz","folder":"tf","game":"Team Fortress","app_id":440,"player_count":24,"max_players":24,"Bots":0,"server_type":"Dedicated","server_os":"Linux","password":true,"vac":true,"version":"7723704","steam_id":85568392924469986,"keywords":["nocrits","nodmgspread","payload","uncletopia"],"game_id":440,"stv_port":27016,"stv_name":"Uncletopia | Dallas | 1 | All Maps | STV","players":[{"user_id":750,"name":"citrineTriage","steam_id":76561197998416694,"connected_time":1850000000000,"state":"active","ping":84},{"user_id":751,"name":"canisCasanova","steam_id":76561198075582076,"connected_time":1841000000000,"state":"active","ping":87},{"user_id":715,"name":"DeMO_","steam_id":76561199065191627,"connected_time":5021000000000,"state":"active","ping":78},{"user_id":752,"name":"Finn!","steam_id":76561198061579955,"connected_time":1837000000000,"state":"active","ping":93},{"user_id":775,"name":"B R O U T","steam_id":76561199161322235,"connected_time":165000000000,"state":"active","ping":60},{"user_id":755,"name":"The Broken Lightbulb","steam_id":76561198141566312,"connected_time":934000000000,"state":"active","ping":82},{"user_id":756,"name":"ZePazta","steam_id":76561198263901997,"connected_time":924000000000,"state":"active","ping":84},{"user_id":757,"name":"I Bodyshot","steam_id":76561198031757460,"connected_time":855000000000,"state":"active","ping":68},{"user_id":758,"name":"douglas4925","steam_id":76561198930342505,"connected_time":782000000000,"state":"active","ping":79},{"user_id":759,"name":"Vinsmoke Reiju pls step on me","steam_id":76561198043892845,"connected_time":691000000000,"state":"active","ping":81},{"user_id":762,"name":"Pyyr","steam_id":76561198123491005,"connected_time":501000000000,"state":"active","ping":64},{"user_id":761,"name":"Ultra\u003c3","steam_id":76561198352021493,"connected_time":562000000000,"state":"active","ping":80},{"user_id":763,"name":"sircat","steam_id":76561198255825452,"connected_time":457000000000,"state":"active","ping":50},{"user_id":764,"name":"MantisTobboggan","steam_id":76561197969447887,"connected_time":389000000000,"state":"active","ping":115},{"user_id":776,"name":"va1en","steam_id":76561199004925783,"connected_time":131000000000,"state":"active","ping":95},{"user_id":766,"name":"r0ck","steam_id":76561198141716764,"connected_time":355000000000,"state":"active","ping":92},{"user_id":716,"name":"OwlOddity","steam_id":76561198389068053,"connected_time":4995000000000,"state":"active","ping":49},{"user_id":767,"name":"gio","steam_id":76561198139781520,"connected_time":338000000000,"state":"active","ping":74},{"user_id":768,"name":"Fever Dreams","steam_id":76561198116614620,"connected_time":327000000000,"state":"active","ping":77},{"user_id":769,"name":"{ST} Oxythemoron","steam_id":76561198060089965,"connected_time":322000000000,"state":"active","ping":56},{"user_id":770,"name":"Rick \"Stedman\" Slick","steam_id":76561198046720249,"connected_time":320000000000,"state":"active","ping":56},{"user_id":771,"name":"C‚àÖRVUS","steam_id":76561198100640019,"connected_time":305000000000,"state":"active","ping":107},{"user_id":772,"name":"kezia","steam_id":76561198059815894,"connected_time":304000000000,"state":"active","ping":75},{"user_id":774,"name":"helloyes_123","steam_id":76561198184669555,"connected_time":236000000000,"state":"active","ping":74}]},{"server_id":108,"name":"Uncletopia | Dallas | 2 | All Maps","name_short":"dal-2","host":"dal-1.us.uncletopia.com","port":27025,"enabled":true,"region":"us-central","cc":"us","latitude":32.779167,"longitude":-96.80889,"reserved":0,"last_update":"0001-01-01T00:00:00Z","name_a2s":"Uncletopia | Dallas | 2 | All Maps","protocol":17,"map":"cp_steel","folder":"tf","game":"Team Fortress","app_id":440,"player_count":2,"max_players":24,"Bots":0,"server_type":"Dedicated","server_os":"Linux","password":true,"vac":true,"version":"7723704","steam_id":85568392924469988,"keywords":["cp","nocrits","nodmgspread","uncletopia"],"game_id":440,"stv_port":27026,"stv_name":"Uncletopia | Dallas | 2 | All Maps | STV","players":[{"user_id":463,"name":"bnuyyy","steam_id":76561199445583074,"connected_time":173000000000,"state":"active","ping":223},{"user_id":464,"name":"N64Kanroji","steam_id":76561198045209288,"connected_time":75000000000,"state":"active","ping":70}]},{"server_id":5,"name":"Uncletopia | Frankfurt | 1 | All Maps","name_short":"frk-1","host":"frk-1.de.uncletopia.com","port":27015,"enabled":true,"region":"eu","cc":"de","latitude":50.110924,"longitude":8.682127,"reserved":0,"last_update":"0001-01-01T00:00:00Z","name_a2s":"Uncletopia | Frankfurt | 1 | All Maps","protocol":17,"map":"koth_highpass","folder":"tf","game":"Team Fortress","app_id":440,"player_count":0,"max_players":24,"Bots":0,"server_type":"Dedicated","server_os":"Linux","password":true,"vac":true,"version":"7723704","steam_id":85568392924469989,"keywords":["cp","nocrits","nodmgspread","uncletopia"],"game_id":440,"stv_port":27016,"stv_name":"Uncletopia | Frankfurt | 1 | All Maps | STV","players":null},{"server_id":110,"name":"Uncletopia | Frankfurt | 2 | All Maps","name_short":"frk-2","host":"frk-1.de.uncletopia.com","port":27025,"enabled":true,"region":"eu","cc":"de","latitude":50.110924,"longitude":8.682127,"reserved":0,"last_update":"0001-01-01T00:00:00Z","name_a2s":"Uncletopia | Frankfurt | 2 | All Maps","protocol":17,"map":"cp_snakewater_final1","folder":"tf","game":"Team Fortress","app_id":440,"player_count":0,"max_players":24,"Bots":0,"server_type":"Dedicated","server_os":"Linux","password":true,"vac":true,"version":"7723704","steam_id":85568392924469990,"keywords":["cp","nocrits","nodmgspread","uncletopia"],"game_id":440,"stv_port":27026,"stv_name":"Uncletopia | Frankfurt | 2 | All Maps | STV","players":null},{"server_id":308,"name":"Uncletopia | Frankfurt | 3 | All Maps","name_short":"frk-3","host":"frk-1.de.uncletopia.com","port":27035,"enabled":true,"region":"eu","cc":"de","latitude":50.110924,"longitude":8.682127,"reserved":0,"last_update":"0001-01-01T00:00:00Z","name_a2s":"Uncletopia | Frankfurt | 3 | All Maps","protocol":17,"map":"pl_barnblitz","folder":"tf","game":"Team Fortress","app_id":440,"player_count":0,"max_players":24,"Bots":0,"server_type":"Dedicated","server_os":"Linux","password":true,"vac":true,"version":"7723704","steam_id":85568392924504274,"keywords":["nocrits","nodmgspread","payload","uncletopia"],"game_id":440,"stv_port":27036,"stv_name":"Uncletopia | Frankfurt | 3 | All Maps | STV","players":null},{"server_id":309,"name":"Uncletopia | Frankfurt | 4 | All Maps","name_short":"frk-4","host":"frk-1.de.uncletopia.com","port":27045,"enabled":true,"region":"eu","cc":"de","latitude":50.110924,"longitude":8.682127,"reserved":0,"last_update":"0001-01-01T00:00:00Z","name_a2s":"Uncletopia | Frankfurt | 4 | All Maps","protocol":17,"map":"pl_snowycoast","folder":"tf","game":"Team Fortress","app_id":440,"player_count":0,"max_players":24,"Bots":0,"server_type":"Dedicated","server_os":"Linux","password":true,"vac":true,"version":"7723704","steam_id":85568392924504275,"keywords":["nocrits","nodmgspread","payload","uncletopia"],"game_id":440,"stv_port":27046,"stv_name":"Uncletopia | Frankfurt | 4 | All Maps | STV","players":null},{"server_id":310,"name":"Uncletopia | Frankfurt | 5 | All Maps","name_short":"frk-5","host":"frk-1.de.uncletopia.com","port":27055,"enabled":true,"region":"eu","cc":"de","latitude":50.110924,"longitude":8.682127,"reserved":0,"last_update":"0001-01-01T00:00:00Z","name_a2s":"Uncletopia | Frankfurt | 5 | All Maps","protocol":17,"map":"pl_barnblitz","folder":"tf","game":"Team Fortress","app_id":440,"player_count":0,"max_players":24,"Bots":0,"server_type":"Dedicated","server_os":"Linux","password":true,"vac":true,"version":"7723704","steam_id":85568392924504277,"keywords":["nocrits","nodmgspread","payload","uncletopia"],"game_id":440,"stv_port":27056,"stv_name":"Uncletopia | Frankfurt | 5 | All Maps | STV","players":null},{"server_id":311,"name":"Uncletopia | Frankfurt | 6 | All Maps","name_short":"frk-6","host":"frk-1.de.uncletopia.com","port":27065,"enabled":true,"region":"eu","cc":"de","latitude":50.110924,"longitude":8.682127,"reserved":0,"last_update":"0001-01-01T00:00:00Z","name_a2s":"Uncletopia | Frankfurt | 6 | All Maps","protocol":17,"map":"pl_badwater","folder":"tf","game":"Team Fortress","app_id":440,"player_count":0,"max_players":24,"Bots":0,"server_type":"Dedicated","server_os":"Linux","password":true,"vac":true,"version":"7723704","steam_id":85568392924504278,"keywords":["nocrits","nodmgspread","payload","uncletopia"],"game_id":440,"stv_port":27066,"stv_name":"Uncletopia | Frankfurt | 6 | All Maps | STV","players":null},{"server_id":23,"name":"Uncletopia | Frankfurt | 7 | Stopwatch Beta","name_short":"frk-7","host":"frk-1.de.uncletopia.com","port":27075,"enabled":true,"region":"eu","cc":"de","latitude":50.110924,"longitude":8.682127,"reserved":0,"last_update":"0001-01-01T00:00:00Z","name_a2s":"Uncletopia | Frankfurt | 7 | Stopwatch Beta","protocol":17,"map":"koth_viaduct","folder":"tf","game":"Team Fortress","app_id":440,"player_count":0,"max_players":24,"Bots":0,"server_type":"Dedicated","server_os":"Linux","password":true,"vac":true,"version":"7723704","steam_id":85568392924742827,"keywords":["cp","nocrits","nodmgspread","uncletopia"],"game_id":440,"stv_port":27076,"stv_name":"Uncletopia | Frankfurt | 7 | Stopwatch Beta | STV","players":null},{"server_id":24,"name":"Uncletopia | Frankfurt | 8 | Community","name_short":"frk-8","host":"frk-1.de.uncletopia.com","port":27085,"enabled":true,"region":"eu","cc":"de","latitude":50.110924,"longitude":8.682127,"reserved":0,"last_update":"0001-01-01T00:00:00Z","name_a2s":"Uncletopia | Frankfurt | 8 | Community","protocol":17,"map":"pl_frontier_final","folder":"tf","game":"Team Fortress","app_id":440,"player_count":0,"max_players":24,"Bots":0,"server_type":"Dedicated","server_os":"Linux","password":true,"vac":true,"version":"7723704","steam_id":85568392924742828,"keywords":["nocrits","nodmgspread","payload","uncletopia"],"game_id":440,"stv_port":27086,"stv_name":"Uncletopia | Frankfurt | 8 | Community | STV","players":null},{"server_id":202,"name":"Uncletopia | Hong Kong | 1 | All Maps","name_short":"hgk-1","host":"hgk-1.hk.uncletopia.com","port":27015,"enabled":true,"region":"asia","cc":"hk","latitude":22.302711,"longitude":114.177216,"reserved":0,"last_update":"0001-01-01T00:00:00Z","name_a2s":"Uncletopia | Hong Kong | 1 | All Maps","protocol":17,"map":"pl_upward","folder":"tf","game":"Team Fortress","app_id":440,"player_count":24,"max_players":24,"Bots":0,"server_type":"Dedicated","server_os":"Linux","password":true,"vac":true,"version":"7723704","steam_id":85568392924494504,"keywords":["nocrits","nodmgspread","payload","uncletopia"],"game_id":440,"stv_port":27016,"stv_name":"Uncletopia | Hong Kong | 1 | All Maps | STV","players":[{"user_id":228,"name":"ogey","steam_id":76561198074339034,"connected_time":1128000000000,"state":"active","ping":74},{"user_id":219,"name":"piyoko no english","steam_id":76561198088403016,"connected_time":2041000000000,"state":"active","ping":92},{"user_id":226,"name":"bocchi have the bocchis","steam_id":76561198412329672,"connected_time":1398000000000,"state":"active","ping":90},{"user_id":126,"name":"3wfFbdrjEze5d2G","steam_id":76561198435900451,"connected_time":6279000000000,"state":"active","ping":109},{"user_id":218,"name":"„Äé Ä ú√Ü…¢Œõ Ä„Äè","steam_id":76561198037122849,"connected_time":2091000000000,"state":"active","ping":87},{"user_id":238,"name":"Puddin","steam_id":76561198140052918,"connected_time":316000000000,"state":"active","ping":85},{"user_id":203,"name":"uptriste","steam_id":76561198158666692,"connected_time":2798000000000,"state":"active","ping":37},{"user_id":215,"name":"Warmonger","steam_id":76561199053795483,"connected_time":2212000000000,"state":"active","ping":80},{"user_id":233,"name":"Krayken","steam_id":76561197997933283,"connected_time":503000000000,"state":"active","ping":92},{"user_id":148,"name":"JustAnotherFellow","steam_id":76561199121861959,"connected_time":5033000000000,"state":"active","ping":85},{"user_id":240,"name":"itrash","steam_id":76561199068229379,"connected_time":145000000000,"state":"active","ping":54},{"user_id":222,"name":"L√∫d","steam_id":76561198828840546,"connected_time":1690000000000,"state":"active","ping":66},{"user_id":239,"name":"California Love","steam_id":76561199061052792,"connected_time":293000000000,"state":"active","ping":100},{"user_id":201,"name":"RandomGuy1085","steam_id":76561199053910995,"connected_time":3221000000000,"state":"active","ping":82},{"user_id":200,"name":"master glu eater","steam_id":76561198069402937,"connected_time":3240000000000,"state":"active","ping":88},{"user_id":130,"name":"(no sound) bocchi's oppai","steam_id":76561198008307645,"connected_time":6083000000000,"state":"active","ping":80},{"user_id":216,"name":"GottieFrisk","steam_id":76561198968353045,"connected_time":2205000000000,"state":"active","ping":141},{"user_id":237,"name":"Plencers","steam_id":76561198311052198,"connected_time":346000000000,"state":"active","ping":84},{"user_id":191,"name":"C√° Th√°ng 4","steam_id":76561198047162026,"connected_time":3634000000000,"state":"active","ping":68},{"user_id":85,"name":"J\u0026T Delivery Rider","steam_id":76561198369523192,"connected_time":10113000000000,"state":"active","ping":63},{"user_id":217,"name":"shawty like a melody","steam_id":76561198360026912,"connected_time":2124000000000,"state":"active","ping":89},{"user_id":213,"name":"UZ","steam_id":76561198179320563,"connected_time":2368000000000,"state":"active","ping":77},{"user_id":241,"name":"Thomas Edward Yorke","steam_id":76561198198435598,"connected_time":13000000000,"state":"spawning","ping":125},{"user_id":221,"name":"Mega 00F","steam_id":76561198962485791,"connected_time":1985000000000,"state":"active","ping":88}]},{"server_id":1,"name":"Uncletopia | Los Angeles | 1 | All Maps","name_short":"lax-1","host":"lax-1.us.uncletopia.com","port":27015,"enabled":true,"region":"us-west","cc":"us","latitude":33.94279,"longitude":-118.41004,"reserved":0,"last_update":"0001-01-01T00:00:00Z","name_a2s":"Uncletopia | Los Angeles | 1 | All Maps","protocol":17,"map":"koth_viaduct","folder":"tf","game":"Team Fortress","app_id":440,"player_count":0,"max_players":24,"Bots":0,"server_type":"Dedicated","server_os":"Linux","password":true,"vac":true,"version":"7723704","steam_id":85568392924469991,"keywords":["cp","nocrits","nodmgspread","uncletopia"],"game_id":440,"stv_port":27016,"stv_name":"Uncletopia | Los Angeles | 1 | All Maps | STV","players":null},{"server_id":112,"name":"Uncletopia | Los Angeles | 2 | All Maps","name_short":"lax-2","host":"lax-1.us.uncletopia.com","port":27025,"enabled":true,"region":"us-west","cc":"us","latitude":33.94279,"longitude":-118.41004,"reserved":0,"last_update":"0001-01-01T00:00:00Z","name_a2s":"Uncletopia | Los Angeles | 2 | All Maps","protocol":17,"map":"cp_altitude","folder":"tf","game":"Team Fortress","app_id":440,"player_count":21,"max_players":24,"Bots":0,"server_type":"Dedicated","server_os":"Linux","password":true,"vac":true,"version":"7723704","steam_id":85568392924469992,"keywords":["cp","nocrits","nodmgspread","uncletopia"],"game_id":440,"stv_port":27026,"stv_name":"Uncletopia | Los Angeles | 2 | All Maps | STV","players":[{"user_id":272,"name":"explosives anonymous","steam_id":76561198141862936,"connected_time":1023000000000,"state":"active","ping":654},{"user_id":279,"name":"Gimmick","steam_id":76561198065873462,"connected_time":703000000000,"state":"active","ping":44},{"user_id":258,"name":"John Taxenfraud","steam_id":76561199011358805,"connected_time":2599000000000,"state":"active","ping":93},{"user_id":285,"name":"shoes","steam_id":76561198044104086,"connected_time":353000000000,"state":"active","ping":66},{"user_id":263,"name":"Grunga","steam_id":76561198129145299,"connected_time":1874000000000,"state":"active","ping":171},{"user_id":245,"name":"Magicturtle","steam_id":76561198067111822,"connected_time":3392000000000,"state":"active","ping":40},{"user_id":268,"name":"wizard","steam_id":76561197974871380,"connected_time":1138000000000,"state":"active","ping":67},{"user_id":290,"name":"therealgekko","steam_id":76561199297406217,"connected_time":26000000000,"state":"connecting","ping":97},{"user_id":262,"name":"Grime","steam_id":76561198066308925,"connected_time":1880000000000,"state":"active","ping":33},{"user_id":265,"name":"Frongus","steam_id":76561197979056451,"connected_time":1819000000000,"state":"active","ping":64},{"user_id":291,"name":"yin bin","steam_id":76561199045840815,"connected_time":13000000000,"state":"spawning","ping":64},{"user_id":270,"name":"[K.Y.L.L.]Drone #0432 (it)","steam_id":76561198027321950,"connected_time":1045000000000,"state":"active","ping":64},{"user_id":286,"name":"gazpacho","steam_id":76561198132903078,"connected_time":343000000000,"state":"active","ping":46},{"user_id":281,"name":"killer-badger[Aquifer Kat]","steam_id":76561197993295670,"connected_time":632000000000,"state":"spawning","ping":106},{"user_id":250,"name":"Wordly Eggplant","steam_id":76561198166704083,"connected_time":3106000000000,"state":"active","ping":45},{"user_id":266,"name":"moe","steam_id":76561198929586245,"connected_time":1780000000000,"state":"active","ping":60},{"user_id":289,"name":"69SIMPING_FOR_MEN69","steam_id":76561199444712738,"connected_time":253000000000,"state":"active","ping":43},{"user_id":267,"name":"AzovStal'","steam_id":76561198081841996,"connected_time":1766000000000,"state":"active","ping":67},{"user_id":116,"name":"Soap Man","steam_id":76561198000490235,"connected_time":13926000000000,"state":"active","ping":327},{"user_id":275,"name":"AGTCO Texas","steam_id":76561198053276976,"connected_time":911000000000,"state":"active","ping":70},{"user_id":283,"name":"oil","steam_id":76561198099980149,"connected_time":483000000000,"state":"active","ping":56}]},{"server_id":324,"name":"Uncletopia | Los Angeles | 3 | All Maps","name_short":"lax-3","host":"lax-1.us.uncletopia.com","port":27035,"enabled":true,"region":"us-west","cc":"us","latitude":33.94279,"longitude":-118.41004,"reserved":0,"last_update":"0001-01-01T00:00:00Z","name_a2s":"Uncletopia | Los Angeles | 3 | All Maps","protocol":17,"map":"pl_borneo","folder":"tf","game":"Team Fortress","app_id":440,"player_count":22,"max_players":24,"Bots":0,"server_type":"Dedicated","server_os":"Linux","password":true,"vac":true,"version":"7723704","steam_id":85568392924510198,"keywords":["nocrits","nodmgspread","payload","uncletopia"],"game_id":440,"stv_port":27036,"stv_name":"Uncletopia | Los Angeles | 3 | All Maps | STV","players":[{"user_id":174,"name":"Cheems","steam_id":76561199081634726,"connected_time":2703000000000,"state":"active","ping":56},{"user_id":189,"name":"Rommel2007","steam_id":76561198041744631,"connected_time":794000000000,"state":"active","ping":51},{"user_id":181,"name":"Agentnickel","steam_id":76561199186723516,"connected_time":1980000000000,"state":"active","ping":40},{"user_id":191,"name":"Mezden","steam_id":76561197991156264,"connected_time":245000000000,"state":"active","ping":76},{"user_id":125,"name":"carloseolartec","steam_id":76561198396648023,"connected_time":5971000000000,"state":"active","ping":108},{"user_id":192,"name":"huiei","steam_id":76561198073763735,"connected_time":169000000000,"state":"active","ping":55},{"user_id":182,"name":"erutoumo","steam_id":76561198093146919,"connected_time":1800000000000,"state":"active","ping":47},{"user_id":166,"name":"PyroTechno","steam_id":76561198060929872,"connected_time":3212000000000,"state":"active","ping":110},{"user_id":143,"name":"Pro sniper tf2","steam_id":76561198031760001,"connected_time":4836000000000,"state":"active","ping":49},{"user_id":190,"name":"Magician357","steam_id":76561198009308255,"connected_time":428000000000,"state":"active","ping":48},{"user_id":142,"name":"eggplantgirl‚ô•","steam_id":76561198811515692,"connected_time":4841000000000,"state":"active","ping":44},{"user_id":110,"name":"arcticmonkeysfan2006","steam_id":76561198345528370,"connected_time":7207000000000,"state":"active","ping":47},{"user_id":186,"name":"Sith of Darkness","steam_id":76561198106636597,"connected_time":1251000000000,"state":"active","ping":61},{"user_id":137,"name":"NotAWeeb","steam_id":76561198165530739,"connected_time":5174000000000,"state":"active","ping":52},{"user_id":193,"name":"pyrotechnic","steam_id":76561198043558709,"connected_time":168000000000,"state":"active","ping":71},{"user_id":112,"name":"dude","steam_id":76561198253202693,"connected_time":7160000000000,"state":"active","ping":41},{"user_id":177,"name":"Vojdo","steam_id":76561198064781517,"connected_time":2264000000000,"state":"active","ping":38},{"user_id":158,"name":"guy","steam_id":76561198196443262,"connected_time":3992000000000,"state":"active","ping":75},{"user_id":187,"name":"Mom","steam_id":76561198207936000,"connected_time":1237000000000,"state":"active","ping":46},{"user_id":188,"name":"invb","steam_id":76561197998263914,"connected_time":1141000000000,"state":"active","ping":95},{"user_id":195,"name":"Ahzain","steam_id":76561198035894333,"connected_time":128000000000,"state":"active","ping":113},{"user_id":117,"name":"‚õßAlkahestry","steam_id":76561198109641497,"connected_time":6786000000000,"state":"active","ping":46}]},{"server_id":25,"name":"Uncletopia | Los Angeles | 4 | Stopwatch Beta","name_short":"lax-4","host":"lax-1.us.uncletopia.com","port":27045,"enabled":true,"region":"us-west","cc":"us","latitude":33.94279,"longitude":-118.41004,"reserved":0,"last_update":"0001-01-01T00:00:00Z","name_a2s":"Uncletopia | Los Angeles | 4 | Stopwatch Beta","protocol":17,"map":"cp_sunshine","folder":"tf","game":"Team Fortress","app_id":440,"player_count":0,"max_players":24,"Bots":0,"server_type":"Dedicated","server_os":"Linux","password":true,"vac":true,"version":"7723704","steam_id":85568392924510199,"keywords":["cp","nocrits","nodmgspread","uncletopia"],"game_id":440,"stv_port":27046,"stv_name":"Uncletopia | Los Angeles | 4 | Stopwatch Beta | STV","players":null},{"server_id":11,"name":"Uncletopia | London | 1 | All Maps","name_short":"lon-1","host":"lon-1.uk.uncletopia.com","port":27015,"enabled":true,"region":"eu","cc":"gb","latitude":51.509865,"longitude":-0.118092,"reserved":0,"last_update":"0001-01-01T00:00:00Z","name_a2s":"Uncletopia | London | 1 | All Maps","protocol":17,"map":"pl_badwater","folder":"tf","game":"Team Fortress","app_id":440,"player_count":15,"max_players":24,"Bots":0,"server_type":"Dedicated","server_os":"Linux","password":true,"vac":true,"version":"7723704","steam_id":85568392924367362,"keywords":["nocrits","nodmgspread","payload","uncletopia"],"game_id":440,"stv_port":27016,"stv_name":"Uncletopia | London | 1 | All Maps | STV","players":[{"user_id":24,"name":"Lord Bunny","steam_id":76561198063026437,"connected_time":539000000000,"state":"active","ping":81},{"user_id":4,"name":"Nickel (28) [F2P]","steam_id":76561199082683456,"connected_time":2483000000000,"state":"active","ping":114},{"user_id":28,"name":"Alice can't hit pipes","steam_id":76561198052410860,"connected_time":397000000000,"state":"active","ping":141},{"user_id":26,"name":"dAg","steam_id":76561198047819527,"connected_time":466000000000,"state":"active","ping":99},{"user_id":7,"name":"Rcki","steam_id":76561198164291462,"connected_time":2462000000000,"state":"active","ping":74},{"user_id":19,"name":"Raybuds","steam_id":76561199434070224,"connected_time":1038000000000,"state":"active","ping":287},{"user_id":27,"name":"F√ºhrer Schout","steam_id":76561199059425974,"connected_time":397000000000,"state":"active","ping":143},{"user_id":13,"name":"gamerweed5","steam_id":76561198087651151,"connected_time":2054000000000,"state":"active","ping":44},{"user_id":15,"name":"Roro Cyr","steam_id":76561198091380517,"connected_time":1637000000000,"state":"active","ping":60},{"user_id":20,"name":"jhorbacki","steam_id":76561197978208118,"connected_time":1022000000000,"state":"active","ping":236},{"user_id":29,"name":"Dyzer.","steam_id":76561198899148126,"connected_time":282000000000,"state":"active","ping":104},{"user_id":22,"name":"SaSSolino","steam_id":76561198011308018,"connected_time":810000000000,"state":"active","ping":60},{"user_id":30,"name":"r0la","steam_id":76561198128315340,"connected_time":232000000000,"state":"active","ping":67},{"user_id":31,"name":"üêáBunnyüêá","steam_id":76561198822773578,"connected_time":176000000000,"state":"active","ping":188},{"user_id":32,"name":"elot","steam_id":76561199038630847,"connected_time":75000000000,"state":"active","ping":198}]},{"server_id":114,"name":"Uncletopia | London | 2 | All Maps","name_short":"lon-2","host":"lon-1.uk.uncletopia.com","port":27025,"enabled":true,"region":"eu","cc":"gb","latitude":51.509865,"longitude":-0.118092,"reserved":0,"last_update":"0001-01-01T00:00:00Z","name_a2s":"Uncletopia | London | 2 | All Maps","protocol":17,"map":"pl_upward","folder":"tf","game":"Team Fortress","app_id":440,"player_count":0,"max_players":24,"Bots":0,"server_type":"Dedicated","server_os":"Linux","password":true,"vac":true,"version":"7723704","steam_id":85568392924470941,"keywords":["nocrits","nodmgspread","payload","uncletopia"],"game_id":440,"stv_port":27026,"stv_name":"Uncletopia | London | 2 | All Maps | STV","players":null},{"server_id":320,"name":"Uncletopia | London | 3 | All Maps","name_short":"lon-3","host":"lon-1.uk.uncletopia.com","port":27035,"enabled":true,"region":"eu","cc":"gb","latitude":51.509865,"longitude":-0.118092,"reserved":0,"last_update":"0001-01-01T00:00:00Z","name_a2s":"Uncletopia | London | 3 | All Maps","protocol":17,"map":"pl_snowycoast","folder":"tf","game":"Team Fortress","app_id":440,"player_count":0,"max_players":24,"Bots":0,"server_type":"Dedicated","server_os":"Linux","password":true,"vac":true,"version":"7723704","steam_id":85568392924510192,"keywords":["nocrits","nodmgspread","payload","uncletopia"],"game_id":440,"stv_port":27036,"stv_name":"Uncletopia | London | 3 | All Maps | STV","players":null},{"server_id":321,"name":"Uncletopia | London | 4 | All Maps","name_short":"lon-4","host":"lon-1.uk.uncletopia.com","port":27045,"enabled":true,"region":"eu","cc":"gb","latitude":51.509865,"longitude":-0.118092,"reserved":0,"last_update":"0001-01-01T00:00:00Z","name_a2s":"Uncletopia | London | 4 | All Maps","protocol":17,"map":"koth_lakeside_final","folder":"tf","game":"Team Fortress","app_id":440,"player_count":0,"max_players":24,"Bots":0,"server_type":"Dedicated","server_os":"Linux","password":true,"vac":true,"version":"7723704","steam_id":85568392924510193,"keywords":["cp","nocrits","nodmgspread","uncletopia"],"game_id":440,"stv_port":27046,"stv_name":"Uncletopia | London | 4 | All Maps | STV","players":null},{"server_id":21,"name":"Uncletopia | London | 5 | All Maps","name_short":"lon-5","host":"lon-1.uk.uncletopia.com","port":27055,"enabled":true,"region":"eu","cc":"gb","latitude":51.509865,"longitude":-0.118092,"reserved":0,"last_update":"0001-01-01T00:00:00Z","name_a2s":"Uncletopia | London | 5 | All Maps","protocol":17,"map":"cp_snakewater_final1","folder":"tf","game":"Team Fortress","app_id":440,"player_count":0,"max_players":24,"Bots":0,"server_type":"Dedicated","server_os":"Linux","password":true,"vac":true,"version":"7723704","steam_id":85568392924742829,"keywords":["cp","nocrits","nodmgspread","uncletopia"],"game_id":440,"stv_port":27056,"stv_name":"Uncletopia | London | 5 | All Maps | STV","players":null},{"server_id":22,"name":"Uncletopia | London | 6 | All Maps","name_short":"lon-6","host":"lon-1.uk.uncletopia.com","port":27065,"enabled":true,"region":"eu","cc":"gb","latitude":51.509865,"longitude":-0.118092,"reserved":0,"last_update":"0001-01-01T00:00:00Z","name_a2s":"Uncletopia | London | 6 | All Maps","protocol":17,"map":"cp_process_final","folder":"tf","game":"Team Fortress","app_id":440,"player_count":0,"max_players":24,"Bots":0,"server_type":"Dedicated","server_os":"Linux","password":true,"vac":true,"version":"7723704","steam_id":85568392924742830,"keywords":["cp","nocrits","nodmgspread","uncletopia"],"game_id":440,"stv_port":27066,"stv_name":"Uncletopia | London | 6 | All Maps | STV","players":null},{"server_id":40,"name":"Uncletopia | London | 7 | No Payload","name_short":"lon-7","host":"lon-1.uk.uncletopia.com","port":27075,"enabled":true,"region":"eu","cc":"gb","latitude":51.509865,"longitude":-0.118092,"reserved":0,"last_update":"0001-01-01T00:00:00Z","name_a2s":"Uncletopia | London | 7 | No Payload","protocol":17,"map":"koth_viaduct","folder":"tf","game":"Team Fortress","app_id":440,"player_count":0,"max_players":24,"Bots":0,"server_type":"Dedicated","server_os":"Linux","password":true,"vac":true,"version":"7723704","steam_id":85568392924964314,"keywords":["cp","nocrits","nodmgspread","uncletopia"],"game_id":440,"stv_port":27076,"stv_name":"Uncletopia | London | 7 | No Payload | STV","players":null},{"server_id":41,"name":"Uncletopia | London | 8 | Community","name_short":"lon-8","host":"lon-1.uk.uncletopia.com","port":27085,"enabled":true,"region":"eu","cc":"gb","latitude":51.509865,"longitude":-0.118092,"reserved":0,"last_update":"0001-01-01T00:00:00Z","name_a2s":"Uncletopia | London | 8 | Community","protocol":17,"map":"koth_highpass","folder":"tf","game":"Team Fortress","app_id":440,"player_count":0,"max_players":24,"Bots":0,"server_type":"Dedicated","server_os":"Linux","password":true,"vac":true,"version":"7723704","steam_id":85568392924964315,"keywords":["cp","nocrits","nodmgspread","uncletopia"],"game_id":440,"stv_port":27086,"stv_name":"Uncletopia | London | 8 | Community | STV","players":null},{"server_id":300,"name":"Uncletopia | Montr√©al | 1 | All Maps","name_short":"mtl-1","host":"mtl-1.ca.uncletopia.com","port":27015,"enabled":true,"region":"us-east","cc":"ca","latitude":45.50889,"longitude":-73.56167,"reserved":0,"last_update":"0001-01-01T00:00:00Z","name_a2s":"Uncletopia | Montr√©al | 1 | All Maps","protocol":17,"map":"koth_cascade","folder":"tf","game":"Team Fortress","app_id":440,"player_count":0,"max_players":24,"Bots":0,"server_type":"Dedicated","server_os":"Linux","password":true,"vac":true,"version":"7723704","steam_id":85568392924500087,"keywords":["cp","nocrits","nodmgspread","uncletopia"],"game_id":440,"stv_port":27016,"stv_name":"Uncletopia | Montr√©al | 1 | All Maps | STV","players":null},{"server_id":301,"name":"Uncletopia | Montr√©al | 2 | All Maps","name_short":"mtl-2","host":"mtl-1.ca.uncletopia.com","port":27025,"enabled":true,"region":"us-east","cc":"ca","latitude":45.50889,"longitude":-73.56167,"reserved":0,"last_update":"0001-01-01T00:00:00Z","name_a2s":"Uncletopia | Montr√©al | 2 | All Maps","protocol":17,"map":"koth_highpass","folder":"tf","game":"Team Fortress","app_id":440,"player_count":0,"max_players":24,"Bots":0,"server_type":"Dedicated","server_os":"Linux","password":true,"vac":true,"version":"7723704","steam_id":85568392924500088,"keywords":["cp","nocrits","nodmgspread","uncletopia"],"game_id":440,"stv_port":27026,"stv_name":"Uncletopia | Montr√©al | 2 | All Maps | STV","players":null},{"server_id":302,"name":"Uncletopia | Montr√©al | 3 | All Maps","name_short":"mtl-3","host":"mtl-1.ca.uncletopia.com","port":27035,"enabled":true,"region":"us-east","cc":"ca","latitude":45.50889,"longitude":-73.56167,"reserved":0,"last_update":"0001-01-01T00:00:00Z","name_a2s":"Uncletopia | Montr√©al | 3 | All Maps","protocol":17,"map":"cp_mountainlab","folder":"tf","game":"Team Fortress","app_id":440,"player_count":0,"max_players":24,"Bots":0,"server_type":"Dedicated","server_os":"Linux","password":true,"vac":true,"version":"7723704","steam_id":85568392924500089,"keywords":["cp","nocrits","nodmgspread","uncletopia"],"game_id":440,"stv_port":27036,"stv_name":"Uncletopia | Montr√©al | 3 | All Maps | STV","players":null},{"server_id":303,"name":"Uncletopia | Montr√©al | 4 | No Payload","name_short":"mtl-4","host":"mtl-1.ca.uncletopia.com","port":27045,"enabled":true,"region":"us-east","cc":"ca","latitude":45.50889,"longitude":-73.56167,"reserved":0,"last_update":"0001-01-01T00:00:00Z","name_a2s":"Uncletopia | Montr√©al | 4 | No Payload","protocol":17,"map":"koth_viaduct","folder":"tf","game":"Team Fortress","app_id":440,"player_count":0,"max_players":24,"Bots":0,"server_type":"Dedicated","server_os":"Linux","password":true,"vac":true,"version":"7723704","steam_id":85568392924500090,"keywords":["cp","nocrits","nodmgspread","uncletopia"],"game_id":440,"stv_port":27046,"stv_name":"Uncletopia | Montr√©al | 4 | No Payload | STV","players":null},{"server_id":13,"name":"Uncletopia | New York City | 1 | All Maps","name_short":"nyc-1","host":"nyc-1.us.uncletopia.com","port":27015,"enabled":true,"region":"us-east","cc":"us","latitude":40.73061,"longitude":-73.93524,"reserved":0,"last_update":"0001-01-01T00:00:00Z","name_a2s":"Uncletopia | New York City | 1 | All Maps","protocol":17,"map":"pl_thundermountain","folder":"tf","game":"Team Fortress","app_id":440,"player_count":24,"max_players":24,"Bots":0,"server_type":"Dedicated","server_os":"Linux","password":true,"vac":true,"version":"7723704","steam_id":85568392924469993,"keywords":["nocrits","nodmgspread","payload","uncletopia"],"game_id":440,"stv_port":27016,"stv_name":"Uncletopia | New York City | 1 | All Maps | STV","players":[{"user_id":889,"name":"Funkyjello","steam_id":76561197987222312,"connected_time":559000000000,"state":"active","ping":106},{"user_id":858,"name":"KRELLAH","steam_id":76561198287045069,"connected_time":3740000000000,"state":"active","ping":59},{"user_id":854,"name":"PunishedJoe","steam_id":76561199105539011,"connected_time":4249000000000,"state":"active","ping":47},{"user_id":869,"name":"Menlymen","steam_id":76561198046508051,"connected_time":2150000000000,"state":"active","ping":93},{"user_id":824,"name":"iL","steam_id":76561198086331015,"connected_time":7370000000000,"state":"active","ping":35},{"user_id":892,"name":"McAdminbro","steam_id":76561198080159720,"connected_time":29000000000,"state":"active","ping":51},{"user_id":877,"name":"Vitaliy","steam_id":76561198370616231,"connected_time":1266000000000,"state":"active","ping":97},{"user_id":850,"name":"Spirit","steam_id":76561199069322627,"connected_time":5078000000000,"state":"active","ping":64},{"user_id":891,"name":"LividALX","steam_id":76561198145429015,"connected_time":176000000000,"state":"active","ping":53},{"user_id":790,"name":"An Inordinate Amount of Beans","steam_id":76561198022758805,"connected_time":9967000000000,"state":"active","ping":88},{"user_id":872,"name":"john","steam_id":76561199091322145,"connected_time":1876000000000,"state":"active","ping":166},{"user_id":882,"name":"ivly","steam_id":76561198057188361,"connected_time":872000000000,"state":"active","ping":83},{"user_id":883,"name":"EpicGuineaPig","steam_id":76561198157278281,"connected_time":815000000000,"state":"active","ping":81},{"user_id":864,"name":"Halcyon","steam_id":76561197999409268,"connected_time":3168000000000,"state":"active","ping":58},{"user_id":878,"name":"a table","steam_id":76561198158461279,"connected_time":1251000000000,"state":"active","ping":77},{"user_id":884,"name":"festive klevin","steam_id":76561198799106535,"connected_time":746000000000,"state":"active","ping":117},{"user_id":885,"name":"rongo swirll","steam_id":76561199005560857,"connected_time":743000000000,"state":"active","ping":78},{"user_id":887,"name":"Braindawg","steam_id":76561197988531991,"connected_time":611000000000,"state":"active","ping":94},{"user_id":855,"name":"LynBoByn","steam_id":76561198052911142,"connected_time":4243000000000,"state":"active","ping":51},{"user_id":888,"name":"stuporvillian","steam_id":76561198083796225,"connected_time":577000000000,"state":"active","ping":74},{"user_id":890,"name":"Ghost","steam_id":76561198110914180,"connected_time":539000000000,"state":"active","ping":173},{"user_id":800,"name":"Braamklauw","steam_id":76561198283287697,"connected_time":9584000000000,"state":"active","ping":142},{"user_id":857,"name":"bred","steam_id":76561198027061494,"connected_time":3838000000000,"state":"active","ping":80},{"user_id":801,"name":"Sir Quacksalot","steam_id":76561198048942777,"connected_time":9568000000000,"state":"active","ping":88}]},{"server_id":14,"name":"Uncletopia | New York City | 2 | All Maps","name_short":"nyc-2","host":"nyc-1.us.uncletopia.com","port":27025,"enabled":true,"region":"us-east","cc":"us","latitude":40.73061,"longitude":-73.93524,"reserved":0,"last_update":"0001-01-01T00:00:00Z","name_a2s":"Uncletopia | New York City | 2 | All Maps","protocol":17,"map":"koth_viaduct","folder":"tf","game":"Team Fortress","app_id":440,"player_count":0,"max_players":24,"Bots":0,"server_type":"Dedicated","server_os":"Linux","password":true,"vac":true,"version":"7723704","steam_id":85568392924469994,"keywords":["cp","nocrits","nodmgspread","uncletopia"],"game_id":440,"stv_port":27026,"stv_name":"Uncletopia | New York City | 2 | All Maps | STV","players":null},{"server_id":15,"name":"Uncletopia | New York City | 3 | Stopwatch Beta","name_short":"nyc-3","host":"nyc-1.us.uncletopia.com","port":27035,"enabled":true,"region":"us-east","cc":"us","latitude":40.73061,"longitude":-73.93524,"reserved":0,"last_update":"0001-01-01T00:00:00Z","name_a2s":"Uncletopia | New York City | 3 | Stopwatch Beta","protocol":17,"map":"pl_upward","folder":"tf","game":"Team Fortress","app_id":440,"player_count":7,"max_players":24,"Bots":0,"server_type":"Dedicated","server_os":"Linux","password":true,"vac":true,"version":"7723704","steam_id":85568392924742820,"keywords":["nocrits","nodmgspread","payload","uncletopia"],"game_id":440,"stv_port":27036,"stv_name":"Uncletopia | New York City | 3 | Stopwatch Beta | STV","players":[{"user_id":848,"name":"pretty b0y Medic","steam_id":76561198149611792,"connected_time":284000000000,"state":"active","ping":108},{"user_id":799,"name":"Cooldog","steam_id":76561198080548713,"connected_time":4160000000000,"state":"active","ping":49},{"user_id":845,"name":"DiscoTraveler","steam_id":76561199240168088,"connected_time":991000000000,"state":"active","ping":45},{"user_id":849,"name":"gobi","steam_id":76561199289914802,"connected_time":273000000000,"state":"active","ping":237},{"user_id":850,"name":"Gob From My Singing Monsters","steam_id":76561198272471440,"connected_time":170000000000,"state":"active","ping":98},{"user_id":843,"name":"Chicken Nugget","steam_id":76561198082601232,"connected_time":1372000000000,"state":"active","ping":45},{"user_id":818,"name":"Nobody","steam_id":76561198286486517,"connected_time":2699000000000,"state":"active","ping":67}]},{"server_id":16,"name":"Uncletopia | New York City | 4 | Community","name_short":"nyc-4","host":"nyc-1.us.uncletopia.com","port":27045,"enabled":true,"region":"us-east","cc":"us","latitude":40.73061,"longitude":-73.93524,"reserved":0,"last_update":"0001-01-01T00:00:00Z","name_a2s":"Uncletopia | New York City | 4 | Community","protocol":17,"map":"workshop/koth_bagel_rc5.ugc2514036946","folder":"tf","game":"Team Fortress","app_id":440,"player_count":0,"max_players":24,"Bots":0,"server_type":"Dedicated","server_os":"Linux","password":true,"vac":true,"version":"7723704","steam_id":85568392924742821,"keywords":["cp","nocrits","nodmgspread","uncletopia"],"game_id":440,"stv_port":27046,"stv_name":"Uncletopia | New York City | 4 | Community | STV","players":null},{"server_id":142,"name":"Uncletopia | S√£o Paulo | 1 | All Maps","name_short":"sao-1","host":"sao-1.br.uncletopia.com","port":27015,"enabled":true,"region":"sa","cc":"br","latitude":-23.533773,"longitude":-46.62529,"reserved":0,"last_update":"0001-01-01T00:00:00Z","name_a2s":"Uncletopia | S√£o Paulo | 1 | All Maps","protocol":17,"map":"cp_process_final","folder":"tf","game":"Team Fortress","app_id":440,"player_count":0,"max_players":24,"Bots":0,"server_type":"Dedicated","server_os":"Linux","password":true,"vac":true,"version":"7723704","steam_id":85568392924469996,"keywords":["cp","nocrits","nodmgspread","uncletopia"],"game_id":440,"stv_port":27016,"stv_name":"Uncletopia | S√£o Paulo | 1 | All Maps | STV","players":null},{"server_id":143,"name":"Uncletopia | S√£o Paulo | 2 | All Maps","name_short":"sao-2","host":"sao-2.br.uncletopia.com","port":27015,"enabled":true,"region":"sa","cc":"br","latitude":-23.533773,"longitude":-46.62529,"reserved":0,"last_update":"0001-01-01T00:00:00Z","name_a2s":"Uncletopia | S√£o Paulo | 2 | All Maps","protocol":17,"map":"pl_frontier_final","folder":"tf","game":"Team Fortress","app_id":440,"player_count":0,"max_players":24,"Bots":0,"server_type":"Dedicated","server_os":"Linux","password":true,"vac":true,"version":"7723704","steam_id":85568392924485349,"keywords":["nocrits","nodmgspread","payload","uncletopia"],"game_id":440,"stv_port":27016,"stv_name":"Uncletopia | S√£o Paulo | 2 | All Maps | STV","players":null},{"server_id":7,"name":"Uncletopia | Seattle | 1 | All Maps","name_short":"sea-1","host":"sea-1.us.uncletopia.com","port":27015,"enabled":true,"region":"us-west","cc":"us","latitude":47.608013,"longitude":-122.33517,"reserved":0,"last_update":"0001-01-01T00:00:00Z","name_a2s":"Uncletopia | Seattle | 1 | All Maps","protocol":17,"map":"pl_upward","folder":"tf","game":"Team Fortress","app_id":440,"player_count":24,"max_players":24,"Bots":0,"server_type":"Dedicated","server_os":"Linux","password":true,"vac":true,"version":"7723704","steam_id":85568392924469997,"keywords":["nocrits","nodmgspread","payload","uncletopia"],"game_id":440,"stv_port":27016,"stv_name":"Uncletopia | Seattle | 1 | All Maps | STV","players":[{"user_id":575,"name":"The Caretaker","steam_id":76561198125241411,"connected_time":4918000000000,"state":"active","ping":102},{"user_id":616,"name":"squash","steam_id":76561198150281353,"connected_time":73000000000,"state":"active","ping":59},{"user_id":614,"name":"log","steam_id":76561198400863005,"connected_time":164000000000,"state":"active","ping":107},{"user_id":599,"name":"profile name","steam_id":76561198032625036,"connected_time":1818000000000,"state":"active","ping":59},{"user_id":584,"name":"El Gato Paranoico","steam_id":76561198116567116,"connected_time":3496000000000,"state":"active","ping":119},{"user_id":609,"name":"blessed yule","steam_id":76561198146228439,"connected_time":1000000000000,"state":"active","ping":51},{"user_id":569,"name":"Brathic","steam_id":76561198966232163,"connected_time":5314000000000,"state":"active","ping":77},{"user_id":590,"name":"mhmyeah_yeahmhm","steam_id":76561198341190679,"connected_time":3003000000000,"state":"active","ping":64},{"user_id":557,"name":"fwoov","steam_id":76561198129166260,"connected_time":6230000000000,"state":"active","ping":75},{"user_id":565,"name":"bbbbb","steam_id":76561198095480838,"connected_time":5356000000000,"state":"active","ping":46},{"user_id":600,"name":"blinkerton city","steam_id":76561198054270410,"connected_time":1773000000000,"state":"active","ping":59},{"user_id":607,"name":"mub","steam_id":76561197961943948,"connected_time":1241000000000,"state":"active","ping":46},{"user_id":612,"name":"Cheezbeargur","steam_id":76561198164702899,"connected_time":660000000000,"state":"active","ping":62},{"user_id":610,"name":"Asphodel","steam_id":76561198750101819,"connected_time":682000000000,"state":"active","ping":56},{"user_id":449,"name":"shane","steam_id":76561198060491451,"connected_time":10548000000000,"state":"active","ping":100},{"user_id":581,"name":"Sniff","steam_id":76561198010270922,"connected_time":4072000000000,"state":"active","ping":46},{"user_id":570,"name":"Arsonist Goose","steam_id":76561198147441830,"connected_time":5313000000000,"state":"active","ping":75},{"user_id":608,"name":"Dia Shakes","steam_id":76561198099617734,"connected_time":1234000000000,"state":"active","ping":63},{"user_id":598,"name":"delight","steam_id":76561197980280272,"connected_time":1943000000000,"state":"active","ping":55},{"user_id":580,"name":"Savant","steam_id":76561197969881916,"connected_time":4269000000000,"state":"active","ping":59},{"user_id":613,"name":"TehBroccolini","steam_id":76561198150308387,"connected_time":610000000000,"state":"active","ping":78},{"user_id":525,"name":"lavender","steam_id":76561199069518286,"connected_time":8775000000000,"state":"active","ping":75},{"user_id":617,"name":"ed","steam_id":76561198080475712,"connected_time":68000000000,"state":"active","ping":66},{"user_id":611,"name":"MidgetFeats","steam_id":76561198044248113,"connected_time":681000000000,"state":"active","ping":57}]},{"server_id":119,"name":"Uncletopia | Seattle | 2 | All Maps","name_short":"sea-2","host":"sea-1.us.uncletopia.com","port":27025,"enabled":true,"region":"us-west","cc":"us","latitude":47.608013,"longitude":-122.33517,"reserved":0,"last_update":"0001-01-01T00:00:00Z","name_a2s":"Uncletopia | Seattle | 2 | All Maps","protocol":17,"map":"pl_frontier_final","folder":"tf","game":"Team Fortress","app_id":440,"player_count":24,"max_players":24,"Bots":0,"server_type":"Dedicated","server_os":"Linux","password":true,"vac":true,"version":"7723704","steam_id":85568392924469998,"keywords":["nocrits","nodmgspread","payload","uncletopia"],"game_id":440,"stv_port":27026,"stv_name":"Uncletopia | Seattle | 2 | All Maps | STV","players":[{"user_id":575,"name":"Hindmost","steam_id":76561199081837220,"connected_time":2926000000000,"state":"active","ping":79},{"user_id":580,"name":"Dauntless Duelist","steam_id":76561198025056018,"connected_time":2679000000000,"state":"active","ping":46},{"user_id":609,"name":"Otto","steam_id":76561198042136113,"connected_time":894000000000,"state":"active","ping":41},{"user_id":623,"name":"TROY","steam_id":76561197983852176,"connected_time":40000000000,"state":"active","ping":66},{"user_id":621,"name":"goldhed","steam_id":76561198051751133,"connected_time":362000000000,"state":"active","ping":55},{"user_id":611,"name":"Trash Mann","steam_id":76561199371919133,"connected_time":818000000000,"state":"active","ping":131},{"user_id":613,"name":"InfernoFlower64","steam_id":76561198181097391,"connected_time":754000000000,"state":"active","ping":90},{"user_id":606,"name":"Tom Skirrett","steam_id":76561198014600788,"connected_time":1028000000000,"state":"active","ping":67},{"user_id":582,"name":"Emotional Skyscraper Worlds End","steam_id":76561198214370515,"connected_time":2653000000000,"state":"active","ping":75},{"user_id":614,"name":"Gremlin Bird","steam_id":76561198039624549,"connected_time":722000000000,"state":"active","ping":111},{"user_id":615,"name":"Zlavus","steam_id":76561198217652861,"connected_time":684000000000,"state":"active","ping":59},{"user_id":597,"name":"intek","steam_id":76561198052705291,"connected_time":2139000000000,"state":"active","ping":89},{"user_id":598,"name":"dead.","steam_id":76561199159855869,"connected_time":2083000000000,"state":"active","ping":125},{"user_id":588,"name":"Richard Pinchy","steam_id":76561198316992547,"connected_time":2339000000000,"state":"active","ping":130},{"user_id":616,"name":"dish soap","steam_id":76561198085982867,"connected_time":674000000000,"state":"active","ping":80},{"user_id":618,"name":"Ddonut gamer","steam_id":76561198858852245,"connected_time":599000000000,"state":"active","ping":81},{"user_id":607,"name":"Drealen","steam_id":76561198335922447,"connected_time":954000000000,"state":"active","ping":47},{"user_id":608,"name":"LordMorphesus","steam_id":76561198026995104,"connected_time":948000000000,"state":"active","ping":41},{"user_id":619,"name":"Jface1221","steam_id":76561198188082091,"connected_time":581000000000,"state":"active","ping":78},{"user_id":558,"name":"Flyingcat9000","steam_id":76561198179561797,"connected_time":4536000000000,"state":"active","ping":55},{"user_id":620,"name":"Mr Happy","steam_id":76561198067689328,"connected_time":550000000000,"state":"active","ping":108},{"user_id":596,"name":"SilentScott","steam_id":76561198236688652,"connected_time":2180000000000,"state":"active","ping":47},{"user_id":599,"name":"bad spy player","steam_id":76561198873699671,"connected_time":2075000000000,"state":"active","ping":44},{"user_id":600,"name":"Hamosac","steam_id":76561198159917051,"connected_time":2062000000000,"state":"active","ping":137}]},{"server_id":406,"name":"Uncletopia | Seattle | 3 | Stopwatch Beta","name_short":"sea-3","host":"sea-1.us.uncletopia.com","port":27035,"enabled":true,"region":"us-west","cc":"us","latitude":47.608013,"longitude":-122.33517,"reserved":0,"last_update":"0001-01-01T00:00:00Z","name_a2s":"Uncletopia | Seattle | 3 | Stopwatch Beta","protocol":17,"map":"cp_altitude","folder":"tf","game":"Team Fortress","app_id":440,"player_count":0,"max_players":24,"Bots":0,"server_type":"Dedicated","server_os":"Linux","password":true,"vac":false,"version":"7723704","steam_id":0,"keywords":["cp","nocrits","nodmgspread","uncletopia"],"game_id":440,"stv_port":27036,"stv_name":"Uncletopia | Seattle | 3 | Stopwatch Beta | STV","players":null},{"server_id":17,"name":"Uncletopia | San Francisco | 1 | All Maps","name_short":"sfo-1","host":"sfo-1.us.uncletopia.com","port":27015,"enabled":true,"region":"us-west","cc":"us","latitude":37.77397,"longitude":-122.4313,"reserved":0,"last_update":"0001-01-01T00:00:00Z","name_a2s":"Uncletopia | San Francisco | 1 | All Maps","protocol":17,"map":"pl_upward","folder":"tf","game":"Team Fortress","app_id":440,"player_count":24,"max_players":24,"Bots":0,"server_type":"Dedicated","server_os":"Linux","password":true,"vac":true,"version":"7723704","steam_id":85568392924469999,"keywords":["nocrits","nodmgspread","payload","uncletopia"],"game_id":440,"stv_port":27016,"stv_name":"Uncletopia | San Francisco | 1 | All Maps | STV","players":[{"user_id":584,"name":"machote","steam_id":76561198025368981,"connected_time":212000000000,"state":"active","ping":55},{"user_id":570,"name":"High Cotton","steam_id":76561197998894854,"connected_time":1634000000000,"state":"active","ping":118},{"user_id":574,"name":"snugthebug","steam_id":76561198030964222,"connected_time":833000000000,"state":"active","ping":103},{"user_id":575,"name":"BrightOrangeMango","steam_id":76561198023144607,"connected_time":812000000000,"state":"active","ping":69},{"user_id":571,"name":"rat eater","steam_id":76561198955453886,"connected_time":1476000000000,"state":"active","ping":90},{"user_id":576,"name":"Sad Sapling","steam_id":76561198075612150,"connected_time":812000000000,"state":"active","ping":59},{"user_id":572,"name":"original joke","steam_id":76561199194587482,"connected_time":1414000000000,"state":"active","ping":78},{"user_id":577,"name":"Livin' Like Larry","steam_id":76561198313360974,"connected_time":797000000000,"state":"active","ping":33},{"user_id":568,"name":"Pikky","steam_id":76561198133170057,"connected_time":1826000000000,"state":"active","ping":48},{"user_id":567,"name":"BRK.","steam_id":76561198079634017,"connected_time":1879000000000,"state":"active","ping":66},{"user_id":578,"name":"Ivan the semi friendly pyro","steam_id":76561199090937341,"connected_time":788000000000,"state":"active","ping":43},{"user_id":532,"name":"Y'all are Garage","steam_id":76561198012829324,"connected_time":4093000000000,"state":"active","ping":62},{"user_id":533,"name":"meow_the_cat","steam_id":76561198294347721,"connected_time":4086000000000,"state":"active","ping":54},{"user_id":586,"name":"LazyDoll","steam_id":76561198053186338,"connected_time":29000000000,"state":"active","ping":58},{"user_id":580,"name":"vanillain","steam_id":76561198058617608,"connected_time":659000000000,"state":"active","ping":67},{"user_id":582,"name":"Um, cool!","steam_id":76561198129870038,"connected_time":327000000000,"state":"active","ping":53},{"user_id":587,"name":"GLOCK 20g5 IS REEEEEAAALLL","steam_id":76561198081681647,"connected_time":12000000000,"state":"active","ping":96},{"user_id":551,"name":"T^T | pHIL - \u003c3 sab","steam_id":76561198309010627,"connected_time":2615000000000,"state":"active","ping":62},{"user_id":564,"name":"sweaterfan","steam_id":76561199389567214,"connected_time":2047000000000,"state":"active","ping":98},{"user_id":583,"name":"Ayayahuasca","steam_id":76561199002906056,"connected_time":319000000000,"state":"active","ping":66},{"user_id":561,"name":"Triix","steam_id":76561198979680941,"connected_time":2177000000000,"state":"active","ping":31},{"user_id":543,"name":"Sinn","steam_id":76561199013434543,"connected_time":3641000000000,"state":"active","ping":55},{"user_id":585,"name":"Lily Thorn","steam_id":76561198305488625,"connected_time":104000000000,"state":"active","ping":79},{"user_id":566,"name":"Mischief of Rats","steam_id":76561198106307068,"connected_time":1914000000000,"state":"active","ping":101}]},{"server_id":18,"name":"Uncletopia | San Francisco | 2 | All Maps","name_short":"sfo-2","host":"sfo-1.us.uncletopia.com","port":27025,"enabled":true,"region":"us-west","cc":"us","latitude":37.77397,"longitude":-122.4313,"reserved":0,"last_update":"0001-01-01T00:00:00Z","name_a2s":"Uncletopia | San Francisco | 2 | All Maps","protocol":17,"map":"pl_pier","folder":"tf","game":"Team Fortress","app_id":440,"player_count":0,"max_players":24,"Bots":0,"server_type":"Dedicated","server_os":"Linux","password":true,"vac":true,"version":"7723704","steam_id":85568392924470000,"keywords":["nocrits","nodmgspread","payload","uncletopia"],"game_id":440,"stv_port":27026,"stv_name":"Uncletopia | San Francisco | 2 | All Maps | STV","players":null},{"server_id":19,"name":"Uncletopia | San Francisco | 3 | Stopwatch Beta","name_short":"sfo-3","host":"sfo-1.us.uncletopia.com","port":27035,"enabled":true,"region":"us-west","cc":"us","latitude":37.77397,"longitude":-122.4313,"reserved":0,"last_update":"0001-01-01T00:00:00Z","name_a2s":"Uncletopia | San Francisco | 3 | Stopwatch Beta","protocol":17,"map":"pl_pier","folder":"tf","game":"Team Fortress","app_id":440,"player_count":0,"max_players":24,"Bots":0,"server_type":"Dedicated","server_os":"Linux","password":true,"vac":true,"version":"7723704","steam_id":85568392924742824,"keywords":["nocrits","nodmgspread","payload","uncletopia"],"game_id":440,"stv_port":27036,"stv_name":"Uncletopia | San Francisco | 3 | Stopwatch Beta | STV","players":null},{"server_id":20,"name":"Uncletopia | San Francisco | 4 | Community","name_short":"sfo-4","host":"sfo-1.us.uncletopia.com","port":27045,"enabled":true,"region":"us-west","cc":"us","latitude":37.77397,"longitude":-122.4313,"reserved":0,"last_update":"0001-01-01T00:00:00Z","name_a2s":"Uncletopia | San Francisco | 4 | Community","protocol":17,"map":"koth_cascade","folder":"tf","game":"Team Fortress","app_id":440,"player_count":0,"max_players":24,"Bots":0,"server_type":"Dedicated","server_os":"Linux","password":true,"vac":true,"version":"7723704","steam_id":85568392924742826,"keywords":["cp","nocrits","nodmgspread","uncletopia"],"game_id":440,"stv_port":27046,"stv_name":"Uncletopia | San Francisco | 4 | Community | STV","players":null},{"server_id":141,"name":"Uncletopia | Sydney | 1 | All Maps","name_short":"syd-1","host":"syd-1.au.uncletopia.com","port":27015,"enabled":true,"region":"au","cc":"au","latitude":-33.865143,"longitude":151.2099,"reserved":0,"last_update":"0001-01-01T00:00:00Z","name_a2s":"Uncletopia | Sydney | 1 | All Maps","protocol":17,"map":"pl_pier","folder":"tf","game":"Team Fortress","app_id":440,"player_count":24,"max_players":24,"Bots":0,"server_type":"Dedicated","server_os":"Linux","password":true,"vac":true,"version":"7723704","steam_id":85568392924470001,"keywords":["nocrits","nodmgspread","payload","uncletopia"],"game_id":440,"stv_port":27016,"stv_name":"Uncletopia | Sydney | 1 | All Maps | STV","players":[{"user_id":335,"name":"Meihronias","steam_id":76561199163845108,"connected_time":2678000000000,"state":"active","ping":61},{"user_id":285,"name":"sat_","steam_id":76561198170693338,"connected_time":6746000000000,"state":"active","ping":85},{"user_id":370,"name":"Ditzy","steam_id":76561198120774968,"connected_time":372000000000,"state":"active","ping":76},{"user_id":348,"name":"ToeJam \u0026 Earl Sweatshirt","steam_id":76561198067883394,"connected_time":1794000000000,"state":"active","ping":109},{"user_id":336,"name":"Rant","steam_id":76561198949751771,"connected_time":2675000000000,"state":"active","ping":33},{"user_id":355,"name":"Worst Sniper","steam_id":76561198025733081,"connected_time":1110000000000,"state":"active","ping":78},{"user_id":347,"name":"Jy","steam_id":76561198104427524,"connected_time":2058000000000,"state":"active","ping":45},{"user_id":358,"name":"Kevinrulz2","steam_id":76561199445893884,"connected_time":1015000000000,"state":"active","ping":56},{"user_id":302,"name":"iceage2","steam_id":76561198072382387,"connected_time":5598000000000,"state":"active","ping":62},{"user_id":360,"name":"Speed-moment","steam_id":76561198138604894,"connected_time":1004000000000,"state":"active","ping":56},{"user_id":350,"name":"giant giovanni","steam_id":76561198813886004,"connected_time":1296000000000,"state":"active","ping":48},{"user_id":368,"name":"Dougs","steam_id":76561198152150296,"connected_time":493000000000,"state":"active","ping":65},{"user_id":365,"name":"FatSpy","steam_id":76561198845967541,"connected_time":805000000000,"state":"active","ping":59},{"user_id":328,"name":"hobo","steam_id":76561199046481213,"connected_time":3440000000000,"state":"active","ping":60},{"user_id":354,"name":"Dr. D Snutts","steam_id":76561198049290016,"connected_time":1144000000000,"state":"active","ping":41},{"user_id":371,"name":"nite","steam_id":76561198797671189,"connected_time":311000000000,"state":"active","ping":56},{"user_id":367,"name":"tenten","steam_id":76561198402822072,"connected_time":764000000000,"state":"active","ping":104},{"user_id":364,"name":"El Chupacabra","steam_id":76561198070641651,"connected_time":945000000000,"state":"active","ping":47},{"user_id":356,"name":"speed bomb","steam_id":76561198277363788,"connected_time":1041000000000,"state":"active","ping":73},{"user_id":369,"name":"enemy gamer","steam_id":76561198127848228,"connected_time":376000000000,"state":"active","ping":65},{"user_id":349,"name":"Selling Anti-Matter for $543","steam_id":76561198070708382,"connected_time":1562000000000,"state":"active","ping":46},{"user_id":362,"name":"Reddaye","steam_id":76561198025232124,"connected_time":995000000000,"state":"active","ping":45},{"user_id":363,"name":"KeeperOfBalance","steam_id":76561198028070089,"connected_time":994000000000,"state":"active","ping":84},{"user_id":325,"name":"Sheepzblade","steam_id":76561199091553099,"connected_time":3592000000000,"state":"active","ping":60}]},{"server_id":123,"name":"Uncletopia | Sydney | 2 | All Maps","name_short":"syd-2","host":"syd-1.au.uncletopia.com","port":27025,"enabled":true,"region":"au","cc":"au","latitude":-33.865143,"longitude":151.2099,"reserved":0,"last_update":"0001-01-01T00:00:00Z","name_a2s":"Uncletopia | Sydney | 2 | All Maps","protocol":17,"map":"pl_swiftwater_final1","folder":"tf","game":"Team Fortress","app_id":440,"player_count":24,"max_players":24,"Bots":0,"server_type":"Dedicated","server_os":"Linux","password":true,"vac":true,"version":"7723704","steam_id":85568392924470002,"keywords":["nocrits","nodmgspread","payload","uncletopia"],"game_id":440,"stv_port":27026,"stv_name":"Uncletopia | Sydney | 2 | All Maps | STV","players":[{"user_id":22,"name":"my honey in christ","steam_id":76561198037965602,"connected_time":4176000000000,"state":"active","ping":45},{"user_id":23,"name":"my honey in sleeve","steam_id":76561198016686295,"connected_time":4172000000000,"state":"active","ping":75},{"user_id":24,"name":"not flow","steam_id":76561198113244106,"connected_time":4163000000000,"state":"active","ping":44},{"user_id":25,"name":"RAINY BIG BRAINY","steam_id":76561198009848533,"connected_time":4162000000000,"state":"active","ping":47},{"user_id":27,"name":"freaky","steam_id":76561198061174192,"connected_time":4137000000000,"state":"active","ping":57},{"user_id":28,"name":"pizza supper","steam_id":76561198044487625,"connected_time":4096000000000,"state":"active","ping":47},{"user_id":70,"name":"brain not functioning","steam_id":76561198313578155,"connected_time":652000000000,"state":"active","ping":40},{"user_id":72,"name":"Chooka","steam_id":76561197992307814,"connected_time":479000000000,"state":"active","ping":68},{"user_id":75,"name":"Diavolo Diablo","steam_id":76561198166295333,"connected_time":312000000000,"state":"active","ping":166},{"user_id":77,"name":"Pompadouraus","steam_id":76561198327530525,"connected_time":228000000000,"state":"active","ping":75},{"user_id":64,"name":"RedTeamShadow","steam_id":76561198760005681,"connected_time":1632000000000,"state":"active","ping":59},{"user_id":65,"name":"maid","steam_id":76561197999096050,"connected_time":1344000000000,"state":"active","ping":52},{"user_id":57,"name":"War","steam_id":76561198157868917,"connected_time":2713000000000,"state":"active","ping":60},{"user_id":51,"name":"Chick_Chick_Boom1","steam_id":76561198050225799,"connected_time":3216000000000,"state":"active","ping":59},{"user_id":78,"name":"hery","steam_id":76561199426492264,"connected_time":55000000000,"state":"active","ping":55},{"user_id":42,"name":"christ enamoured","steam_id":76561198836003115,"connected_time":3705000000000,"state":"active","ping":63},{"user_id":74,"name":"Racecar Richards","steam_id":76561198066440524,"connected_time":399000000000,"state":"active","ping":97},{"user_id":76,"name":"FAgus","steam_id":76561198050013374,"connected_time":280000000000,"state":"active","ping":67},{"user_id":54,"name":"a can of beans","steam_id":76561199005815714,"connected_time":2988000000000,"state":"active","ping":55},{"user_id":53,"name":"Bing Soy","steam_id":76561198057093383,"connected_time":3101000000000,"state":"active","ping":49},{"user_id":56,"name":"Michaelsoft Binbows","steam_id":76561198422847304,"connected_time":2869000000000,"state":"active","ping":59},{"user_id":59,"name":"no teles 4 u","steam_id":76561198018478297,"connected_time":2531000000000,"state":"active","ping":64},{"user_id":60,"name":"Link","steam_id":76561198043171944,"connected_time":2445000000000,"state":"active","ping":60},{"user_id":61,"name":"Wampy","steam_id":76561199211235248,"connected_time":2367000000000,"state":"active","ping":53}]},{"server_id":395,"name":"Uncletopia | Sydney | 3 | All Maps","name_short":"syd-3","host":"syd-1.au.uncletopia.com","port":27035,"enabled":true,"region":"au","cc":"au","latitude":-33.865143,"longitude":151.2099,"reserved":0,"last_update":"0001-01-01T00:00:00Z","name_a2s":"Uncletopia | Sydney | 3 | All Maps","protocol":17,"map":"cp_process_final","folder":"tf","game":"Team Fortress","app_id":440,"player_count":0,"max_players":24,"Bots":0,"server_type":"Dedicated","server_os":"Linux","password":true,"vac":true,"version":"7723704","steam_id":85568392925194467,"keywords":["cp","nocrits","nodmgspread","uncletopia"],"game_id":440,"stv_port":27036,"stv_name":"Uncletopia | Sydney | 3 | All Maps | STV","players":null},{"server_id":396,"name":"Uncletopia | Sydney | 4 | All Maps","name_short":"syd-4","host":"syd-1.au.uncletopia.com","port":27045,"enabled":true,"region":"au","cc":"au","latitude":-33.865143,"longitude":151.2099,"reserved":0,"last_update":"0001-01-01T00:00:00Z","name_a2s":"Uncletopia | Sydney | 4 | All Maps","protocol":17,"map":"koth_viaduct","folder":"tf","game":"Team Fortress","app_id":440,"player_count":0,"max_players":24,"Bots":0,"server_type":"Dedicated","server_os":"Linux","password":true,"vac":true,"version":"7723704","steam_id":85568392925397958,"keywords":["cp","nocrits","nodmgspread","uncletopia"],"game_id":440,"stv_port":27046,"stv_name":"Uncletopia | Sydney | 4 | All Maps | STV","players":null},{"server_id":58,"name":"Uncletopia | Sydney | 5 | Stopwatch Beta","name_short":"syd-5","host":"syd-1.au.uncletopia.com","port":27055,"enabled":true,"region":"au","cc":"au","latitude":-33.865143,"longitude":151.2099,"reserved":0,"last_update":"0001-01-01T00:00:00Z","name_a2s":"Uncletopia | Sydney | 5 | Stopwatch Beta","protocol":17,"map":"cp_altitude","folder":"tf","game":"Team Fortress","app_id":440,"player_count":0,"max_players":24,"Bots":0,"server_type":"Dedicated","server_os":"Linux","password":true,"vac":true,"version":"7723704","steam_id":85568392925397959,"keywords":["cp","nocrits","nodmgspread","uncletopia"],"game_id":440,"stv_port":27056,"stv_name":"Uncletopia | Sydney | 5 | Stopwatch Beta | STV","players":null},{"server_id":59,"name":"Uncletopia | Sydney | 6 | Community","name_short":"syd-6","host":"syd-1.au.uncletopia.com","port":27065,"enabled":true,"region":"au","cc":"au","latitude":-33.865143,"longitude":151.2099,"reserved":0,"last_update":"0001-01-01T00:00:00Z","name_a2s":"Uncletopia | Sydney | 6 | Community","protocol":17,"map":"workshop/cp_caldera_rc2.ugc2834196889","folder":"tf","game":"Team Fortress","app_id":440,"player_count":0,"max_players":24,"Bots":0,"server_type":"Dedicated","server_os":"Linux","password":true,"vac":true,"version":"7723704","steam_id":85568392925397960,"keywords":["cp","nocrits","nodmgspread","uncletopia"],"game_id":440,"stv_port":27066,"stv_name":"Uncletopia | Sydney | 6 | Community | STV","players":null},{"server_id":49,"name":"Uncletopia | Warsaw | 1 | All Maps","name_short":"waw-1","host":"waw-1.pl.uncletopia.com","port":27015,"enabled":true,"region":"eu","cc":"pl","latitude":52.2297,"longitude":21.017532,"reserved":0,"last_update":"0001-01-01T00:00:00Z","name_a2s":"Uncletopia | Warsaw | 1 | All Maps","protocol":17,"map":"cp_snakewater_final1","folder":"tf","game":"Team Fortress","app_id":440,"player_count":0,"max_players":24,"Bots":0,"server_type":"Dedicated","server_os":"Linux","password":true,"vac":true,"version":"7723704","steam_id":85568392925397850,"keywords":["cp","nocrits","nodmgspread","uncletopia"],"game_id":440,"stv_port":27016,"stv_name":"Uncletopia | Warsaw | 1 | All Maps | STV","players":null},{"server_id":50,"name":"Uncletopia | Warsaw | 2 | All Maps","name_short":"waw-2","host":"waw-1.pl.uncletopia.com","port":27025,"enabled":true,"region":"eu","cc":"pl","latitude":52.2297,"longitude":21.017532,"reserved":0,"last_update":"0001-01-01T00:00:00Z","name_a2s":"Uncletopia | Warsaw | 2 | All Maps","protocol":17,"map":"pl_barnblitz","folder":"tf","game":"Team Fortress","app_id":440,"player_count":0,"max_players":24,"Bots":0,"server_type":"Dedicated","server_os":"Linux","password":true,"vac":true,"version":"7723704","steam_id":85568392925397851,"keywords":["nocrits","nodmgspread","payload","uncletopia"],"game_id":440,"stv_port":27026,"stv_name":"Uncletopia | Warsaw | 2 | All Maps | STV","players":null},{"server_id":51,"name":"Uncletopia | Warsaw | 3 | All Maps","name_short":"waw-3","host":"waw-1.pl.uncletopia.com","port":27035,"enabled":true,"region":"eu","cc":"pl","latitude":52.2297,"longitude":21.017532,"reserved":0,"last_update":"0001-01-01T00:00:00Z","name_a2s":"Uncletopia | Warsaw | 3 | All Maps","protocol":17,"map":"pl_barnblitz","folder":"tf","game":"Team Fortress","app_id":440,"player_count":0,"max_players":24,"Bots":0,"server_type":"Dedicated","server_os":"Linux","password":true,"vac":true,"version":"7723704","steam_id":85568392925397852,"keywords":["nocrits","nodmgspread","payload","uncletopia"],"game_id":440,"stv_port":27036,"stv_name":"Uncletopia | Warsaw | 3 | All Maps | STV","players":null},{"server_id":52,"name":"Uncletopia | Warsaw | 4 | All Maps","name_short":"waw-4","host":"waw-1.pl.uncletopia.com","port":27045,"enabled":true,"region":"eu","cc":"pl","latitude":52.2297,"longitude":21.017532,"reserved":0,"last_update":"0001-01-01T00:00:00Z","name_a2s":"Uncletopia | Warsaw | 4 | All Maps","protocol":17,"map":"pl_snowycoast","folder":"tf","game":"Team Fortress","app_id":440,"player_count":0,"max_players":24,"Bots":0,"server_type":"Dedicated","server_os":"Linux","password":true,"vac":true,"version":"7723704","steam_id":85568392925397853,"keywords":["nocrits","nodmgspread","payload","uncletopia"],"game_id":440,"stv_port":27046,"stv_name":"Uncletopia | Warsaw | 4 | All Maps | STV","players":null},{"server_id":53,"name":"Uncletopia | Warsaw | 5 | Stopwatch Beta","name_short":"waw-5","host":"waw-1.pl.uncletopia.com","port":27055,"enabled":true,"region":"eu","cc":"pl","latitude":52.2297,"longitude":21.017532,"reserved":0,"last_update":"0001-01-01T00:00:00Z","name_a2s":"Uncletopia | Warsaw | 5 | Stopwatch Beta","protocol":17,"map":"cp_sunshine","folder":"tf","game":"Team Fortress","app_id":440,"player_count":0,"max_players":24,"Bots":0,"server_type":"Dedicated","server_os":"Linux","password":true,"vac":true,"version":"7723704","steam_id":85568392925397854,"keywords":["cp","nocrits","nodmgspread","uncletopia"],"game_id":440,"stv_port":27056,"stv_name":"Uncletopia | Warsaw | 5 | Stopwatch Beta | STV","players":null},{"server_id":54,"name":"Uncletopia | Warsaw | 6 | Community","name_short":"waw-6","host":"waw-1.pl.uncletopia.com","port":27065,"enabled":true,"region":"eu","cc":"pl","latitude":52.2297,"longitude":21.017532,"reserved":0,"last_update":"0001-01-01T00:00:00Z","name_a2s":"Uncletopia | Warsaw | 6 | Community","protocol":17,"map":"pl_snowycoast","folder":"tf","game":"Team Fortress","app_id":440,"player_count":0,"max_players":24,"Bots":0,"server_type":"Dedicated","server_os":"Linux","password":true,"vac":true,"version":"7723704","steam_id":85568392925397856,"keywords":["nocrits","nodmgspread","payload","uncletopia"],"game_id":440,"stv_port":27066,"stv_name":"Uncletopia | Warsaw | 6 | Community | STV","players":null}]}