{"status":true,"message":"","result":[{"server_id":9,"name":"Uncletopia | Atlanta | 1 | All Maps","name_short":"atl-1","host":"atl-1.us.uncletopia.com","port":27015,"enabled":true,"region":"us-east","cc":"us","latitude":33.753746,"longitude":-84.38633,"reserved":0,"last_update":"0001-01-01T00:00:00Z","name_a2s":"Uncletopia | Atlanta | 1 | All Maps","protocol":17,"map":"koth_cascade","folder":"tf","game":"Team Fortress","app_id":440,"player_count":0,"max_players":24,"Bots":0,"server_type":"Dedicated","server_os":"Linux","password":true,"vac":true,"version":"7757534","steam_id":85568392924469982,"keywords":["cp","nocrits","nodmgspread","uncletopia"],"game_id":440,"stv_port":27016,"stv_name":"Uncletopia | Atlanta | 1 | All Maps | STV","players":null},{"server_id":104,"name":"Uncletopia | Atlanta | 2 | All Maps","name_short":"atl-2","host":"atl-1.us.uncletopia.com","port":27025,"enabled":true,"region":"us-east","cc":"us","latitude":33.753746,"longitude":-84.38633,"reserved":0,"last_update":"0001-01-01T00:00:00Z","name_a2s":"Uncletopia | Atlanta | 2 | All Maps","protocol":17,"map":"pl_snowycoast","folder":"tf","game":"Team Fortress","app_id":440,"player_count":24,"max_players":24,"Bots":0,"server_type":"Dedicated","server_os":"Linux","password":true,"vac":true,"version":"7757534","steam_id":85568392924469983,"keywords":["nocrits","nodmgspread","payload","uncletopia"],"game_id":440,"stv_port":27026,"stv_name":"Uncletopia | Atlanta | 2 | All Maps | STV","players":[{"user_id":21,"name":"whittlo","steam_id":76561198056793479,"connected_time":3140000000000,"state":"active","ping":67},{"user_id":29,"name":"lycoris","steam_id":76561199113965768,"connected_time":2783000000000,"state":"active","ping":81},{"user_id":73,"name":"schteewpid rat","steam_id":76561199262600666,"connected_time":183000000000,"state":"active","ping":70},{"user_id":31,"name":".jpegged","steam_id":76561198120078454,"connected_time":2692000000000,"state":"active","ping":56},{"user_id":65,"name":"Kiss Master","steam_id":76561198289572271,"connected_time":714000000000,"state":"active","ping":56},{"user_id":71,"name":"autogynocelia","steam_id":76561198038995286,"connected_time":241000000000,"state":"active","ping":98},{"user_id":74,"name":"RockyCarly","steam_id":76561198310278761,"connected_time":149000000000,"state":"active","ping":60},{"user_id":70,"name":"brianwentnorth","steam_id":76561198234812380,"connected_time":303000000000,"state":"active","ping":79},{"user_id":50,"name":"mechiimi ★","steam_id":76561198321627268,"connected_time":2056000000000,"state":"active","ping":111},{"user_id":64,"name":"Red","steam_id":76561198082958231,"connected_time":781000000000,"state":"active","ping":54},{"user_id":37,"name":"qwerg","steam_id":76561198107191794,"connected_time":2390000000000,"state":"active","ping":75},{"user_id":55,"name":"richard clock","steam_id":76561198048455671,"connected_time":1423000000000,"state":"active","ping":67},{"user_id":39,"name":"manbearswineflu","steam_id":76561198083945137,"connected_time":2278000000000,"state":"active","ping":82},{"user_id":40,"name":"TheOnlyBeast","steam_id":76561197993208453,"connected_time":2274000000000,"state":"active","ping":58},{"user_id":60,"name":"stall","steam_id":76561199152861652,"connected_time":1159000000000,"state":"active","ping":59},{"user_id":57,"name":"Player of Games","steam_id":76561198092309937,"connected_time":1345000000000,"state":"active","ping":76},{"user_id":72,"name":"i live in your attic","steam_id":76561198796525948,"connected_time":209000000000,"state":"active","ping":51},{"user_id":75,"name":"ShadowWasUhOh","steam_id":76561198400361935,"connected_time":145000000000,"state":"active","ping":59},{"user_id":59,"name":"Brown_Dream","steam_id":76561198975766145,"connected_time":1290000000000,"state":"active","ping":65},{"user_id":76,"name":"Sunflower","steam_id":76561198081223793,"connected_time":109000000000,"state":"active","ping":75},{"user_id":47,"name":"Roggan?","steam_id":76561198144260455,"connected_time":2129000000000,"state":"active","ping":87},{"user_id":66,"name":"CreeperPiggy","steam_id":76561198203184918,"connected_time":528000000000,"state":"active","ping":76},{"user_id":52,"name":"Yummy Kabobz","steam_id":76561198067661705,"connected_time":1971000000000,"state":"active","ping":59},{"user_id":68,"name":"Wiener Hole Paper Cut","steam_id":76561198000808203,"connected_time":425000000000,"state":"active","ping":72}]},{"server_id":400,"name":"Uncletopia | Atlanta | 3 | Community","name_short":"atl-3","host":"atl-1.us.uncletopia.com","port":27035,"enabled":true,"region":"us-east","cc":"us","latitude":33.753746,"longitude":-84.38633,"reserved":0,"last_update":"0001-01-01T00:00:00Z","name_a2s":"Uncletopia | Atlanta | 3 | Community","protocol":17,"map":"cp_snakewater_final1","folder":"tf","game":"Team Fortress","app_id":440,"player_count":0,"max_players":24,"Bots":0,"server_type":"Dedicated","server_os":"Linux","password":true,"vac":true,"version":"7757534","steam_id":85568392924515187,"keywords":["cp","nocrits","nodmgspread","uncletopia"],"game_id":440,"stv_port":27036,"stv_name":"Uncletopia | Atlanta | 3 | Community | STV","players":null},{"server_id":401,"name":"Uncletopia | Atlanta | 4 | No Payload","name_short":"atl-4","host":"atl-1.us.uncletopia.com","port":27045,"enabled":true,"region":"us-east","cc":"us","latitude":33.753746,"longitude":-84.38633,"reserved":0,"last_update":"0001-01-01T00:00:00Z","name_a2s":"","protocol":0,"map":"","folder":"","game":"","app_id":0,"player_count":0,"max_players":0,"Bots":0,"server_type":"","server_os":"","password":false,"vac":false,"version":"","steam_id":0,"keywords":null,"game_id":0,"stv_port":0,"stv_name":"","players":null},{"server_id":2,"name":"Uncletopia | Chicago | 1 | All Maps","name_short":"chi-1","host":"chi-1.us.uncletopia.com","port":27015,"enabled":true,"region":"us-central","cc":"us","latitude":41.881832,"longitude":-87.62318,"reserved":0,"last_update":"0001-01-01T00:00:00Z","name_a2s":"Uncletopia | Chicago | 1 | All Maps","protocol":17,"map":"pl_barnblitz","folder":"tf","game":"Team Fortress","app_id":440,"player_count":0,"max_players":24,"Bots":0,"server_type":"Dedicated","server_os":"Linux","password":true,"vac":true,"version":"7757534","steam_id":85568392924469984,"keywords":["nocrits","nodmgspread","payload","uncletopia"],"game_id":440,"stv_port":27016,"stv_name":"Uncletopia | Chicago | 1 | All Maps | STV","players":null},{"server_id":106,"name":"Uncletopia | Chicago | 2 | All Maps","name_short":"chi-2","host":"chi-1.us.uncletopia.com","port":27025,"enabled":true,"region":"us-central","cc":"us","latitude":41.881832,"longitude":-87.62318,"reserved":0,"last_update":"0001-01-01T00:00:00Z","name_a2s":"Uncletopia | Chicago | 2 | All Maps","protocol":17,"map":"pl_pier","folder":"tf","game":"Team Fortress","app_id":440,"player_count":24,"max_players":24,"Bots":0,"server_type":"Dedicated","server_os":"Linux","password":true,"vac":true,"version":"7757534","steam_id":85568392924469985,"keywords":["nocrits","nodmgspread","payload","uncletopia"],"game_id":440,"stv_port":27026,"stv_name":"Uncletopia | Chicago | 2 | All Maps | STV","players":[{"user_id":82,"name":"jema","steam_id":76561198276513608,"connected_time":1202000000000,"state":"active","ping":165},{"user_id":93,"name":"Alon","steam_id":76561199093129130,"connected_time":220000000000,"state":"active","ping":123},{"user_id":67,"name":"Mads","steam_id":76561198126137797,"connected_time":2045000000000,"state":"active","ping":98},{"user_id":68,"name":"femboy slvt :3","steam_id":76561199079810503,"connected_time":2028000000000,"state":"active","ping":90},{"user_id":69,"name":".Cassius.","steam_id":76561199181383832,"connected_time":2006000000000,"state":"active","ping":56},{"user_id":91,"name":"Crazy__Biscuit","steam_id":76561198399851872,"connected_time":235000000000,"state":"active","ping":57},{"user_id":79,"name":"Chinese Cabbage","steam_id":76561198311588768,"connected_time":1269000000000,"state":"active","ping":78},{"user_id":84,"name":"MEDIC!","steam_id":76561199111430580,"connected_time":971000000000,"state":"active","ping":75},{"user_id":73,"name":"Victor Skull","steam_id":76561198352212864,"connected_time":1634000000000,"state":"active","ping":56},{"user_id":58,"name":"waltuh","steam_id":76561198363541736,"connected_time":2645000000000,"state":"active","ping":92},{"user_id":22,"name":"godsdoctor","steam_id":76561198055010413,"connected_time":5789000000000,"state":"active","ping":123},{"user_id":86,"name":"mann","steam_id":76561199406261605,"connected_time":692000000000,"state":"active","ping":81},{"user_id":50,"name":"Monster","steam_id":76561198189429665,"connected_time":4112000000000,"state":"active","ping":71},{"user_id":94,"name":"Honzagamer","steam_id":76561199411145936,"connected_time":197000000000,"state":"active","ping":171},{"user_id":89,"name":"thumb","steam_id":76561198376720540,"connected_time":271000000000,"state":"active","ping":78},{"user_id":28,"name":"stigma","steam_id":76561197960315263,"connected_time":5629000000000,"state":"active","ping":72},{"user_id":54,"name":"Touch Grass","steam_id":76561199480331257,"connected_time":3845000000000,"state":"active","ping":84},{"user_id":74,"name":"BrainlezBrainiac","steam_id":76561199193942805,"connected_time":1629000000000,"state":"active","ping":82},{"user_id":55,"name":"Zymiren","steam_id":76561198054985471,"connected_time":3094000000000,"state":"active","ping":101},{"user_id":77,"name":"FaZe Pumpkin","steam_id":76561197999128868,"connected_time":1390000000000,"state":"active","ping":72},{"user_id":87,"name":"Expendez","steam_id":76561198049484556,"connected_time":692000000000,"state":"active","ping":60},{"user_id":95,"name":"Quindeli","steam_id":76561198082765254,"connected_time":178000000000,"state":"active","ping":45},{"user_id":52,"name":"WillKill","steam_id":76561197990341180,"connected_time":4065000000000,"state":"active","ping":69},{"user_id":90,"name":"whitneyscience1","steam_id":76561199405650048,"connected_time":249000000000,"state":"active","ping":120}]},{"server_id":402,"name":"Uncletopia | Chicago | 3 | All Maps","name_short":"chi-3","host":"chi-1.us.uncletopia.com","port":27035,"enabled":true,"region":"us-central","cc":"us","latitude":41.881832,"longitude":-87.62318,"reserved":0,"last_update":"0001-01-01T00:00:00Z","name_a2s":"Uncletopia | Chicago | 3 | All Maps","protocol":17,"map":"cp_sunshine","folder":"tf","game":"Team Fortress","app_id":440,"player_count":0,"max_players":24,"Bots":0,"server_type":"Dedicated","server_os":"Linux","password":true,"vac":true,"version":"7757534","steam_id":85568392924515191,"keywords":["cp","nocrits","nodmgspread","uncletopia"],"game_id":440,"stv_port":27036,"stv_name":"Uncletopia | Chicago | 3 | All Maps | STV","players":null},{"server_id":403,"name":"Uncletopia | Chicago | 4 | All Maps","name_short":"chi-4","host":"chi-1.us.uncletopia.com","port":27045,"enabled":true,"region":"us-central","cc":"us","latitude":41.881832,"longitude":-87.62318,"reserved":0,"last_update":"0001-01-01T00:00:00Z","name_a2s":"Uncletopia | Chicago | 4 | All Maps","protocol":17,"map":"koth_lakeside_final","folder":"tf","game":"Team Fortress","app_id":440,"player_count":0,"max_players":24,"Bots":0,"server_type":"Dedicated","server_os":"Linux","password":true,"vac":true,"version":"7757534","steam_id":85568392924515193,"keywords":["cp","nocrits","nodmgspread","uncletopia"],"game_id":440,"stv_port":27046,"stv_name":"Uncletopia | Chicago | 4 | All Maps | STV","players":null},{"server_id":36,"name":"Uncletopia | Chicago | 5 | All Maps","name_short":"chi-5","host":"chi-2.us.uncletopia.com","port":27015,"enabled":true,"region":"us-central","cc":"us","latitude":41.881832,"longitude":-87.62318,"reserved":0,"last_update":"0001-01-01T00:00:00Z","name_a2s":"Uncletopia | Chicago | 5 | All Maps","protocol":17,"map":"koth_cascade","folder":"tf","game":"Team Fortress","app_id":440,"player_count":0,"max_players":24,"Bots":0,"server_type":"Dedicated","server_os":"Linux","password":true,"vac":true,"version":"7757534","steam_id":85568392924866362,"keywords":["cp","nocrits","nodmgspread","uncletopia"],"game_id":440,"stv_port":27016,"stv_name":"Uncletopia | Chicago | 5 | All Maps | STV","players":null},{"server_id":37,"name":"Uncletopia | Chicago | 6 | All Maps","name_short":"chi-6","host":"chi-2.us.uncletopia.com","port":27025,"enabled":true,"region":"us-central","cc":"us","latitude":41.881832,"longitude":-87.62318,"reserved":0,"last_update":"0001-01-01T00:00:00Z","name_a2s":"Uncletopia | Chicago | 6 | All Maps","protocol":17,"map":"pl_borneo","folder":"tf","game":"Team Fortress","app_id":440,"player_count":0,"max_players":24,"Bots":0,"server_type":"Dedicated","server_os":"Linux","password":true,"vac":true,"version":"7757534","steam_id":85568392924866363,"keywords":["nocrits","nodmgspread","payload","uncletopia"],"game_id":440,"stv_port":27026,"stv_name":"Uncletopia | Chicago | 6 | All Maps | STV","players":null},{"server_id":38,"name":"Uncletopia | Chicago | 7 | Stopwatch Beta","name_short":"chi-7","host":"chi-2.us.uncletopia.com","port":27035,"enabled":true,"region":"us-central","cc":"us","latitude":41.881832,"longitude":-87.62318,"reserved":0,"last_update":"0001-01-01T00:00:00Z","name_a2s":"Uncletopia | Chicago | 7 | Stopwatch Beta","protocol":17,"map":"pl_barnblitz","folder":"tf","game":"Team Fortress","app_id":440,"player_count":0,"max_players":24,"Bots":0,"server_type":"Dedicated","server_os":"Linux","password":true,"vac":true,"version":"7757534","steam_id":85568392924866364,"keywords":["nocrits","nodmgspread","payload","uncletopia"],"game_id":440,"stv_port":27036,"stv_name":"Uncletopia | Chicago | 7 | Stopwatch Beta | STV","players":null},{"server_id":39,"name":"Uncletopia | Chicago | 8 | Community","name_short":"chi-8","host":"chi-2.us.uncletopia.com","port":27045,"enabled":true,"region":"us-central","cc":"us","latitude":41.881832,"longitude":-87.62318,"reserved":0,"last_update":"0001-01-01T00:00:00Z","name_a2s":"Uncletopia | Chicago | 8 | Community","protocol":17,"map":"koth_cascade","folder":"tf","game":"Team Fortress","app_id":440,"player_count":0,"max_players":24,"Bots":0,"server_type":"Dedicated","server_os":"Linux","password":true,"vac":true,"version":"7757534","steam_id":85568392924866365,"keywords":["cp","nocrits","nodmgspread","uncletopia"],"game_id":440,"stv_port":27046,"stv_name":"Uncletopia | Chicago | 8 | Community | STV","players":null},{"server_id":8,"name":"Uncletopia | Dallas | 1 | All Maps","name_short":"dal-1","host":"dal-1.us.uncletopia.com","port":27015,"enabled":true,"region":"us-central","cc":"us","latitude":32.779167,"longitude":-96.80889,"reserved":0,"last_update":"0001-01-01T00:00:00Z","name_a2s":"Uncletopia | Dallas | 1 | All Maps","protocol":17,"map":"koth_cascade","folder":"tf","game":"Team Fortress","app_id":440,"player_count":0,"max_players":24,"Bots":0,"server_type":"Dedicated","server_os":"Linux","password":true,"vac":true,"version":"7757534","steam_id":85568392924469986,"keywords":["cp","nocrits","nodmgspread","uncletopia"],"game_id":440,"stv_port":27016,"stv_name":"Uncletopia | Dallas | 1 | All Maps | STV","players":null},{"server_id":108,"name":"Uncletopia | Dallas | 2 | All Maps","name_short":"dal-2","host":"dal-1.us.uncletopia.com","port":27025,"enabled":true,"region":"us-central","cc":"us","latitude":32.779167,"longitude":-96.80889,"reserved":0,"last_update":"0001-01-01T00:00:00Z","name_a2s":"Uncletopia | Dallas | 2 | All Maps","protocol":17,"map":"pl_upward","folder":"tf","game":"Team Fortress","app_id":440,"player_count":0,"max_players":24,"Bots":0,"server_type":"Dedicated","server_os":"Linux","password":true,"vac":true,"version":"7757534","steam_id":85568392924469988,"keywords":["nocrits","nodmgspread","payload","uncletopia"],"game_id":440,"stv_port":27026,"stv_name":"Uncletopia | Dallas | 2 | All Maps | STV","players":null},{"server_id":5,"name":"Uncletopia | Frankfurt | 1 | All Maps","name_short":"frk-1","host":"frk-1.de.uncletopia.com","port":27015,"enabled":true,"region":"eu","cc":"de","latitude":50.110924,"longitude":8.682127,"reserved":0,"last_update":"0001-01-01T00:00:00Z","name_a2s":"Uncletopia | Frankfurt | 1 | All Maps","protocol":17,"map":"pl_barnblitz","folder":"tf","game":"Team Fortress","app_id":440,"player_count":24,"max_players":24,"Bots":0,"server_type":"Dedicated","server_os":"Linux","password":true,"vac":true,"version":"7757534","steam_id":85568392924469989,"keywords":["nocrits","nodmgspread","payload","uncletopia"],"game_id":440,"stv_port":27016,"stv_name":"Uncletopia | Frankfurt | 1 | All Maps | STV","players":[{"user_id":273,"name":"TJ1212","steam_id":76561199013575313,"connected_time":213000000000,"state":"active","ping":62},{"user_id":242,"name":"ambatukam","steam_id":76561199062586342,"connected_time":1858000000000,"state":"active","ping":83},{"user_id":214,"name":"✪ qua ✪","steam_id":76561198066408333,"connected_time":3240000000000,"state":"active","ping":69},{"user_id":264,"name":"Wattseyy","steam_id":76561198248567360,"connected_time":800000000000,"state":"active","ping":47},{"user_id":231,"name":"knees","steam_id":76561198005924647,"connected_time":2496000000000,"state":"active","ping":72},{"user_id":270,"name":"valzecam","steam_id":76561198274352933,"connected_time":440000000000,"state":"active","ping":70},{"user_id":265,"name":"Toxicò","steam_id":76561199031920676,"connected_time":795000000000,"state":"active","ping":78},{"user_id":274,"name":"AndyLemon216","steam_id":76561199378837339,"connected_time":209000000000,"state":"active","ping":107},{"user_id":269,"name":"foof ETF2L APE","steam_id":76561198308439257,"connected_time":451000000000,"state":"active","ping":67},{"user_id":254,"name":"Matznmilian","steam_id":76561198024358403,"connected_time":1541000000000,"state":"active","ping":72},{"user_id":161,"name":"Francisco","steam_id":76561198074614581,"connected_time":6966000000000,"state":"active","ping":75},{"user_id":275,"name":"jD_x2r2","steam_id":76561198061001376,"connected_time":208000000000,"state":"active","ping":68},{"user_id":277,"name":"robsan","steam_id":76561198137375391,"connected_time":172000000000,"state":"active","ping":69},{"user_id":263,"name":"Glenn Quagmire","steam_id":76561199348527880,"connected_time":837000000000,"state":"active","ping":79},{"user_id":225,"name":"Pastoss","steam_id":76561198379098260,"connected_time":2849000000000,"state":"active","ping":57},{"user_id":271,"name":"skai (trying 4:3)","steam_id":76561198184881255,"connected_time":395000000000,"state":"active","ping":74},{"user_id":259,"name":"Cave Johnson","steam_id":76561198366456565,"connected_time":1371000000000,"state":"active","ping":66},{"user_id":272,"name":"Commander DM","steam_id":76561198059236770,"connected_time":375000000000,"state":"active","ping":73},{"user_id":278,"name":"Etecs","steam_id":76561198831540638,"connected_time":155000000000,"state":"active","ping":68},{"user_id":279,"name":"[LFT] | ℤar","steam_id":76561199019585369,"connected_time":137000000000,"state":"active","ping":86},{"user_id":258,"name":"Gabys","steam_id":76561198282892553,"connected_time":1428000000000,"state":"active","ping":74},{"user_id":213,"name":"Nifi","steam_id":76561198102682566,"connected_time":3274000000000,"state":"active","ping":60},{"user_id":250,"name":"Igames","steam_id":76561198414062544,"connected_time":1670000000000,"state":"active","ping":71},{"user_id":281,"name":"Dzan50","steam_id":76561198059758591,"connected_time":112000000000,"state":"spawning","ping":116}]},{"server_id":110,"name":"Uncletopia | Frankfurt | 2 | All Maps","name_short":"frk-2","host":"frk-1.de.uncletopia.com","port":27025,"enabled":true,"region":"eu","cc":"de","latitude":50.110924,"longitude":8.682127,"reserved":0,"last_update":"0001-01-01T00:00:00Z","name_a2s":"Uncletopia | Frankfurt | 2 | All Maps","protocol":17,"map":"pl_snowycoast","folder":"tf","game":"Team Fortress","app_id":440,"player_count":24,"max_players":24,"Bots":0,"server_type":"Dedicated","server_os":"Linux","password":true,"vac":true,"version":"7757534","steam_id":85568392924469990,"keywords":["nocrits","nodmgspread","payload","uncletopia"],"game_id":440,"stv_port":27026,"stv_name":"Uncletopia | Frankfurt | 2 | All Maps | STV","players":[{"user_id":150,"name":"Ender az Endre Dragon","steam_id":76561198202235560,"connected_time":4580000000000,"state":"active","ping":102},{"user_id":6,"name":"dash.","steam_id":76561198084796149,"connected_time":13158000000000,"state":"active","ping":51},{"user_id":215,"name":"noodlehairronaldoprime","steam_id":76561199471954402,"connected_time":101000000000,"state":"active","ping":67},{"user_id":209,"name":"Lukas","steam_id":76561198009118452,"connected_time":520000000000,"state":"active","ping":56},{"user_id":166,"name":"pain train tf2","steam_id":76561198111568728,"connected_time":3472000000000,"state":"active","ping":41},{"user_id":152,"name":"Ziemniaczki z koperkiem","steam_id":76561198829123464,"connected_time":4369000000000,"state":"active","ping":78},{"user_id":212,"name":"Keku","steam_id":76561199243275120,"connected_time":433000000000,"state":"active","ping":69},{"user_id":200,"name":"Potat Master |Potato Industries","steam_id":76561199112380553,"connected_time":1302000000000,"state":"active","ping":101},{"user_id":207,"name":"Bill Hampton","steam_id":76561198310295139,"connected_time":669000000000,"state":"active","ping":85},{"user_id":202,"name":"Spieller","steam_id":76561198057197847,"connected_time":1287000000000,"state":"active","ping":73},{"user_id":167,"name":"RocketBoy08","steam_id":76561198833978944,"connected_time":2808000000000,"state":"active","ping":94},{"user_id":205,"name":"Gamlader","steam_id":76561198306177608,"connected_time":872000000000,"state":"active","ping":63},{"user_id":181,"name":"Ayden","steam_id":76561198900351978,"connected_time":2017000000000,"state":"active","ping":172},{"user_id":206,"name":"Tesla","steam_id":76561198378649144,"connected_time":728000000000,"state":"active","ping":72},{"user_id":214,"name":"Sippie","steam_id":76561198130393388,"connected_time":124000000000,"state":"active","ping":71},{"user_id":183,"name":"SynthBox3","steam_id":76561199094075745,"connected_time":1940000000000,"state":"active","ping":89},{"user_id":174,"name":"The Wolf Leader","steam_id":76561198038007462,"connected_time":2398000000000,"state":"active","ping":64},{"user_id":187,"name":"theres a bomb in my tea","steam_id":76561199134149296,"connected_time":1821000000000,"state":"active","ping":82},{"user_id":203,"name":"Mr. Banana","steam_id":76561199036304786,"connected_time":1274000000000,"state":"active","ping":72},{"user_id":204,"name":"Drekadóttir","steam_id":76561198119979169,"connected_time":1250000000000,"state":"active","ping":70},{"user_id":177,"name":"AidenQG","steam_id":76561198864678536,"connected_time":2344000000000,"state":"active","ping":68},{"user_id":178,"name":"Rolloden","steam_id":76561198069414404,"connected_time":2324000000000,"state":"active","ping":68},{"user_id":211,"name":"Palmasanti","steam_id":76561199067841526,"connected_time":453000000000,"state":"active","ping":68},{"user_id":191,"name":"Trokmanaoul","steam_id":76561199148272568,"connected_time":1692000000000,"state":"active","ping":84}]},{"server_id":308,"name":"Uncletopia | Frankfurt | 3 | All Maps","name_short":"frk-3","host":"frk-1.de.uncletopia.com","port":27035,"enabled":true,"region":"eu","cc":"de","latitude":50.110924,"longitude":8.682127,"reserved":0,"last_update":"0001-01-01T00:00:00Z","name_a2s":"Uncletopia | Frankfurt | 3 | All Maps","protocol":17,"map":"koth_cascade","folder":"tf","game":"Team Fortress","app_id":440,"player_count":0,"max_players":24,"Bots":0,"server_type":"Dedicated","server_os":"Linux","password":true,"vac":true,"version":"7757534","steam_id":85568392924504274,"keywords":["cp","nocrits","nodmgspread","uncletopia"],"game_id":440,"stv_port":27036,"stv_name":"Uncletopia | Frankfurt | 3 | All Maps | STV","players":null},{"server_id":309,"name":"Uncletopia | Frankfurt | 4 | All Maps","name_short":"frk-4","host":"frk-1.de.uncletopia.com","port":27045,"enabled":true,"region":"eu","cc":"de","latitude":50.110924,"longitude":8.682127,"reserved":0,"last_update":"0001-01-01T00:00:00Z","name_a2s":"Uncletopia | Frankfurt | 4 | All Maps","protocol":17,"map":"koth_viaduct","folder":"tf","game":"Team Fortress","app_id":440,"player_count":0,"max_players":24,"Bots":0,"server_type":"Dedicated","server_os":"Linux","password":true,"vac":true,"version":"7757534","steam_id":85568392924504275,"keywords":["cp","nocrits","nodmgspread","uncletopia"],"game_id":440,"stv_port":27046,"stv_name":"Uncletopia | Frankfurt | 4 | All Maps | STV","players":null},{"server_id":310,"name":"Uncletopia | Frankfurt | 5 | All Maps","name_short":"frk-5","host":"frk-1.de.uncletopia.com","port":27055,"enabled":true,"region":"eu","cc":"de","latitude":50.110924,"longitude":8.682127,"reserved":0,"last_update":"0001-01-01T00:00:00Z","name_a2s":"Uncletopia | Frankfurt | 5 | All Maps","protocol":17,"map":"pl_badwater","folder":"tf","game":"Team Fortress","app_id":440,"player_count":24,"max_players":24,"Bots":0,"server_type":"Dedicated","server_os":"Linux","password":true,"vac":true,"version":"7757534","steam_id":85568392924504277,"keywords":["nocrits","nodmgspread","payload","uncletopia"],"game_id":440,"stv_port":27056,"stv_name":"Uncletopia | Frankfurt | 5 | All Maps | STV","players":[{"user_id":312,"name":"kallerannar","steam_id":76561199095701143,"connected_time":2539000000000,"state":"active","ping":78},{"user_id":324,"name":"Syd","steam_id":76561198020515027,"connected_time":1467000000000,"state":"active","ping":65},{"user_id":319,"name":"goblin (real)","steam_id":76561198868286775,"connected_time":2332000000000,"state":"active","ping":90},{"user_id":344,"name":"MAKENTAKEN","steam_id":76561199127359587,"connected_time":169000000000,"state":"active","ping":96},{"user_id":325,"name":"Slazaa","steam_id":76561197993252446,"connected_time":1434000000000,"state":"active","ping":58},{"user_id":326,"name":"Timpanojnoj","steam_id":76561197970334448,"connected_time":1405000000000,"state":"active","ping":72},{"user_id":304,"name":"milof","steam_id":76561198809199604,"connected_time":3097000000000,"state":"active","ping":69},{"user_id":328,"name":"Xriasp","steam_id":76561198104721321,"connected_time":1279000000000,"state":"active","ping":75},{"user_id":335,"name":"metodmiha","steam_id":76561199111498575,"connected_time":1083000000000,"state":"active","ping":79},{"user_id":305,"name":"Piteras","steam_id":76561198858532207,"connected_time":3097000000000,"state":"active","ping":79},{"user_id":322,"name":"Lucoa Enjoyer","steam_id":76561198842622419,"connected_time":2215000000000,"state":"active","ping":96},{"user_id":329,"name":"Creative","steam_id":76561198835034247,"connected_time":1262000000000,"state":"active","ping":75},{"user_id":331,"name":"slnc","steam_id":76561198041151496,"connected_time":1241000000000,"state":"active","ping":71},{"user_id":342,"name":"meatsoupcube","steam_id":76561198276802249,"connected_time":311000000000,"state":"active","ping":108},{"user_id":88,"name":"B.batt","steam_id":76561198998684199,"connected_time":15238000000000,"state":"active","ping":118},{"user_id":306,"name":"$nØw","steam_id":76561198238781028,"connected_time":3029000000000,"state":"active","ping":113},{"user_id":320,"name":"benzu.","steam_id":76561198382671370,"connected_time":2327000000000,"state":"active","ping":93},{"user_id":341,"name":"fector","steam_id":76561199204249586,"connected_time":533000000000,"state":"active","ping":130},{"user_id":337,"name":"Kestrel","steam_id":76561198144033005,"connected_time":923000000000,"state":"active","ping":69},{"user_id":318,"name":"daanvanliempt05","steam_id":76561198355398948,"connected_time":2391000000000,"state":"active","ping":53},{"user_id":333,"name":"sword fights on the heights iv","steam_id":76561198026975734,"connected_time":1215000000000,"state":"active","ping":124},{"user_id":321,"name":"somehow danced","steam_id":76561198128250460,"connected_time":2283000000000,"state":"active","ping":108},{"user_id":310,"name":"Don Franches","steam_id":76561198043958772,"connected_time":2708000000000,"state":"active","ping":154},{"user_id":343,"name":"shmax","steam_id":76561198889012709,"connected_time":245000000000,"state":"active","ping":91}]},{"server_id":311,"name":"Uncletopia | Frankfurt | 6 | All Maps","name_short":"frk-6","host":"frk-1.de.uncletopia.com","port":27065,"enabled":true,"region":"eu","cc":"de","latitude":50.110924,"longitude":8.682127,"reserved":0,"last_update":"0001-01-01T00:00:00Z","name_a2s":"Uncletopia | Frankfurt | 6 | All Maps","protocol":17,"map":"pl_pier","folder":"tf","game":"Team Fortress","app_id":440,"player_count":24,"max_players":24,"Bots":0,"server_type":"Dedicated","server_os":"Linux","password":true,"vac":true,"version":"7757534","steam_id":85568392924504278,"keywords":["nocrits","nodmgspread","payload","uncletopia"],"game_id":440,"stv_port":27066,"stv_name":"Uncletopia | Frankfurt | 6 | All Maps | STV","players":[{"user_id":190,"name":"Latgaul","steam_id":76561199009145544,"connected_time":1274000000000,"state":"active","ping":98},{"user_id":33,"name":"Paweł","steam_id":76561198354235190,"connected_time":10705000000000,"state":"active","ping":88},{"user_id":130,"name":"Twisted Logic ∞","steam_id":76561198002245428,"connected_time":4942000000000,"state":"active","ping":56},{"user_id":198,"name":"SpilledMilk","steam_id":76561198174123971,"connected_time":722000000000,"state":"active","ping":54},{"user_id":195,"name":"MRLOLENO","steam_id":76561198450911838,"connected_time":1182000000000,"state":"active","ping":66},{"user_id":160,"name":"radek","steam_id":76561197998883721,"connected_time":2667000000000,"state":"active","ping":72},{"user_id":172,"name":"big poo","steam_id":76561198129157178,"connected_time":2139000000000,"state":"active","ping":89},{"user_id":194,"name":"aolkdi","steam_id":76561198025479415,"connected_time":1195000000000,"state":"active","ping":125},{"user_id":196,"name":"csgogem.com opskins.com meatspi","steam_id":76561198154274572,"connected_time":996000000000,"state":"active","ping":77},{"user_id":124,"name":"Crunchips","steam_id":76561198004336818,"connected_time":5255000000000,"state":"active","ping":90},{"user_id":184,"name":"Yuzu","steam_id":76561198121694613,"connected_time":1775000000000,"state":"active","ping":54},{"user_id":186,"name":"DJpocalypse","steam_id":76561199230125964,"connected_time":1524000000000,"state":"active","ping":190},{"user_id":200,"name":"KillerQueen (he/they/she)","steam_id":76561199019399725,"connected_time":704000000000,"state":"active","ping":60},{"user_id":178,"name":"i sleep","steam_id":76561198130863086,"connected_time":2027000000000,"state":"active","ping":65},{"user_id":174,"name":"Trimping Squire","steam_id":76561198367203640,"connected_time":2105000000000,"state":"active","ping":45},{"user_id":154,"name":"Boki","steam_id":76561198044553351,"connected_time":3047000000000,"state":"active","ping":75},{"user_id":191,"name":"Edla","steam_id":76561198062815315,"connected_time":1232000000000,"state":"active","ping":112},{"user_id":176,"name":"Cabbch","steam_id":76561198045955679,"connected_time":2055000000000,"state":"active","ping":59},{"user_id":142,"name":"Luuk","steam_id":76561198088266026,"connected_time":4292000000000,"state":"active","ping":53},{"user_id":197,"name":"cotroD","steam_id":76561198130063938,"connected_time":738000000000,"state":"active","ping":109},{"user_id":183,"name":"bass solo","steam_id":76561199117720299,"connected_time":1800000000000,"state":"active","ping":55},{"user_id":180,"name":"Chopperson_","steam_id":76561198873728497,"connected_time":2016000000000,"state":"active","ping":113},{"user_id":185,"name":"Pico","steam_id":76561198063552545,"connected_time":1644000000000,"state":"active","ping":100},{"user_id":202,"name":"3þ4n","steam_id":76561198411134617,"connected_time":155000000000,"state":"active","ping":64}]},{"server_id":23,"name":"Uncletopia | Frankfurt | 7 | Stopwatch Beta","name_short":"frk-7","host":"frk-1.de.uncletopia.com","port":27075,"enabled":true,"region":"eu","cc":"de","latitude":50.110924,"longitude":8.682127,"reserved":0,"last_update":"0001-01-01T00:00:00Z","name_a2s":"Uncletopia | Frankfurt | 7 | Stopwatch Beta","protocol":17,"map":"cp_sunshine","folder":"tf","game":"Team Fortress","app_id":440,"player_count":0,"max_players":24,"Bots":0,"server_type":"Dedicated","server_os":"Linux","password":true,"vac":true,"version":"7757534","steam_id":85568392924742827,"keywords":["cp","nocrits","nodmgspread","uncletopia"],"game_id":440,"stv_port":27076,"stv_name":"Uncletopia | Frankfurt | 7 | Stopwatch Beta | STV","players":null},{"server_id":24,"name":"Uncletopia | Frankfurt | 8 | Community","name_short":"frk-8","host":"frk-1.de.uncletopia.com","port":27085,"enabled":true,"region":"eu","cc":"de","latitude":50.110924,"longitude":8.682127,"reserved":0,"last_update":"0001-01-01T00:00:00Z","name_a2s":"Uncletopia | Frankfurt | 8 | Community","protocol":17,"map":"workshop/cp_glassworks_rc6a.ugc454118349","folder":"tf","game":"Team Fortress","app_id":440,"player_count":13,"max_players":24,"Bots":0,"server_type":"Dedicated","server_os":"Linux","password":true,"vac":true,"version":"7757534","steam_id":85568392924742828,"keywords":["cp","nocrits","nodmgspread","uncletopia"],"game_id":440,"stv_port":27086,"stv_name":"Uncletopia | Frankfurt | 8 | Community | STV","players":[{"user_id":133,"name":"F","steam_id":76561199149462792,"connected_time":392000000000,"state":"active","ping":61},{"user_id":140,"name":"[λG] Commando Booce","steam_id":76561199209786129,"connected_time":69000000000,"state":"spawning","ping":360},{"user_id":128,"name":"Arcader","steam_id":76561198109860110,"connected_time":843000000000,"state":"active","ping":58},{"user_id":141,"name":"Alice can't hit pipes","steam_id":76561198052410860,"connected_time":60000000000,"state":"active","ping":137},{"user_id":134,"name":"Flying skyhigh","steam_id":76561198372971096,"connected_time":391000000000,"state":"active","ping":74},{"user_id":114,"name":"swueuws","steam_id":76561198020716743,"connected_time":1177000000000,"state":"active","ping":50},{"user_id":136,"name":"heyjohn14","steam_id":76561198840831773,"connected_time":296000000000,"state":"active","ping":85},{"user_id":66,"name":"Radegast the Brown","steam_id":76561198075489505,"connected_time":4078000000000,"state":"active","ping":60},{"user_id":138,"name":"wicked","steam_id":76561198164376035,"connected_time":265000000000,"state":"active","ping":69},{"user_id":112,"name":"grandpa's post-mortem photo","steam_id":76561198130116078,"connected_time":1242000000000,"state":"active","ping":105},{"user_id":87,"name":"pootis sentry","steam_id":76561199225363633,"connected_time":2468000000000,"state":"active","ping":73},{"user_id":125,"name":"MateMO","steam_id":76561198146180114,"connected_time":934000000000,"state":"active","ping":83},{"user_id":108,"name":"ShellBug","steam_id":76561198144187527,"connected_time":1648000000000,"state":"active","ping":164}]},{"server_id":202,"name":"Uncletopia | Hong Kong | 1 | All Maps","name_short":"hgk-1","host":"hgk-1.hk.uncletopia.com","port":27015,"enabled":true,"region":"asia","cc":"hk","latitude":22.302711,"longitude":114.177216,"reserved":0,"last_update":"0001-01-01T00:00:00Z","name_a2s":"Uncletopia | Hong Kong | 1 | All Maps","protocol":17,"map":"pl_rumford_event","folder":"tf","game":"Team Fortress","app_id":440,"player_count":24,"max_players":24,"Bots":0,"server_type":"Dedicated","server_os":"Linux","password":true,"vac":true,"version":"7757534","steam_id":85568392924494504,"keywords":["nocrits","nodmgspread","payload","uncletopia"],"game_id":440,"stv_port":27016,"stv_name":"Uncletopia | Hong Kong | 1 | All Maps | STV","players":[{"user_id":389,"name":"dreamybullxxx","steam_id":76561198412329672,"connected_time":595000000000,"state":"active","ping":95},{"user_id":361,"name":"母の肉団子@hao123.com","steam_id":76561198069561896,"connected_time":1726000000000,"state":"active","ping":44},{"user_id":382,"name":"AmaiToxic","steam_id":76561199122491157,"connected_time":726000000000,"state":"active","ping":131},{"user_id":328,"name":"Hay","steam_id":76561199438952901,"connected_time":5544000000000,"state":"active","ping":54},{"user_id":329,"name":"Lelouch","steam_id":76561198828840546,"connected_time":5030000000000,"state":"active","ping":77},{"user_id":377,"name":"happyman","steam_id":76561198045585030,"connected_time":1079000000000,"state":"active","ping":68},{"user_id":355,"name":"no vc no c","steam_id":76561197989503095,"connected_time":2403000000000,"state":"active","ping":104},{"user_id":351,"name":"sáu thiện nhân","steam_id":76561199373637717,"connected_time":3279000000000,"state":"active","ping":107},{"user_id":366,"name":"善良の墨","steam_id":76561199102754539,"connected_time":1648000000000,"state":"active","ping":92},{"user_id":282,"name":"TonXD","steam_id":76561199024372559,"connected_time":10154000000000,"state":"active","ping":106},{"user_id":390,"name":"brainless bozo","steam_id":76561198055553140,"connected_time":226000000000,"state":"active","ping":80},{"user_id":334,"name":"YourMailisHere","steam_id":76561199222388500,"connected_time":5001000000000,"state":"active","ping":59},{"user_id":179,"name":"Vortex Artemisio","steam_id":76561198833527091,"connected_time":20375000000000,"state":"active","ping":92},{"user_id":376,"name":"spy gaming","steam_id":76561199000482422,"connected_time":1083000000000,"state":"active","ping":117},{"user_id":370,"name":"๋","steam_id":76561198413116920,"connected_time":1597000000000,"state":"active","ping":85},{"user_id":371,"name":"coakDeLera","steam_id":76561199262817512,"connected_time":1340000000000,"state":"active","ping":161},{"user_id":283,"name":"Azi","steam_id":76561198147872523,"connected_time":10086000000000,"state":"active","ping":75},{"user_id":380,"name":"Nice","steam_id":76561199180653046,"connected_time":900000000000,"state":"active","ping":131},{"user_id":381,"name":"Ivy","steam_id":76561198400698408,"connected_time":859000000000,"state":"active","ping":88},{"user_id":360,"name":"Saffron","steam_id":76561199025320247,"connected_time":2009000000000,"state":"active","ping":70},{"user_id":359,"name":"Arab guy team fortress 2","steam_id":76561199198665314,"connected_time":2113000000000,"state":"active","ping":76},{"user_id":261,"name":"ArcticDolphin","steam_id":76561198203626319,"connected_time":12598000000000,"state":"active","ping":126},{"user_id":378,"name":"King Tutel","steam_id":76561198451235659,"connected_time":1079000000000,"state":"active","ping":110},{"user_id":343,"name":"Pug_Lord","steam_id":76561199090153442,"connected_time":4349000000000,"state":"active","ping":115}]},{"server_id":1,"name":"Uncletopia | Los Angeles | 1 | All Maps","name_short":"lax-1","host":"lax-1.us.uncletopia.com","port":27015,"enabled":true,"region":"us-west","cc":"us","latitude":33.94279,"longitude":-118.41004,"reserved":0,"last_update":"0001-01-01T00:00:00Z","name_a2s":"Uncletopia | Los Angeles | 1 | All Maps","protocol":17,"map":"cp_altitude","folder":"tf","game":"Team Fortress","app_id":440,"player_count":0,"max_players":24,"Bots":0,"server_type":"Dedicated","server_os":"Linux","password":true,"vac":true,"version":"7757534","steam_id":85568392924469991,"keywords":["cp","nocrits","nodmgspread","uncletopia"],"game_id":440,"stv_port":27016,"stv_name":"Uncletopia | Los Angeles | 1 | All Maps | STV","players":null},{"server_id":112,"name":"Uncletopia | Los Angeles | 2 | All Maps","name_short":"lax-2","host":"lax-1.us.uncletopia.com","port":27025,"enabled":true,"region":"us-west","cc":"us","latitude":33.94279,"longitude":-118.41004,"reserved":0,"last_update":"0001-01-01T00:00:00Z","name_a2s":"Uncletopia | Los Angeles | 2 | All Maps","protocol":17,"map":"pl_upward","folder":"tf","game":"Team Fortress","app_id":440,"player_count":0,"max_players":24,"Bots":0,"server_type":"Dedicated","server_os":"Linux","password":true,"vac":true,"version":"7757534","steam_id":85568392924469992,"keywords":["nocrits","nodmgspread","payload","uncletopia"],"game_id":440,"stv_port":27026,"stv_name":"Uncletopia | Los Angeles | 2 | All Maps | STV","players":null},{"server_id":324,"name":"Uncletopia | Los Angeles | 3 | All Maps","name_short":"lax-3","host":"lax-1.us.uncletopia.com","port":27035,"enabled":true,"region":"us-west","cc":"us","latitude":33.94279,"longitude":-118.41004,"reserved":0,"last_update":"0001-01-01T00:00:00Z","name_a2s":"Uncletopia | Los Angeles | 3 | All Maps","protocol":17,"map":"cp_altitude","folder":"tf","game":"Team Fortress","app_id":440,"player_count":0,"max_players":24,"Bots":0,"server_type":"Dedicated","server_os":"Linux","password":true,"vac":true,"version":"7757534","steam_id":85568392924510198,"keywords":["cp","nocrits","nodmgspread","uncletopia"],"game_id":440,"stv_port":27036,"stv_name":"Uncletopia | Los Angeles | 3 | All Maps | STV","players":null},{"server_id":25,"name":"Uncletopia | Los Angeles | 4 | Stopwatch Beta","name_short":"lax-4","host":"lax-1.us.uncletopia.com","port":27045,"enabled":true,"region":"us-west","cc":"us","latitude":33.94279,"longitude":-118.41004,"reserved":0,"last_update":"0001-01-01T00:00:00Z","name_a2s":"Uncletopia | Los Angeles | 4 | Stopwatch Beta","protocol":17,"map":"cp_granary","folder":"tf","game":"Team Fortress","app_id":440,"player_count":3,"max_players":24,"Bots":0,"server_type":"Dedicated","server_os":"Linux","password":true,"vac":true,"version":"7757534","steam_id":85568392924510199,"keywords":["cp","nocrits","nodmgspread","uncletopia"],"game_id":440,"stv_port":27046,"stv_name":"Uncletopia | Los Angeles | 4 | Stopwatch Beta | STV","players":[{"user_id":16,"name":"Voidisaine","steam_id":76561199129348448,"connected_time":77000000000,"state":"active","ping":229},{"user_id":12,"name":"Hitler's other ball","steam_id":76561199475492095,"connected_time":385000000000,"state":"active","ping":348},{"user_id":15,"name":"disc0rd.gg/FB6YuUvQQA","steam_id":76561199480268153,"connected_time":118000000000,"state":"active","ping":215}]},{"server_id":11,"name":"Uncletopia | London | 1 | All Maps","name_short":"lon-1","host":"lon-1.uk.uncletopia.com","port":27015,"enabled":true,"region":"eu","cc":"gb","latitude":51.509865,"longitude":-0.118092,"reserved":0,"last_update":"0001-01-01T00:00:00Z","name_a2s":"Uncletopia | London | 1 | All Maps","protocol":17,"map":"cp_process_final","folder":"tf","game":"Team Fortress","app_id":440,"player_count":24,"max_players":24,"Bots":0,"server_type":"Dedicated","server_os":"Linux","password":true,"vac":true,"version":"7757534","steam_id":85568392924367362,"keywords":["cp","nocrits","nodmgspread","uncletopia"],"game_id":440,"stv_port":27016,"stv_name":"Uncletopia | London | 1 | All Maps | STV","players":[{"user_id":222,"name":"The Coom Assassin","steam_id":76561198437070985,"connected_time":8287000000000,"state":"active","ping":51},{"user_id":304,"name":"Helon","steam_id":76561198050761682,"connected_time":1751000000000,"state":"active","ping":65},{"user_id":323,"name":"Depressed","steam_id":76561198154405093,"connected_time":175000000000,"state":"active","ping":72},{"user_id":259,"name":"spxcy","steam_id":76561198080296853,"connected_time":6099000000000,"state":"active","ping":101},{"user_id":230,"name":"Blob","steam_id":76561197971418993,"connected_time":7583000000000,"state":"active","ping":90},{"user_id":221,"name":"A stripper","steam_id":76561198034865891,"connected_time":8353000000000,"state":"active","ping":55},{"user_id":322,"name":"Ježek :)","steam_id":76561198127703483,"connected_time":288000000000,"state":"active","ping":63},{"user_id":324,"name":"Little Gremlin","steam_id":76561199017872113,"connected_time":53000000000,"state":"active","ping":45},{"user_id":318,"name":"nudjura","steam_id":76561198281986139,"connected_time":572000000000,"state":"active","ping":45},{"user_id":320,"name":"Robe Iniesta","steam_id":76561199047081427,"connected_time":413000000000,"state":"active","ping":82},{"user_id":297,"name":"jimmy bob","steam_id":76561198319583692,"connected_time":2550000000000,"state":"active","ping":52},{"user_id":282,"name":"︻̷̿ ̿  一 ✧","steam_id":76561198007575097,"connected_time":3227000000000,"state":"active","ping":46},{"user_id":311,"name":"I I","steam_id":76561199101935057,"connected_time":865000000000,"state":"active","ping":91},{"user_id":296,"name":"outlaw","steam_id":76561198323805289,"connected_time":2614000000000,"state":"active","ping":40},{"user_id":319,"name":"Nox Equites","steam_id":76561198115438449,"connected_time":568000000000,"state":"active","ping":77},{"user_id":310,"name":"CAMON ENGELAND","steam_id":76561198054301125,"connected_time":975000000000,"state":"active","ping":86},{"user_id":298,"name":"Flare","steam_id":76561198039098320,"connected_time":2455000000000,"state":"active","ping":51},{"user_id":287,"name":"Mr.O #deletesniper","steam_id":76561198039567498,"connected_time":3000000000000,"state":"active","ping":63},{"user_id":321,"name":"[jojack] CREAM SANDWICH","steam_id":76561198188187469,"connected_time":397000000000,"state":"active","ping":98},{"user_id":306,"name":"Panda","steam_id":76561198176342325,"connected_time":1458000000000,"state":"active","ping":91},{"user_id":285,"name":"Milosz52","steam_id":76561199060940204,"connected_time":3127000000000,"state":"active","ping":92},{"user_id":316,"name":"fume.","steam_id":76561197960476801,"connected_time":630000000000,"state":"active","ping":55},{"user_id":317,"name":"SODA!!!!!!!","steam_id":76561198107362485,"connected_time":627000000000,"state":"active","ping":93}]},{"server_id":114,"name":"Uncletopia | London | 2 | All Maps","name_short":"lon-2","host":"lon-1.uk.uncletopia.com","port":27025,"enabled":true,"region":"eu","cc":"gb","latitude":51.509865,"longitude":-0.118092,"reserved":0,"last_update":"0001-01-01T00:00:00Z","name_a2s":"Uncletopia | London | 2 | All Maps","protocol":17,"map":"pl_thundermountain","folder":"tf","game":"Team Fortress","app_id":440,"player_count":24,"max_players":24,"Bots":0,"server_type":"Dedicated","server_os":"Linux","password":true,"vac":true,"version":"7757534","steam_id":85568392924470941,"keywords":["nocrits","nodmgspread","payload","uncletopia"],"game_id":440,"stv_port":27026,"stv_name":"Uncletopia | London | 2 | All Maps | STV","players":[{"user_id":98,"name":"✰ 7arc","steam_id":76561198146405761,"connected_time":17000000000,"state":"spawning","ping":51},{"user_id":99,"name":"panzer IV","steam_id":76561198970919115,"connected_time":2000000000,"state":"spawning","ping":415},{"user_id":97,"name":"sax addict","steam_id":76561198021975468,"connected_time":77000000000,"state":"active","ping":75},{"user_id":15,"name":"Ixsus\u003c3","steam_id":76561198094756869,"connected_time":4349000000000,"state":"active","ping":62},{"user_id":87,"name":"Wuffington","steam_id":76561198033762881,"connected_time":317000000000,"state":"active","ping":48},{"user_id":24,"name":"[P-roc] Cmm Bert","steam_id":76561198016658674,"connected_time":3686000000000,"state":"active","ping":66},{"user_id":74,"name":"BIG WATER","steam_id":76561199107659754,"connected_time":876000000000,"state":"active","ping":82},{"user_id":96,"name":"dilla","steam_id":76561198059782462,"connected_time":110000000000,"state":"active","ping":60},{"user_id":65,"name":"static","steam_id":76561198836825741,"connected_time":1465000000000,"state":"active","ping":45},{"user_id":71,"name":"pfear","steam_id":76561197999207328,"connected_time":1153000000000,"state":"active","ping":76},{"user_id":48,"name":"hourglass","steam_id":76561198166613799,"connected_time":2981000000000,"state":"active","ping":84},{"user_id":68,"name":"Zy","steam_id":76561198346329494,"connected_time":1283000000000,"state":"active","ping":160},{"user_id":93,"name":"o","steam_id":76561198066799770,"connected_time":226000000000,"state":"active","ping":75},{"user_id":66,"name":"えななん","steam_id":76561199427679148,"connected_time":1414000000000,"state":"active","ping":69},{"user_id":86,"name":"Hannü","steam_id":76561197969886128,"connected_time":343000000000,"state":"active","ping":54},{"user_id":31,"name":"Egor Pomidor","steam_id":76561199175688390,"connected_time":3479000000000,"state":"active","ping":87},{"user_id":52,"name":"slightly drunk","steam_id":76561199184873889,"connected_time":2526000000000,"state":"active","ping":71},{"user_id":89,"name":"NanoqHT233","steam_id":76561198339957504,"connected_time":288000000000,"state":"active","ping":81},{"user_id":84,"name":"jamaikai vasutas","steam_id":76561198296205854,"connected_time":390000000000,"state":"active","ping":85},{"user_id":35,"name":"Gray","steam_id":76561198449128916,"connected_time":3439000000000,"state":"active","ping":88},{"user_id":75,"name":"yard man","steam_id":76561198019477093,"connected_time":875000000000,"state":"active","ping":85},{"user_id":90,"name":"puck_panzer","steam_id":76561198121260981,"connected_time":287000000000,"state":"active","ping":45},{"user_id":94,"name":"strideΔ","steam_id":76561199007826093,"connected_time":217000000000,"state":"active","ping":74},{"user_id":82,"name":"nyanezt","steam_id":76561198253734265,"connected_time":534000000000,"state":"active","ping":114}]},{"server_id":320,"name":"Uncletopia | London | 3 | All Maps","name_short":"lon-3","host":"lon-1.uk.uncletopia.com","port":27035,"enabled":true,"region":"eu","cc":"gb","latitude":51.509865,"longitude":-0.118092,"reserved":0,"last_update":"0001-01-01T00:00:00Z","name_a2s":"Uncletopia | London | 3 | All Maps","protocol":17,"map":"cp_dustbowl","folder":"tf","game":"Team Fortress","app_id":440,"player_count":1,"max_players":24,"Bots":0,"server_type":"Dedicated","server_os":"Linux","password":true,"vac":true,"version":"7757534","steam_id":85568392924510192,"keywords":["cp","nocrits","nodmgspread","uncletopia"],"game_id":440,"stv_port":27036,"stv_name":"Uncletopia | London | 3 | All Maps | STV","players":[{"user_id":5,"name":"lipaul777","steam_id":76561199090751367,"connected_time":13000000000,"state":"spawning","ping":44}]},{"server_id":321,"name":"Uncletopia | London | 4 | All Maps","name_short":"lon-4","host":"lon-1.uk.uncletopia.com","port":27045,"enabled":true,"region":"eu","cc":"gb","latitude":51.509865,"longitude":-0.118092,"reserved":0,"last_update":"0001-01-01T00:00:00Z","name_a2s":"Uncletopia | London | 4 | All Maps","protocol":17,"map":"pl_upward","folder":"tf","game":"Team Fortress","app_id":440,"player_count":0,"max_players":24,"Bots":0,"server_type":"Dedicated","server_os":"Linux","password":true,"vac":true,"version":"7757534","steam_id":85568392924510193,"keywords":["nocrits","nodmgspread","payload","uncletopia"],"game_id":440,"stv_port":27046,"stv_name":"Uncletopia | London | 4 | All Maps | STV","players":null},{"server_id":21,"name":"Uncletopia | London | 5 | All Maps","name_short":"lon-5","host":"lon-1.uk.uncletopia.com","port":27055,"enabled":true,"region":"eu","cc":"gb","latitude":51.509865,"longitude":-0.118092,"reserved":0,"last_update":"0001-01-01T00:00:00Z","name_a2s":"Uncletopia | London | 5 | All Maps","protocol":17,"map":"koth_cascade","folder":"tf","game":"Team Fortress","app_id":440,"player_count":0,"max_players":24,"Bots":0,"server_type":"Dedicated","server_os":"Linux","password":true,"vac":true,"version":"7757534","steam_id":85568392924742829,"keywords":["cp","nocrits","nodmgspread","uncletopia"],"game_id":440,"stv_port":27056,"stv_name":"Uncletopia | London | 5 | All Maps | STV","players":null},{"server_id":22,"name":"Uncletopia | London | 6 | All Maps","name_short":"lon-6","host":"lon-1.uk.uncletopia.com","port":27065,"enabled":true,"region":"eu","cc":"gb","latitude":51.509865,"longitude":-0.118092,"reserved":0,"last_update":"0001-01-01T00:00:00Z","name_a2s":"Uncletopia | London | 6 | All Maps","protocol":17,"map":"cp_mountainlab","folder":"tf","game":"Team Fortress","app_id":440,"player_count":0,"max_players":24,"Bots":0,"server_type":"Dedicated","server_os":"Linux","password":true,"vac":true,"version":"7757534","steam_id":85568392924742830,"keywords":["cp","nocrits","nodmgspread","uncletopia"],"game_id":440,"stv_port":27066,"stv_name":"Uncletopia | London | 6 | All Maps | STV","players":null},{"server_id":40,"name":"Uncletopia | London | 7 | No Payload","name_short":"lon-7","host":"lon-1.uk.uncletopia.com","port":27075,"enabled":true,"region":"eu","cc":"gb","latitude":51.509865,"longitude":-0.118092,"reserved":0,"last_update":"0001-01-01T00:00:00Z","name_a2s":"Uncletopia | London | 7 | No Payload","protocol":17,"map":"koth_harvest_final","folder":"tf","game":"Team Fortress","app_id":440,"player_count":3,"max_players":24,"Bots":0,"server_type":"Dedicated","server_os":"Linux","password":true,"vac":true,"version":"7757534","steam_id":85568392924964314,"keywords":["cp","nocrits","nodmgspread","uncletopia"],"game_id":440,"stv_port":27076,"stv_name":"Uncletopia | London | 7 | No Payload | STV","players":[{"user_id":6,"name":"TSx* Bargal","steam_id":76561198040266872,"connected_time":1071000000000,"state":"active","ping":80},{"user_id":10,"name":"SaSSolino","steam_id":76561198011308018,"connected_time":459000000000,"state":"active","ping":59},{"user_id":11,"name":"101_the_Robot","steam_id":76561198331039848,"connected_time":436000000000,"state":"active","ping":136}]},{"server_id":41,"name":"Uncletopia | London | 8 | Community","name_short":"lon-8","host":"lon-1.uk.uncletopia.com","port":27085,"enabled":true,"region":"eu","cc":"gb","latitude":51.509865,"longitude":-0.118092,"reserved":0,"last_update":"0001-01-01T00:00:00Z","name_a2s":"Uncletopia | London | 8 | Community","protocol":17,"map":"workshop/koth_bagel_rc6.ugc2514036946","folder":"tf","game":"Team Fortress","app_id":440,"player_count":0,"max_players":24,"Bots":0,"server_type":"Dedicated","server_os":"Linux","password":true,"vac":true,"version":"7757534","steam_id":85568392924964315,"keywords":["cp","nocrits","nodmgspread","uncletopia"],"game_id":440,"stv_port":27086,"stv_name":"Uncletopia | London | 8 | Community | STV","players":null},{"server_id":300,"name":"Uncletopia | Montréal | 1 | All Maps","name_short":"mtl-1","host":"mtl-1.ca.uncletopia.com","port":27015,"enabled":true,"region":"us-east","cc":"ca","latitude":45.50889,"longitude":-73.56167,"reserved":0,"last_update":"0001-01-01T00:00:00Z","name_a2s":"Uncletopia | Montréal | 1 | All Maps","protocol":17,"map":"pl_upward","folder":"tf","game":"Team Fortress","app_id":440,"player_count":0,"max_players":24,"Bots":0,"server_type":"Dedicated","server_os":"Linux","password":true,"vac":true,"version":"7757534","steam_id":85568392924500087,"keywords":["nocrits","nodmgspread","payload","uncletopia"],"game_id":440,"stv_port":27016,"stv_name":"Uncletopia | Montréal | 1 | All Maps | STV","players":null},{"server_id":301,"name":"Uncletopia | Montréal | 2 | All Maps","name_short":"mtl-2","host":"mtl-1.ca.uncletopia.com","port":27025,"enabled":true,"region":"us-east","cc":"ca","latitude":45.50889,"longitude":-73.56167,"reserved":0,"last_update":"0001-01-01T00:00:00Z","name_a2s":"Uncletopia | Montréal | 2 | All Maps","protocol":17,"map":"pl_snowycoast","folder":"tf","game":"Team Fortress","app_id":440,"player_count":0,"max_players":24,"Bots":0,"server_type":"Dedicated","server_os":"Linux","password":true,"vac":true,"version":"7757534","steam_id":85568392924500088,"keywords":["nocrits","nodmgspread","payload","uncletopia"],"game_id":440,"stv_port":27026,"stv_name":"Uncletopia | Montréal | 2 | All Maps | STV","players":null},{"server_id":302,"name":"Uncletopia | Montréal | 3 | All Maps","name_short":"mtl-3","host":"mtl-1.ca.uncletopia.com","port":27035,"enabled":true,"region":"us-east","cc":"ca","latitude":45.50889,"longitude":-73.56167,"reserved":0,"last_update":"0001-01-01T00:00:00Z","name_a2s":"Uncletopia | Montréal | 3 | All Maps","protocol":17,"map":"pl_swiftwater_final1","folder":"tf","game":"Team Fortress","app_id":440,"player_count":0,"max_players":24,"Bots":0,"server_type":"Dedicated","server_os":"Linux","password":true,"vac":true,"version":"7757534","steam_id":85568392924500089,"keywords":["nocrits","nodmgspread","payload","uncletopia"],"game_id":440,"stv_port":27036,"stv_name":"Uncletopia | Montréal | 3 | All Maps | STV","players":null},{"server_id":303,"name":"Uncletopia | Montréal | 4 | No Payload","name_short":"mtl-4","host":"mtl-1.ca.uncletopia.com","port":27045,"enabled":true,"region":"us-east","cc":"ca","latitude":45.50889,"longitude":-73.56167,"reserved":0,"last_update":"0001-01-01T00:00:00Z","name_a2s":"Uncletopia | Montréal | 4 | No Payload","protocol":17,"map":"pl_pier","folder":"tf","game":"Team Fortress","app_id":440,"player_count":0,"max_players":24,"Bots":0,"server_type":"Dedicated","server_os":"Linux","password":true,"vac":true,"version":"7757534","steam_id":85568392924500090,"keywords":["nocrits","nodmgspread","payload","uncletopia"],"game_id":440,"stv_port":27046,"stv_name":"Uncletopia | Montréal | 4 | No Payload | STV","players":null},{"server_id":13,"name":"Uncletopia | New York City | 1 | All Maps","name_short":"nyc-1","host":"nyc-1.us.uncletopia.com","port":27015,"enabled":true,"region":"us-east","cc":"us","latitude":40.73061,"longitude":-73.93524,"reserved":0,"last_update":"0001-01-01T00:00:00Z","name_a2s":"Uncletopia | New York City | 1 | All Maps","protocol":17,"map":"koth_viaduct","folder":"tf","game":"Team Fortress","app_id":440,"player_count":0,"max_players":24,"Bots":0,"server_type":"Dedicated","server_os":"Linux","password":true,"vac":true,"version":"7757534","steam_id":85568392924469993,"keywords":["cp","nocrits","nodmgspread","uncletopia"],"game_id":440,"stv_port":27016,"stv_name":"Uncletopia | New York City | 1 | All Maps | STV","players":null},{"server_id":14,"name":"Uncletopia | New York City | 2 | All Maps","name_short":"nyc-2","host":"nyc-1.us.uncletopia.com","port":27025,"enabled":true,"region":"us-east","cc":"us","latitude":40.73061,"longitude":-73.93524,"reserved":0,"last_update":"0001-01-01T00:00:00Z","name_a2s":"Uncletopia | New York City | 2 | All Maps","protocol":17,"map":"pl_badwater","folder":"tf","game":"Team Fortress","app_id":440,"player_count":0,"max_players":24,"Bots":0,"server_type":"Dedicated","server_os":"Linux","password":true,"vac":true,"version":"7757534","steam_id":85568392924469994,"keywords":["nocrits","nodmgspread","payload","uncletopia"],"game_id":440,"stv_port":27026,"stv_name":"Uncletopia | New York City | 2 | All Maps | STV","players":null},{"server_id":15,"name":"Uncletopia | New York City | 3 | Stopwatch Beta","name_short":"nyc-3","host":"nyc-1.us.uncletopia.com","port":27035,"enabled":true,"region":"us-east","cc":"us","latitude":40.73061,"longitude":-73.93524,"reserved":0,"last_update":"0001-01-01T00:00:00Z","name_a2s":"Uncletopia | New York City | 3 | Stopwatch Beta","protocol":17,"map":"pl_upward","folder":"tf","game":"Team Fortress","app_id":440,"player_count":0,"max_players":24,"Bots":0,"server_type":"Dedicated","server_os":"Linux","password":true,"vac":true,"version":"7757534","steam_id":85568392924742820,"keywords":["nocrits","nodmgspread","payload","uncletopia"],"game_id":440,"stv_port":27036,"stv_name":"Uncletopia | New York City | 3 | Stopwatch Beta | STV","players":null},{"server_id":16,"name":"Uncletopia | New York City | 4 | Community","name_short":"nyc-4","host":"nyc-1.us.uncletopia.com","port":27045,"enabled":true,"region":"us-east","cc":"us","latitude":40.73061,"longitude":-73.93524,"reserved":0,"last_update":"0001-01-01T00:00:00Z","name_a2s":"Uncletopia | New York City | 4 | Community","protocol":17,"map":"pl_swiftwater_final1","folder":"tf","game":"Team Fortress","app_id":440,"player_count":0,"max_players":24,"Bots":0,"server_type":"Dedicated","server_os":"Linux","password":true,"vac":true,"version":"7757534","steam_id":85568392924742821,"keywords":["nocrits","nodmgspread","payload","uncletopia"],"game_id":440,"stv_port":27046,"stv_name":"Uncletopia | New York City | 4 | Community | STV","players":null},{"server_id":142,"name":"Uncletopia | São Paulo | 1 | All Maps","name_short":"sao-1","host":"sao-1.br.uncletopia.com","port":27015,"enabled":true,"region":"sa","cc":"br","latitude":-23.533773,"longitude":-46.62529,"reserved":0,"last_update":"0001-01-01T00:00:00Z","name_a2s":"Uncletopia | São Paulo | 1 | All Maps","protocol":17,"map":"cp_snakewater_final1","folder":"tf","game":"Team Fortress","app_id":440,"player_count":0,"max_players":24,"Bots":0,"server_type":"Dedicated","server_os":"Linux","password":true,"vac":true,"version":"7757534","steam_id":85568392924469996,"keywords":["cp","nocrits","nodmgspread","uncletopia"],"game_id":440,"stv_port":27016,"stv_name":"Uncletopia | São Paulo | 1 | All Maps | STV","players":null},{"server_id":143,"name":"Uncletopia | São Paulo | 2 | All Maps","name_short":"sao-2","host":"sao-2.br.uncletopia.com","port":27015,"enabled":true,"region":"sa","cc":"br","latitude":-23.533773,"longitude":-46.62529,"reserved":0,"last_update":"0001-01-01T00:00:00Z","name_a2s":"Uncletopia | São Paulo | 2 | All Maps","protocol":17,"map":"koth_viaduct","folder":"tf","game":"Team Fortress","app_id":440,"player_count":0,"max_players":24,"Bots":0,"server_type":"Dedicated","server_os":"Linux","password":true,"vac":true,"version":"7757534","steam_id":85568392924485349,"keywords":["cp","nocrits","nodmgspread","uncletopia"],"game_id":440,"stv_port":27016,"stv_name":"Uncletopia | São Paulo | 2 | All Maps | STV","players":null},{"server_id":7,"name":"Uncletopia | Seattle | 1 | All Maps","name_short":"sea-1","host":"sea-1.us.uncletopia.com","port":27015,"enabled":true,"region":"us-west","cc":"us","latitude":47.608013,"longitude":-122.33517,"reserved":0,"last_update":"0001-01-01T00:00:00Z","name_a2s":"Uncletopia | Seattle | 1 | All Maps","protocol":17,"map":"pl_frontier_final","folder":"tf","game":"Team Fortress","app_id":440,"player_count":0,"max_players":24,"Bots":0,"server_type":"Dedicated","server_os":"Linux","password":true,"vac":true,"version":"7757534","steam_id":85568392924469997,"keywords":["nocrits","nodmgspread","payload","uncletopia"],"game_id":440,"stv_port":27016,"stv_name":"Uncletopia | Seattle | 1 | All Maps | STV","players":null},{"server_id":119,"name":"Uncletopia | Seattle | 2 | All Maps","name_short":"sea-2","host":"sea-1.us.uncletopia.com","port":27025,"enabled":true,"region":"us-west","cc":"us","latitude":47.608013,"longitude":-122.33517,"reserved":0,"last_update":"0001-01-01T00:00:00Z","name_a2s":"Uncletopia | Seattle | 2 | All Maps","protocol":17,"map":"pl_swiftwater_final1","folder":"tf","game":"Team Fortress","app_id":440,"player_count":24,"max_players":24,"Bots":0,"server_type":"Dedicated","server_os":"Linux","password":true,"vac":true,"version":"7757534","steam_id":85568392924469998,"keywords":["nocrits","nodmgspread","payload","uncletopia"],"game_id":440,"stv_port":27026,"stv_name":"Uncletopia | Seattle | 2 | All Maps | STV","players":[{"user_id":903,"name":"Simonthebestest","steam_id":76561199093580344,"connected_time":1044000000000,"state":"active","ping":82},{"user_id":912,"name":"Lost Arachnid","steam_id":76561199012943912,"connected_time":237000000000,"state":"active","ping":145},{"user_id":899,"name":"brea?","steam_id":76561198025130409,"connected_time":1203000000000,"state":"active","ping":110},{"user_id":885,"name":"Sir Galahad","steam_id":76561198195999859,"connected_time":2515000000000,"state":"active","ping":51},{"user_id":892,"name":"Vespen","steam_id":76561198259984019,"connected_time":2078000000000,"state":"active","ping":71},{"user_id":871,"name":"selvhat","steam_id":76561198114225509,"connected_time":4024000000000,"state":"active","ping":71},{"user_id":834,"name":"nichts","steam_id":76561198230007548,"connected_time":6242000000000,"state":"active","ping":89},{"user_id":868,"name":"InflatableGuillotine","steam_id":76561198027904731,"connected_time":4131000000000,"state":"active","ping":195},{"user_id":884,"name":"Boredom2013","steam_id":76561198066426686,"connected_time":2769000000000,"state":"active","ping":71},{"user_id":905,"name":"CreativeUsername","steam_id":76561198186045503,"connected_time":934000000000,"state":"active","ping":93},{"user_id":891,"name":"WAFFLES 1billion","steam_id":76561199447136573,"connected_time":2121000000000,"state":"active","ping":124},{"user_id":870,"name":"...","steam_id":76561198312298321,"connected_time":4086000000000,"state":"active","ping":112},{"user_id":909,"name":"federal agent","steam_id":76561198136278172,"connected_time":397000000000,"state":"active","ping":134},{"user_id":913,"name":"[λG] Commando Booce","steam_id":76561199209786129,"connected_time":151000000000,"state":"connecting","ping":0},{"user_id":872,"name":"Aggravated Badger Catastrophe","steam_id":76561199105588241,"connected_time":3911000000000,"state":"active","ping":122},{"user_id":873,"name":"LloydMann","steam_id":76561198025392778,"connected_time":3880000000000,"state":"active","ping":106},{"user_id":874,"name":"CollDragon","steam_id":76561198067534450,"connected_time":3873000000000,"state":"active","ping":131},{"user_id":814,"name":"creepycrawler","steam_id":76561198352016831,"connected_time":8350000000000,"state":"active","ping":109},{"user_id":862,"name":"Underscore","steam_id":76561198374209415,"connected_time":4371000000000,"state":"active","ping":109},{"user_id":910,"name":"CHEEKY EUNUCH","steam_id":76561198990825232,"connected_time":358000000000,"state":"active","ping":127},{"user_id":893,"name":"Noodle","steam_id":76561199156137868,"connected_time":2064000000000,"state":"active","ping":126},{"user_id":915,"name":"TractorKid45","steam_id":76561198087472085,"connected_time":64000000000,"state":"active","ping":61},{"user_id":886,"name":"Just Tyrone","steam_id":76561198031912345,"connected_time":2219000000000,"state":"active","ping":88},{"user_id":883,"name":"精液Blev Blev精液","steam_id":76561198208972565,"connected_time":2844000000000,"state":"active","ping":115}]},{"server_id":406,"name":"Uncletopia | Seattle | 3 | Stopwatch Beta","name_short":"sea-3","host":"sea-1.us.uncletopia.com","port":27035,"enabled":true,"region":"us-west","cc":"us","latitude":47.608013,"longitude":-122.33517,"reserved":0,"last_update":"0001-01-01T00:00:00Z","name_a2s":"Uncletopia | Seattle | 3 | Stopwatch Beta","protocol":17,"map":"koth_highpass","folder":"tf","game":"Team Fortress","app_id":440,"player_count":0,"max_players":24,"Bots":0,"server_type":"Dedicated","server_os":"Linux","password":true,"vac":true,"version":"7757534","steam_id":85568392924515217,"keywords":["cp","nocrits","nodmgspread","uncletopia"],"game_id":440,"stv_port":27036,"stv_name":"Uncletopia | Seattle | 3 | Stopwatch Beta | STV","players":null},{"server_id":17,"name":"Uncletopia | San Francisco | 1 | All Maps","name_short":"sfo-1","host":"sfo-1.us.uncletopia.com","port":27015,"enabled":true,"region":"us-west","cc":"us","latitude":37.77397,"longitude":-122.4313,"reserved":0,"last_update":"0001-01-01T00:00:00Z","name_a2s":"Uncletopia | San Francisco | 1 | All Maps","protocol":17,"map":"cp_snakewater_final1","folder":"tf","game":"Team Fortress","app_id":440,"player_count":0,"max_players":24,"Bots":0,"server_type":"Dedicated","server_os":"Linux","password":true,"vac":true,"version":"7757534","steam_id":85568392924469999,"keywords":["cp","nocrits","nodmgspread","uncletopia"],"game_id":440,"stv_port":27016,"stv_name":"Uncletopia | San Francisco | 1 | All Maps | STV","players":null},{"server_id":18,"name":"Uncletopia | San Francisco | 2 | All Maps","name_short":"sfo-2","host":"sfo-1.us.uncletopia.com","port":27025,"enabled":true,"region":"us-west","cc":"us","latitude":37.77397,"longitude":-122.4313,"reserved":0,"last_update":"0001-01-01T00:00:00Z","name_a2s":"Uncletopia | San Francisco | 2 | All Maps","protocol":17,"map":"pl_snowycoast","folder":"tf","game":"Team Fortress","app_id":440,"player_count":0,"max_players":24,"Bots":0,"server_type":"Dedicated","server_os":"Linux","password":true,"vac":true,"version":"7757534","steam_id":85568392924470000,"keywords":["nocrits","nodmgspread","payload","uncletopia"],"game_id":440,"stv_port":27026,"stv_name":"Uncletopia | San Francisco | 2 | All Maps | STV","players":null},{"server_id":19,"name":"Uncletopia | San Francisco | 3 | Stopwatch Beta","name_short":"sfo-3","host":"sfo-1.us.uncletopia.com","port":27035,"enabled":true,"region":"us-west","cc":"us","latitude":37.77397,"longitude":-122.4313,"reserved":0,"last_update":"0001-01-01T00:00:00Z","name_a2s":"Uncletopia | San Francisco | 3 | Stopwatch Beta","protocol":17,"map":"pl_borneo","folder":"tf","game":"Team Fortress","app_id":440,"player_count":0,"max_players":24,"Bots":0,"server_type":"Dedicated","server_os":"Linux","password":true,"vac":true,"version":"7757534","steam_id":85568392924742824,"keywords":["nocrits","nodmgspread","payload","uncletopia"],"game_id":440,"stv_port":27036,"stv_name":"Uncletopia | San Francisco | 3 | Stopwatch Beta | STV","players":null},{"server_id":20,"name":"Uncletopia | San Francisco | 4 | Community","name_short":"sfo-4","host":"sfo-1.us.uncletopia.com","port":27045,"enabled":true,"region":"us-west","cc":"us","latitude":37.77397,"longitude":-122.4313,"reserved":0,"last_update":"0001-01-01T00:00:00Z","name_a2s":"Uncletopia | San Francisco | 4 | Community","protocol":17,"map":"workshop/koth_product_final.ugc454272353","folder":"tf","game":"Team Fortress","app_id":440,"player_count":0,"max_players":24,"Bots":0,"server_type":"Dedicated","server_os":"Linux","password":true,"vac":true,"version":"7757534","steam_id":85568392924742826,"keywords":["cp","nocrits","nodmgspread","uncletopia"],"game_id":440,"stv_port":27046,"stv_name":"Uncletopia | San Francisco | 4 | Community | STV","players":null},{"server_id":141,"name":"Uncletopia | Sydney | 1 | All Maps","name_short":"syd-1","host":"syd-1.au.uncletopia.com","port":27015,"enabled":true,"region":"au","cc":"au","latitude":-33.865143,"longitude":151.2099,"reserved":0,"last_update":"0001-01-01T00:00:00Z","name_a2s":"Uncletopia | Sydney | 1 | All Maps","protocol":17,"map":"pl_barnblitz","folder":"tf","game":"Team Fortress","app_id":440,"player_count":23,"max_players":24,"Bots":0,"server_type":"Dedicated","server_os":"Linux","password":true,"vac":true,"version":"7757534","steam_id":85568392924470001,"keywords":["nocrits","nodmgspread","payload","uncletopia"],"game_id":440,"stv_port":27016,"stv_name":"Uncletopia | Sydney | 1 | All Maps | STV","players":[{"user_id":428,"name":"Rabbi Suxkids","steam_id":76561199374798078,"connected_time":398000000000,"state":"active","ping":57},{"user_id":421,"name":"saudi ambassador messi","steam_id":76561198031293430,"connected_time":1520000000000,"state":"active","ping":79},{"user_id":418,"name":"thrax","steam_id":76561197992385270,"connected_time":2334000000000,"state":"active","ping":53},{"user_id":287,"name":"Morterkai","steam_id":76561198048247068,"connected_time":11051000000000,"state":"active","ping":64},{"user_id":408,"name":"Soru","steam_id":76561198010844786,"connected_time":3269000000000,"state":"active","ping":65},{"user_id":431,"name":"Jodelkönig Franzl Lang","steam_id":76561198007667830,"connected_time":168000000000,"state":"active","ping":44},{"user_id":386,"name":"biff","steam_id":76561198069603865,"connected_time":4853000000000,"state":"active","ping":57},{"user_id":414,"name":"helton1 #RemoveCrossbow","steam_id":76561198841855657,"connected_time":2661000000000,"state":"active","ping":52},{"user_id":420,"name":"toblue","steam_id":76561198189137465,"connected_time":2061000000000,"state":"active","ping":75},{"user_id":425,"name":"Tricka •","steam_id":76561197968440123,"connected_time":882000000000,"state":"active","ping":44},{"user_id":343,"name":"helryeginn","steam_id":76561198202750573,"connected_time":7808000000000,"state":"active","ping":53},{"user_id":415,"name":"voxii","steam_id":76561198099698281,"connected_time":2629000000000,"state":"active","ping":64},{"user_id":433,"name":"crack","steam_id":76561198077370413,"connected_time":62000000000,"state":"active","ping":66},{"user_id":400,"name":"siki","steam_id":76561198088192177,"connected_time":3937000000000,"state":"active","ping":128},{"user_id":432,"name":"Dabloon","steam_id":76561198115876475,"connected_time":128000000000,"state":"active","ping":54},{"user_id":422,"name":"tom :D","steam_id":76561198073393715,"connected_time":1508000000000,"state":"active","ping":107},{"user_id":423,"name":"Rags","steam_id":76561198179481430,"connected_time":1491000000000,"state":"active","ping":97},{"user_id":381,"name":"Captain Canadia","steam_id":76561198167967735,"connected_time":5552000000000,"state":"active","ping":49},{"user_id":419,"name":"Limble","steam_id":76561197990975104,"connected_time":2314000000000,"state":"active","ping":89},{"user_id":398,"name":"hush","steam_id":76561198348492407,"connected_time":4078000000000,"state":"active","ping":53},{"user_id":424,"name":"Tees","steam_id":76561199174602317,"connected_time":1251000000000,"state":"active","ping":53},{"user_id":426,"name":"sav","steam_id":76561198058760041,"connected_time":678000000000,"state":"active","ping":74},{"user_id":413,"name":"paper boat","steam_id":76561198046558051,"connected_time":2890000000000,"state":"active","ping":167}]},{"server_id":123,"name":"Uncletopia | Sydney | 2 | All Maps","name_short":"syd-2","host":"syd-1.au.uncletopia.com","port":27025,"enabled":true,"region":"au","cc":"au","latitude":-33.865143,"longitude":151.2099,"reserved":0,"last_update":"0001-01-01T00:00:00Z","name_a2s":"Uncletopia | Sydney | 2 | All Maps","protocol":17,"map":"cp_snakewater_final1","folder":"tf","game":"Team Fortress","app_id":440,"player_count":0,"max_players":24,"Bots":0,"server_type":"Dedicated","server_os":"Linux","password":true,"vac":true,"version":"7757534","steam_id":85568392924470002,"keywords":["cp","nocrits","nodmgspread","uncletopia"],"game_id":440,"stv_port":27026,"stv_name":"Uncletopia | Sydney | 2 | All Maps | STV","players":null},{"server_id":395,"name":"Uncletopia | Sydney | 3 | All Maps","name_short":"syd-3","host":"syd-1.au.uncletopia.com","port":27035,"enabled":true,"region":"au","cc":"au","latitude":-33.865143,"longitude":151.2099,"reserved":0,"last_update":"0001-01-01T00:00:00Z","name_a2s":"Uncletopia | Sydney | 3 | All Maps","protocol":17,"map":"cp_sunshine","folder":"tf","game":"Team Fortress","app_id":440,"player_count":0,"max_players":24,"Bots":0,"server_type":"Dedicated","server_os":"Linux","password":true,"vac":true,"version":"7757534","steam_id":85568392925194467,"keywords":["cp","nocrits","nodmgspread","uncletopia"],"game_id":440,"stv_port":27036,"stv_name":"Uncletopia | Sydney | 3 | All Maps | STV","players":null},{"server_id":396,"name":"Uncletopia | Sydney | 4 | All Maps","name_short":"syd-4","host":"syd-1.au.uncletopia.com","port":27045,"enabled":true,"region":"au","cc":"au","latitude":-33.865143,"longitude":151.2099,"reserved":0,"last_update":"0001-01-01T00:00:00Z","name_a2s":"Uncletopia | Sydney | 4 | All Maps","protocol":17,"map":"pl_upward","folder":"tf","game":"Team Fortress","app_id":440,"player_count":0,"max_players":24,"Bots":0,"server_type":"Dedicated","server_os":"Linux","password":true,"vac":true,"version":"7757534","steam_id":85568392925397958,"keywords":["nocrits","nodmgspread","payload","uncletopia"],"game_id":440,"stv_port":27046,"stv_name":"Uncletopia | Sydney | 4 | All Maps | STV","players":null},{"server_id":58,"name":"Uncletopia | Sydney | 5 | Stopwatch Beta","name_short":"syd-5","host":"syd-1.au.uncletopia.com","port":27055,"enabled":true,"region":"au","cc":"au","latitude":-33.865143,"longitude":151.2099,"reserved":0,"last_update":"0001-01-01T00:00:00Z","name_a2s":"Uncletopia | Sydney | 5 | Stopwatch Beta","protocol":17,"map":"workshop/cp_reckoner_rc6.ugc674719999","folder":"tf","game":"Team Fortress","app_id":440,"player_count":0,"max_players":24,"Bots":0,"server_type":"Dedicated","server_os":"Linux","password":true,"vac":true,"version":"7757534","steam_id":85568392925397959,"keywords":["cp","nocrits","nodmgspread","uncletopia"],"game_id":440,"stv_port":27056,"stv_name":"Uncletopia | Sydney | 5 | Stopwatch Beta | STV","players":null},{"server_id":59,"name":"Uncletopia | Sydney | 6 | Community","name_short":"syd-6","host":"syd-1.au.uncletopia.com","port":27065,"enabled":true,"region":"au","cc":"au","latitude":-33.865143,"longitude":151.2099,"reserved":0,"last_update":"0001-01-01T00:00:00Z","name_a2s":"Uncletopia | Sydney | 6 | Community","protocol":17,"map":"workshop/koth_ramjam_rc1.ugc459778887","folder":"tf","game":"Team Fortress","app_id":440,"player_count":0,"max_players":24,"Bots":0,"server_type":"Dedicated","server_os":"Linux","password":true,"vac":true,"version":"7757534","steam_id":85568392925397960,"keywords":["cp","nocrits","nodmgspread","uncletopia"],"game_id":440,"stv_port":27066,"stv_name":"Uncletopia | Sydney | 6 | Community | STV","players":null},{"server_id":49,"name":"Uncletopia | Warsaw | 1 | All Maps","name_short":"waw-1","host":"waw-1.pl.uncletopia.com","port":27015,"enabled":true,"region":"eu","cc":"pl","latitude":52.2297,"longitude":21.017532,"reserved":0,"last_update":"0001-01-01T00:00:00Z","name_a2s":"","protocol":0,"map":"","folder":"","game":"","app_id":0,"player_count":0,"max_players":0,"Bots":0,"server_type":"","server_os":"","password":false,"vac":false,"version":"","steam_id":0,"keywords":null,"game_id":0,"stv_port":0,"stv_name":"","players":null},{"server_id":50,"name":"Uncletopia | Warsaw | 2 | All Maps","name_short":"waw-2","host":"waw-1.pl.uncletopia.com","port":27025,"enabled":true,"region":"eu","cc":"pl","latitude":52.2297,"longitude":21.017532,"reserved":0,"last_update":"0001-01-01T00:00:00Z","name_a2s":"Uncletopia | Warsaw | 2 | All Maps","protocol":17,"map":"koth_viaduct","folder":"tf","game":"Team Fortress","app_id":440,"player_count":0,"max_players":24,"Bots":0,"server_type":"Dedicated","server_os":"Linux","password":true,"vac":true,"version":"7757534","steam_id":85568392925397851,"keywords":["cp","nocrits","nodmgspread","uncletopia"],"game_id":440,"stv_port":27026,"stv_name":"Uncletopia | Warsaw | 2 | All Maps | STV","players":null},{"server_id":51,"name":"Uncletopia | Warsaw | 3 | All Maps","name_short":"waw-3","host":"waw-1.pl.uncletopia.com","port":27035,"enabled":true,"region":"eu","cc":"pl","latitude":52.2297,"longitude":21.017532,"reserved":0,"last_update":"0001-01-01T00:00:00Z","name_a2s":"Uncletopia | Warsaw | 3 | All Maps","protocol":17,"map":"koth_viaduct","folder":"tf","game":"Team Fortress","app_id":440,"player_count":0,"max_players":24,"Bots":0,"server_type":"Dedicated","server_os":"Linux","password":true,"vac":true,"version":"7757534","steam_id":85568392925397852,"keywords":["cp","nocrits","nodmgspread","uncletopia"],"game_id":440,"stv_port":27036,"stv_name":"Uncletopia | Warsaw | 3 | All Maps | STV","players":null},{"server_id":52,"name":"Uncletopia | Warsaw | 4 | All Maps","name_short":"waw-4","host":"waw-1.pl.uncletopia.com","port":27045,"enabled":true,"region":"eu","cc":"pl","latitude":52.2297,"longitude":21.017532,"reserved":0,"last_update":"0001-01-01T00:00:00Z","name_a2s":"Uncletopia | Warsaw | 4 | All Maps","protocol":17,"map":"koth_lakeside_final","folder":"tf","game":"Team Fortress","app_id":440,"player_count":0,"max_players":24,"Bots":0,"server_type":"Dedicated","server_os":"Linux","password":true,"vac":true,"version":"7757534","steam_id":85568392925397853,"keywords":["cp","nocrits","nodmgspread","uncletopia"],"game_id":440,"stv_port":27046,"stv_name":"Uncletopia | Warsaw | 4 | All Maps | STV","players":null},{"server_id":53,"name":"Uncletopia | Warsaw | 5 | Stopwatch Beta","name_short":"waw-5","host":"waw-1.pl.uncletopia.com","port":27055,"enabled":true,"region":"eu","cc":"pl","latitude":52.2297,"longitude":21.017532,"reserved":0,"last_update":"0001-01-01T00:00:00Z","name_a2s":"Uncletopia | Warsaw | 5 | Stopwatch Beta","protocol":17,"map":"pl_borneo","folder":"tf","game":"Team Fortress","app_id":440,"player_count":0,"max_players":24,"Bots":0,"server_type":"Dedicated","server_os":"Linux","password":true,"vac":true,"version":"7757534","steam_id":85568392925397854,"keywords":["nocrits","nodmgspread","payload","uncletopia"],"game_id":440,"stv_port":27056,"stv_name":"Uncletopia | Warsaw | 5 | Stopwatch Beta | STV","players":null},{"server_id":54,"name":"Uncletopia | Warsaw | 6 | Community","name_short":"waw-6","host":"waw-1.pl.uncletopia.com","port":27065,"enabled":true,"region":"eu","cc":"pl","latitude":52.2297,"longitude":21.017532,"reserved":0,"last_update":"0001-01-01T00:00:00Z","name_a2s":"Uncletopia | Warsaw | 6 | Community","protocol":17,"map":"koth_lakeside_final","folder":"tf","game":"Team Fortress","app_id":440,"player_count":0,"max_players":24,"Bots":0,"server_type":"Dedicated","server_os":"Linux","password":true,"vac":true,"version":"7757534","steam_id":85568392925397856,"keywords":["cp","nocrits","nodmgspread","uncletopia"],"game_id":440,"stv_port":27066,"stv_name":"Uncletopia | Warsaw | 6 | Community | STV","players":null}]}