{"status":true,"message":"","result":[{"server_id":9,"name":"Uncletopia | Atlanta | 1 | All Maps","name_short":"atl-1","host":"atl-1.us.uncletopia.com","port":27015,"enabled":true,"region":"us-east","cc":"us","latitude":33.753746,"longitude":-84.38633,"reserved":0,"last_update":"0001-01-01T00:00:00Z","name_a2s":"Uncletopia | Atlanta | 1 | All Maps","protocol":17,"map":"pl_snowycoast","folder":"tf","game":"Team Fortress","app_id":440,"player_count":24,"max_players":24,"Bots":0,"server_type":"Dedicated","server_os":"Linux","password":true,"vac":true,"version":"7961495","steam_id":85568392924469982,"keywords":["nocrits","nodmgspread","payload","uncletopia"],"game_id":440,"stv_port":27016,"stv_name":"Uncletopia | Atlanta | 1 | All Maps | STV","players":[{"user_id":811,"name":"TheCumLord","steam_id":76561198065939687,"connected_time":250000000000,"state":"active","ping":110},{"user_id":793,"name":"Windows Vista Home Premium","steam_id":76561198043764863,"connected_time":2148000000000,"state":"active","ping":103},{"user_id":810,"name":"art_of_the_doot","steam_id":76561198086608978,"connected_time":265000000000,"state":"active","ping":101},{"user_id":812,"name":"Female Gamer","steam_id":76561199366482682,"connected_time":200000000000,"state":"active","ping":116},{"user_id":802,"name":"nobody","steam_id":76561198148059714,"connected_time":1306000000000,"state":"active","ping":66},{"user_id":777,"name":"Cheese","steam_id":76561199207081299,"connected_time":3259000000000,"state":"active","ping":86},{"user_id":803,"name":"Crombun","steam_id":76561198031559642,"connected_time":1180000000000,"state":"active","ping":61},{"user_id":804,"name":"Sheva","steam_id":76561198083561382,"connected_time":1067000000000,"state":"active","ping":102},{"user_id":805,"name":"KennytheHedgehog","steam_id":76561198094607721,"connected_time":1066000000000,"state":"active","ping":68},{"user_id":814,"name":"Joule Thief","steam_id":76561198010249026,"connected_time":55000000000,"state":"active","ping":132},{"user_id":807,"name":"CatLionCake","steam_id":76561199287448032,"connected_time":1043000000000,"state":"active","ping":103},{"user_id":770,"name":"Pepsi‚Ñ¢ BleakPanther","steam_id":76561198094154927,"connected_time":3702000000000,"state":"active","ping":57},{"user_id":791,"name":"Squigly","steam_id":76561198084811625,"connected_time":2482000000000,"state":"active","ping":89},{"user_id":797,"name":"CeeJ üôä","steam_id":76561198065257478,"connected_time":1730000000000,"state":"active","ping":85},{"user_id":761,"name":"CoffeeZombee","steam_id":76561198172708053,"connected_time":4354000000000,"state":"active","ping":67},{"user_id":757,"name":"Dax","steam_id":76561198045549713,"connected_time":4631000000000,"state":"active","ping":83},{"user_id":813,"name":"KevilPo","steam_id":76561199244507267,"connected_time":197000000000,"state":"active","ping":86},{"user_id":785,"name":"Captain Chicken","steam_id":76561198047767530,"connected_time":2602000000000,"state":"active","ping":97},{"user_id":758,"name":"roman","steam_id":76561198170066797,"connected_time":4628000000000,"state":"active","ping":49},{"user_id":795,"name":"TuSuperVieja24","steam_id":76561198940737217,"connected_time":2054000000000,"state":"active","ping":123},{"user_id":808,"name":"Philo","steam_id":76561198061873341,"connected_time":1043000000000,"state":"active","ping":76},{"user_id":809,"name":"two-bit Thief","steam_id":76561199202681534,"connected_time":760000000000,"state":"active","ping":109},{"user_id":792,"name":"BitPieStudios","steam_id":76561198059216393,"connected_time":2479000000000,"state":"active","ping":101},{"user_id":799,"name":"dashR","steam_id":76561198085674870,"connected_time":1437000000000,"state":"active","ping":95}]},{"server_id":104,"name":"Uncletopia | Atlanta | 2 | All Maps","name_short":"atl-2","host":"atl-1.us.uncletopia.com","port":27025,"enabled":true,"region":"us-east","cc":"us","latitude":33.753746,"longitude":-84.38633,"reserved":0,"last_update":"0001-01-01T00:00:00Z","name_a2s":"Uncletopia | Atlanta | 2 | All Maps","protocol":17,"map":"koth_cascade","folder":"tf","game":"Team Fortress","app_id":440,"player_count":0,"max_players":24,"Bots":0,"server_type":"Dedicated","server_os":"Linux","password":true,"vac":true,"version":"7961495","steam_id":85568392924469983,"keywords":["cp","nocrits","nodmgspread","uncletopia"],"game_id":440,"stv_port":27026,"stv_name":"Uncletopia | Atlanta | 2 | All Maps | STV","players":null},{"server_id":400,"name":"Uncletopia | Atlanta | 3 | Stopwatch","name_short":"atl-3","host":"atl-1.us.uncletopia.com","port":27035,"enabled":true,"region":"us-east","cc":"us","latitude":33.753746,"longitude":-84.38633,"reserved":0,"last_update":"0001-01-01T00:00:00Z","name_a2s":"Uncletopia | Atlanta | 3 | Stopwatch","protocol":17,"map":"cp_metalworks","folder":"tf","game":"Team Fortress","app_id":440,"player_count":0,"max_players":24,"Bots":0,"server_type":"Dedicated","server_os":"Linux","password":true,"vac":true,"version":"7961495","steam_id":85568392924515187,"keywords":["cp","nocrits","nodmgspread","uncletopia"],"game_id":440,"stv_port":27036,"stv_name":"Uncletopia | Atlanta | 3 | Stopwatch | STV","players":null},{"server_id":401,"name":"Uncletopia | Atlanta | 4 | Community","name_short":"atl-4","host":"atl-1.us.uncletopia.com","port":27045,"enabled":true,"region":"us-east","cc":"us","latitude":33.753746,"longitude":-84.38633,"reserved":0,"last_update":"0001-01-01T00:00:00Z","name_a2s":"Uncletopia | Atlanta | 4 | Community","protocol":17,"map":"workshop/pl_boundary_final1.ugc456799153","folder":"tf","game":"Team Fortress","app_id":440,"player_count":0,"max_players":24,"Bots":0,"server_type":"Dedicated","server_os":"Linux","password":true,"vac":true,"version":"7961495","steam_id":85568392924515188,"keywords":["nocrits","nodmgspread","payload","uncletopia"],"game_id":440,"stv_port":27046,"stv_name":"Uncletopia | Atlanta | 4 | Community | STV","players":null},{"server_id":2,"name":"Uncletopia | Chicago | 1 | All Maps","name_short":"chi-1","host":"chi-1.us.uncletopia.com","port":27015,"enabled":true,"region":"us-central","cc":"us","latitude":41.881832,"longitude":-87.62318,"reserved":0,"last_update":"0001-01-01T00:00:00Z","name_a2s":"Uncletopia | Chicago | 1 | All Maps","protocol":17,"map":"koth_nucleus","folder":"tf","game":"Team Fortress","app_id":440,"player_count":24,"max_players":24,"Bots":0,"server_type":"Dedicated","server_os":"Linux","password":true,"vac":true,"version":"7961495","steam_id":85568392924469984,"keywords":["cp","nocrits","nodmgspread","uncletopia"],"game_id":440,"stv_port":27016,"stv_name":"Uncletopia | Chicago | 1 | All Maps | STV","players":[{"user_id":775,"name":"Class-D","steam_id":76561198016290546,"connected_time":697000000000,"state":"active","ping":71},{"user_id":776,"name":"bob_killed_you","steam_id":76561199049501312,"connected_time":680000000000,"state":"active","ping":63},{"user_id":752,"name":"Woomy","steam_id":76561198070242372,"connected_time":1285000000000,"state":"active","ping":99},{"user_id":718,"name":"Hipster_Giraffe","steam_id":76561198069701092,"connected_time":3652000000000,"state":"active","ping":85},{"user_id":758,"name":"Whip_the_Rabbit","steam_id":76561198049896057,"connected_time":1071000000000,"state":"active","ping":112},{"user_id":753,"name":"Ninjoth","steam_id":76561198038611753,"connected_time":1282000000000,"state":"active","ping":82},{"user_id":786,"name":"Y Dough","steam_id":76561198003827633,"connected_time":247000000000,"state":"active","ping":95},{"user_id":767,"name":"Si1entSn1pa","steam_id":76561198170095479,"connected_time":898000000000,"state":"active","ping":84},{"user_id":762,"name":"SmugCoffeeMan","steam_id":76561198040765030,"connected_time":998000000000,"state":"active","ping":48},{"user_id":723,"name":"Shmoopy","steam_id":76561198030459152,"connected_time":3537000000000,"state":"active","ping":75},{"user_id":777,"name":"Funky Homosapien","steam_id":76561197995173222,"connected_time":670000000000,"state":"active","ping":77},{"user_id":778,"name":"local man","steam_id":76561198074946673,"connected_time":668000000000,"state":"active","ping":59},{"user_id":779,"name":"Fish_man_Jon","steam_id":76561198068158264,"connected_time":469000000000,"state":"active","ping":63},{"user_id":764,"name":"Chicken","steam_id":76561198855273194,"connected_time":957000000000,"state":"active","ping":69},{"user_id":781,"name":"DragoDuck","steam_id":76561198385685683,"connected_time":452000000000,"state":"active","ping":87},{"user_id":730,"name":"Boss Hogg","steam_id":76561198412147032,"connected_time":3380000000000,"state":"active","ping":83},{"user_id":766,"name":"CabezaGrande","steam_id":76561197972555502,"connected_time":935000000000,"state":"active","ping":58},{"user_id":782,"name":"That Canadian Dude","steam_id":76561198024985831,"connected_time":437000000000,"state":"active","ping":62},{"user_id":784,"name":"Amari","steam_id":76561198272446730,"connected_time":412000000000,"state":"active","ping":58},{"user_id":770,"name":"Tideflat","steam_id":76561198179850851,"connected_time":885000000000,"state":"active","ping":99},{"user_id":736,"name":"the girl girlkisser","steam_id":76561198438737908,"connected_time":3273000000000,"state":"active","ping":74},{"user_id":737,"name":"Missing Minus","steam_id":76561198120822928,"connected_time":3224000000000,"state":"active","ping":59},{"user_id":771,"name":"Orca?","steam_id":76561198164341099,"connected_time":864000000000,"state":"active","ping":83},{"user_id":785,"name":"goopshit","steam_id":76561198126489501,"connected_time":389000000000,"state":"active","ping":44}]},{"server_id":106,"name":"Uncletopia | Chicago | 2 | All Maps","name_short":"chi-2","host":"chi-1.us.uncletopia.com","port":27025,"enabled":true,"region":"us-central","cc":"us","latitude":41.881832,"longitude":-87.62318,"reserved":0,"last_update":"0001-01-01T00:00:00Z","name_a2s":"Uncletopia | Chicago | 2 | All Maps","protocol":17,"map":"pl_frontier_final","folder":"tf","game":"Team Fortress","app_id":440,"player_count":24,"max_players":24,"Bots":0,"server_type":"Dedicated","server_os":"Linux","password":true,"vac":true,"version":"7961495","steam_id":85568392924469985,"keywords":["nocrits","nodmgspread","payload","uncletopia"],"game_id":440,"stv_port":27026,"stv_name":"Uncletopia | Chicago | 2 | All Maps | STV","players":[{"user_id":556,"name":"KillPact","steam_id":76561197976319415,"connected_time":76000000000,"state":"active","ping":69},{"user_id":557,"name":"usmnt==chokers","steam_id":76561198043456370,"connected_time":47000000000,"state":"active","ping":91},{"user_id":536,"name":"Stanv","steam_id":76561198259530604,"connected_time":1479000000000,"state":"active","ping":42},{"user_id":544,"name":"big fish","steam_id":76561198186479818,"connected_time":804000000000,"state":"active","ping":108},{"user_id":488,"name":"Crab","steam_id":76561198067628664,"connected_time":6448000000000,"state":"active","ping":104},{"user_id":525,"name":"Gugomo","steam_id":76561198121428316,"connected_time":2188000000000,"state":"active","ping":91},{"user_id":533,"name":"Huncat","steam_id":76561198143873789,"connected_time":1634000000000,"state":"active","ping":86},{"user_id":551,"name":"Hector Salamanca","steam_id":76561198093836635,"connected_time":279000000000,"state":"active","ping":115},{"user_id":495,"name":"pie","steam_id":76561198012945016,"connected_time":5999000000000,"state":"active","ping":45},{"user_id":439,"name":"Tobo","steam_id":76561198085846393,"connected_time":12799000000000,"state":"active","ping":76},{"user_id":537,"name":"Anomalous Materials Scientist","steam_id":76561198092542997,"connected_time":1396000000000,"state":"active","ping":64},{"user_id":437,"name":"Howard Hamlin","steam_id":76561198881039861,"connected_time":13857000000000,"state":"active","ping":44},{"user_id":503,"name":"Toasty","steam_id":76561198081819853,"connected_time":4220000000000,"state":"active","ping":83},{"user_id":491,"name":"Phillips 66","steam_id":76561198026875868,"connected_time":6071000000000,"state":"active","ping":58},{"user_id":553,"name":"Castroy","steam_id":76561198108160099,"connected_time":229000000000,"state":"active","ping":51},{"user_id":539,"name":"9gon Danmar33","steam_id":76561198056453091,"connected_time":1288000000000,"state":"active","ping":46},{"user_id":547,"name":"K","steam_id":76561198171446177,"connected_time":756000000000,"state":"active","ping":94},{"user_id":555,"name":"‡∂û‚Åß‚ÅßOÕ≠nÕ™eÕ§TrueDev","steam_id":76561198107400823,"connected_time":134000000000,"state":"active","ping":46},{"user_id":558,"name":"TallBadUserName","steam_id":76561198399685508,"connected_time":28000000000,"state":"active","ping":133},{"user_id":549,"name":"Scurvpup","steam_id":76561198090484962,"connected_time":492000000000,"state":"active","ping":90},{"user_id":554,"name":"Horrizan","steam_id":76561197965028480,"connected_time":169000000000,"state":"active","ping":76},{"user_id":540,"name":"[SLAG]redgunnit","steam_id":76561198058053644,"connected_time":1212000000000,"state":"active","ping":67},{"user_id":506,"name":"Admiral Crumbs","steam_id":76561198108791583,"connected_time":3969000000000,"state":"active","ping":66},{"user_id":546,"name":"frank","steam_id":76561198137777483,"connected_time":787000000000,"state":"active","ping":69}]},{"server_id":402,"name":"Uncletopia | Chicago | 3 | All Maps","name_short":"chi-3","host":"chi-1.us.uncletopia.com","port":27035,"enabled":true,"region":"us-central","cc":"us","latitude":41.881832,"longitude":-87.62318,"reserved":0,"last_update":"0001-01-01T00:00:00Z","name_a2s":"Uncletopia | Chicago | 3 | All Maps","protocol":17,"map":"pl_upward","folder":"tf","game":"Team Fortress","app_id":440,"player_count":23,"max_players":24,"Bots":0,"server_type":"Dedicated","server_os":"Linux","password":true,"vac":true,"version":"7961495","steam_id":85568392924515191,"keywords":["nocrits","nodmgspread","payload","uncletopia"],"game_id":440,"stv_port":27036,"stv_name":"Uncletopia | Chicago | 3 | All Maps | STV","players":[{"user_id":602,"name":"skittle ducks jr.","steam_id":76561198309823950,"connected_time":452000000000,"state":"active","ping":89},{"user_id":532,"name":"Thug shaker","steam_id":76561198840484105,"connected_time":4860000000000,"state":"active","ping":69},{"user_id":581,"name":"Colossal Falafel","steam_id":76561198108086245,"connected_time":2696000000000,"state":"active","ping":56},{"user_id":589,"name":"‚òøPUN“†‚Ä†Œ£R‚òø","steam_id":76561198046996946,"connected_time":1699000000000,"state":"active","ping":59},{"user_id":488,"name":"cZar","steam_id":76561199013179443,"connected_time":7836000000000,"state":"active","ping":45},{"user_id":588,"name":"Keeen","steam_id":76561198159310313,"connected_time":2088000000000,"state":"active","ping":62},{"user_id":596,"name":"Kantamoe","steam_id":76561198046661611,"connected_time":1512000000000,"state":"active","ping":85},{"user_id":592,"name":"DMJanitor","steam_id":76561198058929753,"connected_time":1564000000000,"state":"active","ping":114},{"user_id":591,"name":"BL√òRG","steam_id":76561198036126673,"connected_time":1669000000000,"state":"active","ping":75},{"user_id":585,"name":"pathways","steam_id":76561198054832333,"connected_time":2365000000000,"state":"active","ping":46},{"user_id":601,"name":"woman respecter","steam_id":76561198083225542,"connected_time":635000000000,"state":"active","ping":84},{"user_id":533,"name":"antifreeze drinker","steam_id":76561198069407799,"connected_time":4856000000000,"state":"active","ping":74},{"user_id":500,"name":"Sporp","steam_id":76561197987957133,"connected_time":6720000000000,"state":"active","ping":82},{"user_id":536,"name":"Adolf The Toast Jesus‚Ñ¢","steam_id":76561198024553767,"connected_time":4768000000000,"state":"active","ping":69},{"user_id":603,"name":"Leman Kerbi","steam_id":76561198107792733,"connected_time":352000000000,"state":"active","ping":75},{"user_id":605,"name":"Jezzus","steam_id":76561199289676387,"connected_time":81000000000,"state":"active","ping":84},{"user_id":593,"name":"warren","steam_id":76561198136331136,"connected_time":1563000000000,"state":"active","ping":76},{"user_id":594,"name":"vulcan nightclub pon farr night","steam_id":76561197974283797,"connected_time":1561000000000,"state":"active","ping":45},{"user_id":595,"name":"Serris","steam_id":76561198184900670,"connected_time":1554000000000,"state":"active","ping":57},{"user_id":578,"name":"Allegro","steam_id":76561198084599587,"connected_time":3168000000000,"state":"active","ping":76},{"user_id":547,"name":"Sean","steam_id":76561199367470003,"connected_time":4583000000000,"state":"active","ping":116},{"user_id":598,"name":"Luna","steam_id":76561198023352750,"connected_time":1486000000000,"state":"active","ping":81},{"user_id":600,"name":"PK","steam_id":76561198368722500,"connected_time":728000000000,"state":"active","ping":74}]},{"server_id":403,"name":"Uncletopia | Chicago | 4 | All Maps","name_short":"chi-4","host":"chi-1.us.uncletopia.com","port":27045,"enabled":true,"region":"us-central","cc":"us","latitude":41.881832,"longitude":-87.62318,"reserved":0,"last_update":"0001-01-01T00:00:00Z","name_a2s":"Uncletopia | Chicago | 4 | All Maps","protocol":17,"map":"ctf_2fort","folder":"tf","game":"Team Fortress","app_id":440,"player_count":23,"max_players":24,"Bots":0,"server_type":"Dedicated","server_os":"Linux","password":true,"vac":true,"version":"7961495","steam_id":85568392924515193,"keywords":["ctf","nocrits","nodmgspread","uncletopia"],"game_id":440,"stv_port":27046,"stv_name":"Uncletopia | Chicago | 4 | All Maps | STV","players":[{"user_id":1003,"name":"Mossssssssss","steam_id":76561199122200727,"connected_time":2825000000000,"state":"active","ping":65},{"user_id":1033,"name":"starwarslover911","steam_id":76561198144673121,"connected_time":217000000000,"state":"active","ping":68},{"user_id":1025,"name":"Dzhoshua","steam_id":76561198071915251,"connected_time":1156000000000,"state":"active","ping":66},{"user_id":1034,"name":"mrselfdestruct13","steam_id":76561197992054553,"connected_time":122000000000,"state":"active","ping":79},{"user_id":975,"name":"Tay","steam_id":76561198059605568,"connected_time":5418000000000,"state":"active","ping":74},{"user_id":1032,"name":"Gummy","steam_id":76561199200969139,"connected_time":326000000000,"state":"active","ping":104},{"user_id":1035,"name":"flame","steam_id":76561198079321914,"connected_time":95000000000,"state":"active","ping":100},{"user_id":999,"name":"EvilPi99let","steam_id":76561197987243470,"connected_time":3771000000000,"state":"active","ping":72},{"user_id":1026,"name":"DivineBanana","steam_id":76561198026529731,"connected_time":1003000000000,"state":"active","ping":93},{"user_id":1018,"name":"Scrux","steam_id":76561198129763115,"connected_time":1539000000000,"state":"active","ping":102},{"user_id":1016,"name":"AGuyNamedSteve","steam_id":76561198254309951,"connected_time":1665000000000,"state":"active","ping":59},{"user_id":1029,"name":"R8 Me M8 8/8","steam_id":76561198025280917,"connected_time":700000000000,"state":"active","ping":57},{"user_id":1002,"name":"Frunkle","steam_id":76561198051362617,"connected_time":2997000000000,"state":"active","ping":69},{"user_id":994,"name":"CreateADebate","steam_id":76561198115760035,"connected_time":4192000000000,"state":"active","ping":64},{"user_id":958,"name":"Wallem","steam_id":76561198052361822,"connected_time":6886000000000,"state":"active","ping":71},{"user_id":1036,"name":"BongRoss","steam_id":76561198069008085,"connected_time":43000000000,"state":"active","ping":88},{"user_id":1023,"name":"My Tomato Computer","steam_id":76561198121360293,"connected_time":1344000000000,"state":"active","ping":105},{"user_id":952,"name":"Mister Rattlebones","steam_id":76561198065560157,"connected_time":8050000000000,"state":"active","ping":64},{"user_id":954,"name":"Protato","steam_id":76561198061182563,"connected_time":8010000000000,"state":"active","ping":71},{"user_id":1028,"name":"Pissless Pissmass Pissman","steam_id":76561198409907417,"connected_time":763000000000,"state":"active","ping":112},{"user_id":1005,"name":"crazyabe111","steam_id":76561198407686352,"connected_time":2655000000000,"state":"active","ping":81},{"user_id":961,"name":"Yarman53","steam_id":76561198099889202,"connected_time":6496000000000,"state":"active","ping":35},{"user_id":1013,"name":"Lemon Soda","steam_id":76561198140208761,"connected_time":1939000000000,"state":"active","ping":68}]},{"server_id":36,"name":"Uncletopia | Chicago | 5 | All Maps","name_short":"chi-5","host":"chi-2.us.uncletopia.com","port":27015,"enabled":true,"region":"us-central","cc":"us","latitude":41.881832,"longitude":-87.62318,"reserved":0,"last_update":"0001-01-01T00:00:00Z","name_a2s":"Uncletopia | Chicago | 5 | All Maps","protocol":17,"map":"koth_cascade","folder":"tf","game":"Team Fortress","app_id":440,"player_count":0,"max_players":24,"Bots":0,"server_type":"Dedicated","server_os":"Linux","password":true,"vac":true,"version":"7961495","steam_id":85568392924866362,"keywords":["cp","nocrits","nodmgspread","uncletopia"],"game_id":440,"stv_port":27016,"stv_name":"Uncletopia | Chicago | 5 | All Maps | STV","players":null},{"server_id":37,"name":"Uncletopia | Chicago | 6 | All Maps","name_short":"chi-6","host":"chi-2.us.uncletopia.com","port":27025,"enabled":true,"region":"us-central","cc":"us","latitude":41.881832,"longitude":-87.62318,"reserved":0,"last_update":"0001-01-01T00:00:00Z","name_a2s":"Uncletopia | Chicago | 6 | All Maps","protocol":17,"map":"pl_frontier_final","folder":"tf","game":"Team Fortress","app_id":440,"player_count":0,"max_players":24,"Bots":0,"server_type":"Dedicated","server_os":"Linux","password":true,"vac":true,"version":"7961495","steam_id":85568392924866363,"keywords":["nocrits","nodmgspread","payload","uncletopia"],"game_id":440,"stv_port":27026,"stv_name":"Uncletopia | Chicago | 6 | All Maps | STV","players":null},{"server_id":38,"name":"Uncletopia | Chicago | 7 | Stopwatch","name_short":"chi-7","host":"chi-2.us.uncletopia.com","port":27035,"enabled":true,"region":"us-central","cc":"us","latitude":41.881832,"longitude":-87.62318,"reserved":0,"last_update":"0001-01-01T00:00:00Z","name_a2s":"Uncletopia | Chicago | 7 | Stopwatch","protocol":17,"map":"workshop/koth_ashville_final.ugc2130459942","folder":"tf","game":"Team Fortress","app_id":440,"player_count":0,"max_players":24,"Bots":0,"server_type":"Dedicated","server_os":"Linux","password":true,"vac":true,"version":"7961495","steam_id":85568392924866364,"keywords":["cp","nocrits","nodmgspread","uncletopia"],"game_id":440,"stv_port":27036,"stv_name":"Uncletopia | Chicago | 7 | Stopwatch | STV","players":null},{"server_id":39,"name":"Uncletopia | Chicago | 8 | Community","name_short":"chi-8","host":"chi-2.us.uncletopia.com","port":27045,"enabled":true,"region":"us-central","cc":"us","latitude":41.881832,"longitude":-87.62318,"reserved":0,"last_update":"0001-01-01T00:00:00Z","name_a2s":"Uncletopia | Chicago | 8 | Community","protocol":17,"map":"workshop/koth_ashville_final.ugc2130459942","folder":"tf","game":"Team Fortress","app_id":440,"player_count":0,"max_players":24,"Bots":0,"server_type":"Dedicated","server_os":"Linux","password":true,"vac":true,"version":"7961495","steam_id":85568392924866365,"keywords":["cp","nocrits","nodmgspread","uncletopia"],"game_id":440,"stv_port":27046,"stv_name":"Uncletopia | Chicago | 8 | Community | STV","players":null},{"server_id":8,"name":"Uncletopia | Dallas | 1 | All Maps","name_short":"dal-1","host":"dal-1.us.uncletopia.com","port":27015,"enabled":true,"region":"us-central","cc":"us","latitude":32.779167,"longitude":-96.80889,"reserved":0,"last_update":"0001-01-01T00:00:00Z","name_a2s":"Uncletopia | Dallas | 1 | All Maps","protocol":17,"map":"pl_pier","folder":"tf","game":"Team Fortress","app_id":440,"player_count":0,"max_players":24,"Bots":0,"server_type":"Dedicated","server_os":"Linux","password":true,"vac":true,"version":"7961495","steam_id":85568392924469986,"keywords":["nocrits","nodmgspread","payload","uncletopia"],"game_id":440,"stv_port":27016,"stv_name":"Uncletopia | Dallas | 1 | All Maps | STV","players":null},{"server_id":108,"name":"Uncletopia | Dallas | 2 | All Maps","name_short":"dal-2","host":"dal-1.us.uncletopia.com","port":27025,"enabled":true,"region":"us-central","cc":"us","latitude":32.779167,"longitude":-96.80889,"reserved":0,"last_update":"0001-01-01T00:00:00Z","name_a2s":"Uncletopia | Dallas | 2 | All Maps","protocol":17,"map":"pl_barnblitz","folder":"tf","game":"Team Fortress","app_id":440,"player_count":24,"max_players":24,"Bots":0,"server_type":"Dedicated","server_os":"Linux","password":true,"vac":true,"version":"7961495","steam_id":85568392924469988,"keywords":["nocrits","nodmgspread","payload","uncletopia"],"game_id":440,"stv_port":27026,"stv_name":"Uncletopia | Dallas | 2 | All Maps | STV","players":[{"user_id":402,"name":"Zero","steam_id":76561198033384990,"connected_time":5417000000000,"state":"active","ping":77},{"user_id":451,"name":"37 septillion tapeworms","steam_id":76561198186128723,"connected_time":875000000000,"state":"active","ping":46},{"user_id":463,"name":"clavin","steam_id":76561198069380992,"connected_time":83000000000,"state":"active","ping":56},{"user_id":456,"name":"Wiggs is the Shiggs","steam_id":76561198078379719,"connected_time":687000000000,"state":"active","ping":108},{"user_id":453,"name":"Mainyx","steam_id":76561198811844438,"connected_time":763000000000,"state":"active","ping":83},{"user_id":431,"name":"Kyaaaaa!!!","steam_id":76561198066384337,"connected_time":3371000000000,"state":"active","ping":81},{"user_id":454,"name":"lynks disease no sound","steam_id":76561198043465434,"connected_time":749000000000,"state":"active","ping":90},{"user_id":408,"name":"Jovyel","steam_id":76561198118777065,"connected_time":4868000000000,"state":"active","ping":64},{"user_id":455,"name":"Seigward of Catarina","steam_id":76561198423297877,"connected_time":696000000000,"state":"active","ping":98},{"user_id":462,"name":"Potato Lord Gaben","steam_id":76561198238661676,"connected_time":173000000000,"state":"active","ping":61},{"user_id":348,"name":"Cinnifox","steam_id":76561198068773971,"connected_time":9111000000000,"state":"active","ping":81},{"user_id":443,"name":"on that zaza?","steam_id":76561198038713198,"connected_time":2266000000000,"state":"active","ping":90},{"user_id":447,"name":"Legit_Jaxer","steam_id":76561198172234053,"connected_time":1198000000000,"state":"active","ping":88},{"user_id":450,"name":"tsz","steam_id":76561199246231090,"connected_time":907000000000,"state":"active","ping":79},{"user_id":458,"name":"Trouser Snivy","steam_id":76561198073788829,"connected_time":610000000000,"state":"active","ping":127},{"user_id":362,"name":"Publo","steam_id":76561198161777140,"connected_time":8360000000000,"state":"active","ping":52},{"user_id":411,"name":"Golden Robot","steam_id":76561198149576075,"connected_time":4833000000000,"state":"active","ping":67},{"user_id":461,"name":"Kenny[Goblin]","steam_id":76561199005805984,"connected_time":358000000000,"state":"active","ping":46},{"user_id":449,"name":"Username","steam_id":76561198198918781,"connected_time":961000000000,"state":"active","ping":1509},{"user_id":444,"name":"Railly","steam_id":76561198357355915,"connected_time":2120000000000,"state":"active","ping":85},{"user_id":441,"name":"Toxic Medic Main (he/they)","steam_id":76561198009314845,"connected_time":2714000000000,"state":"active","ping":107},{"user_id":367,"name":"Spinch","steam_id":76561198296224166,"connected_time":8271000000000,"state":"active","ping":80},{"user_id":448,"name":"krebex","steam_id":76561198004660630,"connected_time":1192000000000,"state":"active","ping":59},{"user_id":401,"name":"dilfbot","steam_id":76561198099988165,"connected_time":5444000000000,"state":"active","ping":60}]},{"server_id":404,"name":"Uncletopia | Dallas | 3 | All Maps","name_short":"dal-3","host":"dal-1.us.uncletopia.com","port":27035,"enabled":true,"region":"us-central","cc":"us","latitude":32.779167,"longitude":-96.80889,"reserved":0,"last_update":"0001-01-01T00:00:00Z","name_a2s":"Uncletopia | Dallas | 3 | All Maps","protocol":17,"map":"cp_altitude","folder":"tf","game":"Team Fortress","app_id":440,"player_count":0,"max_players":24,"Bots":0,"server_type":"Dedicated","server_os":"Linux","password":true,"vac":true,"version":"7961495","steam_id":85568392924515219,"keywords":["cp","nocrits","nodmgspread","uncletopia"],"game_id":440,"stv_port":27036,"stv_name":"Uncletopia | Dallas | 3 | All Maps | STV","players":null},{"server_id":405,"name":"Uncletopia | Dallas | 4 | Community","name_short":"dal-4","host":"dal-1.us.uncletopia.com","port":27045,"enabled":true,"region":"us-central","cc":"us","latitude":32.779167,"longitude":-96.80889,"reserved":0,"last_update":"0001-01-01T00:00:00Z","name_a2s":"Uncletopia | Dallas | 4 | Community","protocol":17,"map":"workshop/koth_synthetic_rc6a.ugc1549817316","folder":"tf","game":"Team Fortress","app_id":440,"player_count":0,"max_players":24,"Bots":0,"server_type":"Dedicated","server_os":"Linux","password":true,"vac":true,"version":"7961495","steam_id":85568392924515220,"keywords":["cp","nocrits","nodmgspread","uncletopia"],"game_id":440,"stv_port":27046,"stv_name":"Uncletopia | Dallas | 4 | Community | STV","players":null},{"server_id":5,"name":"Uncletopia | Frankfurt | 1 | All Maps","name_short":"frk-1","host":"frk-1.de.uncletopia.com","port":27015,"enabled":true,"region":"eu","cc":"de","latitude":50.110924,"longitude":8.682127,"reserved":0,"last_update":"0001-01-01T00:00:00Z","name_a2s":"Uncletopia | Frankfurt | 1 | All Maps","protocol":17,"map":"koth_highpass","folder":"tf","game":"Team Fortress","app_id":440,"player_count":0,"max_players":24,"Bots":0,"server_type":"Dedicated","server_os":"Linux","password":true,"vac":true,"version":"7961495","steam_id":85568392924469989,"keywords":["cp","nocrits","nodmgspread","uncletopia"],"game_id":440,"stv_port":27016,"stv_name":"Uncletopia | Frankfurt | 1 | All Maps | STV","players":null},{"server_id":110,"name":"Uncletopia | Frankfurt | 2 | All Maps","name_short":"frk-2","host":"frk-1.de.uncletopia.com","port":27025,"enabled":true,"region":"eu","cc":"de","latitude":50.110924,"longitude":8.682127,"reserved":0,"last_update":"0001-01-01T00:00:00Z","name_a2s":"Uncletopia | Frankfurt | 2 | All Maps","protocol":17,"map":"cp_dustbowl","folder":"tf","game":"Team Fortress","app_id":440,"player_count":5,"max_players":24,"Bots":0,"server_type":"Dedicated","server_os":"Linux","password":true,"vac":true,"version":"7961495","steam_id":85568392924469990,"keywords":["cp","nocrits","nodmgspread","uncletopia"],"game_id":440,"stv_port":27026,"stv_name":"Uncletopia | Frankfurt | 2 | All Maps | STV","players":[{"user_id":4,"name":"Mozzaza","steam_id":76561198156316111,"connected_time":961000000000,"state":"active","ping":135},{"user_id":5,"name":"hock3n","steam_id":76561198805431094,"connected_time":882000000000,"state":"active","ping":138},{"user_id":6,"name":"Kavary","steam_id":76561198024792146,"connected_time":737000000000,"state":"active","ping":75},{"user_id":8,"name":"Bing Soy","steam_id":76561198119267523,"connected_time":727000000000,"state":"active","ping":404},{"user_id":9,"name":"snek","steam_id":76561198393655249,"connected_time":621000000000,"state":"active","ping":60}]},{"server_id":308,"name":"Uncletopia | Frankfurt | 3 | All Maps","name_short":"frk-3","host":"frk-1.de.uncletopia.com","port":27035,"enabled":true,"region":"eu","cc":"de","latitude":50.110924,"longitude":8.682127,"reserved":0,"last_update":"0001-01-01T00:00:00Z","name_a2s":"Uncletopia | Frankfurt | 3 | All Maps","protocol":17,"map":"pl_barnblitz","folder":"tf","game":"Team Fortress","app_id":440,"player_count":0,"max_players":24,"Bots":0,"server_type":"Dedicated","server_os":"Linux","password":true,"vac":true,"version":"7961495","steam_id":85568392924504274,"keywords":["nocrits","nodmgspread","payload","uncletopia"],"game_id":440,"stv_port":27036,"stv_name":"Uncletopia | Frankfurt | 3 | All Maps | STV","players":null},{"server_id":309,"name":"Uncletopia | Frankfurt | 4 | All Maps","name_short":"frk-4","host":"frk-1.de.uncletopia.com","port":27045,"enabled":true,"region":"eu","cc":"de","latitude":50.110924,"longitude":8.682127,"reserved":0,"last_update":"0001-01-01T00:00:00Z","name_a2s":"Uncletopia | Frankfurt | 4 | All Maps","protocol":17,"map":"koth_highpass","folder":"tf","game":"Team Fortress","app_id":440,"player_count":0,"max_players":24,"Bots":0,"server_type":"Dedicated","server_os":"Linux","password":true,"vac":true,"version":"7961495","steam_id":85568392924504275,"keywords":["cp","nocrits","nodmgspread","uncletopia"],"game_id":440,"stv_port":27046,"stv_name":"Uncletopia | Frankfurt | 4 | All Maps | STV","players":null},{"server_id":310,"name":"Uncletopia | Frankfurt | 5 | All Maps","name_short":"frk-5","host":"frk-1.de.uncletopia.com","port":27055,"enabled":true,"region":"eu","cc":"de","latitude":50.110924,"longitude":8.682127,"reserved":0,"last_update":"0001-01-01T00:00:00Z","name_a2s":"Uncletopia | Frankfurt | 5 | All Maps","protocol":17,"map":"pl_badwater","folder":"tf","game":"Team Fortress","app_id":440,"player_count":0,"max_players":24,"Bots":0,"server_type":"Dedicated","server_os":"Linux","password":true,"vac":true,"version":"7961495","steam_id":85568392924504277,"keywords":["nocrits","nodmgspread","payload","uncletopia"],"game_id":440,"stv_port":27056,"stv_name":"Uncletopia | Frankfurt | 5 | All Maps | STV","players":null},{"server_id":311,"name":"Uncletopia | Frankfurt | 6 | All Maps","name_short":"frk-6","host":"frk-1.de.uncletopia.com","port":27065,"enabled":true,"region":"eu","cc":"de","latitude":50.110924,"longitude":8.682127,"reserved":0,"last_update":"0001-01-01T00:00:00Z","name_a2s":"Uncletopia | Frankfurt | 6 | All Maps","protocol":17,"map":"cp_altitude","folder":"tf","game":"Team Fortress","app_id":440,"player_count":0,"max_players":24,"Bots":0,"server_type":"Dedicated","server_os":"Linux","password":true,"vac":true,"version":"7961495","steam_id":85568392924504278,"keywords":["cp","nocrits","nodmgspread","uncletopia"],"game_id":440,"stv_port":27066,"stv_name":"Uncletopia | Frankfurt | 6 | All Maps | STV","players":null},{"server_id":23,"name":"Uncletopia | Frankfurt | 7 | Stopwatch","name_short":"frk-7","host":"frk-1.de.uncletopia.com","port":27075,"enabled":true,"region":"eu","cc":"de","latitude":50.110924,"longitude":8.682127,"reserved":0,"last_update":"0001-01-01T00:00:00Z","name_a2s":"Uncletopia | Frankfurt | 7 | Stopwatch","protocol":17,"map":"pl_frontier_final","folder":"tf","game":"Team Fortress","app_id":440,"player_count":0,"max_players":24,"Bots":0,"server_type":"Dedicated","server_os":"Linux","password":true,"vac":true,"version":"7961495","steam_id":85568392924742827,"keywords":["nocrits","nodmgspread","payload","uncletopia"],"game_id":440,"stv_port":27076,"stv_name":"Uncletopia | Frankfurt | 7 | Stopwatch | STV","players":null},{"server_id":24,"name":"Uncletopia | Frankfurt | 8 | Community","name_short":"frk-8","host":"frk-1.de.uncletopia.com","port":27085,"enabled":true,"region":"eu","cc":"de","latitude":50.110924,"longitude":8.682127,"reserved":0,"last_update":"0001-01-01T00:00:00Z","name_a2s":"Uncletopia | Frankfurt | 8 | Community","protocol":17,"map":"cp_mountainlab","folder":"tf","game":"Team Fortress","app_id":440,"player_count":0,"max_players":24,"Bots":0,"server_type":"Dedicated","server_os":"Linux","password":true,"vac":true,"version":"7961495","steam_id":85568392924742828,"keywords":["cp","nocrits","nodmgspread","uncletopia"],"game_id":440,"stv_port":27086,"stv_name":"Uncletopia | Frankfurt | 8 | Community | STV","players":null},{"server_id":202,"name":"Uncletopia | Hong Kong | 1 | All Maps","name_short":"hgk-1","host":"hgk-1.hk.uncletopia.com","port":27015,"enabled":true,"region":"asia","cc":"hk","latitude":22.302711,"longitude":114.177216,"reserved":0,"last_update":"0001-01-01T00:00:00Z","name_a2s":"Uncletopia | Hong Kong | 1 | All Maps","protocol":17,"map":"koth_lakeside_final","folder":"tf","game":"Team Fortress","app_id":440,"player_count":0,"max_players":24,"Bots":0,"server_type":"Dedicated","server_os":"Linux","password":true,"vac":true,"version":"7961495","steam_id":85568392924494504,"keywords":["cp","nocrits","nodmgspread","uncletopia"],"game_id":440,"stv_port":27016,"stv_name":"Uncletopia | Hong Kong | 1 | All Maps | STV","players":null},{"server_id":1,"name":"Uncletopia | Los Angeles | 1 | All Maps","name_short":"lax-1","host":"lax-1.us.uncletopia.com","port":27015,"enabled":true,"region":"us-west","cc":"us","latitude":33.94279,"longitude":-118.41004,"reserved":0,"last_update":"0001-01-01T00:00:00Z","name_a2s":"Uncletopia | Los Angeles | 1 | All Maps","protocol":17,"map":"cp_steel","folder":"tf","game":"Team Fortress","app_id":440,"player_count":24,"max_players":24,"Bots":0,"server_type":"Dedicated","server_os":"Linux","password":true,"vac":true,"version":"7961495","steam_id":85568392924469991,"keywords":["cp","nocrits","nodmgspread","uncletopia"],"game_id":440,"stv_port":27016,"stv_name":"Uncletopia | Los Angeles | 1 | All Maps | STV","players":[{"user_id":529,"name":"gyat","steam_id":76561198043684960,"connected_time":242000000000,"state":"active","ping":75},{"user_id":523,"name":"Frank Ugly","steam_id":76561198247002810,"connected_time":640000000000,"state":"active","ping":66},{"user_id":525,"name":"TheBrocklobster","steam_id":76561198039682984,"connected_time":457000000000,"state":"active","ping":67},{"user_id":461,"name":"fish (2:3)","steam_id":76561198134331073,"connected_time":5160000000000,"state":"active","ping":84},{"user_id":521,"name":"Beepleton The 3rd","steam_id":76561198081466207,"connected_time":687000000000,"state":"active","ping":87},{"user_id":489,"name":"Taree","steam_id":76561198059906615,"connected_time":2158000000000,"state":"active","ping":49},{"user_id":508,"name":"who","steam_id":76561198066091050,"connected_time":1412000000000,"state":"active","ping":82},{"user_id":512,"name":"GKumo","steam_id":76561198023175868,"connected_time":1255000000000,"state":"active","ping":72},{"user_id":516,"name":"No Ordinary Rabbit","steam_id":76561198025012508,"connected_time":1163000000000,"state":"active","ping":40},{"user_id":527,"name":"vuldrin","steam_id":76561198383695069,"connected_time":383000000000,"state":"active","ping":63},{"user_id":480,"name":"johnny","steam_id":76561198050225055,"connected_time":3149000000000,"state":"active","ping":48},{"user_id":492,"name":"EGADS! I'M PINNED!","steam_id":76561198145669711,"connected_time":2101000000000,"state":"active","ping":45},{"user_id":510,"name":"cjetson","steam_id":76561198074482272,"connected_time":1374000000000,"state":"active","ping":59},{"user_id":528,"name":"RoyalKaiser RBMK -Mex-","steam_id":76561198886933897,"connected_time":352000000000,"state":"active","ping":98},{"user_id":494,"name":"ThePalmTopSushi","steam_id":76561198847076153,"connected_time":2077000000000,"state":"active","ping":52},{"user_id":503,"name":"Mike Bean Burritos","steam_id":76561198173430607,"connected_time":1864000000000,"state":"active","ping":77},{"user_id":530,"name":"Keamy","steam_id":76561199471434875,"connected_time":206000000000,"state":"active","ping":70},{"user_id":531,"name":"(¬∞ Õú   ¬∞)","steam_id":76561198064273568,"connected_time":185000000000,"state":"active","ping":45},{"user_id":515,"name":"Nautilus Insidious","steam_id":76561198413431111,"connected_time":1190000000000,"state":"active","ping":68},{"user_id":500,"name":"lol","steam_id":76561198026491738,"connected_time":1916000000000,"state":"active","ping":81},{"user_id":501,"name":"meph","steam_id":76561198149683030,"connected_time":1915000000000,"state":"active","ping":75},{"user_id":532,"name":"HOG RIDER","steam_id":76561198298589502,"connected_time":123000000000,"state":"active","ping":55},{"user_id":437,"name":"The New Bob","steam_id":76561199122072556,"connected_time":6764000000000,"state":"active","ping":126},{"user_id":534,"name":"mrthugpug1732","steam_id":76561198881200768,"connected_time":72000000000,"state":"active","ping":65}]},{"server_id":112,"name":"Uncletopia | Los Angeles | 2 | All Maps","name_short":"lax-2","host":"lax-1.us.uncletopia.com","port":27025,"enabled":true,"region":"us-west","cc":"us","latitude":33.94279,"longitude":-118.41004,"reserved":0,"last_update":"0001-01-01T00:00:00Z","name_a2s":"Uncletopia | Los Angeles | 2 | All Maps","protocol":17,"map":"cp_mountainlab","folder":"tf","game":"Team Fortress","app_id":440,"player_count":2,"max_players":24,"Bots":0,"server_type":"Dedicated","server_os":"Linux","password":true,"vac":true,"version":"7961495","steam_id":85568392924469992,"keywords":["cp","nocrits","nodmgspread","uncletopia"],"game_id":440,"stv_port":27026,"stv_name":"Uncletopia | Los Angeles | 2 | All Maps | STV","players":[{"user_id":387,"name":"Mitzi","steam_id":76561198149907898,"connected_time":3233000000000,"state":"active","ping":94},{"user_id":362,"name":"Lane","steam_id":76561197965828506,"connected_time":4474000000000,"state":"active","ping":87}]},{"server_id":324,"name":"Uncletopia | Los Angeles | 3 | All Maps","name_short":"lax-3","host":"lax-1.us.uncletopia.com","port":27035,"enabled":true,"region":"us-west","cc":"us","latitude":33.94279,"longitude":-118.41004,"reserved":0,"last_update":"0001-01-01T00:00:00Z","name_a2s":"Uncletopia | Los Angeles | 3 | All Maps","protocol":17,"map":"pl_upward","folder":"tf","game":"Team Fortress","app_id":440,"player_count":16,"max_players":24,"Bots":0,"server_type":"Dedicated","server_os":"Linux","password":true,"vac":true,"version":"7961495","steam_id":85568392924510198,"keywords":["nocrits","nodmgspread","payload","uncletopia"],"game_id":440,"stv_port":27036,"stv_name":"Uncletopia | Los Angeles | 3 | All Maps | STV","players":[{"user_id":107,"name":"ga-HYUK","steam_id":76561199072745011,"connected_time":3321000000000,"state":"active","ping":49},{"user_id":108,"name":"Secret Tunnel","steam_id":76561198272403112,"connected_time":3297000000000,"state":"active","ping":45},{"user_id":149,"name":"basil","steam_id":76561198075758026,"connected_time":40000000000,"state":"active","ping":106},{"user_id":148,"name":"cinnamon","steam_id":76561198130086375,"connected_time":51000000000,"state":"active","ping":62},{"user_id":125,"name":"Crustacean Daddy","steam_id":76561198993807061,"connected_time":2447000000000,"state":"active","ping":41},{"user_id":150,"name":"carti","steam_id":76561198345528370,"connected_time":28000000000,"state":"active","ping":44},{"user_id":21,"name":"CometDrg0n_(he/him)","steam_id":76561198175713051,"connected_time":9222000000000,"state":"active","ping":73},{"user_id":146,"name":"Snaggletooth","steam_id":76561198043784995,"connected_time":210000000000,"state":"active","ping":61},{"user_id":129,"name":"Scoops M'Gooch","steam_id":76561198048423812,"connected_time":1908000000000,"state":"active","ping":61},{"user_id":124,"name":"El Gato Paranoico","steam_id":76561198116567116,"connected_time":2629000000000,"state":"active","ping":94},{"user_id":110,"name":"purple hatsune miku","steam_id":76561198108844158,"connected_time":3261000000000,"state":"active","ping":48},{"user_id":91,"name":"Spruce","steam_id":76561198081684676,"connected_time":4779000000000,"state":"active","ping":83},{"user_id":141,"name":"Quigi","steam_id":76561198144645874,"connected_time":1128000000000,"state":"active","ping":74},{"user_id":145,"name":"UGInfernobroblazeslash gamehag.","steam_id":76561198054745240,"connected_time":825000000000,"state":"active","ping":53},{"user_id":143,"name":"Therapy Goth","steam_id":76561198048448497,"connected_time":1010000000000,"state":"active","ping":114},{"user_id":66,"name":"cask","steam_id":76561198141873995,"connected_time":7036000000000,"state":"active","ping":100}]},{"server_id":25,"name":"Uncletopia | Los Angeles | 4 | Stopwatch","name_short":"lax-4","host":"lax-1.us.uncletopia.com","port":27045,"enabled":true,"region":"us-west","cc":"us","latitude":33.94279,"longitude":-118.41004,"reserved":0,"last_update":"0001-01-01T00:00:00Z","name_a2s":"Uncletopia | Los Angeles | 4 | Stopwatch","protocol":17,"map":"workshop/pl_barnblitz_pro7.ugc582280235","folder":"tf","game":"Team Fortress","app_id":440,"player_count":0,"max_players":24,"Bots":0,"server_type":"Dedicated","server_os":"Linux","password":true,"vac":true,"version":"7961495","steam_id":85568392924510199,"keywords":["nocrits","nodmgspread","payload","uncletopia"],"game_id":440,"stv_port":27046,"stv_name":"Uncletopia | Los Angeles | 4 | Stopwatch | STV","players":null},{"server_id":11,"name":"Uncletopia | London | 1 | All Maps","name_short":"lon-1","host":"lon-1.uk.uncletopia.com","port":27015,"enabled":true,"region":"eu","cc":"gb","latitude":51.509865,"longitude":-0.118092,"reserved":0,"last_update":"0001-01-01T00:00:00Z","name_a2s":"Uncletopia | London | 1 | All Maps","protocol":17,"map":"pl_pier","folder":"tf","game":"Team Fortress","app_id":440,"player_count":24,"max_players":24,"Bots":0,"server_type":"Dedicated","server_os":"Linux","password":true,"vac":true,"version":"7961495","steam_id":85568392924367362,"keywords":["nocrits","nodmgspread","payload","uncletopia"],"game_id":440,"stv_port":27016,"stv_name":"Uncletopia | London | 1 | All Maps | STV","players":[{"user_id":3,"name":"yuno appreciator","steam_id":76561198083286511,"connected_time":4568000000000,"state":"active","ping":42},{"user_id":4,"name":"Lewylow","steam_id":76561198005425686,"connected_time":4568000000000,"state":"active","ping":46},{"user_id":13,"name":"Alice","steam_id":76561198052410860,"connected_time":4387000000000,"state":"active","ping":139},{"user_id":6,"name":"‚ù§Mr.M‚ù§","steam_id":76561198071053911,"connected_time":4559000000000,"state":"active","ping":60},{"user_id":31,"name":"Mirce","steam_id":76561198100889621,"connected_time":3037000000000,"state":"active","ping":120},{"user_id":47,"name":"tim","steam_id":76561198801490317,"connected_time":1695000000000,"state":"active","ping":121},{"user_id":9,"name":"Play slowly, pls","steam_id":76561198006463587,"connected_time":4532000000000,"state":"active","ping":145},{"user_id":57,"name":"Pingus","steam_id":76561198164880756,"connected_time":468000000000,"state":"active","ping":74},{"user_id":37,"name":"Maurdakar","steam_id":76561197983420976,"connected_time":2717000000000,"state":"active","ping":141},{"user_id":62,"name":"LazySushi","steam_id":76561198043802202,"connected_time":91000000000,"state":"active","ping":120},{"user_id":58,"name":"LackOfSleep","steam_id":76561198019751794,"connected_time":386000000000,"state":"active","ping":126},{"user_id":55,"name":"Rondol","steam_id":76561198129682216,"connected_time":777000000000,"state":"active","ping":115},{"user_id":56,"name":"--","steam_id":76561198365098582,"connected_time":554000000000,"state":"active","ping":155},{"user_id":27,"name":"else1","steam_id":76561197996558319,"connected_time":3470000000000,"state":"active","ping":83},{"user_id":50,"name":"Marcel","steam_id":76561198348686648,"connected_time":1360000000000,"state":"active","ping":44},{"user_id":30,"name":"Fatmagic Mukbang ASMR","steam_id":76561198063492110,"connected_time":3156000000000,"state":"active","ping":84},{"user_id":59,"name":"kronik","steam_id":76561199160703098,"connected_time":329000000000,"state":"active","ping":55},{"user_id":33,"name":"Viewie","steam_id":76561198280108853,"connected_time":2949000000000,"state":"active","ping":147},{"user_id":46,"name":"Cursehat","steam_id":76561198071867237,"connected_time":1936000000000,"state":"active","ping":82},{"user_id":38,"name":"Mits","steam_id":76561198417811385,"connected_time":2664000000000,"state":"active","ping":60},{"user_id":45,"name":"TomKarter","steam_id":76561198130431800,"connected_time":2139000000000,"state":"active","ping":127},{"user_id":60,"name":"V63 050","steam_id":76561198097789669,"connected_time":263000000000,"state":"active","ping":69},{"user_id":61,"name":"Asfedia","steam_id":76561199386836351,"connected_time":163000000000,"state":"active","ping":59},{"user_id":53,"name":"SeaCine","steam_id":76561198085122171,"connected_time":1091000000000,"state":"active","ping":74}]},{"server_id":114,"name":"Uncletopia | London | 2 | All Maps","name_short":"lon-2","host":"lon-1.uk.uncletopia.com","port":27025,"enabled":true,"region":"eu","cc":"gb","latitude":51.509865,"longitude":-0.118092,"reserved":0,"last_update":"0001-01-01T00:00:00Z","name_a2s":"Uncletopia | London | 2 | All Maps","protocol":17,"map":"koth_lakeside_final","folder":"tf","game":"Team Fortress","app_id":440,"player_count":0,"max_players":24,"Bots":0,"server_type":"Dedicated","server_os":"Linux","password":true,"vac":true,"version":"7961495","steam_id":85568392924470941,"keywords":["cp","nocrits","nodmgspread","uncletopia"],"game_id":440,"stv_port":27026,"stv_name":"Uncletopia | London | 2 | All Maps | STV","players":null},{"server_id":320,"name":"Uncletopia | London | 3 | All Maps","name_short":"lon-3","host":"lon-1.uk.uncletopia.com","port":27035,"enabled":true,"region":"eu","cc":"gb","latitude":51.509865,"longitude":-0.118092,"reserved":0,"last_update":"0001-01-01T00:00:00Z","name_a2s":"Uncletopia | London | 3 | All Maps","protocol":17,"map":"cp_process_final","folder":"tf","game":"Team Fortress","app_id":440,"player_count":0,"max_players":24,"Bots":0,"server_type":"Dedicated","server_os":"Linux","password":true,"vac":true,"version":"7961495","steam_id":85568392924510192,"keywords":["cp","nocrits","nodmgspread","uncletopia"],"game_id":440,"stv_port":27036,"stv_name":"Uncletopia | London | 3 | All Maps | STV","players":null},{"server_id":321,"name":"Uncletopia | London | 4 | All Maps","name_short":"lon-4","host":"lon-1.uk.uncletopia.com","port":27045,"enabled":true,"region":"eu","cc":"gb","latitude":51.509865,"longitude":-0.118092,"reserved":0,"last_update":"0001-01-01T00:00:00Z","name_a2s":"Uncletopia | London | 4 | All Maps","protocol":17,"map":"koth_cascade","folder":"tf","game":"Team Fortress","app_id":440,"player_count":0,"max_players":24,"Bots":0,"server_type":"Dedicated","server_os":"Linux","password":true,"vac":true,"version":"7961495","steam_id":85568392924510193,"keywords":["cp","nocrits","nodmgspread","uncletopia"],"game_id":440,"stv_port":27046,"stv_name":"Uncletopia | London | 4 | All Maps | STV","players":null},{"server_id":21,"name":"Uncletopia | London | 5 | All Maps","name_short":"lon-5","host":"lon-1.uk.uncletopia.com","port":27055,"enabled":true,"region":"eu","cc":"gb","latitude":51.509865,"longitude":-0.118092,"reserved":0,"last_update":"0001-01-01T00:00:00Z","name_a2s":"Uncletopia | London | 5 | All Maps","protocol":17,"map":"koth_lakeside_final","folder":"tf","game":"Team Fortress","app_id":440,"player_count":0,"max_players":24,"Bots":0,"server_type":"Dedicated","server_os":"Linux","password":true,"vac":true,"version":"7961495","steam_id":85568392924742829,"keywords":["cp","nocrits","nodmgspread","uncletopia"],"game_id":440,"stv_port":27056,"stv_name":"Uncletopia | London | 5 | All Maps | STV","players":null},{"server_id":22,"name":"Uncletopia | London | 6 | All Maps","name_short":"lon-6","host":"lon-1.uk.uncletopia.com","port":27065,"enabled":true,"region":"eu","cc":"gb","latitude":51.509865,"longitude":-0.118092,"reserved":0,"last_update":"0001-01-01T00:00:00Z","name_a2s":"Uncletopia | London | 6 | All Maps","protocol":17,"map":"cp_dustbowl","folder":"tf","game":"Team Fortress","app_id":440,"player_count":0,"max_players":24,"Bots":0,"server_type":"Dedicated","server_os":"Linux","password":true,"vac":true,"version":"7961495","steam_id":85568392924742830,"keywords":["cp","nocrits","nodmgspread","uncletopia"],"game_id":440,"stv_port":27066,"stv_name":"Uncletopia | London | 6 | All Maps | STV","players":null},{"server_id":40,"name":"Uncletopia | London | 7 | Stopwatch","name_short":"lon-7","host":"lon-1.uk.uncletopia.com","port":27075,"enabled":true,"region":"eu","cc":"gb","latitude":51.509865,"longitude":-0.118092,"reserved":0,"last_update":"0001-01-01T00:00:00Z","name_a2s":"Uncletopia | London | 7 | Stopwatch","protocol":17,"map":"koth_lakeside_final","folder":"tf","game":"Team Fortress","app_id":440,"player_count":0,"max_players":24,"Bots":0,"server_type":"Dedicated","server_os":"Linux","password":true,"vac":true,"version":"7961495","steam_id":85568392924964314,"keywords":["cp","nocrits","nodmgspread","uncletopia"],"game_id":440,"stv_port":27076,"stv_name":"Uncletopia | London | 7 | Stopwatch | STV","players":null},{"server_id":41,"name":"Uncletopia | London | 8 | Community","name_short":"lon-8","host":"lon-1.uk.uncletopia.com","port":27085,"enabled":true,"region":"eu","cc":"gb","latitude":51.509865,"longitude":-0.118092,"reserved":0,"last_update":"0001-01-01T00:00:00Z","name_a2s":"Uncletopia | London | 8 | Community","protocol":17,"map":"cp_snakewater_final1","folder":"tf","game":"Team Fortress","app_id":440,"player_count":0,"max_players":24,"Bots":0,"server_type":"Dedicated","server_os":"Linux","password":true,"vac":true,"version":"7961495","steam_id":85568392924964315,"keywords":["cp","nocrits","nodmgspread","uncletopia"],"game_id":440,"stv_port":27086,"stv_name":"Uncletopia | London | 8 | Community | STV","players":null},{"server_id":300,"name":"Uncletopia | Montr√©al | 1 | One Thousand Uncles","name_short":"mtl-1","host":"mtl-1.ca.uncletopia.com","port":27015,"enabled":true,"region":"us-east","cc":"ca","latitude":45.50889,"longitude":-73.56167,"reserved":0,"last_update":"0001-01-01T00:00:00Z","name_a2s":"","protocol":0,"map":"","folder":"","game":"","app_id":0,"player_count":0,"max_players":0,"Bots":0,"server_type":"","server_os":"","password":false,"vac":false,"version":"","steam_id":0,"keywords":null,"game_id":0,"stv_port":0,"stv_name":"","players":null},{"server_id":301,"name":"Uncletopia | Montr√©al | 2 | One Thousand Uncles","name_short":"mtl-2","host":"mtl-1.ca.uncletopia.com","port":27025,"enabled":true,"region":"us-east","cc":"ca","latitude":45.50889,"longitude":-73.56167,"reserved":0,"last_update":"0001-01-01T00:00:00Z","name_a2s":"","protocol":0,"map":"","folder":"","game":"","app_id":0,"player_count":0,"max_players":0,"Bots":0,"server_type":"","server_os":"","password":false,"vac":false,"version":"","steam_id":0,"keywords":null,"game_id":0,"stv_port":0,"stv_name":"","players":null},{"server_id":302,"name":"Uncletopia | Montr√©al | 3 | One Thousand Uncles","name_short":"mtl-3","host":"mtl-1.ca.uncletopia.com","port":27035,"enabled":true,"region":"us-east","cc":"ca","latitude":45.50889,"longitude":-73.56167,"reserved":0,"last_update":"0001-01-01T00:00:00Z","name_a2s":"","protocol":0,"map":"","folder":"","game":"","app_id":0,"player_count":0,"max_players":0,"Bots":0,"server_type":"","server_os":"","password":false,"vac":false,"version":"","steam_id":0,"keywords":null,"game_id":0,"stv_port":0,"stv_name":"","players":null},{"server_id":13,"name":"Uncletopia | New York City | 1 | All Maps","name_short":"nyc-1","host":"nyc-1.us.uncletopia.com","port":27015,"enabled":true,"region":"us-east","cc":"us","latitude":40.73061,"longitude":-73.93524,"reserved":0,"last_update":"0001-01-01T00:00:00Z","name_a2s":"Uncletopia | New York City | 1 | All Maps","protocol":17,"map":"pl_enclosure_final","folder":"tf","game":"Team Fortress","app_id":440,"player_count":0,"max_players":24,"Bots":0,"server_type":"Dedicated","server_os":"Linux","password":true,"vac":true,"version":"7961495","steam_id":85568392924469993,"keywords":["nocrits","nodmgspread","payload","uncletopia"],"game_id":440,"stv_port":27016,"stv_name":"Uncletopia | New York City | 1 | All Maps | STV","players":null},{"server_id":14,"name":"Uncletopia | New York City | 2 | All Maps","name_short":"nyc-2","host":"nyc-1.us.uncletopia.com","port":27025,"enabled":true,"region":"us-east","cc":"us","latitude":40.73061,"longitude":-73.93524,"reserved":0,"last_update":"0001-01-01T00:00:00Z","name_a2s":"Uncletopia | New York City | 2 | All Maps","protocol":17,"map":"pl_pier","folder":"tf","game":"Team Fortress","app_id":440,"player_count":22,"max_players":24,"Bots":0,"server_type":"Dedicated","server_os":"Linux","password":true,"vac":true,"version":"7961495","steam_id":85568392924469994,"keywords":["nocrits","nodmgspread","payload","uncletopia"],"game_id":440,"stv_port":27026,"stv_name":"Uncletopia | New York City | 2 | All Maps | STV","players":[{"user_id":496,"name":"Steak","steam_id":76561198214754864,"connected_time":153000000000,"state":"active","ping":63},{"user_id":475,"name":"kikikikoboy","steam_id":76561198073380271,"connected_time":2210000000000,"state":"active","ping":68},{"user_id":469,"name":"Big Bill Haywood","steam_id":76561198142290733,"connected_time":2829000000000,"state":"active","ping":56},{"user_id":481,"name":"Tomislav Philanthropist","steam_id":76561198862211445,"connected_time":1075000000000,"state":"active","ping":49},{"user_id":497,"name":"Meathouse","steam_id":76561198169966346,"connected_time":144000000000,"state":"active","ping":71},{"user_id":471,"name":"Scarletstripe","steam_id":76561198166532262,"connected_time":2521000000000,"state":"active","ping":87},{"user_id":472,"name":"Acheron","steam_id":76561198041698248,"connected_time":2519000000000,"state":"active","ping":131},{"user_id":473,"name":"Tjw","steam_id":76561198066493874,"connected_time":2519000000000,"state":"active","ping":161},{"user_id":474,"name":"Vengefull Kitty","steam_id":76561198094285285,"connected_time":2517000000000,"state":"active","ping":123},{"user_id":498,"name":"Plunderphonic","steam_id":76561198062565784,"connected_time":113000000000,"state":"active","ping":60},{"user_id":499,"name":"Jam Jams","steam_id":76561198128811267,"connected_time":81000000000,"state":"active","ping":103},{"user_id":500,"name":"Cadence Floria","steam_id":76561198044443985,"connected_time":68000000000,"state":"active","ping":97},{"user_id":483,"name":"crystal","steam_id":76561198106859701,"connected_time":938000000000,"state":"active","ping":105},{"user_id":486,"name":"ShiroTaiyaki","steam_id":76561198089385398,"connected_time":881000000000,"state":"active","ping":122},{"user_id":487,"name":"Ludcmorais","steam_id":76561198359217809,"connected_time":834000000000,"state":"active","ping":176},{"user_id":501,"name":"Octovaitor","steam_id":76561198004658451,"connected_time":63000000000,"state":"active","ping":48},{"user_id":489,"name":"Mamse_","steam_id":76561198866422848,"connected_time":827000000000,"state":"active","ping":159},{"user_id":490,"name":"Hopdon The Magic Bunny","steam_id":76561198051616613,"connected_time":822000000000,"state":"active","ping":93},{"user_id":491,"name":"J197382645","steam_id":76561198014742440,"connected_time":771000000000,"state":"active","ping":69},{"user_id":492,"name":"jebs strognest soljer","steam_id":76561198056622157,"connected_time":770000000000,"state":"active","ping":48},{"user_id":493,"name":"Dr. Don. Wario M.D.","steam_id":76561198107259309,"connected_time":572000000000,"state":"active","ping":40},{"user_id":494,"name":"„ÇØ„É©„ÇØ„Å∏„Éâ„Éâ„Éâ","steam_id":76561198043433581,"connected_time":514000000000,"state":"active","ping":69}]},{"server_id":15,"name":"Uncletopia | New York City | 3 | Stopwatch","name_short":"nyc-3","host":"nyc-1.us.uncletopia.com","port":27035,"enabled":true,"region":"us-east","cc":"us","latitude":40.73061,"longitude":-73.93524,"reserved":0,"last_update":"0001-01-01T00:00:00Z","name_a2s":"Uncletopia | New York City | 3 | Stopwatch","protocol":17,"map":"workshop/koth_ashville_final.ugc2130459942","folder":"tf","game":"Team Fortress","app_id":440,"player_count":0,"max_players":24,"Bots":0,"server_type":"Dedicated","server_os":"Linux","password":true,"vac":true,"version":"7961495","steam_id":85568392924742820,"keywords":["cp","nocrits","nodmgspread","uncletopia"],"game_id":440,"stv_port":27036,"stv_name":"Uncletopia | New York City | 3 | Stopwatch | STV","players":null},{"server_id":16,"name":"Uncletopia | New York City | 4 | Community","name_short":"nyc-4","host":"nyc-1.us.uncletopia.com","port":27045,"enabled":true,"region":"us-east","cc":"us","latitude":40.73061,"longitude":-73.93524,"reserved":0,"last_update":"0001-01-01T00:00:00Z","name_a2s":"Uncletopia | New York City | 4 | Community","protocol":17,"map":"workshop/koth_slaughter_rc1.ugc1712845210","folder":"tf","game":"Team Fortress","app_id":440,"player_count":0,"max_players":24,"Bots":0,"server_type":"Dedicated","server_os":"Linux","password":true,"vac":true,"version":"7961495","steam_id":85568392924742821,"keywords":["cp","nocrits","nodmgspread","uncletopia"],"game_id":440,"stv_port":27046,"stv_name":"Uncletopia | New York City | 4 | Community | STV","players":null},{"server_id":142,"name":"Uncletopia | S√£o Paulo | 1 | All Maps","name_short":"sao-1","host":"sao-1.br.uncletopia.com","port":27015,"enabled":true,"region":"sa","cc":"br","latitude":-23.533773,"longitude":-46.62529,"reserved":0,"last_update":"0001-01-01T00:00:00Z","name_a2s":"Uncletopia | S√£o Paulo | 1 | All Maps","protocol":17,"map":"koth_cascade","folder":"tf","game":"Team Fortress","app_id":440,"player_count":0,"max_players":24,"Bots":0,"server_type":"Dedicated","server_os":"Linux","password":true,"vac":true,"version":"7961495","steam_id":85568392924469996,"keywords":["cp","nocrits","nodmgspread","uncletopia"],"game_id":440,"stv_port":27016,"stv_name":"Uncletopia | S√£o Paulo | 1 | All Maps | STV","players":null},{"server_id":143,"name":"Uncletopia | S√£o Paulo | 2 | Community","name_short":"sao-2","host":"sao-2.br.uncletopia.com","port":27015,"enabled":true,"region":"sa","cc":"br","latitude":-23.533773,"longitude":-46.62529,"reserved":0,"last_update":"0001-01-01T00:00:00Z","name_a2s":"Uncletopia | S√£o Paulo | 2 | Community","protocol":17,"map":"pl_badwater","folder":"tf","game":"Team Fortress","app_id":440,"player_count":0,"max_players":24,"Bots":0,"server_type":"Dedicated","server_os":"Linux","password":true,"vac":true,"version":"7961495","steam_id":85568392924485349,"keywords":["nocrits","nodmgspread","payload","uncletopia"],"game_id":440,"stv_port":27016,"stv_name":"Uncletopia | S√£o Paulo | 2 | Community | STV","players":null},{"server_id":7,"name":"Uncletopia | Seattle | 1 | All Maps","name_short":"sea-1","host":"sea-1.us.uncletopia.com","port":27015,"enabled":true,"region":"us-west","cc":"us","latitude":47.608013,"longitude":-122.33517,"reserved":0,"last_update":"0001-01-01T00:00:00Z","name_a2s":"Uncletopia | Seattle | 1 | All Maps","protocol":17,"map":"koth_lakeside_final","folder":"tf","game":"Team Fortress","app_id":440,"player_count":26,"max_players":24,"Bots":0,"server_type":"Dedicated","server_os":"Linux","password":true,"vac":true,"version":"7961495","steam_id":85568392924469997,"keywords":["cp","nocrits","nodmgspread","uncletopia"],"game_id":440,"stv_port":27016,"stv_name":"Uncletopia | Seattle | 1 | All Maps | STV","players":[{"user_id":880,"name":"Mitchell","steam_id":76561197972922328,"connected_time":558000000000,"state":"active","ping":50},{"user_id":881,"name":"rat who can kickflip","steam_id":76561198073620027,"connected_time":550000000000,"state":"active","ping":44},{"user_id":830,"name":"The Shaq Attack","steam_id":76561198075285534,"connected_time":3796000000000,"state":"active","ping":32},{"user_id":855,"name":"Escapist Robot","steam_id":76561198121501913,"connected_time":2078000000000,"state":"active","ping":74},{"user_id":875,"name":"gorefriend","steam_id":76561198049258493,"connected_time":765000000000,"state":"active","ping":52},{"user_id":743,"name":"Havi","steam_id":76561198197832829,"connected_time":12532000000000,"state":"active","ping":53},{"user_id":873,"name":"nanoboosts","steam_id":76561199500861337,"connected_time":778000000000,"state":"active","ping":76},{"user_id":841,"name":"fancyfreak","steam_id":76561198326466375,"connected_time":3162000000000,"state":"active","ping":86},{"user_id":860,"name":"Nurf_H3rd3r125","steam_id":76561198354783221,"connected_time":2026000000000,"state":"active","ping":59},{"user_id":888,"name":"Meepster","steam_id":76561198146305159,"connected_time":48000000000,"state":"active","ping":59},{"user_id":863,"name":"Username","steam_id":76561199033122306,"connected_time":1173000000000,"state":"active","ping":136},{"user_id":878,"name":"FREE HIM!!!","steam_id":76561198212993755,"connected_time":711000000000,"state":"active","ping":58},{"user_id":669,"name":"rat gets the cheese","steam_id":76561198031234032,"connected_time":18739000000000,"state":"active","ping":91},{"user_id":848,"name":"DevourerofGlass","steam_id":76561199443647976,"connected_time":2565000000000,"state":"active","ping":96},{"user_id":865,"name":"Sniff","steam_id":76561198010270922,"connected_time":1158000000000,"state":"active","ping":76},{"user_id":879,"name":"Larry Gooseman","steam_id":76561198018696922,"connected_time":618000000000,"state":"active","ping":75},{"user_id":883,"name":"charm quark","steam_id":76561198098770777,"connected_time":436000000000,"state":"active","ping":57},{"user_id":853,"name":"Dog","steam_id":76561198041841128,"connected_time":2224000000000,"state":"active","ping":94},{"user_id":857,"name":"PvZ Enthusiast","steam_id":76561199089562026,"connected_time":2062000000000,"state":"active","ping":42},{"user_id":884,"name":"Lord Hater","steam_id":76561199158148782,"connected_time":291000000000,"state":"active","ping":61},{"user_id":867,"name":"Saint Laurent Don","steam_id":76561198116820706,"connected_time":1152000000000,"state":"active","ping":40},{"user_id":849,"name":"Nom Skirrett","steam_id":76561198014600788,"connected_time":2565000000000,"state":"active","ping":74},{"user_id":870,"name":"Echo","steam_id":76561198103342230,"connected_time":823000000000,"state":"active","ping":70},{"user_id":815,"name":"Daz","steam_id":76561198041431938,"connected_time":5619000000000,"state":"active","ping":52},{"user_id":885,"name":"Sweets the bday girl","steam_id":76561198998446307,"connected_time":291000000000,"state":"connecting","ping":0},{"user_id":889,"name":"raspy","steam_id":76561198027298961,"connected_time":10000000000,"state":"spawning","ping":103}]},{"server_id":119,"name":"Uncletopia | Seattle | 2 | All Maps","name_short":"sea-2","host":"sea-1.us.uncletopia.com","port":27025,"enabled":true,"region":"us-west","cc":"us","latitude":47.608013,"longitude":-122.33517,"reserved":0,"last_update":"0001-01-01T00:00:00Z","name_a2s":"Uncletopia | Seattle | 2 | All Maps","protocol":17,"map":"koth_suijin","folder":"tf","game":"Team Fortress","app_id":440,"player_count":18,"max_players":24,"Bots":0,"server_type":"Dedicated","server_os":"Linux","password":true,"vac":true,"version":"7961495","steam_id":85568392924469998,"keywords":["cp","nocrits","nodmgspread","uncletopia"],"game_id":440,"stv_port":27026,"stv_name":"Uncletopia | Seattle | 2 | All Maps | STV","players":[{"user_id":416,"name":"Mr8bittripper","steam_id":76561198133894229,"connected_time":1354000000000,"state":"active","ping":44},{"user_id":439,"name":"baby","steam_id":76561198353456379,"connected_time":181000000000,"state":"active","ping":70},{"user_id":440,"name":"Furikuri","steam_id":76561197998277739,"connected_time":180000000000,"state":"active","ping":30},{"user_id":436,"name":"fishtank.live","steam_id":76561198280085840,"connected_time":614000000000,"state":"active","ping":71},{"user_id":417,"name":"Shazzy","steam_id":76561198145460523,"connected_time":1351000000000,"state":"active","ping":40},{"user_id":441,"name":"CHARLEMAGNE","steam_id":76561198042455103,"connected_time":163000000000,"state":"active","ping":46},{"user_id":443,"name":"dub","steam_id":76561198099438854,"connected_time":92000000000,"state":"active","ping":47},{"user_id":418,"name":"Noah","steam_id":76561198059048749,"connected_time":1332000000000,"state":"active","ping":45},{"user_id":232,"name":"worker","steam_id":76561198039608940,"connected_time":14988000000000,"state":"active","ping":54},{"user_id":430,"name":"fragadelphia","steam_id":76561198066116363,"connected_time":1144000000000,"state":"active","ping":45},{"user_id":370,"name":"Bullahorns","steam_id":76561197997138052,"connected_time":4792000000000,"state":"active","ping":100},{"user_id":432,"name":"Skudge Sister","steam_id":76561198041766766,"connected_time":1070000000000,"state":"active","ping":109},{"user_id":427,"name":"Thequirka","steam_id":76561198968058652,"connected_time":1203000000000,"state":"active","ping":46},{"user_id":423,"name":"FrogRotated45Degrees","steam_id":76561198929021924,"connected_time":1239000000000,"state":"active","ping":51},{"user_id":425,"name":"Drink My *** U Nasty ****","steam_id":76561199100813140,"connected_time":1221000000000,"state":"active","ping":54},{"user_id":385,"name":"Captain Shank","steam_id":76561198057017006,"connected_time":4107000000000,"state":"active","ping":45},{"user_id":434,"name":"Woah","steam_id":76561197973558812,"connected_time":1051000000000,"state":"active","ping":43},{"user_id":384,"name":"OxOoxen841","steam_id":76561198297981993,"connected_time":4197000000000,"state":"active","ping":76}]},{"server_id":406,"name":"Uncletopia | Seattle | 3 | Stopwatch","name_short":"sea-3","host":"sea-1.us.uncletopia.com","port":27035,"enabled":true,"region":"us-west","cc":"us","latitude":47.608013,"longitude":-122.33517,"reserved":0,"last_update":"0001-01-01T00:00:00Z","name_a2s":"Uncletopia | Seattle | 3 | Stopwatch","protocol":17,"map":"workshop/koth_clearcut_b15.ugc2107050255","folder":"tf","game":"Team Fortress","app_id":440,"player_count":0,"max_players":24,"Bots":0,"server_type":"Dedicated","server_os":"Linux","password":true,"vac":true,"version":"7961495","steam_id":85568392924515217,"keywords":["cp","nocrits","nodmgspread","uncletopia"],"game_id":440,"stv_port":27036,"stv_name":"Uncletopia | Seattle | 3 | Stopwatch | STV","players":null},{"server_id":17,"name":"Uncletopia | San Francisco | 1 | All Maps","name_short":"sfo-1","host":"sfo-1.us.uncletopia.com","port":27015,"enabled":true,"region":"us-west","cc":"us","latitude":37.77397,"longitude":-122.4313,"reserved":0,"last_update":"0001-01-01T00:00:00Z","name_a2s":"Uncletopia | San Francisco | 1 | All Maps","protocol":17,"map":"koth_cascade","folder":"tf","game":"Team Fortress","app_id":440,"player_count":0,"max_players":24,"Bots":0,"server_type":"Dedicated","server_os":"Linux","password":true,"vac":true,"version":"7961495","steam_id":85568392924469999,"keywords":["cp","nocrits","nodmgspread","uncletopia"],"game_id":440,"stv_port":27016,"stv_name":"Uncletopia | San Francisco | 1 | All Maps | STV","players":null},{"server_id":18,"name":"Uncletopia | San Francisco | 2 | All Maps","name_short":"sfo-2","host":"sfo-1.us.uncletopia.com","port":27025,"enabled":true,"region":"us-west","cc":"us","latitude":37.77397,"longitude":-122.4313,"reserved":0,"last_update":"0001-01-01T00:00:00Z","name_a2s":"Uncletopia | San Francisco | 2 | All Maps","protocol":17,"map":"koth_cascade","folder":"tf","game":"Team Fortress","app_id":440,"player_count":0,"max_players":24,"Bots":0,"server_type":"Dedicated","server_os":"Linux","password":true,"vac":true,"version":"7961495","steam_id":85568392924470000,"keywords":["cp","nocrits","nodmgspread","uncletopia"],"game_id":440,"stv_port":27026,"stv_name":"Uncletopia | San Francisco | 2 | All Maps | STV","players":null},{"server_id":19,"name":"Uncletopia | San Francisco | 3 | Stopwatch","name_short":"sfo-3","host":"sfo-1.us.uncletopia.com","port":27035,"enabled":true,"region":"us-west","cc":"us","latitude":37.77397,"longitude":-122.4313,"reserved":0,"last_update":"0001-01-01T00:00:00Z","name_a2s":"Uncletopia | San Francisco | 3 | Stopwatch","protocol":17,"map":"cp_granary","folder":"tf","game":"Team Fortress","app_id":440,"player_count":0,"max_players":24,"Bots":0,"server_type":"Dedicated","server_os":"Linux","password":true,"vac":true,"version":"7961495","steam_id":85568392924742824,"keywords":["cp","nocrits","nodmgspread","uncletopia"],"game_id":440,"stv_port":27036,"stv_name":"Uncletopia | San Francisco | 3 | Stopwatch | STV","players":null},{"server_id":20,"name":"Uncletopia | San Francisco | 4 | Community","name_short":"sfo-4","host":"sfo-1.us.uncletopia.com","port":27045,"enabled":true,"region":"us-west","cc":"us","latitude":37.77397,"longitude":-122.4313,"reserved":0,"last_update":"0001-01-01T00:00:00Z","name_a2s":"Uncletopia | San Francisco | 4 | Community","protocol":17,"map":"workshop/koth_trenchfoot_ab1.ugc731436616","folder":"tf","game":"Team Fortress","app_id":440,"player_count":0,"max_players":24,"Bots":0,"server_type":"Dedicated","server_os":"Linux","password":true,"vac":true,"version":"7961495","steam_id":85568392924742826,"keywords":["cp","nocrits","nodmgspread","uncletopia"],"game_id":440,"stv_port":27046,"stv_name":"Uncletopia | San Francisco | 4 | Community | STV","players":null},{"server_id":141,"name":"Uncletopia | Sydney | 1 | All Maps","name_short":"syd-1","host":"syd-1.au.uncletopia.com","port":27015,"enabled":true,"region":"au","cc":"au","latitude":-33.865143,"longitude":151.2099,"reserved":0,"last_update":"0001-01-01T00:00:00Z","name_a2s":"Uncletopia | Sydney | 1 | All Maps","protocol":17,"map":"pl_upward","folder":"tf","game":"Team Fortress","app_id":440,"player_count":0,"max_players":24,"Bots":0,"server_type":"Dedicated","server_os":"Linux","password":true,"vac":true,"version":"7961495","steam_id":85568392924470001,"keywords":["nocrits","nodmgspread","payload","uncletopia"],"game_id":440,"stv_port":27016,"stv_name":"Uncletopia | Sydney | 1 | All Maps | STV","players":null},{"server_id":123,"name":"Uncletopia | Sydney | 2 | All Maps","name_short":"syd-2","host":"syd-1.au.uncletopia.com","port":27025,"enabled":true,"region":"au","cc":"au","latitude":-33.865143,"longitude":151.2099,"reserved":0,"last_update":"0001-01-01T00:00:00Z","name_a2s":"Uncletopia | Sydney | 2 | All Maps","protocol":17,"map":"koth_lakeside_final","folder":"tf","game":"Team Fortress","app_id":440,"player_count":0,"max_players":24,"Bots":0,"server_type":"Dedicated","server_os":"Linux","password":true,"vac":true,"version":"7961495","steam_id":85568392924470002,"keywords":["cp","nocrits","nodmgspread","uncletopia"],"game_id":440,"stv_port":27026,"stv_name":"Uncletopia | Sydney | 2 | All Maps | STV","players":null},{"server_id":395,"name":"Uncletopia | Sydney | 3 | All Maps","name_short":"syd-3","host":"syd-1.au.uncletopia.com","port":27035,"enabled":true,"region":"au","cc":"au","latitude":-33.865143,"longitude":151.2099,"reserved":0,"last_update":"0001-01-01T00:00:00Z","name_a2s":"Uncletopia | Sydney | 3 | All Maps","protocol":17,"map":"koth_highpass","folder":"tf","game":"Team Fortress","app_id":440,"player_count":0,"max_players":24,"Bots":0,"server_type":"Dedicated","server_os":"Linux","password":true,"vac":true,"version":"7961495","steam_id":85568392925194467,"keywords":["cp","nocrits","nodmgspread","uncletopia"],"game_id":440,"stv_port":27036,"stv_name":"Uncletopia | Sydney | 3 | All Maps | STV","players":null},{"server_id":396,"name":"Uncletopia | Sydney | 4 | All Maps","name_short":"syd-4","host":"syd-1.au.uncletopia.com","port":27045,"enabled":true,"region":"au","cc":"au","latitude":-33.865143,"longitude":151.2099,"reserved":0,"last_update":"0001-01-01T00:00:00Z","name_a2s":"Uncletopia | Sydney | 4 | All Maps","protocol":17,"map":"koth_cascade","folder":"tf","game":"Team Fortress","app_id":440,"player_count":3,"max_players":24,"Bots":0,"server_type":"Dedicated","server_os":"Linux","password":true,"vac":true,"version":"7961495","steam_id":85568392925397958,"keywords":["cp","nocrits","nodmgspread","uncletopia"],"game_id":440,"stv_port":27046,"stv_name":"Uncletopia | Sydney | 4 | All Maps | STV","players":[{"user_id":4,"name":"FROSTBOLTO","steam_id":76561198373591603,"connected_time":514000000000,"state":"active","ping":40},{"user_id":5,"name":"qwerte_","steam_id":76561199116409499,"connected_time":472000000000,"state":"active","ping":47},{"user_id":6,"name":"FatchTing","steam_id":76561198889152634,"connected_time":466000000000,"state":"active","ping":52}]},{"server_id":58,"name":"Uncletopia | Sydney | 5 | Stopwatch","name_short":"syd-5","host":"syd-1.au.uncletopia.com","port":27055,"enabled":true,"region":"au","cc":"au","latitude":-33.865143,"longitude":151.2099,"reserved":0,"last_update":"0001-01-01T00:00:00Z","name_a2s":"Uncletopia | Sydney | 5 | Stopwatch","protocol":17,"map":"cp_snakewater_final1","folder":"tf","game":"Team Fortress","app_id":440,"player_count":16,"max_players":24,"Bots":0,"server_type":"Dedicated","server_os":"Linux","password":true,"vac":true,"version":"7961495","steam_id":85568392925397959,"keywords":["cp","nocrits","nodmgspread","uncletopia"],"game_id":440,"stv_port":27056,"stv_name":"Uncletopia | Sydney | 5 | Stopwatch | STV","players":[{"user_id":5,"name":"J2PWN","steam_id":76561198409287854,"connected_time":3640000000000,"state":"active","ping":98},{"user_id":6,"name":"snowy","steam_id":76561198974332396,"connected_time":3019000000000,"state":"active","ping":79},{"user_id":8,"name":"Fiend-205","steam_id":76561198828041485,"connected_time":2555000000000,"state":"active","ping":94},{"user_id":28,"name":"Critz Eastwood","steam_id":76561198050094688,"connected_time":534000000000,"state":"active","ping":46},{"user_id":33,"name":"Geekknight","steam_id":76561198876733389,"connected_time":27000000000,"state":"spawning","ping":49},{"user_id":30,"name":"Marzell","steam_id":76561198151276153,"connected_time":310000000000,"state":"active","ping":93},{"user_id":13,"name":"F.R.O.G Friend","steam_id":76561198054505772,"connected_time":1672000000000,"state":"active","ping":59},{"user_id":15,"name":"JunkKnight","steam_id":76561198050917553,"connected_time":1524000000000,"state":"active","ping":61},{"user_id":31,"name":"Alright","steam_id":76561198075411902,"connected_time":247000000000,"state":"active","ping":45},{"user_id":32,"name":"Onion Farmer","steam_id":76561198449452640,"connected_time":154000000000,"state":"active","ping":150},{"user_id":18,"name":"User","steam_id":76561198119416510,"connected_time":1432000000000,"state":"active","ping":30},{"user_id":20,"name":"4LOW","steam_id":76561199156942316,"connected_time":1154000000000,"state":"active","ping":79},{"user_id":22,"name":"El","steam_id":76561198095659550,"connected_time":1144000000000,"state":"active","ping":90},{"user_id":24,"name":"cas ganister + water","steam_id":76561198879023728,"connected_time":1030000000000,"state":"active","ping":47},{"user_id":27,"name":"BobTheHuminoid","steam_id":76561199241312725,"connected_time":775000000000,"state":"active","ping":59},{"user_id":34,"name":"TheGoodGuy","steam_id":76561197994105505,"connected_time":17000000000,"state":"spawning","ping":52}]},{"server_id":59,"name":"Uncletopia | Sydney | 6 | Community","name_short":"syd-6","host":"syd-1.au.uncletopia.com","port":27065,"enabled":true,"region":"au","cc":"au","latitude":-33.865143,"longitude":151.2099,"reserved":0,"last_update":"0001-01-01T00:00:00Z","name_a2s":"Uncletopia | Sydney | 6 | Community","protocol":17,"map":"cp_sunshine","folder":"tf","game":"Team Fortress","app_id":440,"player_count":0,"max_players":24,"Bots":0,"server_type":"Dedicated","server_os":"Linux","password":true,"vac":true,"version":"7961495","steam_id":85568392925397960,"keywords":["cp","nocrits","nodmgspread","uncletopia"],"game_id":440,"stv_port":27066,"stv_name":"Uncletopia | Sydney | 6 | Community | STV","players":null},{"server_id":49,"name":"Uncletopia | Warsaw | 1 | One Thousand Uncles","name_short":"waw-1","host":"waw-1.pl.uncletopia.com","port":27015,"enabled":true,"region":"eu","cc":"pl","latitude":52.2297,"longitude":21.017532,"reserved":0,"last_update":"0001-01-01T00:00:00Z","name_a2s":"Uncletopia | Warsaw | 1 | One Thousand Uncles","protocol":17,"map":"koth_highpass","folder":"tf","game":"Team Fortress","app_id":440,"player_count":0,"max_players":32,"Bots":0,"server_type":"Dedicated","server_os":"Linux","password":true,"vac":true,"version":"7961495","steam_id":85568392925397850,"keywords":["alltalk","cp","danepve","increased_maxplayers","nocrits","norespawntime","uncletopia"],"game_id":440,"stv_port":0,"stv_name":"","players":null},{"server_id":50,"name":"Uncletopia | Warsaw | 2 | One Thousand Uncles","name_short":"waw-2","host":"waw-1.pl.uncletopia.com","port":27025,"enabled":true,"region":"eu","cc":"pl","latitude":52.2297,"longitude":21.017532,"reserved":0,"last_update":"0001-01-01T00:00:00Z","name_a2s":"Uncletopia | Warsaw | 2 | One Thousand Uncles","protocol":17,"map":"pl_goldrush","folder":"tf","game":"Team Fortress","app_id":440,"player_count":0,"max_players":32,"Bots":0,"server_type":"Dedicated","server_os":"Linux","password":true,"vac":true,"version":"7961495","steam_id":85568392925397851,"keywords":["alltalk","danepve","increased_maxplayers","nocrits","norespawntime","payload","uncletopia"],"game_id":440,"stv_port":0,"stv_name":"","players":null},{"server_id":51,"name":"Uncletopia | Warsaw | 3 | All Maps","name_short":"waw-3","host":"waw-1.pl.uncletopia.com","port":27035,"enabled":true,"region":"eu","cc":"pl","latitude":52.2297,"longitude":21.017532,"reserved":0,"last_update":"0001-01-01T00:00:00Z","name_a2s":"Uncletopia | Warsaw | 3 | All Maps","protocol":17,"map":"plr_pipeline","folder":"tf","game":"Team Fortress","app_id":440,"player_count":0,"max_players":24,"Bots":0,"server_type":"Dedicated","server_os":"Linux","password":true,"vac":true,"version":"7961495","steam_id":85568392925397852,"keywords":["nocrits","nodmgspread","payload","uncletopia"],"game_id":440,"stv_port":27036,"stv_name":"Uncletopia | Warsaw | 3 | All Maps | STV","players":null},{"server_id":52,"name":"Uncletopia | Warsaw | 4 | All Maps","name_short":"waw-4","host":"waw-1.pl.uncletopia.com","port":27045,"enabled":true,"region":"eu","cc":"pl","latitude":52.2297,"longitude":21.017532,"reserved":0,"last_update":"0001-01-01T00:00:00Z","name_a2s":"Uncletopia | Warsaw | 4 | All Maps","protocol":17,"map":"cp_coldfront","folder":"tf","game":"Team Fortress","app_id":440,"player_count":0,"max_players":24,"Bots":0,"server_type":"Dedicated","server_os":"Linux","password":true,"vac":true,"version":"7961495","steam_id":85568392925397853,"keywords":["cp","nocrits","nodmgspread","uncletopia"],"game_id":440,"stv_port":27046,"stv_name":"Uncletopia | Warsaw | 4 | All Maps | STV","players":null},{"server_id":53,"name":"Uncletopia | Warsaw | 5 | Stopwatch","name_short":"waw-5","host":"waw-1.pl.uncletopia.com","port":27055,"enabled":true,"region":"eu","cc":"pl","latitude":52.2297,"longitude":21.017532,"reserved":0,"last_update":"0001-01-01T00:00:00Z","name_a2s":"Uncletopia | Warsaw | 5 | Stopwatch","protocol":17,"map":"workshop/koth_bagel_rc6.ugc2514036946","folder":"tf","game":"Team Fortress","app_id":440,"player_count":0,"max_players":24,"Bots":0,"server_type":"Dedicated","server_os":"Linux","password":true,"vac":true,"version":"7961495","steam_id":85568392925397854,"keywords":["cp","nocrits","nodmgspread","uncletopia"],"game_id":440,"stv_port":27056,"stv_name":"Uncletopia | Warsaw | 5 | Stopwatch | STV","players":null},{"server_id":54,"name":"Uncletopia | Warsaw | 6 | Community","name_short":"waw-6","host":"waw-1.pl.uncletopia.com","port":27065,"enabled":true,"region":"eu","cc":"pl","latitude":52.2297,"longitude":21.017532,"reserved":0,"last_update":"0001-01-01T00:00:00Z","name_a2s":"Uncletopia | Warsaw | 6 | Community","protocol":17,"map":"workshop/pl_badwater_pro_v12.ugc2142942074","folder":"tf","game":"Team Fortress","app_id":440,"player_count":0,"max_players":24,"Bots":0,"server_type":"Dedicated","server_os":"Linux","password":true,"vac":true,"version":"7961495","steam_id":85568392925397856,"keywords":["nocrits","nodmgspread","payload","uncletopia"],"game_id":440,"stv_port":27066,"stv_name":"Uncletopia | Warsaw | 6 | Community | STV","players":null}]}