{"status":true,"message":"","result":[{"server_id":9,"name":"Uncletopia | Atlanta | 1 | All Maps","name_short":"atl-1","host":"atl-1.us.uncletopia.com","port":27015,"enabled":true,"region":"us-east","cc":"us","latitude":33.753746,"longitude":-84.38633,"reserved":0,"last_update":"0001-01-01T00:00:00Z","name_a2s":"Uncletopia | Atlanta | 1 | All Maps","protocol":17,"map":"koth_cascade","folder":"tf","game":"Team Fortress","app_id":440,"player_count":0,"max_players":24,"Bots":0,"server_type":"Dedicated","server_os":"Linux","password":true,"vac":true,"version":"7757534","steam_id":85568392924469982,"keywords":["cp","nocrits","nodmgspread","uncletopia"],"game_id":440,"stv_port":27016,"stv_name":"Uncletopia | Atlanta | 1 | All Maps | STV","players":null},{"server_id":400,"name":"Uncletopia | Atlanta | 3 | Community","name_short":"atl-3","host":"atl-1.us.uncletopia.com","port":27035,"enabled":true,"region":"us-east","cc":"us","latitude":33.753746,"longitude":-84.38633,"reserved":0,"last_update":"0001-01-01T00:00:00Z","name_a2s":"Uncletopia | Atlanta | 3 | Community","protocol":17,"map":"workshop/koth_ramjam_rc1.ugc459778887","folder":"tf","game":"Team Fortress","app_id":440,"player_count":24,"max_players":32,"Bots":0,"server_type":"Dedicated","server_os":"Linux","password":true,"vac":true,"version":"7757534","steam_id":85568392924515187,"keywords":["cp","increased_maxplayers","nocrits","nodmgspread","uncletopia"],"game_id":440,"stv_port":27036,"stv_name":"Uncletopia | Atlanta | 3 | Community | STV","players":[{"user_id":268,"name":"Ġ1 ♦ Synth","steam_id":76561198058660228,"connected_time":581000000000,"state":"active","ping":39},{"user_id":285,"name":"Freddie","steam_id":76561197965066630,"connected_time":80000000000,"state":"active","ping":59},{"user_id":282,"name":"Master_Chief_20","steam_id":76561198309760791,"connected_time":242000000000,"state":"active","ping":144},{"user_id":50,"name":"themankeys","steam_id":76561198149339536,"connected_time":6731000000000,"state":"active","ping":87},{"user_id":48,"name":"Seru","steam_id":76561199219827214,"connected_time":6826000000000,"state":"active","ping":62},{"user_id":281,"name":"ted twenty-two ( Triple T )","steam_id":76561198121316868,"connected_time":255000000000,"state":"active","ping":80},{"user_id":252,"name":"Crippling Debt","steam_id":76561198850664215,"connected_time":936000000000,"state":"active","ping":136},{"user_id":284,"name":"apricitya","steam_id":76561198202273263,"connected_time":151000000000,"state":"active","ping":60},{"user_id":274,"name":"BitsofFun","steam_id":76561198342123010,"connected_time":477000000000,"state":"active","ping":73},{"user_id":153,"name":"The Heart","steam_id":76561198371123185,"connected_time":3617000000000,"state":"active","ping":81},{"user_id":227,"name":"Eden","steam_id":76561198075587475,"connected_time":1477000000000,"state":"active","ping":66},{"user_id":29,"name":"usasan","steam_id":76561198044654399,"connected_time":8432000000000,"state":"active","ping":94},{"user_id":257,"name":"Panzerkampfwagen IV Ausf.H","steam_id":76561198420827196,"connected_time":787000000000,"state":"active","ping":72},{"user_id":22,"name":"100,000 rabid chihuahuas in Ohi","steam_id":76561198130772096,"connected_time":8682000000000,"state":"active","ping":47},{"user_id":251,"name":"Shinies","steam_id":76561198169459631,"connected_time":1024000000000,"state":"active","ping":62},{"user_id":264,"name":"Jin Gulilo","steam_id":76561198065151242,"connected_time":686000000000,"state":"active","ping":68},{"user_id":280,"name":"BOUZENZEL","steam_id":76561198095000722,"connected_time":257000000000,"state":"active","ping":55},{"user_id":260,"name":"the pyro","steam_id":76561198101203842,"connected_time":754000000000,"state":"active","ping":72},{"user_id":210,"name":"Pennis the Menace","steam_id":76561198254878037,"connected_time":1811000000000,"state":"active","ping":81},{"user_id":84,"name":"ginx","steam_id":76561199022832021,"connected_time":5959000000000,"state":"active","ping":152},{"user_id":106,"name":"Prof. Eggnog","steam_id":76561198193389166,"connected_time":5290000000000,"state":"active","ping":105},{"user_id":58,"name":"Salemander5000","steam_id":76561199027828453,"connected_time":6638000000000,"state":"active","ping":69},{"user_id":169,"name":"Twattat","steam_id":76561198074563850,"connected_time":2929000000000,"state":"active","ping":75},{"user_id":171,"name":"Bambo","steam_id":76561198121514726,"connected_time":2924000000000,"state":"active","ping":73}]},{"server_id":401,"name":"Uncletopia | Atlanta | 4 | No Payload","name_short":"atl-4","host":"atl-1.us.uncletopia.com","port":27045,"enabled":true,"region":"us-east","cc":"us","latitude":33.753746,"longitude":-84.38633,"reserved":0,"last_update":"0001-01-01T00:00:00Z","name_a2s":"","protocol":0,"map":"","folder":"","game":"","app_id":0,"player_count":0,"max_players":0,"Bots":0,"server_type":"","server_os":"","password":false,"vac":false,"version":"","steam_id":0,"keywords":null,"game_id":0,"stv_port":0,"stv_name":"","players":null},{"server_id":2,"name":"Uncletopia | Chicago | 1 | All Maps","name_short":"chi-1","host":"chi-1.us.uncletopia.com","port":27015,"enabled":true,"region":"us-central","cc":"us","latitude":41.881832,"longitude":-87.62318,"reserved":0,"last_update":"0001-01-01T00:00:00Z","name_a2s":"Uncletopia | Chicago | 1 | All Maps","protocol":17,"map":"pl_snowycoast","folder":"tf","game":"Team Fortress","app_id":440,"player_count":24,"max_players":24,"Bots":0,"server_type":"Dedicated","server_os":"Linux","password":true,"vac":true,"version":"7757534","steam_id":85568392924469984,"keywords":["nocrits","nodmgspread","payload","uncletopia"],"game_id":440,"stv_port":27016,"stv_name":"Uncletopia | Chicago | 1 | All Maps | STV","players":[{"user_id":6,"name":"volta","steam_id":76561199214283884,"connected_time":1778000000000,"state":"active","ping":96},{"user_id":8,"name":"G3rockwood","steam_id":76561198103583658,"connected_time":1555000000000,"state":"active","ping":59},{"user_id":23,"name":"Doctor Bear ʕ •ᴥ•ʔ","steam_id":76561197968103161,"connected_time":410000000000,"state":"active","ping":68},{"user_id":26,"name":"snolop","steam_id":76561198169902357,"connected_time":337000000000,"state":"active","ping":51},{"user_id":12,"name":"Gibby","steam_id":76561199336569123,"connected_time":1307000000000,"state":"active","ping":107},{"user_id":32,"name":"Manlymedic45","steam_id":76561199379376478,"connected_time":187000000000,"state":"active","ping":134},{"user_id":14,"name":"kirbo","steam_id":76561198057895955,"connected_time":1003000000000,"state":"active","ping":70},{"user_id":27,"name":"HollowMoth16","steam_id":76561199302629889,"connected_time":312000000000,"state":"active","ping":120},{"user_id":16,"name":"Brandonazz","steam_id":76561197994366351,"connected_time":724000000000,"state":"active","ping":69},{"user_id":28,"name":"Overduecat","steam_id":76561198092452824,"connected_time":236000000000,"state":"active","ping":64},{"user_id":19,"name":"JJDrowsy","steam_id":76561198274501963,"connected_time":690000000000,"state":"active","ping":85},{"user_id":21,"name":"Glory","steam_id":76561198013975080,"connected_time":582000000000,"state":"active","ping":75},{"user_id":29,"name":"bash -lc ./asshat.sh","steam_id":76561198004584315,"connected_time":227000000000,"state":"active","ping":68},{"user_id":30,"name":"ProtogenGaming_808","steam_id":76561199440523721,"connected_time":203000000000,"state":"active","ping":94},{"user_id":33,"name":"❤♡･ﾟBubbles･ﾟ♡❤","steam_id":76561198041057042,"connected_time":143000000000,"state":"active","ping":57},{"user_id":38,"name":"License","steam_id":76561197967501494,"connected_time":103000000000,"state":"active","ping":94},{"user_id":36,"name":"Zhenaj","steam_id":76561199209016136,"connected_time":125000000000,"state":"active","ping":62},{"user_id":37,"name":"Needs McTherapy","steam_id":76561198168876878,"connected_time":125000000000,"state":"active","ping":46},{"user_id":39,"name":"Josh Diddily","steam_id":76561198286957487,"connected_time":84000000000,"state":"active","ping":112},{"user_id":40,"name":"el muchacho","steam_id":76561198282632562,"connected_time":71000000000,"state":"active","ping":90},{"user_id":41,"name":"Antkneequamie","steam_id":76561198105202930,"connected_time":51000000000,"state":"active","ping":101},{"user_id":42,"name":"caption cool","steam_id":76561197990612056,"connected_time":43000000000,"state":"active","ping":47},{"user_id":43,"name":"HorizonPear","steam_id":76561198179808389,"connected_time":37000000000,"state":"active","ping":75},{"user_id":44,"name":"Big Al","steam_id":76561199468060032,"connected_time":11000000000,"state":"spawning","ping":65}]},{"server_id":106,"name":"Uncletopia | Chicago | 2 | All Maps","name_short":"chi-2","host":"chi-1.us.uncletopia.com","port":27025,"enabled":true,"region":"us-central","cc":"us","latitude":41.881832,"longitude":-87.62318,"reserved":0,"last_update":"0001-01-01T00:00:00Z","name_a2s":"Uncletopia | Chicago | 2 | All Maps","protocol":17,"map":"koth_viaduct","folder":"tf","game":"Team Fortress","app_id":440,"player_count":0,"max_players":24,"Bots":0,"server_type":"Dedicated","server_os":"Linux","password":true,"vac":true,"version":"7757534","steam_id":85568392924469985,"keywords":["cp","nocrits","nodmgspread","uncletopia"],"game_id":440,"stv_port":27026,"stv_name":"Uncletopia | Chicago | 2 | All Maps | STV","players":null},{"server_id":402,"name":"Uncletopia | Chicago | 3 | All Maps","name_short":"chi-3","host":"chi-1.us.uncletopia.com","port":27035,"enabled":true,"region":"us-central","cc":"us","latitude":41.881832,"longitude":-87.62318,"reserved":0,"last_update":"0001-01-01T00:00:00Z","name_a2s":"Uncletopia | Chicago | 3 | All Maps","protocol":17,"map":"koth_lakeside_final","folder":"tf","game":"Team Fortress","app_id":440,"player_count":0,"max_players":24,"Bots":0,"server_type":"Dedicated","server_os":"Linux","password":true,"vac":true,"version":"7757534","steam_id":85568392924515191,"keywords":["cp","nocrits","nodmgspread","uncletopia"],"game_id":440,"stv_port":27036,"stv_name":"Uncletopia | Chicago | 3 | All Maps | STV","players":null},{"server_id":403,"name":"Uncletopia | Chicago | 4 | All Maps","name_short":"chi-4","host":"chi-1.us.uncletopia.com","port":27045,"enabled":true,"region":"us-central","cc":"us","latitude":41.881832,"longitude":-87.62318,"reserved":0,"last_update":"0001-01-01T00:00:00Z","name_a2s":"Uncletopia | Chicago | 4 | All Maps","protocol":17,"map":"cp_process_final","folder":"tf","game":"Team Fortress","app_id":440,"player_count":0,"max_players":24,"Bots":0,"server_type":"Dedicated","server_os":"Linux","password":true,"vac":true,"version":"7757534","steam_id":85568392924515193,"keywords":["cp","nocrits","nodmgspread","uncletopia"],"game_id":440,"stv_port":27046,"stv_name":"Uncletopia | Chicago | 4 | All Maps | STV","players":null},{"server_id":36,"name":"Uncletopia | Chicago | 5 | All Maps","name_short":"chi-5","host":"chi-2.us.uncletopia.com","port":27015,"enabled":true,"region":"us-central","cc":"us","latitude":41.881832,"longitude":-87.62318,"reserved":0,"last_update":"0001-01-01T00:00:00Z","name_a2s":"Uncletopia | Chicago | 5 | All Maps","protocol":17,"map":"koth_nucleus","folder":"tf","game":"Team Fortress","app_id":440,"player_count":24,"max_players":24,"Bots":0,"server_type":"Dedicated","server_os":"Linux","password":true,"vac":true,"version":"7757534","steam_id":85568392924866362,"keywords":["cp","nocrits","nodmgspread","uncletopia"],"game_id":440,"stv_port":27016,"stv_name":"Uncletopia | Chicago | 5 | All Maps | STV","players":[{"user_id":269,"name":"Round King","steam_id":76561198273185290,"connected_time":464000000000,"state":"active","ping":101},{"user_id":255,"name":"Skunk (yodiiiganggg)","steam_id":76561198981592628,"connected_time":837000000000,"state":"active","ping":60},{"user_id":262,"name":"luca","steam_id":76561198069235730,"connected_time":628000000000,"state":"active","ping":60},{"user_id":254,"name":"♥dumb bimbo♥","steam_id":76561198054925421,"connected_time":1000000000000,"state":"active","ping":51},{"user_id":244,"name":"Turd Burglar","steam_id":76561198931299637,"connected_time":1854000000000,"state":"active","ping":74},{"user_id":250,"name":"Lost Arachnid","steam_id":76561199012943912,"connected_time":1408000000000,"state":"active","ping":93},{"user_id":166,"name":"_Lusty_","steam_id":76561198876948142,"connected_time":7020000000000,"state":"active","ping":62},{"user_id":248,"name":"lost in spaaaaace","steam_id":76561199085974120,"connected_time":1604000000000,"state":"active","ping":70},{"user_id":274,"name":"GoofyAhGamingGuy","steam_id":76561199331315881,"connected_time":326000000000,"state":"active","ping":91},{"user_id":266,"name":"Rein","steam_id":76561198300340427,"connected_time":559000000000,"state":"active","ping":59},{"user_id":261,"name":"Adam","steam_id":76561198045660732,"connected_time":676000000000,"state":"active","ping":153},{"user_id":270,"name":"Snowyyyyyy","steam_id":76561199008683465,"connected_time":446000000000,"state":"active","ping":76},{"user_id":275,"name":"Buswolley","steam_id":76561197995205571,"connected_time":291000000000,"state":"active","ping":98},{"user_id":268,"name":"puffy","steam_id":76561198411347037,"connected_time":518000000000,"state":"active","ping":66},{"user_id":230,"name":"Moop","steam_id":76561198096984681,"connected_time":2804000000000,"state":"active","ping":87},{"user_id":277,"name":"folding person","steam_id":76561198085044565,"connected_time":137000000000,"state":"active","ping":91},{"user_id":276,"name":"You N'wah!","steam_id":76561199241633326,"connected_time":283000000000,"state":"active","ping":58},{"user_id":271,"name":"ZaZa","steam_id":76561198041180959,"connected_time":432000000000,"state":"active","ping":89},{"user_id":278,"name":"Bozanimal","steam_id":76561198044096897,"connected_time":125000000000,"state":"active","ping":63},{"user_id":191,"name":"Drachma","steam_id":76561198007310514,"connected_time":5362000000000,"state":"active","ping":71},{"user_id":272,"name":"Baked Butter Beans","steam_id":76561198072222944,"connected_time":431000000000,"state":"active","ping":91},{"user_id":249,"name":"freak ya nature","steam_id":76561198310502474,"connected_time":1558000000000,"state":"active","ping":45},{"user_id":265,"name":"Titar Industries","steam_id":76561198143078476,"connected_time":608000000000,"state":"active","ping":64},{"user_id":273,"name":"SpiderPyro [COMM CLOSED]","steam_id":76561198041100592,"connected_time":425000000000,"state":"active","ping":90}]},{"server_id":37,"name":"Uncletopia | Chicago | 6 | All Maps","name_short":"chi-6","host":"chi-2.us.uncletopia.com","port":27025,"enabled":true,"region":"us-central","cc":"us","latitude":41.881832,"longitude":-87.62318,"reserved":0,"last_update":"0001-01-01T00:00:00Z","name_a2s":"Uncletopia | Chicago | 6 | All Maps","protocol":17,"map":"koth_cascade","folder":"tf","game":"Team Fortress","app_id":440,"player_count":0,"max_players":24,"Bots":0,"server_type":"Dedicated","server_os":"Linux","password":true,"vac":true,"version":"7757534","steam_id":85568392924866363,"keywords":["cp","nocrits","nodmgspread","uncletopia"],"game_id":440,"stv_port":27026,"stv_name":"Uncletopia | Chicago | 6 | All Maps | STV","players":null},{"server_id":38,"name":"Uncletopia | Chicago | 7 | Stopwatch Beta","name_short":"chi-7","host":"chi-2.us.uncletopia.com","port":27035,"enabled":true,"region":"us-central","cc":"us","latitude":41.881832,"longitude":-87.62318,"reserved":0,"last_update":"0001-01-01T00:00:00Z","name_a2s":"Uncletopia | Chicago | 7 | Stopwatch Beta","protocol":17,"map":"pl_upward","folder":"tf","game":"Team Fortress","app_id":440,"player_count":0,"max_players":24,"Bots":0,"server_type":"Dedicated","server_os":"Linux","password":true,"vac":true,"version":"7757534","steam_id":85568392924866364,"keywords":["nocrits","nodmgspread","payload","uncletopia"],"game_id":440,"stv_port":27036,"stv_name":"Uncletopia | Chicago | 7 | Stopwatch Beta | STV","players":null},{"server_id":39,"name":"Uncletopia | Chicago | 8 | Community","name_short":"chi-8","host":"chi-2.us.uncletopia.com","port":27045,"enabled":true,"region":"us-central","cc":"us","latitude":41.881832,"longitude":-87.62318,"reserved":0,"last_update":"0001-01-01T00:00:00Z","name_a2s":"Uncletopia | Chicago | 8 | Community","protocol":17,"map":"workshop/pl_vigil_rc9.ugc1266210012","folder":"tf","game":"Team Fortress","app_id":440,"player_count":0,"max_players":24,"Bots":0,"server_type":"Dedicated","server_os":"Linux","password":true,"vac":true,"version":"7757534","steam_id":85568392924866365,"keywords":["nocrits","nodmgspread","payload","uncletopia"],"game_id":440,"stv_port":27046,"stv_name":"Uncletopia | Chicago | 8 | Community | STV","players":null},{"server_id":8,"name":"Uncletopia | Dallas | 1 | All Maps","name_short":"dal-1","host":"dal-1.us.uncletopia.com","port":27015,"enabled":true,"region":"us-central","cc":"us","latitude":32.779167,"longitude":-96.80889,"reserved":0,"last_update":"0001-01-01T00:00:00Z","name_a2s":"Uncletopia | Dallas | 1 | All Maps","protocol":17,"map":"pl_barnblitz","folder":"tf","game":"Team Fortress","app_id":440,"player_count":0,"max_players":24,"Bots":0,"server_type":"Dedicated","server_os":"Linux","password":true,"vac":true,"version":"7757534","steam_id":85568392924469986,"keywords":["nocrits","nodmgspread","payload","uncletopia"],"game_id":440,"stv_port":27016,"stv_name":"Uncletopia | Dallas | 1 | All Maps | STV","players":null},{"server_id":108,"name":"Uncletopia | Dallas | 2 | All Maps","name_short":"dal-2","host":"dal-1.us.uncletopia.com","port":27025,"enabled":true,"region":"us-central","cc":"us","latitude":32.779167,"longitude":-96.80889,"reserved":0,"last_update":"0001-01-01T00:00:00Z","name_a2s":"Uncletopia | Dallas | 2 | All Maps","protocol":17,"map":"pl_barnblitz","folder":"tf","game":"Team Fortress","app_id":440,"player_count":0,"max_players":24,"Bots":0,"server_type":"Dedicated","server_os":"Linux","password":true,"vac":true,"version":"7757534","steam_id":85568392924469988,"keywords":["nocrits","nodmgspread","payload","uncletopia"],"game_id":440,"stv_port":27026,"stv_name":"Uncletopia | Dallas | 2 | All Maps | STV","players":null},{"server_id":5,"name":"Uncletopia | Frankfurt | 1 | All Maps","name_short":"frk-1","host":"frk-1.de.uncletopia.com","port":27015,"enabled":true,"region":"eu","cc":"de","latitude":50.110924,"longitude":8.682127,"reserved":0,"last_update":"0001-01-01T00:00:00Z","name_a2s":"Uncletopia | Frankfurt | 1 | All Maps","protocol":17,"map":"pl_borneo","folder":"tf","game":"Team Fortress","app_id":440,"player_count":24,"max_players":24,"Bots":0,"server_type":"Dedicated","server_os":"Linux","password":true,"vac":true,"version":"7757534","steam_id":85568392924469989,"keywords":["nocrits","nodmgspread","payload","uncletopia"],"game_id":440,"stv_port":27016,"stv_name":"Uncletopia | Frankfurt | 1 | All Maps | STV","players":[{"user_id":45,"name":"TheShadowScribe","steam_id":76561199037525945,"connected_time":6384000000000,"state":"active","ping":90},{"user_id":142,"name":"KGiorgios_Bully","steam_id":76561198825392728,"connected_time":461000000000,"state":"active","ping":110},{"user_id":126,"name":"Kaishakunin","steam_id":76561198028123874,"connected_time":938000000000,"state":"active","ping":97},{"user_id":108,"name":"MoistMomMauler","steam_id":76561198069359049,"connected_time":1733000000000,"state":"active","ping":88},{"user_id":49,"name":"Señor Pennj0r","steam_id":76561197967940875,"connected_time":5948000000000,"state":"active","ping":60},{"user_id":113,"name":"mountaindrill","steam_id":76561198864327475,"connected_time":1486000000000,"state":"active","ping":53},{"user_id":129,"name":"Fortuit","steam_id":76561198065143703,"connected_time":909000000000,"state":"active","ping":68},{"user_id":110,"name":"Sixten the Pale","steam_id":76561197981806008,"connected_time":1676000000000,"state":"active","ping":75},{"user_id":127,"name":"Welder","steam_id":76561198355300561,"connected_time":925000000000,"state":"active","ping":80},{"user_id":114,"name":"..","steam_id":76561198380752444,"connected_time":1469000000000,"state":"active","ping":69},{"user_id":141,"name":"Jedi Knight","steam_id":76561198039030709,"connected_time":516000000000,"state":"active","ping":53},{"user_id":143,"name":"RIFT","steam_id":76561198991622379,"connected_time":257000000000,"state":"active","ping":90},{"user_id":135,"name":"Hegyi tahó F2P","steam_id":76561199219150356,"connected_time":687000000000,"state":"active","ping":83},{"user_id":121,"name":"Nasiek The Racist Hunter","steam_id":76561199388642072,"connected_time":1192000000000,"state":"active","ping":67},{"user_id":130,"name":"Spooks","steam_id":76561199171471823,"connected_time":844000000000,"state":"active","ping":59},{"user_id":137,"name":"Daniel Day-Lewis","steam_id":76561198147249160,"connected_time":649000000000,"state":"active","ping":98},{"user_id":62,"name":"Cheyaoshi","steam_id":76561198141121996,"connected_time":5509000000000,"state":"active","ping":55},{"user_id":138,"name":"pashtoo \u003e:|","steam_id":76561198106182078,"connected_time":647000000000,"state":"active","ping":103},{"user_id":128,"name":"mishka.*","steam_id":76561198040003628,"connected_time":917000000000,"state":"active","ping":68},{"user_id":124,"name":"Rops","steam_id":76561198031608011,"connected_time":1148000000000,"state":"active","ping":83},{"user_id":118,"name":"murderwow","steam_id":76561198024566944,"connected_time":1370000000000,"state":"active","ping":104},{"user_id":131,"name":"Soulman25 (FIN)","steam_id":76561198103611974,"connected_time":833000000000,"state":"active","ping":99},{"user_id":148,"name":"nynon","steam_id":76561197998432126,"connected_time":36000000000,"state":"active","ping":78},{"user_id":120,"name":"Chicote","steam_id":76561198054689637,"connected_time":1340000000000,"state":"active","ping":74}]},{"server_id":110,"name":"Uncletopia | Frankfurt | 2 | All Maps","name_short":"frk-2","host":"frk-1.de.uncletopia.com","port":27025,"enabled":true,"region":"eu","cc":"de","latitude":50.110924,"longitude":8.682127,"reserved":0,"last_update":"0001-01-01T00:00:00Z","name_a2s":"Uncletopia | Frankfurt | 2 | All Maps","protocol":17,"map":"koth_viaduct","folder":"tf","game":"Team Fortress","app_id":440,"player_count":0,"max_players":24,"Bots":0,"server_type":"Dedicated","server_os":"Linux","password":true,"vac":true,"version":"7757534","steam_id":85568392924469990,"keywords":["cp","nocrits","nodmgspread","uncletopia"],"game_id":440,"stv_port":27026,"stv_name":"Uncletopia | Frankfurt | 2 | All Maps | STV","players":null},{"server_id":308,"name":"Uncletopia | Frankfurt | 3 | All Maps","name_short":"frk-3","host":"frk-1.de.uncletopia.com","port":27035,"enabled":true,"region":"eu","cc":"de","latitude":50.110924,"longitude":8.682127,"reserved":0,"last_update":"0001-01-01T00:00:00Z","name_a2s":"Uncletopia | Frankfurt | 3 | All Maps","protocol":17,"map":"pl_frontier_final","folder":"tf","game":"Team Fortress","app_id":440,"player_count":24,"max_players":24,"Bots":0,"server_type":"Dedicated","server_os":"Linux","password":true,"vac":true,"version":"7757534","steam_id":85568392924504274,"keywords":["nocrits","nodmgspread","payload","uncletopia"],"game_id":440,"stv_port":27036,"stv_name":"Uncletopia | Frankfurt | 3 | All Maps | STV","players":[{"user_id":9,"name":"galaxy","steam_id":76561198164819022,"connected_time":3594000000000,"state":"active","ping":68},{"user_id":16,"name":"PoseidonBroZeus","steam_id":76561199228500346,"connected_time":2970000000000,"state":"active","ping":182},{"user_id":11,"name":"Ates164","steam_id":76561199123074978,"connected_time":3286000000000,"state":"active","ping":53},{"user_id":39,"name":"0______0","steam_id":76561198118695421,"connected_time":1920000000000,"state":"active","ping":71},{"user_id":53,"name":"Aqua188","steam_id":76561198817772963,"connected_time":1405000000000,"state":"active","ping":107},{"user_id":19,"name":"levnemcev","steam_id":76561198057205970,"connected_time":2568000000000,"state":"active","ping":89},{"user_id":20,"name":"almazmingaleev2007","steam_id":76561199471883257,"connected_time":2565000000000,"state":"active","ping":104},{"user_id":66,"name":"Wir suchen dich!","steam_id":76561198307613521,"connected_time":423000000000,"state":"active","ping":46},{"user_id":70,"name":"Dirt Road","steam_id":76561198210372012,"connected_time":206000000000,"state":"active","ping":153},{"user_id":23,"name":"Danrash","steam_id":76561198975387748,"connected_time":2559000000000,"state":"active","ping":101},{"user_id":25,"name":"WarAndroid","steam_id":76561198873727435,"connected_time":2420000000000,"state":"active","ping":64},{"user_id":58,"name":"Dolcelatte","steam_id":76561198038501770,"connected_time":837000000000,"state":"active","ping":49},{"user_id":36,"name":"PLUTO","steam_id":76561198312436128,"connected_time":1998000000000,"state":"active","ping":120},{"user_id":55,"name":"juicymangoes.2011","steam_id":76561198131670413,"connected_time":1263000000000,"state":"active","ping":67},{"user_id":37,"name":"nvmHastee","steam_id":76561199371458295,"connected_time":1983000000000,"state":"active","ping":79},{"user_id":38,"name":"Pluto's Floofball(Raph)","steam_id":76561198154800858,"connected_time":1947000000000,"state":"active","ping":62},{"user_id":45,"name":"Mazata","steam_id":76561198104303163,"connected_time":1812000000000,"state":"active","ping":54},{"user_id":47,"name":"Lionball_3","steam_id":76561199084049796,"connected_time":1731000000000,"state":"active","ping":76},{"user_id":60,"name":"fearlessbot","steam_id":76561199002587064,"connected_time":785000000000,"state":"active","ping":62},{"user_id":43,"name":"Orochi","steam_id":76561198265192382,"connected_time":1866000000000,"state":"active","ping":71},{"user_id":69,"name":"Pungkrockaren","steam_id":76561198050214002,"connected_time":255000000000,"state":"active","ping":60},{"user_id":61,"name":"swag warrior","steam_id":76561198796600155,"connected_time":774000000000,"state":"active","ping":87},{"user_id":68,"name":"glow","steam_id":76561198086654069,"connected_time":273000000000,"state":"active","ping":66},{"user_id":65,"name":"presidentialAIDS","steam_id":76561199257284077,"connected_time":620000000000,"state":"active","ping":151}]},{"server_id":309,"name":"Uncletopia | Frankfurt | 4 | All Maps","name_short":"frk-4","host":"frk-1.de.uncletopia.com","port":27045,"enabled":true,"region":"eu","cc":"de","latitude":50.110924,"longitude":8.682127,"reserved":0,"last_update":"0001-01-01T00:00:00Z","name_a2s":"Uncletopia | Frankfurt | 4 | All Maps","protocol":17,"map":"pl_pier","folder":"tf","game":"Team Fortress","app_id":440,"player_count":16,"max_players":24,"Bots":0,"server_type":"Dedicated","server_os":"Linux","password":true,"vac":true,"version":"7757534","steam_id":85568392924504275,"keywords":["nocrits","nodmgspread","payload","uncletopia"],"game_id":440,"stv_port":27046,"stv_name":"Uncletopia | Frankfurt | 4 | All Maps | STV","players":[{"user_id":11,"name":"fried","steam_id":76561198307522022,"connected_time":1694000000000,"state":"active","ping":56},{"user_id":7,"name":"chopsticks","steam_id":76561198045899345,"connected_time":2161000000000,"state":"active","ping":102},{"user_id":8,"name":"Havelyn","steam_id":76561198036159862,"connected_time":2148000000000,"state":"active","ping":130},{"user_id":9,"name":"Butt Fangs Fetish","steam_id":76561198038130063,"connected_time":2112000000000,"state":"active","ping":74},{"user_id":14,"name":"Truegr","steam_id":76561198811912339,"connected_time":957000000000,"state":"active","ping":65},{"user_id":15,"name":"benifis163","steam_id":76561198420973492,"connected_time":917000000000,"state":"active","ping":130},{"user_id":18,"name":"Osmo","steam_id":76561199286764992,"connected_time":615000000000,"state":"active","ping":75},{"user_id":19,"name":"dominic :)","steam_id":76561198042663518,"connected_time":561000000000,"state":"active","ping":68},{"user_id":22,"name":"\u003eSix in swedish + y","steam_id":76561198372971096,"connected_time":341000000000,"state":"active","ping":76},{"user_id":21,"name":"common name","steam_id":76561198914744938,"connected_time":386000000000,"state":"active","ping":85},{"user_id":23,"name":"oisincristoir","steam_id":76561198864818817,"connected_time":323000000000,"state":"active","ping":85},{"user_id":24,"name":"Haggabah,WhoPliesTheUmbralPath","steam_id":76561198846984399,"connected_time":297000000000,"state":"active","ping":76},{"user_id":25,"name":"Stormy 2pointO","steam_id":76561198127638432,"connected_time":237000000000,"state":"active","ping":46},{"user_id":26,"name":"TinySnorlax","steam_id":76561199237719762,"connected_time":189000000000,"state":"active","ping":100},{"user_id":27,"name":"brtaba","steam_id":76561198796334790,"connected_time":100000000000,"state":"active","ping":58},{"user_id":29,"name":"breedable","steam_id":76561198010300032,"connected_time":24000000000,"state":"active","ping":60}]},{"server_id":310,"name":"Uncletopia | Frankfurt | 5 | All Maps","name_short":"frk-5","host":"frk-1.de.uncletopia.com","port":27055,"enabled":true,"region":"eu","cc":"de","latitude":50.110924,"longitude":8.682127,"reserved":0,"last_update":"0001-01-01T00:00:00Z","name_a2s":"Uncletopia | Frankfurt | 5 | All Maps","protocol":17,"map":"cp_process_final","folder":"tf","game":"Team Fortress","app_id":440,"player_count":0,"max_players":24,"Bots":0,"server_type":"Dedicated","server_os":"Linux","password":true,"vac":true,"version":"7757534","steam_id":85568392924504277,"keywords":["cp","nocrits","nodmgspread","uncletopia"],"game_id":440,"stv_port":27056,"stv_name":"Uncletopia | Frankfurt | 5 | All Maps | STV","players":null},{"server_id":311,"name":"Uncletopia | Frankfurt | 6 | All Maps","name_short":"frk-6","host":"frk-1.de.uncletopia.com","port":27065,"enabled":true,"region":"eu","cc":"de","latitude":50.110924,"longitude":8.682127,"reserved":0,"last_update":"0001-01-01T00:00:00Z","name_a2s":"Uncletopia | Frankfurt | 6 | All Maps","protocol":17,"map":"koth_highpass","folder":"tf","game":"Team Fortress","app_id":440,"player_count":0,"max_players":24,"Bots":0,"server_type":"Dedicated","server_os":"Linux","password":true,"vac":true,"version":"7757534","steam_id":85568392924504278,"keywords":["cp","nocrits","nodmgspread","uncletopia"],"game_id":440,"stv_port":27066,"stv_name":"Uncletopia | Frankfurt | 6 | All Maps | STV","players":null},{"server_id":23,"name":"Uncletopia | Frankfurt | 7 | Stopwatch Beta","name_short":"frk-7","host":"frk-1.de.uncletopia.com","port":27075,"enabled":true,"region":"eu","cc":"de","latitude":50.110924,"longitude":8.682127,"reserved":0,"last_update":"0001-01-01T00:00:00Z","name_a2s":"Uncletopia | Frankfurt | 7 | Stopwatch Beta","protocol":17,"map":"pl_frontier_final","folder":"tf","game":"Team Fortress","app_id":440,"player_count":0,"max_players":24,"Bots":0,"server_type":"Dedicated","server_os":"Linux","password":true,"vac":true,"version":"7757534","steam_id":85568392924742827,"keywords":["nocrits","nodmgspread","payload","uncletopia"],"game_id":440,"stv_port":27076,"stv_name":"Uncletopia | Frankfurt | 7 | Stopwatch Beta | STV","players":null},{"server_id":24,"name":"Uncletopia | Frankfurt | 8 | Community","name_short":"frk-8","host":"frk-1.de.uncletopia.com","port":27085,"enabled":true,"region":"eu","cc":"de","latitude":50.110924,"longitude":8.682127,"reserved":0,"last_update":"0001-01-01T00:00:00Z","name_a2s":"Uncletopia | Frankfurt | 8 | Community","protocol":17,"map":"workshop/pl_badwater_pro_v12.ugc2142942074","folder":"tf","game":"Team Fortress","app_id":440,"player_count":23,"max_players":24,"Bots":0,"server_type":"Dedicated","server_os":"Linux","password":true,"vac":true,"version":"7757534","steam_id":85568392924742828,"keywords":["nocrits","nodmgspread","payload","uncletopia"],"game_id":440,"stv_port":27086,"stv_name":"Uncletopia | Frankfurt | 8 | Community | STV","players":[{"user_id":411,"name":"Andy","steam_id":76561198046918834,"connected_time":1045000000000,"state":"active","ping":68},{"user_id":423,"name":"FUKAYU","steam_id":76561198380484033,"connected_time":284000000000,"state":"active","ping":55},{"user_id":415,"name":"Mr. Caesar","steam_id":76561198166329161,"connected_time":919000000000,"state":"active","ping":62},{"user_id":431,"name":"SynthBox3","steam_id":76561199094075745,"connected_time":36000000000,"state":"active","ping":82},{"user_id":401,"name":"EdSuedi","steam_id":76561199387956486,"connected_time":1728000000000,"state":"active","ping":49},{"user_id":382,"name":"Chebur","steam_id":76561198083726877,"connected_time":2425000000000,"state":"active","ping":74},{"user_id":424,"name":"Clitorina","steam_id":76561198077570815,"connected_time":244000000000,"state":"active","ping":54},{"user_id":425,"name":"nvs\"","steam_id":76561198188745915,"connected_time":230000000000,"state":"active","ping":83},{"user_id":426,"name":"kirilleban #saveTF2","steam_id":76561199003033519,"connected_time":226000000000,"state":"active","ping":75},{"user_id":427,"name":"Setter Ball Gaul","steam_id":76561198130427881,"connected_time":214000000000,"state":"active","ping":150},{"user_id":422,"name":"rummy","steam_id":76561197997573379,"connected_time":345000000000,"state":"active","ping":65},{"user_id":418,"name":"Leibeigener","steam_id":76561199275478305,"connected_time":828000000000,"state":"active","ping":44},{"user_id":416,"name":"aleks","steam_id":76561198141026763,"connected_time":892000000000,"state":"active","ping":45},{"user_id":428,"name":"LOBZIK","steam_id":76561198114830120,"connected_time":197000000000,"state":"active","ping":75},{"user_id":421,"name":"C0d3s","steam_id":76561198093907544,"connected_time":491000000000,"state":"active","ping":100},{"user_id":386,"name":"mr.MR","steam_id":76561198151980974,"connected_time":2218000000000,"state":"active","ping":68},{"user_id":429,"name":"Preksy","steam_id":76561199179193076,"connected_time":183000000000,"state":"active","ping":61},{"user_id":409,"name":"CJPHONEHOME","steam_id":76561198161369518,"connected_time":1116000000000,"state":"active","ping":85},{"user_id":407,"name":"Krabs","steam_id":76561198161679477,"connected_time":1323000000000,"state":"active","ping":55},{"user_id":408,"name":"Serton♝","steam_id":76561198011061126,"connected_time":1281000000000,"state":"active","ping":89},{"user_id":430,"name":"6onions","steam_id":76561198039313199,"connected_time":97000000000,"state":"active","ping":58},{"user_id":388,"name":"wicked","steam_id":76561198164376035,"connected_time":2149000000000,"state":"active","ping":64},{"user_id":390,"name":"frey`","steam_id":76561197971548290,"connected_time":2140000000000,"state":"active","ping":72}]},{"server_id":202,"name":"Uncletopia | Hong Kong | 1 | All Maps","name_short":"hgk-1","host":"hgk-1.hk.uncletopia.com","port":27015,"enabled":true,"region":"asia","cc":"hk","latitude":22.302711,"longitude":114.177216,"reserved":0,"last_update":"0001-01-01T00:00:00Z","name_a2s":"Uncletopia | Hong Kong | 1 | All Maps","protocol":17,"map":"koth_highpass","folder":"tf","game":"Team Fortress","app_id":440,"player_count":0,"max_players":24,"Bots":0,"server_type":"Dedicated","server_os":"Linux","password":true,"vac":true,"version":"7757534","steam_id":85568392924494504,"keywords":["cp","nocrits","nodmgspread","uncletopia"],"game_id":440,"stv_port":27016,"stv_name":"Uncletopia | Hong Kong | 1 | All Maps | STV","players":null},{"server_id":1,"name":"Uncletopia | Los Angeles | 1 | All Maps","name_short":"lax-1","host":"lax-1.us.uncletopia.com","port":27015,"enabled":true,"region":"us-west","cc":"us","latitude":33.94279,"longitude":-118.41004,"reserved":0,"last_update":"0001-01-01T00:00:00Z","name_a2s":"Uncletopia | Los Angeles | 1 | All Maps","protocol":17,"map":"pl_borneo","folder":"tf","game":"Team Fortress","app_id":440,"player_count":0,"max_players":24,"Bots":0,"server_type":"Dedicated","server_os":"Linux","password":true,"vac":true,"version":"7757534","steam_id":85568392924469991,"keywords":["nocrits","nodmgspread","payload","uncletopia"],"game_id":440,"stv_port":27016,"stv_name":"Uncletopia | Los Angeles | 1 | All Maps | STV","players":null},{"server_id":112,"name":"Uncletopia | Los Angeles | 2 | All Maps","name_short":"lax-2","host":"lax-1.us.uncletopia.com","port":27025,"enabled":true,"region":"us-west","cc":"us","latitude":33.94279,"longitude":-118.41004,"reserved":0,"last_update":"0001-01-01T00:00:00Z","name_a2s":"Uncletopia | Los Angeles | 2 | All Maps","protocol":17,"map":"koth_cascade","folder":"tf","game":"Team Fortress","app_id":440,"player_count":0,"max_players":24,"Bots":0,"server_type":"Dedicated","server_os":"Linux","password":true,"vac":true,"version":"7757534","steam_id":85568392924469992,"keywords":["cp","nocrits","nodmgspread","uncletopia"],"game_id":440,"stv_port":27026,"stv_name":"Uncletopia | Los Angeles | 2 | All Maps | STV","players":null},{"server_id":324,"name":"Uncletopia | Los Angeles | 3 | All Maps","name_short":"lax-3","host":"lax-1.us.uncletopia.com","port":27035,"enabled":true,"region":"us-west","cc":"us","latitude":33.94279,"longitude":-118.41004,"reserved":0,"last_update":"0001-01-01T00:00:00Z","name_a2s":"Uncletopia | Los Angeles | 3 | All Maps","protocol":17,"map":"pl_pier","folder":"tf","game":"Team Fortress","app_id":440,"player_count":0,"max_players":24,"Bots":0,"server_type":"Dedicated","server_os":"Linux","password":true,"vac":true,"version":"7757534","steam_id":85568392924510198,"keywords":["nocrits","nodmgspread","payload","uncletopia"],"game_id":440,"stv_port":27036,"stv_name":"Uncletopia | Los Angeles | 3 | All Maps | STV","players":null},{"server_id":25,"name":"Uncletopia | Los Angeles | 4 | Stopwatch Beta","name_short":"lax-4","host":"lax-1.us.uncletopia.com","port":27045,"enabled":true,"region":"us-west","cc":"us","latitude":33.94279,"longitude":-118.41004,"reserved":0,"last_update":"0001-01-01T00:00:00Z","name_a2s":"Uncletopia | Los Angeles | 4 | Stopwatch Beta","protocol":17,"map":"pl_frontier_final","folder":"tf","game":"Team Fortress","app_id":440,"player_count":0,"max_players":24,"Bots":0,"server_type":"Dedicated","server_os":"Linux","password":true,"vac":true,"version":"7757534","steam_id":85568392924510199,"keywords":["nocrits","nodmgspread","payload","uncletopia"],"game_id":440,"stv_port":27046,"stv_name":"Uncletopia | Los Angeles | 4 | Stopwatch Beta | STV","players":null},{"server_id":11,"name":"Uncletopia | London | 1 | All Maps","name_short":"lon-1","host":"lon-1.uk.uncletopia.com","port":27015,"enabled":true,"region":"eu","cc":"gb","latitude":51.509865,"longitude":-0.118092,"reserved":0,"last_update":"0001-01-01T00:00:00Z","name_a2s":"Uncletopia | London | 1 | All Maps","protocol":17,"map":"koth_viaduct","folder":"tf","game":"Team Fortress","app_id":440,"player_count":0,"max_players":24,"Bots":0,"server_type":"Dedicated","server_os":"Linux","password":true,"vac":true,"version":"7757534","steam_id":85568392924367362,"keywords":["cp","nocrits","nodmgspread","uncletopia"],"game_id":440,"stv_port":27016,"stv_name":"Uncletopia | London | 1 | All Maps | STV","players":null},{"server_id":114,"name":"Uncletopia | London | 2 | All Maps","name_short":"lon-2","host":"lon-1.uk.uncletopia.com","port":27025,"enabled":true,"region":"eu","cc":"gb","latitude":51.509865,"longitude":-0.118092,"reserved":0,"last_update":"0001-01-01T00:00:00Z","name_a2s":"Uncletopia | London | 2 | All Maps","protocol":17,"map":"cp_dustbowl","folder":"tf","game":"Team Fortress","app_id":440,"player_count":21,"max_players":24,"Bots":0,"server_type":"Dedicated","server_os":"Linux","password":true,"vac":true,"version":"7757534","steam_id":85568392924470941,"keywords":["cp","nocrits","nodmgspread","uncletopia"],"game_id":440,"stv_port":27026,"stv_name":"Uncletopia | London | 2 | All Maps | STV","players":[{"user_id":202,"name":"Baki ツ","steam_id":76561198193615529,"connected_time":2486000000000,"state":"active","ping":64},{"user_id":175,"name":"Jag är ett anka","steam_id":76561198059978438,"connected_time":3926000000000,"state":"active","ping":61},{"user_id":222,"name":"AsuX","steam_id":76561197990333289,"connected_time":1337000000000,"state":"active","ping":60},{"user_id":239,"name":"aura","steam_id":76561197991687793,"connected_time":115000000000,"state":"active","ping":75},{"user_id":226,"name":"Prinz Eugen","steam_id":76561198129154766,"connected_time":1267000000000,"state":"active","ping":53},{"user_id":240,"name":"BONK-TEC!","steam_id":76561198272667029,"connected_time":110000000000,"state":"active","ping":55},{"user_id":243,"name":"TV","steam_id":76561198177326926,"connected_time":30000000000,"state":"active","ping":161},{"user_id":237,"name":"Magica","steam_id":76561198965200359,"connected_time":302000000000,"state":"active","ping":70},{"user_id":244,"name":"Lovely dove bombing diarrhea","steam_id":76561198042593027,"connected_time":27000000000,"state":"spawning","ping":86},{"user_id":238,"name":"MelvinIsANiceBoy","steam_id":76561198178415634,"connected_time":159000000000,"state":"active","ping":58},{"user_id":206,"name":"dodo0472","steam_id":76561198206474699,"connected_time":2206000000000,"state":"active","ping":59},{"user_id":191,"name":"Jimbo","steam_id":76561198253507297,"connected_time":3386000000000,"state":"active","ping":143},{"user_id":155,"name":"Littleyoshifan","steam_id":76561198445491045,"connected_time":5328000000000,"state":"active","ping":70},{"user_id":234,"name":"System","steam_id":76561199442503973,"connected_time":764000000000,"state":"active","ping":58},{"user_id":211,"name":"Ach Wheesht","steam_id":76561197996993222,"connected_time":2077000000000,"state":"active","ping":46},{"user_id":223,"name":"kreeekz","steam_id":76561198014431602,"connected_time":1321000000000,"state":"active","ping":73},{"user_id":217,"name":"StabbyKnife","steam_id":76561198094010004,"connected_time":1496000000000,"state":"active","ping":94},{"user_id":231,"name":"Oldworldjazz","steam_id":76561198184632645,"connected_time":929000000000,"state":"active","ping":103},{"user_id":229,"name":"legend","steam_id":76561198174339677,"connected_time":1134000000000,"state":"active","ping":53},{"user_id":232,"name":"bum","steam_id":76561198060105180,"connected_time":795000000000,"state":"active","ping":63},{"user_id":135,"name":"Isaac Clarke S-laughter","steam_id":76561198133546537,"connected_time":6644000000000,"state":"active","ping":67}]},{"server_id":320,"name":"Uncletopia | London | 3 | All Maps","name_short":"lon-3","host":"lon-1.uk.uncletopia.com","port":27035,"enabled":true,"region":"eu","cc":"gb","latitude":51.509865,"longitude":-0.118092,"reserved":0,"last_update":"0001-01-01T00:00:00Z","name_a2s":"Uncletopia | London | 3 | All Maps","protocol":17,"map":"pl_upward","folder":"tf","game":"Team Fortress","app_id":440,"player_count":24,"max_players":24,"Bots":0,"server_type":"Dedicated","server_os":"Linux","password":true,"vac":true,"version":"7757534","steam_id":85568392924510192,"keywords":["nocrits","nodmgspread","payload","uncletopia"],"game_id":440,"stv_port":27036,"stv_name":"Uncletopia | London | 3 | All Maps | STV","players":[{"user_id":321,"name":"Wattseyy","steam_id":76561198248567360,"connected_time":461000000000,"state":"active","ping":45},{"user_id":299,"name":"just a cat","steam_id":76561198328023740,"connected_time":968000000000,"state":"active","ping":48},{"user_id":318,"name":"JordanMJenkins","steam_id":76561198045493233,"connected_time":636000000000,"state":"active","ping":32},{"user_id":295,"name":"Economic crisis","steam_id":76561198063562843,"connected_time":1220000000000,"state":"active","ping":61},{"user_id":300,"name":"How hungry…..","steam_id":76561198280359845,"connected_time":914000000000,"state":"active","ping":97},{"user_id":297,"name":"$t@lker_Tim","steam_id":76561198963658042,"connected_time":1125000000000,"state":"active","ping":129},{"user_id":301,"name":"NoPfizer","steam_id":76561198307914381,"connected_time":896000000000,"state":"active","ping":58},{"user_id":302,"name":"Zoe ♠","steam_id":76561198105207050,"connected_time":894000000000,"state":"active","ping":54},{"user_id":251,"name":"alex.difoux","steam_id":76561198370369778,"connected_time":3311000000000,"state":"active","ping":69},{"user_id":303,"name":"kotamine","steam_id":76561198068907991,"connected_time":879000000000,"state":"active","ping":74},{"user_id":286,"name":"ChaserFogFi","steam_id":76561199119836596,"connected_time":1591000000000,"state":"active","ping":55},{"user_id":306,"name":"lxa","steam_id":76561198991661832,"connected_time":818000000000,"state":"active","ping":98},{"user_id":322,"name":"Vaselineum","steam_id":76561199404585461,"connected_time":385000000000,"state":"active","ping":91},{"user_id":317,"name":"MIAM LES PÂTES AU JAMBON ®","steam_id":76561198204821037,"connected_time":670000000000,"state":"active","ping":61},{"user_id":320,"name":"Soya Suki","steam_id":76561197998106435,"connected_time":595000000000,"state":"active","ping":49},{"user_id":324,"name":"Archie","steam_id":76561199073056124,"connected_time":168000000000,"state":"active","ping":62},{"user_id":315,"name":"Kerfuś","steam_id":76561198107136370,"connected_time":706000000000,"state":"active","ping":92},{"user_id":311,"name":"beurgeur","steam_id":76561198872426314,"connected_time":788000000000,"state":"active","ping":45},{"user_id":277,"name":"Penis Contortionist","steam_id":76561198073663784,"connected_time":2261000000000,"state":"active","ping":35},{"user_id":289,"name":"Tuxedo Terrorist","steam_id":76561198153510094,"connected_time":1528000000000,"state":"active","ping":126},{"user_id":312,"name":"Bumblebee","steam_id":76561198033551105,"connected_time":774000000000,"state":"active","ping":73},{"user_id":313,"name":"jankomit","steam_id":76561198043024857,"connected_time":753000000000,"state":"active","ping":88},{"user_id":316,"name":"Sergeant Soldier","steam_id":76561198054375832,"connected_time":696000000000,"state":"active","ping":69},{"user_id":262,"name":"snileaf","steam_id":76561198817098263,"connected_time":3143000000000,"state":"active","ping":148}]},{"server_id":321,"name":"Uncletopia | London | 4 | All Maps","name_short":"lon-4","host":"lon-1.uk.uncletopia.com","port":27045,"enabled":true,"region":"eu","cc":"gb","latitude":51.509865,"longitude":-0.118092,"reserved":0,"last_update":"0001-01-01T00:00:00Z","name_a2s":"Uncletopia | London | 4 | All Maps","protocol":17,"map":"pl_thundermountain","folder":"tf","game":"Team Fortress","app_id":440,"player_count":24,"max_players":24,"Bots":0,"server_type":"Dedicated","server_os":"Linux","password":true,"vac":true,"version":"7757534","steam_id":85568392924510193,"keywords":["nocrits","nodmgspread","payload","uncletopia"],"game_id":440,"stv_port":27046,"stv_name":"Uncletopia | London | 4 | All Maps | STV","players":[{"user_id":314,"name":"Pico","steam_id":76561198063552545,"connected_time":5459000000000,"state":"active","ping":105},{"user_id":352,"name":"Doctor Mobius","steam_id":76561197971281806,"connected_time":2114000000000,"state":"active","ping":72},{"user_id":367,"name":"Stroz","steam_id":76561198146444213,"connected_time":1060000000000,"state":"active","ping":81},{"user_id":298,"name":"puncher","steam_id":76561198531978435,"connected_time":6466000000000,"state":"active","ping":69},{"user_id":365,"name":"game","steam_id":76561199111169960,"connected_time":1441000000000,"state":"active","ping":63},{"user_id":329,"name":"Mefuu","steam_id":76561198287729818,"connected_time":3952000000000,"state":"active","ping":105},{"user_id":369,"name":"Maurice™","steam_id":76561198058727934,"connected_time":913000000000,"state":"active","ping":51},{"user_id":377,"name":"Rubi","steam_id":76561198139410003,"connected_time":77000000000,"state":"active","ping":86},{"user_id":357,"name":"FANTANO MELON HEAD","steam_id":76561198146194820,"connected_time":2014000000000,"state":"active","ping":52},{"user_id":358,"name":":)","steam_id":76561198039964082,"connected_time":1997000000000,"state":"active","ping":61},{"user_id":376,"name":"holykyckling","steam_id":76561198040661615,"connected_time":241000000000,"state":"active","ping":83},{"user_id":310,"name":"Sebiromanes (Spookmáster)","steam_id":76561198112800408,"connected_time":5543000000000,"state":"active","ping":169},{"user_id":370,"name":"glass of drink","steam_id":76561198881074696,"connected_time":505000000000,"state":"active","ping":81},{"user_id":359,"name":"0xDEADBEEF","steam_id":76561199075416111,"connected_time":1994000000000,"state":"active","ping":61},{"user_id":274,"name":"Bat in a thousand","steam_id":76561198320506848,"connected_time":8377000000000,"state":"active","ping":36},{"user_id":333,"name":"Martt","steam_id":76561198067363871,"connected_time":3796000000000,"state":"active","ping":56},{"user_id":335,"name":"NitPig","steam_id":76561198212991935,"connected_time":3771000000000,"state":"active","ping":102},{"user_id":360,"name":"penisfinger","steam_id":76561198103904286,"connected_time":1979000000000,"state":"active","ping":76},{"user_id":294,"name":"I-I","steam_id":76561198267969436,"connected_time":7085000000000,"state":"active","ping":71},{"user_id":362,"name":"TehDuck","steam_id":76561198172129394,"connected_time":1933000000000,"state":"active","ping":157},{"user_id":373,"name":"Kendo-6","steam_id":76561198318748304,"connected_time":397000000000,"state":"active","ping":128},{"user_id":337,"name":"doopsuiker","steam_id":76561198025916703,"connected_time":3739000000000,"state":"active","ping":68},{"user_id":368,"name":"nightmare","steam_id":76561198386928726,"connected_time":950000000000,"state":"active","ping":106},{"user_id":339,"name":"Papaja2137","steam_id":76561198072093111,"connected_time":3645000000000,"state":"active","ping":165}]},{"server_id":21,"name":"Uncletopia | London | 5 | All Maps","name_short":"lon-5","host":"lon-1.uk.uncletopia.com","port":27055,"enabled":true,"region":"eu","cc":"gb","latitude":51.509865,"longitude":-0.118092,"reserved":0,"last_update":"0001-01-01T00:00:00Z","name_a2s":"Uncletopia | London | 5 | All Maps","protocol":17,"map":"pl_swiftwater_final1","folder":"tf","game":"Team Fortress","app_id":440,"player_count":24,"max_players":24,"Bots":0,"server_type":"Dedicated","server_os":"Linux","password":true,"vac":true,"version":"7757534","steam_id":85568392924742829,"keywords":["nocrits","nodmgspread","payload","uncletopia"],"game_id":440,"stv_port":27056,"stv_name":"Uncletopia | London | 5 | All Maps | STV","players":[{"user_id":189,"name":"driving","steam_id":76561198062107879,"connected_time":4649000000000,"state":"active","ping":91},{"user_id":263,"name":"Paul Bäumer","steam_id":76561198308302932,"connected_time":849000000000,"state":"active","ping":95},{"user_id":250,"name":"gta_sa","steam_id":76561199433578516,"connected_time":1215000000000,"state":"active","ping":89},{"user_id":268,"name":"Larso","steam_id":76561198996464912,"connected_time":138000000000,"state":"active","ping":77},{"user_id":211,"name":"skiety","steam_id":76561198126524735,"connected_time":3674000000000,"state":"active","ping":75},{"user_id":241,"name":"✪ Danny","steam_id":76561198104483241,"connected_time":2373000000000,"state":"active","ping":51},{"user_id":225,"name":"twitch.tv/red_naxela","steam_id":76561197998803950,"connected_time":3149000000000,"state":"active","ping":64},{"user_id":260,"name":"Greyhunter","steam_id":76561197960884202,"connected_time":997000000000,"state":"active","ping":42},{"user_id":265,"name":"Not Friends","steam_id":76561198043775605,"connected_time":718000000000,"state":"active","ping":93},{"user_id":238,"name":"Garden Freeman","steam_id":76561199073314677,"connected_time":2515000000000,"state":"active","ping":71},{"user_id":247,"name":"mei","steam_id":76561198028078806,"connected_time":1561000000000,"state":"active","ping":52},{"user_id":259,"name":"VZS","steam_id":76561198133050665,"connected_time":1098000000000,"state":"active","ping":73},{"user_id":245,"name":"yasser","steam_id":76561198103973320,"connected_time":2130000000000,"state":"active","ping":113},{"user_id":266,"name":"Záporák","steam_id":76561198207175503,"connected_time":479000000000,"state":"active","ping":74},{"user_id":221,"name":"[O\u0026O]YaboiDucki","steam_id":76561198195976589,"connected_time":3355000000000,"state":"active","ping":75},{"user_id":267,"name":"drinking","steam_id":76561198126398022,"connected_time":179000000000,"state":"active","ping":83},{"user_id":269,"name":"plaier123457","steam_id":76561198993969194,"connected_time":127000000000,"state":"active","ping":85},{"user_id":240,"name":"goktwoxd","steam_id":76561198065114415,"connected_time":2475000000000,"state":"active","ping":89},{"user_id":246,"name":"donk","steam_id":76561198162676648,"connected_time":2069000000000,"state":"active","ping":75},{"user_id":234,"name":"tactical783","steam_id":76561199051688560,"connected_time":2567000000000,"state":"active","ping":75},{"user_id":264,"name":"Cypher","steam_id":76561197996967254,"connected_time":810000000000,"state":"active","ping":70},{"user_id":256,"name":"chug on my balls walve","steam_id":76561198282952165,"connected_time":1141000000000,"state":"active","ping":86},{"user_id":243,"name":"Neytan","steam_id":76561198027024747,"connected_time":2250000000000,"state":"active","ping":126},{"user_id":258,"name":"Blobbaz","steam_id":76561198031076278,"connected_time":1126000000000,"state":"active","ping":56}]},{"server_id":22,"name":"Uncletopia | London | 6 | All Maps","name_short":"lon-6","host":"lon-1.uk.uncletopia.com","port":27065,"enabled":true,"region":"eu","cc":"gb","latitude":51.509865,"longitude":-0.118092,"reserved":0,"last_update":"0001-01-01T00:00:00Z","name_a2s":"Uncletopia | London | 6 | All Maps","protocol":17,"map":"koth_cascade","folder":"tf","game":"Team Fortress","app_id":440,"player_count":0,"max_players":24,"Bots":0,"server_type":"Dedicated","server_os":"Linux","password":true,"vac":true,"version":"7757534","steam_id":85568392924742830,"keywords":["cp","nocrits","nodmgspread","uncletopia"],"game_id":440,"stv_port":27066,"stv_name":"Uncletopia | London | 6 | All Maps | STV","players":null},{"server_id":40,"name":"Uncletopia | London | 7 | No Payload","name_short":"lon-7","host":"lon-1.uk.uncletopia.com","port":27075,"enabled":true,"region":"eu","cc":"gb","latitude":51.509865,"longitude":-0.118092,"reserved":0,"last_update":"0001-01-01T00:00:00Z","name_a2s":"Uncletopia | London | 7 | No Payload","protocol":17,"map":"koth_highpass","folder":"tf","game":"Team Fortress","app_id":440,"player_count":2,"max_players":24,"Bots":0,"server_type":"Dedicated","server_os":"Linux","password":true,"vac":true,"version":"7757534","steam_id":85568392924964314,"keywords":["cp","nocrits","nodmgspread","uncletopia"],"game_id":440,"stv_port":27076,"stv_name":"Uncletopia | London | 7 | No Payload | STV","players":[{"user_id":7,"name":"ran is running","steam_id":76561199443185667,"connected_time":65000000000,"state":"active","ping":128},{"user_id":8,"name":"justin_ (f2p) (real)","steam_id":76561198839843428,"connected_time":61000000000,"state":"active","ping":115}]},{"server_id":41,"name":"Uncletopia | London | 8 | Community","name_short":"lon-8","host":"lon-1.uk.uncletopia.com","port":27085,"enabled":true,"region":"eu","cc":"gb","latitude":51.509865,"longitude":-0.118092,"reserved":0,"last_update":"0001-01-01T00:00:00Z","name_a2s":"Uncletopia | London | 8 | Community","protocol":17,"map":"workshop/cp_bruhstbowl_b5.ugc2878604990","folder":"tf","game":"Team Fortress","app_id":440,"player_count":0,"max_players":24,"Bots":0,"server_type":"Dedicated","server_os":"Linux","password":true,"vac":true,"version":"7757534","steam_id":85568392924964315,"keywords":["cp","nocrits","nodmgspread","uncletopia"],"game_id":440,"stv_port":27086,"stv_name":"Uncletopia | London | 8 | Community | STV","players":null},{"server_id":300,"name":"Uncletopia | Montréal | 1 | All Maps","name_short":"mtl-1","host":"mtl-1.ca.uncletopia.com","port":27015,"enabled":true,"region":"us-east","cc":"ca","latitude":45.50889,"longitude":-73.56167,"reserved":0,"last_update":"0001-01-01T00:00:00Z","name_a2s":"Uncletopia | Montréal | 1 | All Maps","protocol":17,"map":"pl_swiftwater_final1","folder":"tf","game":"Team Fortress","app_id":440,"player_count":0,"max_players":24,"Bots":0,"server_type":"Dedicated","server_os":"Linux","password":true,"vac":true,"version":"7757534","steam_id":85568392924500087,"keywords":["nocrits","nodmgspread","payload","uncletopia"],"game_id":440,"stv_port":27016,"stv_name":"Uncletopia | Montréal | 1 | All Maps | STV","players":null},{"server_id":301,"name":"Uncletopia | Montréal | 2 | All Maps","name_short":"mtl-2","host":"mtl-1.ca.uncletopia.com","port":27025,"enabled":true,"region":"us-east","cc":"ca","latitude":45.50889,"longitude":-73.56167,"reserved":0,"last_update":"0001-01-01T00:00:00Z","name_a2s":"Uncletopia | Montréal | 2 | All Maps","protocol":17,"map":"pl_snowycoast","folder":"tf","game":"Team Fortress","app_id":440,"player_count":0,"max_players":24,"Bots":0,"server_type":"Dedicated","server_os":"Linux","password":true,"vac":true,"version":"7757534","steam_id":85568392924500088,"keywords":["nocrits","nodmgspread","payload","uncletopia"],"game_id":440,"stv_port":27026,"stv_name":"Uncletopia | Montréal | 2 | All Maps | STV","players":null},{"server_id":302,"name":"Uncletopia | Montréal | 3 | All Maps","name_short":"mtl-3","host":"mtl-1.ca.uncletopia.com","port":27035,"enabled":true,"region":"us-east","cc":"ca","latitude":45.50889,"longitude":-73.56167,"reserved":0,"last_update":"0001-01-01T00:00:00Z","name_a2s":"Uncletopia | Montréal | 3 | All Maps","protocol":17,"map":"cp_dustbowl","folder":"tf","game":"Team Fortress","app_id":440,"player_count":0,"max_players":24,"Bots":0,"server_type":"Dedicated","server_os":"Linux","password":true,"vac":true,"version":"7757534","steam_id":85568392924500089,"keywords":["cp","nocrits","nodmgspread","uncletopia"],"game_id":440,"stv_port":27036,"stv_name":"Uncletopia | Montréal | 3 | All Maps | STV","players":null},{"server_id":303,"name":"Uncletopia | Montréal | 4 | No Payload","name_short":"mtl-4","host":"mtl-1.ca.uncletopia.com","port":27045,"enabled":true,"region":"us-east","cc":"ca","latitude":45.50889,"longitude":-73.56167,"reserved":0,"last_update":"0001-01-01T00:00:00Z","name_a2s":"Uncletopia | Montréal | 4 | No Payload","protocol":17,"map":"pl_borneo","folder":"tf","game":"Team Fortress","app_id":440,"player_count":0,"max_players":24,"Bots":0,"server_type":"Dedicated","server_os":"Linux","password":true,"vac":true,"version":"7757534","steam_id":85568392924500090,"keywords":["nocrits","nodmgspread","payload","uncletopia"],"game_id":440,"stv_port":27046,"stv_name":"Uncletopia | Montréal | 4 | No Payload | STV","players":null},{"server_id":13,"name":"Uncletopia | New York City | 1 | All Maps","name_short":"nyc-1","host":"nyc-1.us.uncletopia.com","port":27015,"enabled":true,"region":"us-east","cc":"us","latitude":40.73061,"longitude":-73.93524,"reserved":0,"last_update":"0001-01-01T00:00:00Z","name_a2s":"Uncletopia | New York City | 1 | All Maps","protocol":17,"map":"cp_mountainlab","folder":"tf","game":"Team Fortress","app_id":440,"player_count":0,"max_players":24,"Bots":0,"server_type":"Dedicated","server_os":"Linux","password":true,"vac":true,"version":"7757534","steam_id":85568392924469993,"keywords":["cp","nocrits","nodmgspread","uncletopia"],"game_id":440,"stv_port":27016,"stv_name":"Uncletopia | New York City | 1 | All Maps | STV","players":null},{"server_id":14,"name":"Uncletopia | New York City | 2 | All Maps","name_short":"nyc-2","host":"nyc-1.us.uncletopia.com","port":27025,"enabled":true,"region":"us-east","cc":"us","latitude":40.73061,"longitude":-73.93524,"reserved":0,"last_update":"0001-01-01T00:00:00Z","name_a2s":"Uncletopia | New York City | 2 | All Maps","protocol":17,"map":"koth_viaduct","folder":"tf","game":"Team Fortress","app_id":440,"player_count":24,"max_players":24,"Bots":0,"server_type":"Dedicated","server_os":"Linux","password":true,"vac":true,"version":"7757534","steam_id":85568392924469994,"keywords":["cp","nocrits","nodmgspread","uncletopia"],"game_id":440,"stv_port":27026,"stv_name":"Uncletopia | New York City | 2 | All Maps | STV","players":[{"user_id":220,"name":"Wesg","steam_id":76561198220436820,"connected_time":2451000000000,"state":"active","ping":86},{"user_id":201,"name":"Resident Thrussy Lender","steam_id":76561198071790583,"connected_time":3876000000000,"state":"active","ping":79},{"user_id":213,"name":"Mogwr","steam_id":76561198124942972,"connected_time":2864000000000,"state":"active","ping":61},{"user_id":230,"name":"uzr","steam_id":76561198799343084,"connected_time":1166000000000,"state":"active","ping":119},{"user_id":244,"name":"SaucyMcFrosty","steam_id":76561198036218608,"connected_time":270000000000,"state":"active","ping":60},{"user_id":222,"name":"Normalux","steam_id":76561198293891426,"connected_time":2394000000000,"state":"active","ping":85},{"user_id":238,"name":"Warkeidan","steam_id":76561198118805546,"connected_time":722000000000,"state":"active","ping":78},{"user_id":226,"name":"Tlaloc","steam_id":76561198375215983,"connected_time":1799000000000,"state":"active","ping":114},{"user_id":236,"name":"Suction","steam_id":76561198236786158,"connected_time":873000000000,"state":"active","ping":67},{"user_id":243,"name":"guyinatophat51","steam_id":76561198180230694,"connected_time":395000000000,"state":"active","ping":53},{"user_id":239,"name":"Therealjuan23","steam_id":76561198400171971,"connected_time":651000000000,"state":"active","ping":84},{"user_id":223,"name":"ohms","steam_id":76561198868600487,"connected_time":2386000000000,"state":"active","ping":167},{"user_id":224,"name":"F0restFerret","steam_id":76561199112458876,"connected_time":2293000000000,"state":"active","ping":49},{"user_id":205,"name":"mashallah","steam_id":76561198075111427,"connected_time":3813000000000,"state":"active","ping":72},{"user_id":246,"name":"hydrationing","steam_id":76561199429069267,"connected_time":50000000000,"state":"active","ping":64},{"user_id":240,"name":"The Trash Man","steam_id":76561198071375772,"connected_time":617000000000,"state":"active","ping":70},{"user_id":225,"name":"scarecrow (evil)","steam_id":76561198082979347,"connected_time":2291000000000,"state":"active","ping":56},{"user_id":245,"name":"Teegrumpee","steam_id":76561198352810979,"connected_time":204000000000,"state":"active","ping":103},{"user_id":210,"name":"reis","steam_id":76561199232952016,"connected_time":3444000000000,"state":"active","ping":177},{"user_id":237,"name":"Mr. Call You Back","steam_id":76561198025172811,"connected_time":764000000000,"state":"active","ping":42},{"user_id":242,"name":"sonroku","steam_id":76561198144354481,"connected_time":595000000000,"state":"active","ping":66},{"user_id":106,"name":"CRAZY engineer","steam_id":76561198887937902,"connected_time":9727000000000,"state":"active","ping":48},{"user_id":93,"name":"Super Nintendo Chalmers","steam_id":76561197965489606,"connected_time":10505000000000,"state":"active","ping":97},{"user_id":233,"name":"Mr. Hankey","steam_id":76561198872852200,"connected_time":1089000000000,"state":"active","ping":137}]},{"server_id":15,"name":"Uncletopia | New York City | 3 | Stopwatch Beta","name_short":"nyc-3","host":"nyc-1.us.uncletopia.com","port":27035,"enabled":true,"region":"us-east","cc":"us","latitude":40.73061,"longitude":-73.93524,"reserved":0,"last_update":"0001-01-01T00:00:00Z","name_a2s":"Uncletopia | New York City | 3 | Stopwatch Beta","protocol":17,"map":"cp_mountainlab","folder":"tf","game":"Team Fortress","app_id":440,"player_count":0,"max_players":24,"Bots":0,"server_type":"Dedicated","server_os":"Linux","password":true,"vac":true,"version":"7757534","steam_id":85568392924742820,"keywords":["cp","nocrits","nodmgspread","uncletopia"],"game_id":440,"stv_port":27036,"stv_name":"Uncletopia | New York City | 3 | Stopwatch Beta | STV","players":null},{"server_id":16,"name":"Uncletopia | New York City | 4 | Community","name_short":"nyc-4","host":"nyc-1.us.uncletopia.com","port":27045,"enabled":true,"region":"us-east","cc":"us","latitude":40.73061,"longitude":-73.93524,"reserved":0,"last_update":"0001-01-01T00:00:00Z","name_a2s":"Uncletopia | New York City | 4 | Community","protocol":17,"map":"workshop/koth_product_final.ugc454272353","folder":"tf","game":"Team Fortress","app_id":440,"player_count":3,"max_players":24,"Bots":0,"server_type":"Dedicated","server_os":"Linux","password":true,"vac":true,"version":"7757534","steam_id":85568392924742821,"keywords":["cp","nocrits","nodmgspread","uncletopia"],"game_id":440,"stv_port":27046,"stv_name":"Uncletopia | New York City | 4 | Community | STV","players":[{"user_id":7,"name":"Nico","steam_id":76561198125701869,"connected_time":1484000000000,"state":"active","ping":55},{"user_id":8,"name":"Eleen","steam_id":76561198063800293,"connected_time":1426000000000,"state":"active","ping":105},{"user_id":9,"name":"1000 Ping","steam_id":76561198098330939,"connected_time":56000000000,"state":"spawning","ping":329}]},{"server_id":142,"name":"Uncletopia | São Paulo | 1 | All Maps","name_short":"sao-1","host":"sao-1.br.uncletopia.com","port":27015,"enabled":true,"region":"sa","cc":"br","latitude":-23.533773,"longitude":-46.62529,"reserved":0,"last_update":"0001-01-01T00:00:00Z","name_a2s":"Uncletopia | São Paulo | 1 | All Maps","protocol":17,"map":"koth_lakeside_final","folder":"tf","game":"Team Fortress","app_id":440,"player_count":0,"max_players":24,"Bots":0,"server_type":"Dedicated","server_os":"Linux","password":true,"vac":true,"version":"7757534","steam_id":85568392924469996,"keywords":["cp","nocrits","nodmgspread","uncletopia"],"game_id":440,"stv_port":27016,"stv_name":"Uncletopia | São Paulo | 1 | All Maps | STV","players":null},{"server_id":143,"name":"Uncletopia | São Paulo | 2 | All Maps","name_short":"sao-2","host":"sao-2.br.uncletopia.com","port":27015,"enabled":true,"region":"sa","cc":"br","latitude":-23.533773,"longitude":-46.62529,"reserved":0,"last_update":"0001-01-01T00:00:00Z","name_a2s":"Uncletopia | São Paulo | 2 | All Maps","protocol":17,"map":"pl_borneo","folder":"tf","game":"Team Fortress","app_id":440,"player_count":0,"max_players":24,"Bots":0,"server_type":"Dedicated","server_os":"Linux","password":true,"vac":true,"version":"7757534","steam_id":85568392924485349,"keywords":["nocrits","nodmgspread","payload","uncletopia"],"game_id":440,"stv_port":27016,"stv_name":"Uncletopia | São Paulo | 2 | All Maps | STV","players":null},{"server_id":7,"name":"Uncletopia | Seattle | 1 | All Maps","name_short":"sea-1","host":"sea-1.us.uncletopia.com","port":27015,"enabled":true,"region":"us-west","cc":"us","latitude":47.608013,"longitude":-122.33517,"reserved":0,"last_update":"0001-01-01T00:00:00Z","name_a2s":"Uncletopia | Seattle | 1 | All Maps","protocol":17,"map":"pl_pier","folder":"tf","game":"Team Fortress","app_id":440,"player_count":24,"max_players":24,"Bots":0,"server_type":"Dedicated","server_os":"Linux","password":true,"vac":true,"version":"7757534","steam_id":85568392924469997,"keywords":["nocrits","nodmgspread","payload","uncletopia"],"game_id":440,"stv_port":27016,"stv_name":"Uncletopia | Seattle | 1 | All Maps | STV","players":[{"user_id":101,"name":"MSIBoys","steam_id":76561198213692935,"connected_time":1248000000000,"state":"active","ping":84},{"user_id":68,"name":"Tommy Pickles (Very Cool)","steam_id":76561198391261463,"connected_time":4827000000000,"state":"active","ping":94},{"user_id":100,"name":"SnaggzHaki","steam_id":76561198065282605,"connected_time":1265000000000,"state":"active","ping":123},{"user_id":109,"name":"i am weed","steam_id":76561198419896433,"connected_time":544000000000,"state":"active","ping":46},{"user_id":113,"name":"Market.","steam_id":76561198196219378,"connected_time":304000000000,"state":"active","ping":69},{"user_id":83,"name":"Daz","steam_id":76561198041431938,"connected_time":3522000000000,"state":"active","ping":122},{"user_id":15,"name":"[TrC] Dackstrus","steam_id":76561197973518509,"connected_time":8766000000000,"state":"active","ping":60},{"user_id":98,"name":"Len","steam_id":76561199141913673,"connected_time":1810000000000,"state":"active","ping":70},{"user_id":114,"name":"Marc G","steam_id":76561198062650363,"connected_time":214000000000,"state":"active","ping":104},{"user_id":18,"name":"Malmart_Employee","steam_id":76561198320388704,"connected_time":8633000000000,"state":"active","ping":63},{"user_id":115,"name":"Milotic","steam_id":76561198047995713,"connected_time":70000000000,"state":"active","ping":91},{"user_id":80,"name":"Lily Thorn","steam_id":76561198305488625,"connected_time":4106000000000,"state":"active","ping":69},{"user_id":103,"name":"Tyth","steam_id":76561198062543298,"connected_time":1238000000000,"state":"active","ping":41},{"user_id":111,"name":"The Pope (Real)","steam_id":76561198045847782,"connected_time":360000000000,"state":"active","ping":93},{"user_id":91,"name":"Kuma","steam_id":76561199100813140,"connected_time":2397000000000,"state":"active","ping":85},{"user_id":63,"name":"gamer_hater","steam_id":76561198973306314,"connected_time":5478000000000,"state":"active","ping":74},{"user_id":104,"name":"Eris","steam_id":76561199471434875,"connected_time":1165000000000,"state":"active","ping":43},{"user_id":97,"name":"A Black Square","steam_id":76561198043570320,"connected_time":2046000000000,"state":"active","ping":122},{"user_id":38,"name":"crumblejon","steam_id":76561198111273302,"connected_time":7640000000000,"state":"active","ping":60},{"user_id":89,"name":"o o o o o o o o o","steam_id":76561197993757506,"connected_time":2690000000000,"state":"active","ping":70},{"user_id":112,"name":"High Cotton","steam_id":76561197998894854,"connected_time":356000000000,"state":"active","ping":140},{"user_id":105,"name":"ROFLMAOLOLXD!","steam_id":76561199472748548,"connected_time":1163000000000,"state":"active","ping":79},{"user_id":92,"name":"ShredMaan","steam_id":76561198429982138,"connected_time":2243000000000,"state":"active","ping":85},{"user_id":102,"name":"〣dust〣 -she/her-","steam_id":76561198045218909,"connected_time":1244000000000,"state":"active","ping":43}]},{"server_id":119,"name":"Uncletopia | Seattle | 2 | All Maps","name_short":"sea-2","host":"sea-1.us.uncletopia.com","port":27025,"enabled":true,"region":"us-west","cc":"us","latitude":47.608013,"longitude":-122.33517,"reserved":0,"last_update":"0001-01-01T00:00:00Z","name_a2s":"Uncletopia | Seattle | 2 | All Maps","protocol":17,"map":"koth_cascade","folder":"tf","game":"Team Fortress","app_id":440,"player_count":0,"max_players":24,"Bots":0,"server_type":"Dedicated","server_os":"Linux","password":true,"vac":true,"version":"7757534","steam_id":85568392924469998,"keywords":["cp","nocrits","nodmgspread","uncletopia"],"game_id":440,"stv_port":27026,"stv_name":"Uncletopia | Seattle | 2 | All Maps | STV","players":null},{"server_id":406,"name":"Uncletopia | Seattle | 3 | Stopwatch Beta","name_short":"sea-3","host":"sea-1.us.uncletopia.com","port":27035,"enabled":true,"region":"us-west","cc":"us","latitude":47.608013,"longitude":-122.33517,"reserved":0,"last_update":"0001-01-01T00:00:00Z","name_a2s":"Uncletopia | Seattle | 3 | Stopwatch Beta","protocol":17,"map":"pl_barnblitz","folder":"tf","game":"Team Fortress","app_id":440,"player_count":0,"max_players":24,"Bots":0,"server_type":"Dedicated","server_os":"Linux","password":true,"vac":true,"version":"7757534","steam_id":85568392924515217,"keywords":["nocrits","nodmgspread","payload","uncletopia"],"game_id":440,"stv_port":27036,"stv_name":"Uncletopia | Seattle | 3 | Stopwatch Beta | STV","players":null},{"server_id":17,"name":"Uncletopia | San Francisco | 1 | All Maps","name_short":"sfo-1","host":"sfo-1.us.uncletopia.com","port":27015,"enabled":true,"region":"us-west","cc":"us","latitude":37.77397,"longitude":-122.4313,"reserved":0,"last_update":"0001-01-01T00:00:00Z","name_a2s":"Uncletopia | San Francisco | 1 | All Maps","protocol":17,"map":"cp_process_final","folder":"tf","game":"Team Fortress","app_id":440,"player_count":0,"max_players":24,"Bots":0,"server_type":"Dedicated","server_os":"Linux","password":true,"vac":true,"version":"7757534","steam_id":85568392924469999,"keywords":["cp","nocrits","nodmgspread","uncletopia"],"game_id":440,"stv_port":27016,"stv_name":"Uncletopia | San Francisco | 1 | All Maps | STV","players":null},{"server_id":18,"name":"Uncletopia | San Francisco | 2 | All Maps","name_short":"sfo-2","host":"sfo-1.us.uncletopia.com","port":27025,"enabled":true,"region":"us-west","cc":"us","latitude":37.77397,"longitude":-122.4313,"reserved":0,"last_update":"0001-01-01T00:00:00Z","name_a2s":"Uncletopia | San Francisco | 2 | All Maps","protocol":17,"map":"koth_highpass","folder":"tf","game":"Team Fortress","app_id":440,"player_count":0,"max_players":24,"Bots":0,"server_type":"Dedicated","server_os":"Linux","password":true,"vac":true,"version":"7757534","steam_id":85568392924470000,"keywords":["cp","nocrits","nodmgspread","uncletopia"],"game_id":440,"stv_port":27026,"stv_name":"Uncletopia | San Francisco | 2 | All Maps | STV","players":null},{"server_id":19,"name":"Uncletopia | San Francisco | 3 | Stopwatch Beta","name_short":"sfo-3","host":"sfo-1.us.uncletopia.com","port":27035,"enabled":true,"region":"us-west","cc":"us","latitude":37.77397,"longitude":-122.4313,"reserved":0,"last_update":"0001-01-01T00:00:00Z","name_a2s":"Uncletopia | San Francisco | 3 | Stopwatch Beta","protocol":17,"map":"pl_borneo","folder":"tf","game":"Team Fortress","app_id":440,"player_count":0,"max_players":24,"Bots":0,"server_type":"Dedicated","server_os":"Linux","password":true,"vac":true,"version":"7757534","steam_id":85568392924742824,"keywords":["nocrits","nodmgspread","payload","uncletopia"],"game_id":440,"stv_port":27036,"stv_name":"Uncletopia | San Francisco | 3 | Stopwatch Beta | STV","players":null},{"server_id":20,"name":"Uncletopia | San Francisco | 4 | Community","name_short":"sfo-4","host":"sfo-1.us.uncletopia.com","port":27045,"enabled":true,"region":"us-west","cc":"us","latitude":37.77397,"longitude":-122.4313,"reserved":0,"last_update":"0001-01-01T00:00:00Z","name_a2s":"Uncletopia | San Francisco | 4 | Community","protocol":17,"map":"koth_highpass","folder":"tf","game":"Team Fortress","app_id":440,"player_count":0,"max_players":24,"Bots":0,"server_type":"Dedicated","server_os":"Linux","password":true,"vac":true,"version":"7757534","steam_id":85568392924742826,"keywords":["cp","nocrits","nodmgspread","uncletopia"],"game_id":440,"stv_port":27046,"stv_name":"Uncletopia | San Francisco | 4 | Community | STV","players":null},{"server_id":141,"name":"Uncletopia | Sydney | 1 | All Maps","name_short":"syd-1","host":"syd-1.au.uncletopia.com","port":27015,"enabled":true,"region":"au","cc":"au","latitude":-33.865143,"longitude":151.2099,"reserved":0,"last_update":"0001-01-01T00:00:00Z","name_a2s":"Uncletopia | Sydney | 1 | All Maps","protocol":17,"map":"koth_viaduct","folder":"tf","game":"Team Fortress","app_id":440,"player_count":0,"max_players":24,"Bots":0,"server_type":"Dedicated","server_os":"Linux","password":true,"vac":true,"version":"7757534","steam_id":85568392924470001,"keywords":["cp","nocrits","nodmgspread","uncletopia"],"game_id":440,"stv_port":27016,"stv_name":"Uncletopia | Sydney | 1 | All Maps | STV","players":null},{"server_id":123,"name":"Uncletopia | Sydney | 2 | All Maps","name_short":"syd-2","host":"syd-1.au.uncletopia.com","port":27025,"enabled":true,"region":"au","cc":"au","latitude":-33.865143,"longitude":151.2099,"reserved":0,"last_update":"0001-01-01T00:00:00Z","name_a2s":"Uncletopia | Sydney | 2 | All Maps","protocol":17,"map":"koth_lakeside_final","folder":"tf","game":"Team Fortress","app_id":440,"player_count":0,"max_players":24,"Bots":0,"server_type":"Dedicated","server_os":"Linux","password":true,"vac":true,"version":"7757534","steam_id":85568392924470002,"keywords":["cp","nocrits","nodmgspread","uncletopia"],"game_id":440,"stv_port":27026,"stv_name":"Uncletopia | Sydney | 2 | All Maps | STV","players":null},{"server_id":395,"name":"Uncletopia | Sydney | 3 | All Maps","name_short":"syd-3","host":"syd-1.au.uncletopia.com","port":27035,"enabled":true,"region":"au","cc":"au","latitude":-33.865143,"longitude":151.2099,"reserved":0,"last_update":"0001-01-01T00:00:00Z","name_a2s":"Uncletopia | Sydney | 3 | All Maps","protocol":17,"map":"koth_lakeside_final","folder":"tf","game":"Team Fortress","app_id":440,"player_count":0,"max_players":24,"Bots":0,"server_type":"Dedicated","server_os":"Linux","password":true,"vac":true,"version":"7757534","steam_id":85568392925194467,"keywords":["cp","nocrits","nodmgspread","uncletopia"],"game_id":440,"stv_port":27036,"stv_name":"Uncletopia | Sydney | 3 | All Maps | STV","players":null},{"server_id":396,"name":"Uncletopia | Sydney | 4 | All Maps","name_short":"syd-4","host":"syd-1.au.uncletopia.com","port":27045,"enabled":true,"region":"au","cc":"au","latitude":-33.865143,"longitude":151.2099,"reserved":0,"last_update":"0001-01-01T00:00:00Z","name_a2s":"Uncletopia | Sydney | 4 | All Maps","protocol":17,"map":"pl_pier","folder":"tf","game":"Team Fortress","app_id":440,"player_count":0,"max_players":24,"Bots":0,"server_type":"Dedicated","server_os":"Linux","password":true,"vac":true,"version":"7757534","steam_id":85568392925397958,"keywords":["nocrits","nodmgspread","payload","uncletopia"],"game_id":440,"stv_port":27046,"stv_name":"Uncletopia | Sydney | 4 | All Maps | STV","players":null},{"server_id":58,"name":"Uncletopia | Sydney | 5 | Stopwatch Beta","name_short":"syd-5","host":"syd-1.au.uncletopia.com","port":27055,"enabled":true,"region":"au","cc":"au","latitude":-33.865143,"longitude":151.2099,"reserved":0,"last_update":"0001-01-01T00:00:00Z","name_a2s":"Uncletopia | Sydney | 5 | Stopwatch Beta","protocol":17,"map":"workshop/pl_summercoast_rc8e.ugc1761528829","folder":"tf","game":"Team Fortress","app_id":440,"player_count":0,"max_players":24,"Bots":0,"server_type":"Dedicated","server_os":"Linux","password":true,"vac":true,"version":"7757534","steam_id":85568392925397959,"keywords":["nocrits","nodmgspread","payload","uncletopia"],"game_id":440,"stv_port":27056,"stv_name":"Uncletopia | Sydney | 5 | Stopwatch Beta | STV","players":null},{"server_id":59,"name":"Uncletopia | Sydney | 6 | Community","name_short":"syd-6","host":"syd-1.au.uncletopia.com","port":27065,"enabled":true,"region":"au","cc":"au","latitude":-33.865143,"longitude":151.2099,"reserved":0,"last_update":"0001-01-01T00:00:00Z","name_a2s":"Uncletopia | Sydney | 6 | Community","protocol":17,"map":"workshop/koth_ashville_final.ugc2130459942","folder":"tf","game":"Team Fortress","app_id":440,"player_count":0,"max_players":24,"Bots":0,"server_type":"Dedicated","server_os":"Linux","password":true,"vac":true,"version":"7757534","steam_id":85568392925397960,"keywords":["cp","nocrits","nodmgspread","uncletopia"],"game_id":440,"stv_port":27066,"stv_name":"Uncletopia | Sydney | 6 | Community | STV","players":null},{"server_id":49,"name":"Uncletopia | Warsaw | 1 | All Maps","name_short":"waw-1","host":"waw-1.pl.uncletopia.com","port":27015,"enabled":true,"region":"eu","cc":"pl","latitude":52.2297,"longitude":21.017532,"reserved":0,"last_update":"0001-01-01T00:00:00Z","name_a2s":"","protocol":0,"map":"","folder":"","game":"","app_id":0,"player_count":0,"max_players":0,"Bots":0,"server_type":"","server_os":"","password":false,"vac":false,"version":"","steam_id":0,"keywords":null,"game_id":0,"stv_port":0,"stv_name":"","players":null},{"server_id":50,"name":"Uncletopia | Warsaw | 2 | All Maps","name_short":"waw-2","host":"waw-1.pl.uncletopia.com","port":27025,"enabled":true,"region":"eu","cc":"pl","latitude":52.2297,"longitude":21.017532,"reserved":0,"last_update":"0001-01-01T00:00:00Z","name_a2s":"Uncletopia | Warsaw | 2 | All Maps","protocol":17,"map":"cp_mountainlab","folder":"tf","game":"Team Fortress","app_id":440,"player_count":0,"max_players":24,"Bots":0,"server_type":"Dedicated","server_os":"Linux","password":true,"vac":true,"version":"7757534","steam_id":85568392925397851,"keywords":["cp","nocrits","nodmgspread","uncletopia"],"game_id":440,"stv_port":27026,"stv_name":"Uncletopia | Warsaw | 2 | All Maps | STV","players":null},{"server_id":51,"name":"Uncletopia | Warsaw | 3 | All Maps","name_short":"waw-3","host":"waw-1.pl.uncletopia.com","port":27035,"enabled":true,"region":"eu","cc":"pl","latitude":52.2297,"longitude":21.017532,"reserved":0,"last_update":"0001-01-01T00:00:00Z","name_a2s":"Uncletopia | Warsaw | 3 | All Maps","protocol":17,"map":"pl_pier","folder":"tf","game":"Team Fortress","app_id":440,"player_count":0,"max_players":24,"Bots":0,"server_type":"Dedicated","server_os":"Linux","password":true,"vac":true,"version":"7757534","steam_id":85568392925397852,"keywords":["nocrits","nodmgspread","payload","uncletopia"],"game_id":440,"stv_port":27036,"stv_name":"Uncletopia | Warsaw | 3 | All Maps | STV","players":null},{"server_id":52,"name":"Uncletopia | Warsaw | 4 | All Maps","name_short":"waw-4","host":"waw-1.pl.uncletopia.com","port":27045,"enabled":true,"region":"eu","cc":"pl","latitude":52.2297,"longitude":21.017532,"reserved":0,"last_update":"0001-01-01T00:00:00Z","name_a2s":"Uncletopia | Warsaw | 4 | All Maps","protocol":17,"map":"pl_borneo","folder":"tf","game":"Team Fortress","app_id":440,"player_count":0,"max_players":24,"Bots":0,"server_type":"Dedicated","server_os":"Linux","password":true,"vac":true,"version":"7757534","steam_id":85568392925397853,"keywords":["nocrits","nodmgspread","payload","uncletopia"],"game_id":440,"stv_port":27046,"stv_name":"Uncletopia | Warsaw | 4 | All Maps | STV","players":null},{"server_id":53,"name":"Uncletopia | Warsaw | 5 | Stopwatch Beta","name_short":"waw-5","host":"waw-1.pl.uncletopia.com","port":27055,"enabled":true,"region":"eu","cc":"pl","latitude":52.2297,"longitude":21.017532,"reserved":0,"last_update":"0001-01-01T00:00:00Z","name_a2s":"Uncletopia | Warsaw | 5 | Stopwatch Beta","protocol":17,"map":"koth_lakeside_final","folder":"tf","game":"Team Fortress","app_id":440,"player_count":0,"max_players":24,"Bots":0,"server_type":"Dedicated","server_os":"Linux","password":true,"vac":true,"version":"7757534","steam_id":85568392925397854,"keywords":["cp","nocrits","nodmgspread","uncletopia"],"game_id":440,"stv_port":27056,"stv_name":"Uncletopia | Warsaw | 5 | Stopwatch Beta | STV","players":null},{"server_id":54,"name":"Uncletopia | Warsaw | 6 | Community","name_short":"waw-6","host":"waw-1.pl.uncletopia.com","port":27065,"enabled":true,"region":"eu","cc":"pl","latitude":52.2297,"longitude":21.017532,"reserved":0,"last_update":"0001-01-01T00:00:00Z","name_a2s":"Uncletopia | Warsaw | 6 | Community","protocol":17,"map":"workshop/cp_caldera_rc2.ugc2834196889","folder":"tf","game":"Team Fortress","app_id":440,"player_count":0,"max_players":24,"Bots":0,"server_type":"Dedicated","server_os":"Linux","password":true,"vac":true,"version":"7757534","steam_id":85568392925397856,"keywords":["cp","nocrits","nodmgspread","uncletopia"],"game_id":440,"stv_port":27066,"stv_name":"Uncletopia | Warsaw | 6 | Community | STV","players":null}]}