{"status":true,"message":"","result":[{"server_id":9,"name":"Uncletopia | Atlanta | 1 | All Maps","name_short":"atl-1","host":"atl-1.us.uncletopia.com","port":27015,"enabled":true,"region":"us-east","cc":"us","latitude":33.753746,"longitude":-84.38633,"reserved":0,"last_update":"0001-01-01T00:00:00Z","name_a2s":"Uncletopia | Atlanta | 1 | All Maps","protocol":17,"map":"pl_borneo","folder":"tf","game":"Team Fortress","app_id":440,"player_count":24,"max_players":24,"Bots":0,"server_type":"Dedicated","server_os":"Linux","password":true,"vac":true,"version":"7961495","steam_id":85568392924469982,"keywords":["nocrits","nodmgspread","payload","uncletopia"],"game_id":440,"stv_port":27016,"stv_name":"Uncletopia | Atlanta | 1 | All Maps | STV","players":[{"user_id":707,"name":"Woods","steam_id":76561198440012069,"connected_time":471000000000,"state":"active","ping":80},{"user_id":514,"name":"Boneless Blithen","steam_id":76561197989955619,"connected_time":5810000000000,"state":"active","ping":114},{"user_id":710,"name":"Lylith!!!","steam_id":76561198386687546,"connected_time":209000000000,"state":"active","ping":46},{"user_id":515,"name":"Heathcliff","steam_id":76561198044288534,"connected_time":5570000000000,"state":"active","ping":71},{"user_id":685,"name":"Sam","steam_id":76561198012364798,"connected_time":2328000000000,"state":"active","ping":64},{"user_id":683,"name":"Crazy Guy With A Wrench","steam_id":76561198093432863,"connected_time":2382000000000,"state":"active","ping":62},{"user_id":691,"name":"Luigi4tl","steam_id":76561198051862389,"connected_time":1107000000000,"state":"active","ping":64},{"user_id":525,"name":"Bo-dee (she/they)","steam_id":76561198103230995,"connected_time":5066000000000,"state":"active","ping":64},{"user_id":704,"name":"zzzz","steam_id":76561198310495200,"connected_time":616000000000,"state":"active","ping":73},{"user_id":622,"name":"GreySweaterCat","steam_id":76561198351860293,"connected_time":3475000000000,"state":"active","ping":91},{"user_id":582,"name":"Obelisk","steam_id":76561198049416866,"connected_time":3897000000000,"state":"active","ping":62},{"user_id":705,"name":"giant shoe","steam_id":76561198329590943,"connected_time":537000000000,"state":"active","ping":75},{"user_id":693,"name":"Echo","steam_id":76561198072092594,"connected_time":1047000000000,"state":"active","ping":45},{"user_id":694,"name":"Yoru","steam_id":76561198119698950,"connected_time":1005000000000,"state":"active","ping":123},{"user_id":712,"name":"Ghost ride the glizzy","steam_id":76561198072115209,"connected_time":6000000000,"state":"active","ping":104},{"user_id":690,"name":"取名叫做忍","steam_id":76561198278282836,"connected_time":1624000000000,"state":"active","ping":69},{"user_id":711,"name":"Tyco","steam_id":76561197978414167,"connected_time":76000000000,"state":"active","ping":57},{"user_id":696,"name":"Open Mailbox","steam_id":76561198051933580,"connected_time":933000000000,"state":"active","ping":98},{"user_id":587,"name":"endwalker simp","steam_id":76561198066177299,"connected_time":3809000000000,"state":"active","ping":127},{"user_id":521,"name":"Thotimus Begonimus","steam_id":76561197970275938,"connected_time":5285000000000,"state":"active","ping":46},{"user_id":544,"name":"IamDORKeegan","steam_id":76561198263695730,"connected_time":4567000000000,"state":"active","ping":97},{"user_id":701,"name":"VidzCMC","steam_id":76561198848142973,"connected_time":778000000000,"state":"active","ping":90},{"user_id":709,"name":"Le4n!!!","steam_id":76561198045522596,"connected_time":399000000000,"state":"active","ping":69},{"user_id":564,"name":"Sinta","steam_id":76561198098398841,"connected_time":4192000000000,"state":"active","ping":90}]},{"server_id":104,"name":"Uncletopia | Atlanta | 2 | All Maps","name_short":"atl-2","host":"atl-1.us.uncletopia.com","port":27025,"enabled":true,"region":"us-east","cc":"us","latitude":33.753746,"longitude":-84.38633,"reserved":0,"last_update":"0001-01-01T00:00:00Z","name_a2s":"Uncletopia | Atlanta | 2 | All Maps","protocol":17,"map":"cp_dustbowl","folder":"tf","game":"Team Fortress","app_id":440,"player_count":18,"max_players":24,"Bots":0,"server_type":"Dedicated","server_os":"Linux","password":true,"vac":true,"version":"7961495","steam_id":85568392924469983,"keywords":["cp","nocrits","nodmgspread","uncletopia"],"game_id":440,"stv_port":27026,"stv_name":"Uncletopia | Atlanta | 2 | All Maps | STV","players":[{"user_id":815,"name":"gregcool.2009","steam_id":76561198033877285,"connected_time":4619000000000,"state":"active","ping":97},{"user_id":864,"name":"object permanence","steam_id":76561198050393061,"connected_time":349000000000,"state":"active","ping":79},{"user_id":854,"name":"GabaGool","steam_id":76561199223701309,"connected_time":1507000000000,"state":"active","ping":55},{"user_id":842,"name":"Jesse Bear","steam_id":76561198217075305,"connected_time":2642000000000,"state":"active","ping":76},{"user_id":849,"name":"Ayphi","steam_id":76561198288030412,"connected_time":1824000000000,"state":"active","ping":104},{"user_id":855,"name":"Mrs. Silly Willy","steam_id":76561198039362851,"connected_time":1418000000000,"state":"active","ping":56},{"user_id":865,"name":"CALL OF DUTY BLACKOPPS","steam_id":76561198262422184,"connected_time":343000000000,"state":"active","ping":70},{"user_id":863,"name":"♥SunFlower♥","steam_id":76561199035402139,"connected_time":409000000000,"state":"active","ping":116},{"user_id":866,"name":"Iron Father Feirros","steam_id":76561198029262451,"connected_time":327000000000,"state":"active","ping":77},{"user_id":833,"name":"Gelidus","steam_id":76561198817304634,"connected_time":3446000000000,"state":"active","ping":56},{"user_id":867,"name":"Faiz","steam_id":76561198140183365,"connected_time":181000000000,"state":"active","ping":79},{"user_id":870,"name":"MaybeMars","steam_id":76561198084736804,"connected_time":94000000000,"state":"active","ping":70},{"user_id":820,"name":"Rusteanes","steam_id":76561199090021148,"connected_time":4535000000000,"state":"active","ping":84},{"user_id":871,"name":"jeansg","steam_id":76561199040569812,"connected_time":89000000000,"state":"active","ping":125},{"user_id":844,"name":"Reyloko","steam_id":76561198172480913,"connected_time":2539000000000,"state":"active","ping":96},{"user_id":837,"name":"Wey","steam_id":76561198089235065,"connected_time":3019000000000,"state":"active","ping":80},{"user_id":860,"name":"C4K3","steam_id":76561197996963285,"connected_time":1216000000000,"state":"active","ping":68},{"user_id":861,"name":"Smooth, Refreshing Bleach™","steam_id":76561197981060504,"connected_time":1191000000000,"state":"active","ping":66}]},{"server_id":400,"name":"Uncletopia | Atlanta | 3 | Stopwatch","name_short":"atl-3","host":"atl-1.us.uncletopia.com","port":27035,"enabled":true,"region":"us-east","cc":"us","latitude":33.753746,"longitude":-84.38633,"reserved":0,"last_update":"0001-01-01T00:00:00Z","name_a2s":"Uncletopia | Atlanta | 3 | Stopwatch","protocol":17,"map":"workshop/koth_bagel_rc6.ugc2514036946","folder":"tf","game":"Team Fortress","app_id":440,"player_count":24,"max_players":24,"Bots":0,"server_type":"Dedicated","server_os":"Linux","password":true,"vac":true,"version":"7961495","steam_id":85568392924515187,"keywords":["cp","nocrits","nodmgspread","uncletopia"],"game_id":440,"stv_port":27036,"stv_name":"Uncletopia | Atlanta | 3 | Stopwatch | STV","players":[{"user_id":296,"name":"retrecho","steam_id":76561198422155843,"connected_time":6152000000000,"state":"active","ping":165},{"user_id":307,"name":"Furret24","steam_id":76561198152551417,"connected_time":5549000000000,"state":"active","ping":31},{"user_id":337,"name":"FELONIOUS MONK","steam_id":76561198201872929,"connected_time":3463000000000,"state":"active","ping":45},{"user_id":362,"name":"Gutsavo the Branded  Espadachí","steam_id":76561198133608354,"connected_time":1006000000000,"state":"active","ping":63},{"user_id":378,"name":"Noire","steam_id":76561198149370109,"connected_time":166000000000,"state":"active","ping":132},{"user_id":297,"name":"Rebellion","steam_id":76561198297790269,"connected_time":6145000000000,"state":"active","ping":120},{"user_id":363,"name":"Ramble Jamble","steam_id":76561198357189275,"connected_time":748000000000,"state":"active","ping":75},{"user_id":328,"name":"stivanaker","steam_id":76561198346276579,"connected_time":4140000000000,"state":"active","ping":73},{"user_id":361,"name":"Asanez3","steam_id":76561198037381436,"connected_time":1292000000000,"state":"active","ping":81},{"user_id":364,"name":"quacked!","steam_id":76561198970819395,"connected_time":742000000000,"state":"active","ping":75},{"user_id":365,"name":"FrodobagginsTNT","steam_id":76561198224940688,"connected_time":737000000000,"state":"active","ping":85},{"user_id":366,"name":"DocterBuster","steam_id":76561198199283535,"connected_time":724000000000,"state":"active","ping":79},{"user_id":352,"name":"DOOMBRINGER_","steam_id":76561198038523571,"connected_time":1990000000000,"state":"active","ping":80},{"user_id":302,"name":"Bim","steam_id":76561198155979811,"connected_time":5910000000000,"state":"active","ping":69},{"user_id":367,"name":"✨11Rufix","steam_id":76561198394962127,"connected_time":690000000000,"state":"active","ping":91},{"user_id":368,"name":"Vitzenhauzer","steam_id":76561198116449787,"connected_time":683000000000,"state":"active","ping":104},{"user_id":369,"name":"TickTock|Mink","steam_id":76561198069809794,"connected_time":673000000000,"state":"active","ping":81},{"user_id":377,"name":"Farseer Ulwithy","steam_id":76561197965179245,"connected_time":306000000000,"state":"active","ping":150},{"user_id":372,"name":"fully vacced, fully autistic","steam_id":76561198968058652,"connected_time":523000000000,"state":"active","ping":111},{"user_id":376,"name":"Kdash","steam_id":76561198043829155,"connected_time":477000000000,"state":"active","ping":81},{"user_id":343,"name":"will.i.am","steam_id":76561198070970550,"connected_time":2784000000000,"state":"active","ping":69},{"user_id":374,"name":"Hajalabakalaba","steam_id":76561198405830028,"connected_time":514000000000,"state":"active","ping":105},{"user_id":344,"name":"pathulhu","steam_id":76561198323941614,"connected_time":2756000000000,"state":"active","ping":67},{"user_id":349,"name":"Verily","steam_id":76561198200558318,"connected_time":2535000000000,"state":"active","ping":104}]},{"server_id":401,"name":"Uncletopia | Atlanta | 4 | Community","name_short":"atl-4","host":"atl-1.us.uncletopia.com","port":27045,"enabled":true,"region":"us-east","cc":"us","latitude":33.753746,"longitude":-84.38633,"reserved":0,"last_update":"0001-01-01T00:00:00Z","name_a2s":"Uncletopia | Atlanta | 4 | Community","protocol":17,"map":"workshop/koth_jamram_rc1a.ugc2964065613","folder":"tf","game":"Team Fortress","app_id":440,"player_count":0,"max_players":24,"Bots":0,"server_type":"Dedicated","server_os":"Linux","password":true,"vac":true,"version":"7961495","steam_id":85568392924515188,"keywords":["cp","nocrits","nodmgspread","uncletopia"],"game_id":440,"stv_port":27046,"stv_name":"Uncletopia | Atlanta | 4 | Community | STV","players":null},{"server_id":2,"name":"Uncletopia | Chicago | 1 | All Maps","name_short":"chi-1","host":"chi-1.us.uncletopia.com","port":27015,"enabled":true,"region":"us-central","cc":"us","latitude":41.881832,"longitude":-87.62318,"reserved":0,"last_update":"0001-01-01T00:00:00Z","name_a2s":"Uncletopia | Chicago | 1 | All Maps","protocol":17,"map":"pl_barnblitz","folder":"tf","game":"Team Fortress","app_id":440,"player_count":24,"max_players":24,"Bots":0,"server_type":"Dedicated","server_os":"Linux","password":true,"vac":true,"version":"7961495","steam_id":85568392924469984,"keywords":["nocrits","nodmgspread","payload","uncletopia"],"game_id":440,"stv_port":27016,"stv_name":"Uncletopia | Chicago | 1 | All Maps | STV","players":[{"user_id":687,"name":"Walla","steam_id":76561198103379757,"connected_time":227000000000,"state":"active","ping":45},{"user_id":669,"name":"todd howard (real)","steam_id":76561198046650995,"connected_time":1575000000000,"state":"active","ping":80},{"user_id":670,"name":"Gaming","steam_id":76561198107080532,"connected_time":1572000000000,"state":"active","ping":70},{"user_id":608,"name":"lker","steam_id":76561197976975075,"connected_time":3598000000000,"state":"active","ping":60},{"user_id":650,"name":"NightVeil","steam_id":76561198086054875,"connected_time":2284000000000,"state":"active","ping":72},{"user_id":653,"name":"GROOMER KILLER","steam_id":76561198059500571,"connected_time":2183000000000,"state":"active","ping":38},{"user_id":665,"name":"Bstewie","steam_id":76561198426086457,"connected_time":1910000000000,"state":"active","ping":108},{"user_id":654,"name":"Gerard","steam_id":76561198053456194,"connected_time":2175000000000,"state":"active","ping":30},{"user_id":671,"name":"pizza rat","steam_id":76561198044874072,"connected_time":1553000000000,"state":"active","ping":66},{"user_id":689,"name":"rf","steam_id":76561198195359229,"connected_time":94000000000,"state":"active","ping":85},{"user_id":686,"name":"Primelotus","steam_id":76561198086618284,"connected_time":460000000000,"state":"active","ping":114},{"user_id":672,"name":"An Koraidon","steam_id":76561198112705880,"connected_time":1385000000000,"state":"active","ping":95},{"user_id":684,"name":"Ademar","steam_id":76561199391802581,"connected_time":664000000000,"state":"active","ping":57},{"user_id":685,"name":"pretzel","steam_id":76561198885041703,"connected_time":578000000000,"state":"active","ping":66},{"user_id":667,"name":"Spyr0ll","steam_id":76561198382292973,"connected_time":1792000000000,"state":"active","ping":58},{"user_id":675,"name":"Praise_to_the_Flashlight!","steam_id":76561199001728789,"connected_time":1325000000000,"state":"active","ping":62},{"user_id":501,"name":"Soy King","steam_id":76561198263025614,"connected_time":10696000000000,"state":"active","ping":99},{"user_id":690,"name":"Henry Ota-Clay","steam_id":76561198053232470,"connected_time":15000000000,"state":"spawning","ping":104},{"user_id":683,"name":"DevoutPage14990","steam_id":76561198831347354,"connected_time":766000000000,"state":"active","ping":80},{"user_id":550,"name":"Stanv","steam_id":76561198259530604,"connected_time":5412000000000,"state":"active","ping":49},{"user_id":663,"name":"rach9411","steam_id":76561198256535721,"connected_time":1921000000000,"state":"active","ping":145},{"user_id":688,"name":"Firedust19","steam_id":76561198153238631,"connected_time":201000000000,"state":"active","ping":110},{"user_id":668,"name":"Xx_gam3rberg_xX","steam_id":76561199035781025,"connected_time":1711000000000,"state":"active","ping":94},{"user_id":679,"name":"Helmet Hands","steam_id":76561197961141994,"connected_time":1026000000000,"state":"active","ping":81}]},{"server_id":106,"name":"Uncletopia | Chicago | 2 | All Maps","name_short":"chi-2","host":"chi-1.us.uncletopia.com","port":27025,"enabled":true,"region":"us-central","cc":"us","latitude":41.881832,"longitude":-87.62318,"reserved":0,"last_update":"0001-01-01T00:00:00Z","name_a2s":"Uncletopia | Chicago | 2 | All Maps","protocol":17,"map":"pl_barnblitz","folder":"tf","game":"Team Fortress","app_id":440,"player_count":24,"max_players":24,"Bots":0,"server_type":"Dedicated","server_os":"Linux","password":true,"vac":true,"version":"7961495","steam_id":85568392924469985,"keywords":["nocrits","nodmgspread","payload","uncletopia"],"game_id":440,"stv_port":27026,"stv_name":"Uncletopia | Chicago | 2 | All Maps | STV","players":[{"user_id":388,"name":"Scarecrow","steam_id":76561198045870511,"connected_time":4316000000000,"state":"active","ping":64},{"user_id":497,"name":"sqnguine","steam_id":76561199481839224,"connected_time":271000000000,"state":"active","ping":103},{"user_id":496,"name":"Do It Yua Serufu","steam_id":76561198078574114,"connected_time":329000000000,"state":"active","ping":98},{"user_id":455,"name":"Skittlez","steam_id":76561198321284276,"connected_time":1705000000000,"state":"active","ping":46},{"user_id":488,"name":"l4 fl4me","steam_id":76561199195602221,"connected_time":866000000000,"state":"active","ping":60},{"user_id":409,"name":"spire","steam_id":76561198367664346,"connected_time":3688000000000,"state":"active","ping":58},{"user_id":403,"name":"troll","steam_id":76561198082680563,"connected_time":3917000000000,"state":"active","ping":46},{"user_id":489,"name":"is 78 iq alot?","steam_id":76561197993151595,"connected_time":864000000000,"state":"active","ping":87},{"user_id":450,"name":"Bard","steam_id":76561199095024038,"connected_time":1833000000000,"state":"active","ping":79},{"user_id":495,"name":"faust","steam_id":76561198279161108,"connected_time":567000000000,"state":"active","ping":94},{"user_id":490,"name":"Dr.StrangeGlove","steam_id":76561198286114229,"connected_time":724000000000,"state":"active","ping":63},{"user_id":426,"name":"TƎC","steam_id":76561198237180318,"connected_time":3053000000000,"state":"active","ping":67},{"user_id":476,"name":"PickleHater13","steam_id":76561198259380127,"connected_time":1275000000000,"state":"active","ping":60},{"user_id":499,"name":"The One True Luke","steam_id":76561198180891187,"connected_time":180000000000,"state":"active","ping":67},{"user_id":333,"name":"eipi","steam_id":76561199084492097,"connected_time":8788000000000,"state":"active","ping":77},{"user_id":475,"name":"slammin","steam_id":76561197965022076,"connected_time":1294000000000,"state":"active","ping":59},{"user_id":500,"name":"Space Barris","steam_id":76561198007242624,"connected_time":1000000000,"state":"spawning","ping":59},{"user_id":478,"name":"team fortress 2","steam_id":76561198093995793,"connected_time":1254000000000,"state":"active","ping":85},{"user_id":375,"name":"Shady Businessman","steam_id":76561198143855968,"connected_time":5768000000000,"state":"active","ping":94},{"user_id":486,"name":"Willy","steam_id":76561198046508940,"connected_time":937000000000,"state":"active","ping":73},{"user_id":456,"name":"t","steam_id":76561198175988929,"connected_time":1705000000000,"state":"active","ping":79},{"user_id":457,"name":"Ultracide","steam_id":76561198317799028,"connected_time":1702000000000,"state":"active","ping":100},{"user_id":494,"name":"anonpain","steam_id":76561198081317092,"connected_time":573000000000,"state":"active","ping":53},{"user_id":407,"name":"elpful","steam_id":76561198189659530,"connected_time":3906000000000,"state":"active","ping":81}]},{"server_id":402,"name":"Uncletopia | Chicago | 3 | All Maps","name_short":"chi-3","host":"chi-1.us.uncletopia.com","port":27035,"enabled":true,"region":"us-central","cc":"us","latitude":41.881832,"longitude":-87.62318,"reserved":0,"last_update":"0001-01-01T00:00:00Z","name_a2s":"Uncletopia | Chicago | 3 | All Maps","protocol":17,"map":"pl_frontier_final","folder":"tf","game":"Team Fortress","app_id":440,"player_count":24,"max_players":24,"Bots":0,"server_type":"Dedicated","server_os":"Linux","password":true,"vac":true,"version":"7961495","steam_id":85568392924515191,"keywords":["nocrits","nodmgspread","payload","uncletopia"],"game_id":440,"stv_port":27036,"stv_name":"Uncletopia | Chicago | 3 | All Maps | STV","players":[{"user_id":771,"name":"Provocator","steam_id":76561197961830410,"connected_time":438000000000,"state":"active","ping":75},{"user_id":757,"name":"Rukks","steam_id":76561197993918954,"connected_time":1341000000000,"state":"active","ping":87},{"user_id":761,"name":"Phil Collins","steam_id":76561198068868644,"connected_time":1220000000000,"state":"active","ping":61},{"user_id":689,"name":"Mega_Man23","steam_id":76561198138341391,"connected_time":4951000000000,"state":"active","ping":62},{"user_id":767,"name":"Rein","steam_id":76561198300340427,"connected_time":868000000000,"state":"active","ping":61},{"user_id":762,"name":"shadowrequest13","steam_id":76561198377179350,"connected_time":1077000000000,"state":"active","ping":64},{"user_id":736,"name":"smuffy","steam_id":76561198091459506,"connected_time":2044000000000,"state":"active","ping":64},{"user_id":775,"name":"garfield","steam_id":76561198114119308,"connected_time":263000000000,"state":"active","ping":67},{"user_id":780,"name":"Sweater-Fan","steam_id":76561199389567214,"connected_time":49000000000,"state":"active","ping":60},{"user_id":776,"name":"Bunni","steam_id":76561198065169997,"connected_time":257000000000,"state":"active","ping":86},{"user_id":781,"name":"GamingJuice42","steam_id":76561198110469437,"connected_time":1000000000,"state":"spawning","ping":33},{"user_id":750,"name":"SubliminalDolphinBullet","steam_id":76561198067716129,"connected_time":1491000000000,"state":"active","ping":64},{"user_id":773,"name":"on that zaza?","steam_id":76561198038713198,"connected_time":380000000000,"state":"active","ping":73},{"user_id":779,"name":"Space Cops","steam_id":76561198032414253,"connected_time":189000000000,"state":"active","ping":53},{"user_id":759,"name":"deadpixel","steam_id":76561198150249843,"connected_time":1274000000000,"state":"active","ping":59},{"user_id":769,"name":"Womanwer","steam_id":76561198194760222,"connected_time":860000000000,"state":"active","ping":94},{"user_id":751,"name":"what the freak","steam_id":76561198080754727,"connected_time":1491000000000,"state":"active","ping":79},{"user_id":715,"name":"Big Yoshi #savetf2","steam_id":76561198009916036,"connected_time":3449000000000,"state":"active","ping":71},{"user_id":753,"name":"wroh2801","steam_id":76561199103292218,"connected_time":1425000000000,"state":"active","ping":59},{"user_id":778,"name":"will","steam_id":76561198170080245,"connected_time":230000000000,"state":"active","ping":93},{"user_id":731,"name":"Fuyutake","steam_id":76561199123206779,"connected_time":2375000000000,"state":"active","ping":71},{"user_id":774,"name":"Freedom","steam_id":76561197966732466,"connected_time":379000000000,"state":"active","ping":74},{"user_id":634,"name":"corntent","steam_id":76561198824847948,"connected_time":8614000000000,"state":"active","ping":61},{"user_id":725,"name":"Smoke","steam_id":76561198071892587,"connected_time":2717000000000,"state":"active","ping":93}]},{"server_id":403,"name":"Uncletopia | Chicago | 4 | All Maps","name_short":"chi-4","host":"chi-1.us.uncletopia.com","port":27045,"enabled":true,"region":"us-central","cc":"us","latitude":41.881832,"longitude":-87.62318,"reserved":0,"last_update":"0001-01-01T00:00:00Z","name_a2s":"Uncletopia | Chicago | 4 | All Maps","protocol":17,"map":"pl_snowycoast","folder":"tf","game":"Team Fortress","app_id":440,"player_count":1,"max_players":24,"Bots":0,"server_type":"Dedicated","server_os":"Linux","password":true,"vac":true,"version":"7961495","steam_id":85568392924515193,"keywords":["nocrits","nodmgspread","payload","uncletopia"],"game_id":440,"stv_port":27046,"stv_name":"Uncletopia | Chicago | 4 | All Maps | STV","players":[{"user_id":155,"name":"8o8","steam_id":76561198996923332,"connected_time":281000000000,"state":"active","ping":79}]},{"server_id":36,"name":"Uncletopia | Chicago | 5 | All Maps","name_short":"chi-5","host":"chi-2.us.uncletopia.com","port":27015,"enabled":true,"region":"us-central","cc":"us","latitude":41.881832,"longitude":-87.62318,"reserved":0,"last_update":"0001-01-01T00:00:00Z","name_a2s":"Uncletopia | Chicago | 5 | All Maps","protocol":17,"map":"pl_badwater","folder":"tf","game":"Team Fortress","app_id":440,"player_count":24,"max_players":24,"Bots":0,"server_type":"Dedicated","server_os":"Linux","password":true,"vac":true,"version":"7961495","steam_id":85568392924866362,"keywords":["nocrits","nodmgspread","payload","uncletopia"],"game_id":440,"stv_port":27016,"stv_name":"Uncletopia | Chicago | 5 | All Maps | STV","players":[{"user_id":285,"name":"WaffleWithNoToppings","steam_id":76561199088280111,"connected_time":120000000000,"state":"active","ping":89},{"user_id":279,"name":"Sarbanes-Oxley","steam_id":76561197975898479,"connected_time":574000000000,"state":"active","ping":77},{"user_id":286,"name":"YUNG NASTYMAN","steam_id":76561198039710677,"connected_time":37000000000,"state":"active","ping":73},{"user_id":236,"name":"Government Plates","steam_id":76561198140866252,"connected_time":3524000000000,"state":"active","ping":71},{"user_id":281,"name":"KATSURB","steam_id":76561199172118456,"connected_time":523000000000,"state":"active","ping":70},{"user_id":282,"name":"(TPT) Ghost","steam_id":76561198123262873,"connected_time":502000000000,"state":"active","ping":116},{"user_id":240,"name":"JRB","steam_id":76561198054629439,"connected_time":3456000000000,"state":"active","ping":50},{"user_id":274,"name":"Cat","steam_id":76561198890478360,"connected_time":991000000000,"state":"active","ping":151},{"user_id":277,"name":"Prison Donkey","steam_id":76561198072652478,"connected_time":609000000000,"state":"active","ping":52},{"user_id":267,"name":"Chillin'","steam_id":76561198398918486,"connected_time":1221000000000,"state":"active","ping":64},{"user_id":269,"name":"ZBaldTop","steam_id":76561199396318132,"connected_time":1183000000000,"state":"active","ping":59},{"user_id":270,"name":"Hellaso","steam_id":76561198441611499,"connected_time":1176000000000,"state":"active","ping":134},{"user_id":254,"name":"a fuddruckers","steam_id":76561198092656099,"connected_time":2911000000000,"state":"active","ping":69},{"user_id":193,"name":"Just Juanito","steam_id":76561198241446874,"connected_time":5797000000000,"state":"active","ping":121},{"user_id":278,"name":"sniffmyfeetnow","steam_id":76561198009355437,"connected_time":607000000000,"state":"active","ping":75},{"user_id":272,"name":"sleebysyd","steam_id":76561198146749756,"connected_time":1152000000000,"state":"active","ping":90},{"user_id":234,"name":"AlphaTwo3","steam_id":76561198034696854,"connected_time":3611000000000,"state":"active","ping":57},{"user_id":275,"name":"ZeitZeityZeithy","steam_id":76561198414129606,"connected_time":983000000000,"state":"active","ping":172},{"user_id":273,"name":"Arkut","steam_id":76561198036998075,"connected_time":1144000000000,"state":"active","ping":93},{"user_id":243,"name":"spot","steam_id":76561198151135298,"connected_time":3387000000000,"state":"active","ping":91},{"user_id":244,"name":"Marc Antony","steam_id":76561198011366517,"connected_time":3380000000000,"state":"active","ping":60},{"user_id":283,"name":"Eiss","steam_id":76561198343183806,"connected_time":486000000000,"state":"active","ping":74},{"user_id":246,"name":"cyborgor","steam_id":76561198040782513,"connected_time":3338000000000,"state":"active","ping":90},{"user_id":226,"name":".jpg","steam_id":76561198137237377,"connected_time":4668000000000,"state":"active","ping":72}]},{"server_id":37,"name":"Uncletopia | Chicago | 6 | All Maps","name_short":"chi-6","host":"chi-2.us.uncletopia.com","port":27025,"enabled":true,"region":"us-central","cc":"us","latitude":41.881832,"longitude":-87.62318,"reserved":0,"last_update":"0001-01-01T00:00:00Z","name_a2s":"Uncletopia | Chicago | 6 | All Maps","protocol":17,"map":"pl_upward","folder":"tf","game":"Team Fortress","app_id":440,"player_count":3,"max_players":24,"Bots":0,"server_type":"Dedicated","server_os":"Linux","password":true,"vac":true,"version":"7961495","steam_id":85568392924866363,"keywords":["nocrits","nodmgspread","payload","uncletopia"],"game_id":440,"stv_port":27026,"stv_name":"Uncletopia | Chicago | 6 | All Maps | STV","players":[{"user_id":444,"name":"A delicious treat","steam_id":76561198271932677,"connected_time":179000000000,"state":"active","ping":63},{"user_id":439,"name":"Toast","steam_id":76561198046669362,"connected_time":277000000000,"state":"active","ping":108},{"user_id":440,"name":"The Disciple","steam_id":76561199068960616,"connected_time":259000000000,"state":"active","ping":44}]},{"server_id":38,"name":"Uncletopia | Chicago | 7 | Stopwatch","name_short":"chi-7","host":"chi-2.us.uncletopia.com","port":27035,"enabled":true,"region":"us-central","cc":"us","latitude":41.881832,"longitude":-87.62318,"reserved":0,"last_update":"0001-01-01T00:00:00Z","name_a2s":"Uncletopia | Chicago | 7 | Stopwatch","protocol":17,"map":"workshop/koth_ashville_final.ugc2130459942","folder":"tf","game":"Team Fortress","app_id":440,"player_count":0,"max_players":24,"Bots":0,"server_type":"Dedicated","server_os":"Linux","password":true,"vac":true,"version":"7961495","steam_id":85568392924866364,"keywords":["cp","nocrits","nodmgspread","uncletopia"],"game_id":440,"stv_port":27036,"stv_name":"Uncletopia | Chicago | 7 | Stopwatch | STV","players":null},{"server_id":39,"name":"Uncletopia | Chicago | 8 | Community","name_short":"chi-8","host":"chi-2.us.uncletopia.com","port":27045,"enabled":true,"region":"us-central","cc":"us","latitude":41.881832,"longitude":-87.62318,"reserved":0,"last_update":"0001-01-01T00:00:00Z","name_a2s":"Uncletopia | Chicago | 8 | Community","protocol":17,"map":"workshop/cp_bruhstbowl_b6.ugc2878604990","folder":"tf","game":"Team Fortress","app_id":440,"player_count":7,"max_players":24,"Bots":0,"server_type":"Dedicated","server_os":"Linux","password":true,"vac":true,"version":"7961495","steam_id":85568392924866365,"keywords":["cp","nocrits","nodmgspread","uncletopia"],"game_id":440,"stv_port":27046,"stv_name":"Uncletopia | Chicago | 8 | Community | STV","players":[{"user_id":21,"name":"SN0W","steam_id":76561198153665468,"connected_time":2512000000000,"state":"active","ping":47},{"user_id":19,"name":"portal robewrtson big fan","steam_id":76561198150428763,"connected_time":3304000000000,"state":"active","ping":108},{"user_id":20,"name":"Six Piece Chicken McNobody","steam_id":76561198129848222,"connected_time":3224000000000,"state":"active","ping":61},{"user_id":23,"name":"redacted 176","steam_id":76561198815236168,"connected_time":2120000000000,"state":"active","ping":91},{"user_id":25,"name":"Crλf227","steam_id":76561198196211121,"connected_time":1409000000000,"state":"active","ping":87},{"user_id":26,"name":"Mom","steam_id":76561198207936000,"connected_time":1077000000000,"state":"active","ping":82},{"user_id":27,"name":"Blaze","steam_id":76561198043797702,"connected_time":435000000000,"state":"active","ping":59}]},{"server_id":8,"name":"Uncletopia | Dallas | 1 | All Maps","name_short":"dal-1","host":"dal-1.us.uncletopia.com","port":27015,"enabled":true,"region":"us-central","cc":"us","latitude":32.779167,"longitude":-96.80889,"reserved":0,"last_update":"0001-01-01T00:00:00Z","name_a2s":"Uncletopia | Dallas | 1 | All Maps","protocol":17,"map":"pl_pier","folder":"tf","game":"Team Fortress","app_id":440,"player_count":24,"max_players":24,"Bots":0,"server_type":"Dedicated","server_os":"Linux","password":true,"vac":true,"version":"7961495","steam_id":85568392924469986,"keywords":["nocrits","nodmgspread","payload","uncletopia"],"game_id":440,"stv_port":27016,"stv_name":"Uncletopia | Dallas | 1 | All Maps | STV","players":[{"user_id":889,"name":"Certified Hood Classic","steam_id":76561199086159354,"connected_time":5600000000000,"state":"active","ping":55},{"user_id":933,"name":"celestia ludenberg","steam_id":76561199196437823,"connected_time":2054000000000,"state":"active","ping":93},{"user_id":938,"name":"Jacobim Mugatu","steam_id":76561198049896572,"connected_time":1846000000000,"state":"active","ping":76},{"user_id":951,"name":"One Canadian Derg","steam_id":76561198212687343,"connected_time":902000000000,"state":"active","ping":99},{"user_id":942,"name":"Nick","steam_id":76561198043703129,"connected_time":1735000000000,"state":"active","ping":101},{"user_id":929,"name":"dog eggs","steam_id":76561197960411847,"connected_time":2090000000000,"state":"active","ping":82},{"user_id":935,"name":"Invalid","steam_id":76561198071098415,"connected_time":2001000000000,"state":"active","ping":45},{"user_id":902,"name":"sithreis","steam_id":76561198000564263,"connected_time":4364000000000,"state":"active","ping":63},{"user_id":925,"name":"bansheerubber","steam_id":76561198042009362,"connected_time":2435000000000,"state":"active","ping":61},{"user_id":955,"name":"jestor","steam_id":76561198248148760,"connected_time":67000000000,"state":"active","ping":67},{"user_id":903,"name":"Five Dollar Footschlong","steam_id":76561198010019214,"connected_time":4362000000000,"state":"active","ping":78},{"user_id":956,"name":"OverPowered64","steam_id":76561198291027287,"connected_time":54000000000,"state":"active","ping":61},{"user_id":886,"name":"tack","steam_id":76561198408477421,"connected_time":6258000000000,"state":"active","ping":93},{"user_id":939,"name":"java","steam_id":76561198030276792,"connected_time":1836000000000,"state":"active","ping":60},{"user_id":908,"name":"transfem atsuko kagari","steam_id":76561198217402847,"connected_time":4142000000000,"state":"active","ping":97},{"user_id":914,"name":"man of the hour","steam_id":76561198264601809,"connected_time":3283000000000,"state":"active","ping":53},{"user_id":952,"name":"T0r1ee","steam_id":76561198109311468,"connected_time":899000000000,"state":"active","ping":49},{"user_id":954,"name":"trainmarine -bt","steam_id":76561198341784551,"connected_time":75000000000,"state":"active","ping":56},{"user_id":947,"name":"seats","steam_id":76561197998756039,"connected_time":1170000000000,"state":"active","ping":67},{"user_id":893,"name":"Ballista","steam_id":76561197983182562,"connected_time":5228000000000,"state":"active","ping":49},{"user_id":953,"name":"Glenn Quagmire","steam_id":76561199044705592,"connected_time":162000000000,"state":"active","ping":117},{"user_id":957,"name":"otwtomarsoffdabars(spacecore)","steam_id":76561199085974120,"connected_time":50000000000,"state":"active","ping":100},{"user_id":910,"name":"lanoc","steam_id":76561198055415367,"connected_time":3487000000000,"state":"active","ping":60},{"user_id":945,"name":"Goofy Goober","steam_id":76561198400700603,"connected_time":1497000000000,"state":"active","ping":66}]},{"server_id":108,"name":"Uncletopia | Dallas | 2 | All Maps","name_short":"dal-2","host":"dal-1.us.uncletopia.com","port":27025,"enabled":true,"region":"us-central","cc":"us","latitude":32.779167,"longitude":-96.80889,"reserved":0,"last_update":"0001-01-01T00:00:00Z","name_a2s":"Uncletopia | Dallas | 2 | All Maps","protocol":17,"map":"cp_dustbowl","folder":"tf","game":"Team Fortress","app_id":440,"player_count":23,"max_players":24,"Bots":0,"server_type":"Dedicated","server_os":"Linux","password":true,"vac":true,"version":"7961495","steam_id":85568392924469988,"keywords":["cp","nocrits","nodmgspread","uncletopia"],"game_id":440,"stv_port":27026,"stv_name":"Uncletopia | Dallas | 2 | All Maps | STV","players":[{"user_id":549,"name":"Yamn Zaddy","steam_id":76561198074678001,"connected_time":3232000000000,"state":"active","ping":71},{"user_id":556,"name":"phfez","steam_id":76561198046150386,"connected_time":3106000000000,"state":"active","ping":75},{"user_id":583,"name":"An00bis","steam_id":76561198044084508,"connected_time":1059000000000,"state":"active","ping":74},{"user_id":597,"name":"dobby","steam_id":76561198012274834,"connected_time":34000000000,"state":"spawning","ping":90},{"user_id":581,"name":"Pop","steam_id":76561199012562851,"connected_time":1238000000000,"state":"active","ping":81},{"user_id":595,"name":"uncletopia dallas 2 player","steam_id":76561198412786186,"connected_time":137000000000,"state":"active","ping":48},{"user_id":596,"name":"Luna","steam_id":76561198023352750,"connected_time":107000000000,"state":"active","ping":86},{"user_id":557,"name":"Emberdened","steam_id":76561199163688421,"connected_time":3092000000000,"state":"active","ping":66},{"user_id":551,"name":"Godzilla","steam_id":76561198013571048,"connected_time":3206000000000,"state":"active","ping":68},{"user_id":580,"name":"Casey","steam_id":76561198068810896,"connected_time":1410000000000,"state":"active","ping":77},{"user_id":589,"name":"nerv","steam_id":76561198012678811,"connected_time":692000000000,"state":"active","ping":84},{"user_id":511,"name":"HoneyBadger","steam_id":76561198129202829,"connected_time":5801000000000,"state":"active","ping":75},{"user_id":591,"name":"L-","steam_id":76561198046074220,"connected_time":440000000000,"state":"active","ping":87},{"user_id":585,"name":"Old Nosey","steam_id":76561198024885884,"connected_time":1045000000000,"state":"active","ping":67},{"user_id":587,"name":"THIRDPIERCE","steam_id":76561198405366314,"connected_time":916000000000,"state":"active","ping":64},{"user_id":593,"name":"GreenApples","steam_id":76561198120559543,"connected_time":388000000000,"state":"active","ping":89},{"user_id":546,"name":"name","steam_id":76561199153026367,"connected_time":3333000000000,"state":"active","ping":95},{"user_id":592,"name":"Froot Loops","steam_id":76561198253927199,"connected_time":422000000000,"state":"active","ping":170},{"user_id":553,"name":"meemaw","steam_id":76561198019695103,"connected_time":3195000000000,"state":"active","ping":86},{"user_id":594,"name":"Neon1two","steam_id":76561199438197994,"connected_time":355000000000,"state":"active","ping":93},{"user_id":561,"name":"kloo_","steam_id":76561199090218013,"connected_time":2577000000000,"state":"active","ping":53},{"user_id":560,"name":"ZestyTrev","steam_id":76561198253391039,"connected_time":3037000000000,"state":"active","ping":57},{"user_id":564,"name":"Burnbeast","steam_id":76561198088104601,"connected_time":2284000000000,"state":"active","ping":40}]},{"server_id":404,"name":"Uncletopia | Dallas | 3 | All Maps","name_short":"dal-3","host":"dal-1.us.uncletopia.com","port":27035,"enabled":true,"region":"us-central","cc":"us","latitude":32.779167,"longitude":-96.80889,"reserved":0,"last_update":"0001-01-01T00:00:00Z","name_a2s":"Uncletopia | Dallas | 3 | All Maps","protocol":17,"map":"pl_goldrush","folder":"tf","game":"Team Fortress","app_id":440,"player_count":24,"max_players":24,"Bots":0,"server_type":"Dedicated","server_os":"Linux","password":true,"vac":true,"version":"7961495","steam_id":85568392924515219,"keywords":["nocrits","nodmgspread","payload","uncletopia"],"game_id":440,"stv_port":27036,"stv_name":"Uncletopia | Dallas | 3 | All Maps | STV","players":[{"user_id":173,"name":"Moofins","steam_id":76561198050291949,"connected_time":314000000000,"state":"active","ping":76},{"user_id":148,"name":"Discourse","steam_id":76561198984286678,"connected_time":2254000000000,"state":"active","ping":73},{"user_id":160,"name":"30day","steam_id":76561198219163831,"connected_time":1268000000000,"state":"active","ping":76},{"user_id":135,"name":"TOASTEngineer","steam_id":76561198004890916,"connected_time":2493000000000,"state":"active","ping":94},{"user_id":161,"name":"kr1tsurf3r","steam_id":76561198076402476,"connected_time":1256000000000,"state":"active","ping":93},{"user_id":103,"name":"limbos","steam_id":76561198028289585,"connected_time":3761000000000,"state":"active","ping":101},{"user_id":171,"name":"TheTalentlessChicken","steam_id":76561198148390834,"connected_time":358000000000,"state":"active","ping":104},{"user_id":52,"name":"r0ck","steam_id":76561198141716764,"connected_time":7084000000000,"state":"active","ping":103},{"user_id":153,"name":"meh","steam_id":76561198136808129,"connected_time":2073000000000,"state":"active","ping":67},{"user_id":151,"name":"The Final Terminus","steam_id":76561197964985183,"connected_time":2100000000000,"state":"active","ping":74},{"user_id":169,"name":"TheMemeNinja","steam_id":76561198939053223,"connected_time":383000000000,"state":"active","ping":80},{"user_id":106,"name":"Squiggle","steam_id":76561198257197535,"connected_time":3651000000000,"state":"active","ping":82},{"user_id":118,"name":"conspicuous","steam_id":76561198299453423,"connected_time":3548000000000,"state":"active","ping":83},{"user_id":165,"name":"ShadowStorm","steam_id":76561199065526840,"connected_time":740000000000,"state":"active","ping":109},{"user_id":175,"name":"walkonfever","steam_id":76561198813574552,"connected_time":33000000000,"state":"active","ping":64},{"user_id":174,"name":"Chirox","steam_id":76561198034516923,"connected_time":168000000000,"state":"active","ping":75},{"user_id":163,"name":"Krazetrain:76YT","steam_id":76561198284628604,"connected_time":1088000000000,"state":"active","ping":73},{"user_id":140,"name":"5S-407 | R. Andy","steam_id":76561199041782986,"connected_time":2463000000000,"state":"active","ping":87},{"user_id":143,"name":"Máquina de Fuego","steam_id":76561198119445407,"connected_time":2442000000000,"state":"active","ping":57},{"user_id":172,"name":"Burny Sanders","steam_id":76561197961879048,"connected_time":349000000000,"state":"active","ping":47},{"user_id":145,"name":"gio","steam_id":76561198139781520,"connected_time":2436000000000,"state":"active","ping":104},{"user_id":149,"name":"like a g6","steam_id":76561199161322235,"connected_time":2207000000000,"state":"active","ping":72},{"user_id":157,"name":"Fands","steam_id":76561198122243735,"connected_time":1569000000000,"state":"active","ping":93},{"user_id":168,"name":"Snoman","steam_id":76561197969248675,"connected_time":608000000000,"state":"active","ping":90}]},{"server_id":405,"name":"Uncletopia | Dallas | 4 | Community","name_short":"dal-4","host":"dal-1.us.uncletopia.com","port":27045,"enabled":true,"region":"us-central","cc":"us","latitude":32.779167,"longitude":-96.80889,"reserved":0,"last_update":"0001-01-01T00:00:00Z","name_a2s":"Uncletopia | Dallas | 4 | Community","protocol":17,"map":"workshop/koth_product_final.ugc454272353","folder":"tf","game":"Team Fortress","app_id":440,"player_count":0,"max_players":24,"Bots":0,"server_type":"Dedicated","server_os":"Linux","password":true,"vac":true,"version":"7961495","steam_id":85568392924515220,"keywords":["cp","nocrits","nodmgspread","uncletopia"],"game_id":440,"stv_port":27046,"stv_name":"Uncletopia | Dallas | 4 | Community | STV","players":null},{"server_id":5,"name":"Uncletopia | Frankfurt | 1 | All Maps","name_short":"frk-1","host":"frk-1.de.uncletopia.com","port":27015,"enabled":true,"region":"eu","cc":"de","latitude":50.110924,"longitude":8.682127,"reserved":0,"last_update":"0001-01-01T00:00:00Z","name_a2s":"Uncletopia | Frankfurt | 1 | All Maps","protocol":17,"map":"ctf_doublecross","folder":"tf","game":"Team Fortress","app_id":440,"player_count":0,"max_players":24,"Bots":0,"server_type":"Dedicated","server_os":"Linux","password":true,"vac":true,"version":"7961495","steam_id":85568392924469989,"keywords":["ctf","nocrits","nodmgspread","uncletopia"],"game_id":440,"stv_port":27016,"stv_name":"Uncletopia | Frankfurt | 1 | All Maps | STV","players":null},{"server_id":110,"name":"Uncletopia | Frankfurt | 2 | All Maps","name_short":"frk-2","host":"frk-1.de.uncletopia.com","port":27025,"enabled":true,"region":"eu","cc":"de","latitude":50.110924,"longitude":8.682127,"reserved":0,"last_update":"0001-01-01T00:00:00Z","name_a2s":"Uncletopia | Frankfurt | 2 | All Maps","protocol":17,"map":"cp_coldfront","folder":"tf","game":"Team Fortress","app_id":440,"player_count":0,"max_players":24,"Bots":0,"server_type":"Dedicated","server_os":"Linux","password":true,"vac":true,"version":"7961495","steam_id":85568392924469990,"keywords":["cp","nocrits","nodmgspread","uncletopia"],"game_id":440,"stv_port":27026,"stv_name":"Uncletopia | Frankfurt | 2 | All Maps | STV","players":null},{"server_id":308,"name":"Uncletopia | Frankfurt | 3 | All Maps","name_short":"frk-3","host":"frk-1.de.uncletopia.com","port":27035,"enabled":true,"region":"eu","cc":"de","latitude":50.110924,"longitude":8.682127,"reserved":0,"last_update":"0001-01-01T00:00:00Z","name_a2s":"Uncletopia | Frankfurt | 3 | All Maps","protocol":17,"map":"plr_pipeline","folder":"tf","game":"Team Fortress","app_id":440,"player_count":0,"max_players":24,"Bots":0,"server_type":"Dedicated","server_os":"Linux","password":true,"vac":true,"version":"7961495","steam_id":85568392924504274,"keywords":["nocrits","nodmgspread","payload","uncletopia"],"game_id":440,"stv_port":27036,"stv_name":"Uncletopia | Frankfurt | 3 | All Maps | STV","players":null},{"server_id":309,"name":"Uncletopia | Frankfurt | 4 | All Maps","name_short":"frk-4","host":"frk-1.de.uncletopia.com","port":27045,"enabled":true,"region":"eu","cc":"de","latitude":50.110924,"longitude":8.682127,"reserved":0,"last_update":"0001-01-01T00:00:00Z","name_a2s":"Uncletopia | Frankfurt | 4 | All Maps","protocol":17,"map":"koth_lakeside_final","folder":"tf","game":"Team Fortress","app_id":440,"player_count":0,"max_players":24,"Bots":0,"server_type":"Dedicated","server_os":"Linux","password":true,"vac":true,"version":"7961495","steam_id":85568392924504275,"keywords":["cp","nocrits","nodmgspread","uncletopia"],"game_id":440,"stv_port":27046,"stv_name":"Uncletopia | Frankfurt | 4 | All Maps | STV","players":null},{"server_id":310,"name":"Uncletopia | Frankfurt | 5 | All Maps","name_short":"frk-5","host":"frk-1.de.uncletopia.com","port":27055,"enabled":true,"region":"eu","cc":"de","latitude":50.110924,"longitude":8.682127,"reserved":0,"last_update":"0001-01-01T00:00:00Z","name_a2s":"Uncletopia | Frankfurt | 5 | All Maps","protocol":17,"map":"ctf_landfall","folder":"tf","game":"Team Fortress","app_id":440,"player_count":0,"max_players":24,"Bots":0,"server_type":"Dedicated","server_os":"Linux","password":true,"vac":true,"version":"7961495","steam_id":85568392924504277,"keywords":["ctf","nocrits","nodmgspread","uncletopia"],"game_id":440,"stv_port":27056,"stv_name":"Uncletopia | Frankfurt | 5 | All Maps | STV","players":null},{"server_id":311,"name":"Uncletopia | Frankfurt | 6 | All Maps","name_short":"frk-6","host":"frk-1.de.uncletopia.com","port":27065,"enabled":true,"region":"eu","cc":"de","latitude":50.110924,"longitude":8.682127,"reserved":0,"last_update":"0001-01-01T00:00:00Z","name_a2s":"Uncletopia | Frankfurt | 6 | All Maps","protocol":17,"map":"cp_steel","folder":"tf","game":"Team Fortress","app_id":440,"player_count":0,"max_players":24,"Bots":0,"server_type":"Dedicated","server_os":"Linux","password":true,"vac":true,"version":"7961495","steam_id":85568392924504278,"keywords":["cp","nocrits","nodmgspread","uncletopia"],"game_id":440,"stv_port":27066,"stv_name":"Uncletopia | Frankfurt | 6 | All Maps | STV","players":null},{"server_id":23,"name":"Uncletopia | Frankfurt | 7 | Stopwatch","name_short":"frk-7","host":"frk-1.de.uncletopia.com","port":27075,"enabled":true,"region":"eu","cc":"de","latitude":50.110924,"longitude":8.682127,"reserved":0,"last_update":"0001-01-01T00:00:00Z","name_a2s":"Uncletopia | Frankfurt | 7 | Stopwatch","protocol":17,"map":"koth_highpass","folder":"tf","game":"Team Fortress","app_id":440,"player_count":0,"max_players":24,"Bots":0,"server_type":"Dedicated","server_os":"Linux","password":true,"vac":true,"version":"7961495","steam_id":85568392924742827,"keywords":["cp","nocrits","nodmgspread","uncletopia"],"game_id":440,"stv_port":27076,"stv_name":"Uncletopia | Frankfurt | 7 | Stopwatch | STV","players":null},{"server_id":24,"name":"Uncletopia | Frankfurt | 8 | Community","name_short":"frk-8","host":"frk-1.de.uncletopia.com","port":27085,"enabled":true,"region":"eu","cc":"de","latitude":50.110924,"longitude":8.682127,"reserved":0,"last_update":"0001-01-01T00:00:00Z","name_a2s":"Uncletopia | Frankfurt | 8 | Community","protocol":17,"map":"workshop/pl_stallberg_rc3.ugc1849111469","folder":"tf","game":"Team Fortress","app_id":440,"player_count":0,"max_players":24,"Bots":0,"server_type":"Dedicated","server_os":"Linux","password":true,"vac":true,"version":"7961495","steam_id":85568392924742828,"keywords":["nocrits","nodmgspread","payload","uncletopia"],"game_id":440,"stv_port":27086,"stv_name":"Uncletopia | Frankfurt | 8 | Community | STV","players":null},{"server_id":202,"name":"Uncletopia | Hong Kong | 1 | All Maps","name_short":"hgk-1","host":"hgk-1.hk.uncletopia.com","port":27015,"enabled":true,"region":"asia","cc":"hk","latitude":22.302711,"longitude":114.177216,"reserved":0,"last_update":"0001-01-01T00:00:00Z","name_a2s":"Uncletopia | Hong Kong | 1 | All Maps","protocol":17,"map":"cp_gorge","folder":"tf","game":"Team Fortress","app_id":440,"player_count":0,"max_players":24,"Bots":0,"server_type":"Dedicated","server_os":"Linux","password":true,"vac":true,"version":"7961495","steam_id":85568392924494504,"keywords":["cp","nocrits","nodmgspread","uncletopia"],"game_id":440,"stv_port":27016,"stv_name":"Uncletopia | Hong Kong | 1 | All Maps | STV","players":null},{"server_id":1,"name":"Uncletopia | Los Angeles | 1 | All Maps","name_short":"lax-1","host":"lax-1.us.uncletopia.com","port":27015,"enabled":true,"region":"us-west","cc":"us","latitude":33.94279,"longitude":-118.41004,"reserved":0,"last_update":"0001-01-01T00:00:00Z","name_a2s":"Uncletopia | Los Angeles | 1 | All Maps","protocol":17,"map":"pl_upward","folder":"tf","game":"Team Fortress","app_id":440,"player_count":7,"max_players":24,"Bots":0,"server_type":"Dedicated","server_os":"Linux","password":true,"vac":true,"version":"7961495","steam_id":85568392924469991,"keywords":["nocrits","nodmgspread","payload","uncletopia"],"game_id":440,"stv_port":27016,"stv_name":"Uncletopia | Los Angeles | 1 | All Maps | STV","players":[{"user_id":414,"name":"Tavarish","steam_id":76561199440563080,"connected_time":87000000000,"state":"active","ping":89},{"user_id":408,"name":"jdm","steam_id":76561199497603020,"connected_time":998000000000,"state":"active","ping":45},{"user_id":412,"name":"Mix56374","steam_id":76561199093717909,"connected_time":195000000000,"state":"active","ping":66},{"user_id":413,"name":"The Gremlin","steam_id":76561198419066993,"connected_time":121000000000,"state":"active","ping":77},{"user_id":400,"name":"chimplicity","steam_id":76561198012097062,"connected_time":2212000000000,"state":"active","ping":54},{"user_id":402,"name":"Mud","steam_id":76561198356426602,"connected_time":1689000000000,"state":"active","ping":37},{"user_id":406,"name":"UR Dad","steam_id":76561198892751522,"connected_time":1177000000000,"state":"active","ping":43}]},{"server_id":112,"name":"Uncletopia | Los Angeles | 2 | All Maps","name_short":"lax-2","host":"lax-1.us.uncletopia.com","port":27025,"enabled":true,"region":"us-west","cc":"us","latitude":33.94279,"longitude":-118.41004,"reserved":0,"last_update":"0001-01-01T00:00:00Z","name_a2s":"Uncletopia | Los Angeles | 2 | All Maps","protocol":17,"map":"pl_upward","folder":"tf","game":"Team Fortress","app_id":440,"player_count":24,"max_players":24,"Bots":0,"server_type":"Dedicated","server_os":"Linux","password":true,"vac":true,"version":"7961495","steam_id":85568392924469992,"keywords":["nocrits","nodmgspread","payload","uncletopia"],"game_id":440,"stv_port":27026,"stv_name":"Uncletopia | Los Angeles | 2 | All Maps | STV","players":[{"user_id":62,"name":"orchidectomy","steam_id":76561198153428730,"connected_time":611000000000,"state":"active","ping":113},{"user_id":33,"name":"Brody Yukin","steam_id":76561198084712019,"connected_time":2050000000000,"state":"active","ping":59},{"user_id":63,"name":"Rizzo The Rat","steam_id":76561199013385536,"connected_time":598000000000,"state":"active","ping":47},{"user_id":37,"name":"Rat Smacker","steam_id":76561198077101417,"connected_time":2026000000000,"state":"active","ping":56},{"user_id":59,"name":"Andrew Tate's Third Nipple","steam_id":76561198066142119,"connected_time":803000000000,"state":"active","ping":61},{"user_id":17,"name":"MegaBitmap","steam_id":76561198086027059,"connected_time":2903000000000,"state":"active","ping":79},{"user_id":49,"name":"imma let my nuts hang","steam_id":76561198097544038,"connected_time":1670000000000,"state":"active","ping":59},{"user_id":19,"name":"Argon","steam_id":76561199254804349,"connected_time":2687000000000,"state":"active","ping":107},{"user_id":52,"name":"A UsedNom","steam_id":76561198402832756,"connected_time":1628000000000,"state":"active","ping":44},{"user_id":60,"name":"walrooos","steam_id":76561198024521839,"connected_time":685000000000,"state":"active","ping":38},{"user_id":22,"name":"legalize nuclear bombs","steam_id":76561198072789439,"connected_time":2464000000000,"state":"active","ping":76},{"user_id":55,"name":"goofy","steam_id":76561199072142013,"connected_time":1601000000000,"state":"active","ping":66},{"user_id":64,"name":"ForAPessimistImPrettyOptimistic","steam_id":76561198170128009,"connected_time":563000000000,"state":"active","ping":57},{"user_id":53,"name":"uncle pill","steam_id":76561199489628991,"connected_time":1622000000000,"state":"active","ping":73},{"user_id":56,"name":"balls","steam_id":76561198058890821,"connected_time":1520000000000,"state":"active","ping":96},{"user_id":27,"name":"Omega\"Hell's Wall\"EXE","steam_id":76561198395291970,"connected_time":2219000000000,"state":"active","ping":48},{"user_id":31,"name":"Saggle","steam_id":76561198056075147,"connected_time":2126000000000,"state":"active","ping":166},{"user_id":66,"name":"Lucky","steam_id":76561198124910662,"connected_time":4000000000,"state":"spawning","ping":55},{"user_id":30,"name":"Devine Prophet","steam_id":76561198886614052,"connected_time":2159000000000,"state":"active","ping":96},{"user_id":35,"name":"Pile of Spinach","steam_id":76561198043068841,"connected_time":2044000000000,"state":"active","ping":71},{"user_id":43,"name":"Synergy","steam_id":76561198098630198,"connected_time":1788000000000,"state":"active","ping":60},{"user_id":58,"name":"Imabox32","steam_id":76561199206177858,"connected_time":1007000000000,"state":"active","ping":79},{"user_id":65,"name":"Drakon","steam_id":76561198078210822,"connected_time":539000000000,"state":"active","ping":54},{"user_id":40,"name":"moe","steam_id":76561198929586245,"connected_time":1983000000000,"state":"active","ping":54}]},{"server_id":324,"name":"Uncletopia | Los Angeles | 3 | All Maps","name_short":"lax-3","host":"lax-1.us.uncletopia.com","port":27035,"enabled":true,"region":"us-west","cc":"us","latitude":33.94279,"longitude":-118.41004,"reserved":0,"last_update":"0001-01-01T00:00:00Z","name_a2s":"Uncletopia | Los Angeles | 3 | All Maps","protocol":17,"map":"koth_cascade","folder":"tf","game":"Team Fortress","app_id":440,"player_count":0,"max_players":24,"Bots":0,"server_type":"Dedicated","server_os":"Linux","password":true,"vac":true,"version":"7961495","steam_id":85568392924510198,"keywords":["cp","nocrits","nodmgspread","uncletopia"],"game_id":440,"stv_port":27036,"stv_name":"Uncletopia | Los Angeles | 3 | All Maps | STV","players":null},{"server_id":25,"name":"Uncletopia | Los Angeles | 4 | Stopwatch","name_short":"lax-4","host":"lax-1.us.uncletopia.com","port":27045,"enabled":true,"region":"us-west","cc":"us","latitude":33.94279,"longitude":-118.41004,"reserved":0,"last_update":"0001-01-01T00:00:00Z","name_a2s":"Uncletopia | Los Angeles | 4 | Stopwatch","protocol":17,"map":"pl_swiftwater_final1","folder":"tf","game":"Team Fortress","app_id":440,"player_count":0,"max_players":24,"Bots":0,"server_type":"Dedicated","server_os":"Linux","password":true,"vac":true,"version":"7961495","steam_id":85568392924510199,"keywords":["nocrits","nodmgspread","payload","uncletopia"],"game_id":440,"stv_port":27046,"stv_name":"Uncletopia | Los Angeles | 4 | Stopwatch | STV","players":null},{"server_id":11,"name":"Uncletopia | London | 1 | All Maps","name_short":"lon-1","host":"lon-1.uk.uncletopia.com","port":27015,"enabled":true,"region":"eu","cc":"gb","latitude":51.509865,"longitude":-0.118092,"reserved":0,"last_update":"0001-01-01T00:00:00Z","name_a2s":"Uncletopia | London | 1 | All Maps","protocol":17,"map":"koth_highpass","folder":"tf","game":"Team Fortress","app_id":440,"player_count":0,"max_players":24,"Bots":0,"server_type":"Dedicated","server_os":"Linux","password":true,"vac":true,"version":"7961495","steam_id":85568392924367362,"keywords":["cp","nocrits","nodmgspread","uncletopia"],"game_id":440,"stv_port":27016,"stv_name":"Uncletopia | London | 1 | All Maps | STV","players":null},{"server_id":114,"name":"Uncletopia | London | 2 | All Maps","name_short":"lon-2","host":"lon-1.uk.uncletopia.com","port":27025,"enabled":true,"region":"eu","cc":"gb","latitude":51.509865,"longitude":-0.118092,"reserved":0,"last_update":"0001-01-01T00:00:00Z","name_a2s":"Uncletopia | London | 2 | All Maps","protocol":17,"map":"cp_sunshine","folder":"tf","game":"Team Fortress","app_id":440,"player_count":2,"max_players":24,"Bots":0,"server_type":"Dedicated","server_os":"Linux","password":true,"vac":true,"version":"7961495","steam_id":85568392924470941,"keywords":["cp","nocrits","nodmgspread","uncletopia"],"game_id":440,"stv_port":27026,"stv_name":"Uncletopia | London | 2 | All Maps | STV","players":[{"user_id":864,"name":"vi","steam_id":76561198303147966,"connected_time":5161000000000,"state":"active","ping":50},{"user_id":889,"name":"Gitt Midgetstien","steam_id":76561198006890639,"connected_time":1926000000000,"state":"active","ping":142}]},{"server_id":320,"name":"Uncletopia | London | 3 | All Maps","name_short":"lon-3","host":"lon-1.uk.uncletopia.com","port":27035,"enabled":true,"region":"eu","cc":"gb","latitude":51.509865,"longitude":-0.118092,"reserved":0,"last_update":"0001-01-01T00:00:00Z","name_a2s":"Uncletopia | London | 3 | All Maps","protocol":17,"map":"cp_mountainlab","folder":"tf","game":"Team Fortress","app_id":440,"player_count":0,"max_players":24,"Bots":0,"server_type":"Dedicated","server_os":"Linux","password":true,"vac":true,"version":"7961495","steam_id":85568392924510192,"keywords":["cp","nocrits","nodmgspread","uncletopia"],"game_id":440,"stv_port":27036,"stv_name":"Uncletopia | London | 3 | All Maps | STV","players":null},{"server_id":321,"name":"Uncletopia | London | 4 | All Maps","name_short":"lon-4","host":"lon-1.uk.uncletopia.com","port":27045,"enabled":true,"region":"eu","cc":"gb","latitude":51.509865,"longitude":-0.118092,"reserved":0,"last_update":"0001-01-01T00:00:00Z","name_a2s":"Uncletopia | London | 4 | All Maps","protocol":17,"map":"cp_gorge","folder":"tf","game":"Team Fortress","app_id":440,"player_count":0,"max_players":24,"Bots":0,"server_type":"Dedicated","server_os":"Linux","password":true,"vac":true,"version":"7961495","steam_id":85568392924510193,"keywords":["cp","nocrits","nodmgspread","uncletopia"],"game_id":440,"stv_port":27046,"stv_name":"Uncletopia | London | 4 | All Maps | STV","players":null},{"server_id":21,"name":"Uncletopia | London | 5 | All Maps","name_short":"lon-5","host":"lon-1.uk.uncletopia.com","port":27055,"enabled":true,"region":"eu","cc":"gb","latitude":51.509865,"longitude":-0.118092,"reserved":0,"last_update":"0001-01-01T00:00:00Z","name_a2s":"Uncletopia | London | 5 | All Maps","protocol":17,"map":"koth_harvest_final","folder":"tf","game":"Team Fortress","app_id":440,"player_count":4,"max_players":24,"Bots":0,"server_type":"Dedicated","server_os":"Linux","password":true,"vac":true,"version":"7961495","steam_id":85568392924742829,"keywords":["cp","nocrits","nodmgspread","uncletopia"],"game_id":440,"stv_port":27056,"stv_name":"Uncletopia | London | 5 | All Maps | STV","players":[{"user_id":32,"name":"FanFish","steam_id":76561199389558024,"connected_time":1250000000000,"state":"active","ping":67},{"user_id":33,"name":"Jacket","steam_id":76561199163234710,"connected_time":1142000000000,"state":"active","ping":111},{"user_id":31,"name":"Jotun","steam_id":76561199015161498,"connected_time":1410000000000,"state":"active","ping":73},{"user_id":36,"name":"jonbob","steam_id":76561197963506620,"connected_time":104000000000,"state":"active","ping":46}]},{"server_id":22,"name":"Uncletopia | London | 6 | All Maps","name_short":"lon-6","host":"lon-1.uk.uncletopia.com","port":27065,"enabled":true,"region":"eu","cc":"gb","latitude":51.509865,"longitude":-0.118092,"reserved":0,"last_update":"0001-01-01T00:00:00Z","name_a2s":"Uncletopia | London | 6 | All Maps","protocol":17,"map":"koth_cascade","folder":"tf","game":"Team Fortress","app_id":440,"player_count":0,"max_players":24,"Bots":0,"server_type":"Dedicated","server_os":"Linux","password":true,"vac":true,"version":"7961495","steam_id":85568392924742830,"keywords":["cp","nocrits","nodmgspread","uncletopia"],"game_id":440,"stv_port":27066,"stv_name":"Uncletopia | London | 6 | All Maps | STV","players":null},{"server_id":40,"name":"Uncletopia | London | 7 | Stopwatch","name_short":"lon-7","host":"lon-1.uk.uncletopia.com","port":27075,"enabled":true,"region":"eu","cc":"gb","latitude":51.509865,"longitude":-0.118092,"reserved":0,"last_update":"0001-01-01T00:00:00Z","name_a2s":"Uncletopia | London | 7 | Stopwatch","protocol":17,"map":"pl_swiftwater_final1","folder":"tf","game":"Team Fortress","app_id":440,"player_count":0,"max_players":24,"Bots":0,"server_type":"Dedicated","server_os":"Linux","password":true,"vac":true,"version":"7961495","steam_id":85568392924964314,"keywords":["nocrits","nodmgspread","payload","uncletopia"],"game_id":440,"stv_port":27076,"stv_name":"Uncletopia | London | 7 | Stopwatch | STV","players":null},{"server_id":41,"name":"Uncletopia | London | 8 | Community","name_short":"lon-8","host":"lon-1.uk.uncletopia.com","port":27085,"enabled":true,"region":"eu","cc":"gb","latitude":51.509865,"longitude":-0.118092,"reserved":0,"last_update":"0001-01-01T00:00:00Z","name_a2s":"Uncletopia | London | 8 | Community","protocol":17,"map":"workshop/koth_bagel_rc6.ugc2514036946","folder":"tf","game":"Team Fortress","app_id":440,"player_count":0,"max_players":24,"Bots":0,"server_type":"Dedicated","server_os":"Linux","password":true,"vac":true,"version":"7961495","steam_id":85568392924964315,"keywords":["cp","nocrits","nodmgspread","uncletopia"],"game_id":440,"stv_port":27086,"stv_name":"Uncletopia | London | 8 | Community | STV","players":null},{"server_id":300,"name":"Uncletopia | Montréal | 1 | One Thousand Uncles","name_short":"mtl-1","host":"mtl-1.ca.uncletopia.com","port":27015,"enabled":true,"region":"us-east","cc":"ca","latitude":45.50889,"longitude":-73.56167,"reserved":0,"last_update":"0001-01-01T00:00:00Z","name_a2s":"Uncletopia | Montréal | 1 | One Thousand Uncles","protocol":17,"map":"cp_dustbowl","folder":"tf","game":"Team Fortress","app_id":440,"player_count":0,"max_players":32,"Bots":0,"server_type":"Dedicated","server_os":"Linux","password":true,"vac":true,"version":"7961495","steam_id":85568392924500087,"keywords":["alltalk","cp","danepve","increased_maxplayers","norespawntime","uncletopia"],"game_id":440,"stv_port":0,"stv_name":"","players":null},{"server_id":301,"name":"Uncletopia | Montréal | 2 | One Thousand Uncles","name_short":"mtl-2","host":"mtl-1.ca.uncletopia.com","port":27025,"enabled":true,"region":"us-east","cc":"ca","latitude":45.50889,"longitude":-73.56167,"reserved":0,"last_update":"0001-01-01T00:00:00Z","name_a2s":"Uncletopia | Montréal | 2 | One Thousand Uncles","protocol":17,"map":"pl_thundermountain","folder":"tf","game":"Team Fortress","app_id":440,"player_count":24,"max_players":32,"Bots":20,"server_type":"Dedicated","server_os":"Linux","password":true,"vac":true,"version":"7961495","steam_id":85568392924500088,"keywords":["alltalk","bots","danepve","increased_maxplayers","norespawntime","payload","uncletopia"],"game_id":440,"stv_port":0,"stv_name":"","players":[{"user_id":235,"name":"Herman Bavinck","steam_id":76561197993190216,"connected_time":976000000000,"state":"active","ping":55},{"user_id":238,"name":"ZenkoZSprite","steam_id":76561198190132250,"connected_time":325000000000,"state":"active","ping":61},{"user_id":209,"name":"poon","steam_id":76561198049740395,"connected_time":3058000000000,"state":"active","ping":56},{"user_id":211,"name":"the infamous ball grabber","steam_id":76561198075325837,"connected_time":2320000000000,"state":"active","ping":66}]},{"server_id":302,"name":"Uncletopia | Montréal | 3 | One Thousand Uncles","name_short":"mtl-3","host":"mtl-1.ca.uncletopia.com","port":27035,"enabled":true,"region":"us-east","cc":"ca","latitude":45.50889,"longitude":-73.56167,"reserved":0,"last_update":"0001-01-01T00:00:00Z","name_a2s":"Uncletopia | Montréal | 3 | One Thousand Uncles","protocol":17,"map":"pl_upward","folder":"tf","game":"Team Fortress","app_id":440,"player_count":0,"max_players":32,"Bots":0,"server_type":"Dedicated","server_os":"Linux","password":true,"vac":true,"version":"7961495","steam_id":85568392924500089,"keywords":["alltalk","danepve","increased_maxplayers","norespawntime","payload","uncletopia"],"game_id":440,"stv_port":0,"stv_name":"","players":null},{"server_id":13,"name":"Uncletopia | New York City | 1 | All Maps","name_short":"nyc-1","host":"nyc-1.us.uncletopia.com","port":27015,"enabled":true,"region":"us-east","cc":"us","latitude":40.73061,"longitude":-73.93524,"reserved":0,"last_update":"0001-01-01T00:00:00Z","name_a2s":"Uncletopia | New York City | 1 | All Maps","protocol":17,"map":"cp_mountainlab","folder":"tf","game":"Team Fortress","app_id":440,"player_count":24,"max_players":24,"Bots":0,"server_type":"Dedicated","server_os":"Linux","password":true,"vac":true,"version":"7961495","steam_id":85568392924469993,"keywords":["cp","nocrits","nodmgspread","uncletopia"],"game_id":440,"stv_port":27016,"stv_name":"Uncletopia | New York City | 1 | All Maps | STV","players":[{"user_id":309,"name":"SPONGE :)","steam_id":76561198432719042,"connected_time":370000000000,"state":"active","ping":47},{"user_id":275,"name":"KitchenTiles","steam_id":76561198050355370,"connected_time":3497000000000,"state":"active","ping":46},{"user_id":311,"name":"custodian","steam_id":76561198058793778,"connected_time":125000000000,"state":"active","ping":57},{"user_id":312,"name":"Derechos humanos","steam_id":76561198100623946,"connected_time":94000000000,"state":"active","ping":103},{"user_id":253,"name":"trayer","steam_id":76561198050729672,"connected_time":6401000000000,"state":"active","ping":59},{"user_id":313,"name":"Maniac Hat","steam_id":76561199082942851,"connected_time":51000000000,"state":"active","ping":77},{"user_id":252,"name":"space man","steam_id":76561198066333670,"connected_time":6748000000000,"state":"active","ping":51},{"user_id":301,"name":"colee","steam_id":76561198092372478,"connected_time":1135000000000,"state":"active","ping":43},{"user_id":303,"name":"3nL4C4r4","steam_id":76561198019718894,"connected_time":1097000000000,"state":"active","ping":120},{"user_id":276,"name":"Rambly Dambly","steam_id":76561198844496567,"connected_time":3436000000000,"state":"active","ping":42},{"user_id":287,"name":"Meadow","steam_id":76561198283994771,"connected_time":2547000000000,"state":"active","ping":62},{"user_id":298,"name":"C Papi","steam_id":76561198027779564,"connected_time":1216000000000,"state":"active","ping":62},{"user_id":299,"name":"Shuu","steam_id":76561199199180558,"connected_time":1209000000000,"state":"active","ping":49},{"user_id":221,"name":"He rolls his own","steam_id":76561198058162684,"connected_time":9307000000000,"state":"active","ping":63},{"user_id":290,"name":"Pixelated Pussy","steam_id":76561198002511088,"connected_time":2371000000000,"state":"active","ping":116},{"user_id":293,"name":"Shack","steam_id":76561198035503322,"connected_time":2311000000000,"state":"active","ping":64},{"user_id":304,"name":"Barkin MADDOX","steam_id":76561198446108776,"connected_time":1045000000000,"state":"active","ping":46},{"user_id":305,"name":"doctor sex","steam_id":76561198029044617,"connected_time":1035000000000,"state":"active","ping":119},{"user_id":280,"name":"Foolishbuckle31","steam_id":76561198346249990,"connected_time":3081000000000,"state":"active","ping":84},{"user_id":262,"name":"Mr. Zaro Nama","steam_id":76561198266025511,"connected_time":5160000000000,"state":"active","ping":170},{"user_id":310,"name":"pipebombrater","steam_id":76561199029030831,"connected_time":172000000000,"state":"active","ping":81},{"user_id":284,"name":"NovaSc6ut","steam_id":76561198277163301,"connected_time":2926000000000,"state":"active","ping":84},{"user_id":307,"name":"awakelist","steam_id":76561199129744011,"connected_time":1027000000000,"state":"active","ping":101},{"user_id":308,"name":"Terror-Billy #SaveTF2","steam_id":76561198328141870,"connected_time":1013000000000,"state":"active","ping":66}]},{"server_id":14,"name":"Uncletopia | New York City | 2 | All Maps","name_short":"nyc-2","host":"nyc-1.us.uncletopia.com","port":27025,"enabled":true,"region":"us-east","cc":"us","latitude":40.73061,"longitude":-73.93524,"reserved":0,"last_update":"0001-01-01T00:00:00Z","name_a2s":"Uncletopia | New York City | 2 | All Maps","protocol":17,"map":"koth_lakeside_final","folder":"tf","game":"Team Fortress","app_id":440,"player_count":24,"max_players":24,"Bots":0,"server_type":"Dedicated","server_os":"Linux","password":true,"vac":true,"version":"7961495","steam_id":85568392924469994,"keywords":["cp","nocrits","nodmgspread","uncletopia"],"game_id":440,"stv_port":27026,"stv_name":"Uncletopia | New York City | 2 | All Maps | STV","players":[{"user_id":205,"name":"Fish Fisherman","steam_id":76561198018656022,"connected_time":1736000000000,"state":"active","ping":51},{"user_id":208,"name":"PurPle","steam_id":76561198050393396,"connected_time":1616000000000,"state":"active","ping":61},{"user_id":234,"name":"↑Slimbro","steam_id":76561198088926489,"connected_time":215000000000,"state":"active","ping":49},{"user_id":232,"name":"Yengozi","steam_id":76561198448764748,"connected_time":389000000000,"state":"active","ping":75},{"user_id":161,"name":"gumble","steam_id":76561197987805095,"connected_time":5423000000000,"state":"active","ping":105},{"user_id":228,"name":"Olimario","steam_id":76561198042216669,"connected_time":458000000000,"state":"active","ping":79},{"user_id":221,"name":"code jockey","steam_id":76561197986333893,"connected_time":1065000000000,"state":"active","ping":127},{"user_id":188,"name":"Rage Pyro","steam_id":76561197998285726,"connected_time":2996000000000,"state":"active","ping":97},{"user_id":186,"name":":o","steam_id":76561198964101426,"connected_time":3079000000000,"state":"active","ping":37},{"user_id":229,"name":"Jersey","steam_id":76561198445837011,"connected_time":451000000000,"state":"active","ping":82},{"user_id":225,"name":"DARLIIIIIIIIIIIIIING","steam_id":76561198055082693,"connected_time":595000000000,"state":"active","ping":66},{"user_id":226,"name":"let him cook","steam_id":76561198364121077,"connected_time":540000000000,"state":"active","ping":170},{"user_id":142,"name":"CRAZY engineer","steam_id":76561198887937902,"connected_time":5827000000000,"state":"active","ping":58},{"user_id":219,"name":"Passionate Map Researcher","steam_id":76561199490508357,"connected_time":1181000000000,"state":"active","ping":76},{"user_id":197,"name":"Jacknerik","steam_id":76561198041365662,"connected_time":2215000000000,"state":"active","ping":64},{"user_id":235,"name":"he suckin on my rick til i mort","steam_id":76561198310711692,"connected_time":188000000000,"state":"active","ping":164},{"user_id":227,"name":"wrongthink","steam_id":76561198830293087,"connected_time":518000000000,"state":"active","ping":59},{"user_id":233,"name":"Importality","steam_id":76561198049943127,"connected_time":231000000000,"state":"active","ping":83},{"user_id":217,"name":"Vac the Pharaoh","steam_id":76561198971866007,"connected_time":1225000000000,"state":"active","ping":99},{"user_id":231,"name":"Shrebbie","steam_id":76561198875230824,"connected_time":435000000000,"state":"active","ping":46},{"user_id":191,"name":"NeoN","steam_id":76561198117608366,"connected_time":2855000000000,"state":"active","ping":46},{"user_id":192,"name":"Dr Oshawott","steam_id":76561198042021629,"connected_time":2855000000000,"state":"active","ping":80},{"user_id":193,"name":"Snoogs","steam_id":76561198444880931,"connected_time":2823000000000,"state":"active","ping":65},{"user_id":204,"name":"Shemply","steam_id":76561198193658910,"connected_time":1820000000000,"state":"active","ping":93}]},{"server_id":15,"name":"Uncletopia | New York City | 3 | Stopwatch","name_short":"nyc-3","host":"nyc-1.us.uncletopia.com","port":27035,"enabled":true,"region":"us-east","cc":"us","latitude":40.73061,"longitude":-73.93524,"reserved":0,"last_update":"0001-01-01T00:00:00Z","name_a2s":"Uncletopia | New York City | 3 | Stopwatch","protocol":17,"map":"workshop/koth_clearcut_b15.ugc2107050255","folder":"tf","game":"Team Fortress","app_id":440,"player_count":0,"max_players":24,"Bots":0,"server_type":"Dedicated","server_os":"Linux","password":true,"vac":true,"version":"7961495","steam_id":85568392924742820,"keywords":["cp","nocrits","nodmgspread","uncletopia"],"game_id":440,"stv_port":27036,"stv_name":"Uncletopia | New York City | 3 | Stopwatch | STV","players":null},{"server_id":16,"name":"Uncletopia | New York City | 4 | Community","name_short":"nyc-4","host":"nyc-1.us.uncletopia.com","port":27045,"enabled":true,"region":"us-east","cc":"us","latitude":40.73061,"longitude":-73.93524,"reserved":0,"last_update":"0001-01-01T00:00:00Z","name_a2s":"Uncletopia | New York City | 4 | Community","protocol":17,"map":"workshop/cp_overgrown_rc8.ugc503939302","folder":"tf","game":"Team Fortress","app_id":440,"player_count":0,"max_players":24,"Bots":0,"server_type":"Dedicated","server_os":"Linux","password":true,"vac":true,"version":"7961495","steam_id":85568392924742821,"keywords":["cp","nocrits","nodmgspread","uncletopia"],"game_id":440,"stv_port":27046,"stv_name":"Uncletopia | New York City | 4 | Community | STV","players":null},{"server_id":142,"name":"Uncletopia | São Paulo | 1 | All Maps","name_short":"sao-1","host":"sao-1.br.uncletopia.com","port":27015,"enabled":true,"region":"sa","cc":"br","latitude":-23.533773,"longitude":-46.62529,"reserved":0,"last_update":"0001-01-01T00:00:00Z","name_a2s":"Uncletopia | São Paulo | 1 | All Maps","protocol":17,"map":"cp_snakewater_final1","folder":"tf","game":"Team Fortress","app_id":440,"player_count":0,"max_players":24,"Bots":0,"server_type":"Dedicated","server_os":"Linux","password":true,"vac":true,"version":"7961495","steam_id":85568392924469996,"keywords":["cp","nocrits","nodmgspread","uncletopia"],"game_id":440,"stv_port":27016,"stv_name":"Uncletopia | São Paulo | 1 | All Maps | STV","players":null},{"server_id":143,"name":"Uncletopia | São Paulo | 2 | Community","name_short":"sao-2","host":"sao-2.br.uncletopia.com","port":27015,"enabled":true,"region":"sa","cc":"br","latitude":-23.533773,"longitude":-46.62529,"reserved":0,"last_update":"0001-01-01T00:00:00Z","name_a2s":"Uncletopia | São Paulo | 2 | Community","protocol":17,"map":"workshop/koth_slaughter_rc1.ugc1712845210","folder":"tf","game":"Team Fortress","app_id":440,"player_count":0,"max_players":24,"Bots":0,"server_type":"Dedicated","server_os":"Linux","password":true,"vac":true,"version":"7961495","steam_id":85568392924485349,"keywords":["cp","nocrits","nodmgspread","uncletopia"],"game_id":440,"stv_port":27016,"stv_name":"Uncletopia | São Paulo | 2 | Community | STV","players":null},{"server_id":7,"name":"Uncletopia | Seattle | 1 | All Maps","name_short":"sea-1","host":"sea-1.us.uncletopia.com","port":27015,"enabled":true,"region":"us-west","cc":"us","latitude":47.608013,"longitude":-122.33517,"reserved":0,"last_update":"0001-01-01T00:00:00Z","name_a2s":"Uncletopia | Seattle | 1 | All Maps","protocol":17,"map":"pl_snowycoast","folder":"tf","game":"Team Fortress","app_id":440,"player_count":24,"max_players":24,"Bots":0,"server_type":"Dedicated","server_os":"Linux","password":true,"vac":true,"version":"7961495","steam_id":85568392924469997,"keywords":["nocrits","nodmgspread","payload","uncletopia"],"game_id":440,"stv_port":27016,"stv_name":"Uncletopia | Seattle | 1 | All Maps | STV","players":[{"user_id":484,"name":"self sufficient kitten ♥","steam_id":76561197960592612,"connected_time":3937000000000,"state":"active","ping":46},{"user_id":533,"name":"ArchmageF (dont uber me)","steam_id":76561197992246851,"connected_time":306000000000,"state":"active","ping":58},{"user_id":485,"name":"Xerkz","steam_id":76561198063335500,"connected_time":3936000000000,"state":"active","ping":75},{"user_id":522,"name":"Nom Skirrett","steam_id":76561198014600788,"connected_time":1376000000000,"state":"active","ping":60},{"user_id":521,"name":"supcupman","steam_id":76561198051513866,"connected_time":1388000000000,"state":"active","ping":76},{"user_id":493,"name":"ᴿᴺᴳ tofu","steam_id":76561198179138047,"connected_time":3429000000000,"state":"active","ping":70},{"user_id":491,"name":"soup","steam_id":76561198043209046,"connected_time":3697000000000,"state":"active","ping":71},{"user_id":429,"name":"Banana Man","steam_id":76561199012105803,"connected_time":8213000000000,"state":"active","ping":49},{"user_id":523,"name":"[TrC] Nosy","steam_id":76561197978859310,"connected_time":1337000000000,"state":"active","ping":62},{"user_id":528,"name":"The King of Piss World","steam_id":76561198082806956,"connected_time":1211000000000,"state":"active","ping":124},{"user_id":478,"name":"pan","steam_id":76561198093968095,"connected_time":4422000000000,"state":"active","ping":62},{"user_id":447,"name":"me when","steam_id":76561198256701755,"connected_time":6761000000000,"state":"active","ping":62},{"user_id":534,"name":"rat who can kickflip dot com","steam_id":76561198073620027,"connected_time":228000000000,"state":"active","ping":39},{"user_id":524,"name":"Pyrrhic Evolution","steam_id":76561198122053439,"connected_time":1327000000000,"state":"active","ping":70},{"user_id":505,"name":"ed","steam_id":76561198080475712,"connected_time":2523000000000,"state":"active","ping":60},{"user_id":525,"name":"TROY","steam_id":76561197983852176,"connected_time":1321000000000,"state":"active","ping":75},{"user_id":513,"name":"hazel","steam_id":76561198037292232,"connected_time":1963000000000,"state":"active","ping":129},{"user_id":535,"name":"pk;member delete","steam_id":76561198027321950,"connected_time":84000000000,"state":"active","ping":89},{"user_id":530,"name":"Joseph Stalin","steam_id":76561198126234142,"connected_time":1057000000000,"state":"active","ping":106},{"user_id":527,"name":"Skabbety","steam_id":76561198168044257,"connected_time":1319000000000,"state":"active","ping":45},{"user_id":480,"name":"❤ Ashleyyy ❤","steam_id":76561198056428303,"connected_time":4199000000000,"state":"active","ping":76},{"user_id":495,"name":"Themasterman75","steam_id":76561199385573293,"connected_time":3335000000000,"state":"active","ping":73},{"user_id":503,"name":"DaddyGalaxy","steam_id":76561198139697796,"connected_time":2661000000000,"state":"active","ping":57},{"user_id":520,"name":"rat gets the cheese","steam_id":76561198031234032,"connected_time":1497000000000,"state":"active","ping":103}]},{"server_id":119,"name":"Uncletopia | Seattle | 2 | All Maps","name_short":"sea-2","host":"sea-1.us.uncletopia.com","port":27025,"enabled":true,"region":"us-west","cc":"us","latitude":47.608013,"longitude":-122.33517,"reserved":0,"last_update":"0001-01-01T00:00:00Z","name_a2s":"Uncletopia | Seattle | 2 | All Maps","protocol":17,"map":"plr_bananabay","folder":"tf","game":"Team Fortress","app_id":440,"player_count":24,"max_players":24,"Bots":0,"server_type":"Dedicated","server_os":"Linux","password":true,"vac":true,"version":"7961495","steam_id":85568392924469998,"keywords":["nocrits","nodmgspread","payload","uncletopia"],"game_id":440,"stv_port":27026,"stv_name":"Uncletopia | Seattle | 2 | All Maps | STV","players":[{"user_id":294,"name":"fish (2:3)","steam_id":76561198134331073,"connected_time":1062000000000,"state":"active","ping":57},{"user_id":207,"name":"kiwi","steam_id":76561198052177917,"connected_time":5678000000000,"state":"active","ping":84},{"user_id":290,"name":"superbad","steam_id":76561198065913973,"connected_time":1353000000000,"state":"active","ping":73},{"user_id":258,"name":"ghor","steam_id":76561197994547132,"connected_time":2722000000000,"state":"active","ping":37},{"user_id":278,"name":"ImTallOk","steam_id":76561198405915670,"connected_time":1549000000000,"state":"active","ping":67},{"user_id":281,"name":"Asimodo","steam_id":76561198799781341,"connected_time":1524000000000,"state":"active","ping":73},{"user_id":306,"name":"johnman gooberguy","steam_id":76561199014859764,"connected_time":203000000000,"state":"active","ping":84},{"user_id":307,"name":"Moffein","steam_id":76561198016739296,"connected_time":161000000000,"state":"active","ping":53},{"user_id":305,"name":"pew pew","steam_id":76561198110661425,"connected_time":259000000000,"state":"active","ping":45},{"user_id":308,"name":"Dog + Cat + Frog + Moose","steam_id":76561198011675372,"connected_time":146000000000,"state":"active","ping":50},{"user_id":291,"name":"The Comedian","steam_id":76561198037780226,"connected_time":1322000000000,"state":"active","ping":75},{"user_id":262,"name":"Captain Buggy","steam_id":76561198024444448,"connected_time":2654000000000,"state":"active","ping":49},{"user_id":283,"name":"dunce","steam_id":76561198153399499,"connected_time":1513000000000,"state":"active","ping":83},{"user_id":295,"name":"Zebulon","steam_id":76561198025719753,"connected_time":1034000000000,"state":"active","ping":40},{"user_id":313,"name":"Slope115117","steam_id":76561199028794627,"connected_time":0,"state":"connecting","ping":0},{"user_id":275,"name":"mub","steam_id":76561197961943948,"connected_time":2092000000000,"state":"active","ping":33},{"user_id":298,"name":"IsleBound","steam_id":76561198278451717,"connected_time":627000000000,"state":"active","ping":102},{"user_id":310,"name":"Vroooooooooooooooom","steam_id":76561198139913628,"connected_time":72000000000,"state":"active","ping":97},{"user_id":297,"name":"bemo","steam_id":76561198344331503,"connected_time":756000000000,"state":"active","ping":45},{"user_id":299,"name":"jello","steam_id":76561199274158922,"connected_time":546000000000,"state":"active","ping":47},{"user_id":300,"name":"PPFitzenreit","steam_id":76561199381005210,"connected_time":492000000000,"state":"active","ping":88},{"user_id":311,"name":"Fish","steam_id":76561199016308078,"connected_time":47000000000,"state":"active","ping":75},{"user_id":257,"name":"ORANGE","steam_id":76561198000401769,"connected_time":2922000000000,"state":"active","ping":45},{"user_id":312,"name":"Mullz","steam_id":76561199124721324,"connected_time":18000000000,"state":"spawning","ping":78}]},{"server_id":406,"name":"Uncletopia | Seattle | 3 | Stopwatch","name_short":"sea-3","host":"sea-1.us.uncletopia.com","port":27035,"enabled":true,"region":"us-west","cc":"us","latitude":47.608013,"longitude":-122.33517,"reserved":0,"last_update":"0001-01-01T00:00:00Z","name_a2s":"Uncletopia | Seattle | 3 | Stopwatch","protocol":17,"map":"cp_gullywash_final1","folder":"tf","game":"Team Fortress","app_id":440,"player_count":0,"max_players":24,"Bots":0,"server_type":"Dedicated","server_os":"Linux","password":true,"vac":true,"version":"7961495","steam_id":85568392924515217,"keywords":["cp","nocrits","nodmgspread","uncletopia"],"game_id":440,"stv_port":27036,"stv_name":"Uncletopia | Seattle | 3 | Stopwatch | STV","players":null},{"server_id":17,"name":"Uncletopia | San Francisco | 1 | All Maps","name_short":"sfo-1","host":"sfo-1.us.uncletopia.com","port":27015,"enabled":true,"region":"us-west","cc":"us","latitude":37.77397,"longitude":-122.4313,"reserved":0,"last_update":"0001-01-01T00:00:00Z","name_a2s":"Uncletopia | San Francisco | 1 | All Maps","protocol":17,"map":"cp_steel","folder":"tf","game":"Team Fortress","app_id":440,"player_count":23,"max_players":24,"Bots":0,"server_type":"Dedicated","server_os":"Linux","password":true,"vac":true,"version":"7961495","steam_id":85568392924469999,"keywords":["cp","nocrits","nodmgspread","uncletopia"],"game_id":440,"stv_port":27016,"stv_name":"Uncletopia | San Francisco | 1 | All Maps | STV","players":[{"user_id":146,"name":"TortillaSocks","steam_id":76561199072745011,"connected_time":2792000000000,"state":"active","ping":59},{"user_id":158,"name":"comet","steam_id":76561197988366012,"connected_time":991000000000,"state":"active","ping":74},{"user_id":144,"name":"SoCal Kaizer","steam_id":76561198334361081,"connected_time":3167000000000,"state":"active","ping":77},{"user_id":149,"name":"Dr. Corg","steam_id":76561198039866005,"connected_time":2734000000000,"state":"active","ping":56},{"user_id":159,"name":"adadadasd","steam_id":76561198346038787,"connected_time":831000000000,"state":"active","ping":164},{"user_id":154,"name":"green bean","steam_id":76561198113099204,"connected_time":1643000000000,"state":"active","ping":38},{"user_id":124,"name":"FROYO b4nny","steam_id":76561197970669109,"connected_time":4607000000000,"state":"active","ping":61},{"user_id":118,"name":"Imitation Caucasian","steam_id":76561198320536166,"connected_time":4861000000000,"state":"active","ping":73},{"user_id":147,"name":"Secret Tunnel","steam_id":76561198272403112,"connected_time":2784000000000,"state":"active","ping":55},{"user_id":152,"name":"Junk","steam_id":76561198024382753,"connected_time":2293000000000,"state":"active","ping":89},{"user_id":156,"name":"Litwix","steam_id":76561198331286076,"connected_time":1176000000000,"state":"active","ping":134},{"user_id":43,"name":"Grassman (Cc)","steam_id":76561198026488532,"connected_time":10967000000000,"state":"active","ping":38},{"user_id":164,"name":"baunter","steam_id":76561198024311871,"connected_time":668000000000,"state":"active","ping":47},{"user_id":106,"name":"Lil B (Tha Based/God)","steam_id":76561198133195238,"connected_time":6481000000000,"state":"active","ping":75},{"user_id":161,"name":"darkrogue","steam_id":76561198025824429,"connected_time":701000000000,"state":"active","ping":42},{"user_id":157,"name":"They could be ********","steam_id":76561198441020995,"connected_time":1046000000000,"state":"active","ping":42},{"user_id":153,"name":"that one gnat in your ear","steam_id":76561199016285746,"connected_time":2169000000000,"state":"active","ping":96},{"user_id":162,"name":"Rat Cycle","steam_id":76561198113364714,"connected_time":690000000000,"state":"active","ping":98},{"user_id":163,"name":"Otsdarva","steam_id":76561198095914346,"connected_time":681000000000,"state":"active","ping":79},{"user_id":166,"name":"The King's Decree","steam_id":76561199507293603,"connected_time":627000000000,"state":"active","ping":120},{"user_id":141,"name":"I AM STONED DON'T KICK","steam_id":76561198116914740,"connected_time":3292000000000,"state":"active","ping":47},{"user_id":150,"name":"Brando","steam_id":76561198078306678,"connected_time":2722000000000,"state":"active","ping":99},{"user_id":168,"name":"boboguguz","steam_id":76561198334924459,"connected_time":530000000000,"state":"active","ping":73}]},{"server_id":18,"name":"Uncletopia | San Francisco | 2 | All Maps","name_short":"sfo-2","host":"sfo-1.us.uncletopia.com","port":27025,"enabled":true,"region":"us-west","cc":"us","latitude":37.77397,"longitude":-122.4313,"reserved":0,"last_update":"0001-01-01T00:00:00Z","name_a2s":"Uncletopia | San Francisco | 2 | All Maps","protocol":17,"map":"cp_dustbowl","folder":"tf","game":"Team Fortress","app_id":440,"player_count":0,"max_players":24,"Bots":0,"server_type":"Dedicated","server_os":"Linux","password":true,"vac":true,"version":"7961495","steam_id":85568392924470000,"keywords":["cp","nocrits","nodmgspread","uncletopia"],"game_id":440,"stv_port":27026,"stv_name":"Uncletopia | San Francisco | 2 | All Maps | STV","players":null},{"server_id":19,"name":"Uncletopia | San Francisco | 3 | Stopwatch","name_short":"sfo-3","host":"sfo-1.us.uncletopia.com","port":27035,"enabled":true,"region":"us-west","cc":"us","latitude":37.77397,"longitude":-122.4313,"reserved":0,"last_update":"0001-01-01T00:00:00Z","name_a2s":"Uncletopia | San Francisco | 3 | Stopwatch","protocol":17,"map":"workshop/koth_bagel_rc6.ugc2514036946","folder":"tf","game":"Team Fortress","app_id":440,"player_count":0,"max_players":24,"Bots":0,"server_type":"Dedicated","server_os":"Linux","password":true,"vac":true,"version":"7961495","steam_id":85568392924742824,"keywords":["cp","nocrits","nodmgspread","uncletopia"],"game_id":440,"stv_port":27036,"stv_name":"Uncletopia | San Francisco | 3 | Stopwatch | STV","players":null},{"server_id":20,"name":"Uncletopia | San Francisco | 4 | Community","name_short":"sfo-4","host":"sfo-1.us.uncletopia.com","port":27045,"enabled":true,"region":"us-west","cc":"us","latitude":37.77397,"longitude":-122.4313,"reserved":0,"last_update":"0001-01-01T00:00:00Z","name_a2s":"Uncletopia | San Francisco | 4 | Community","protocol":17,"map":"workshop/cp_hazyfort_rc6.ugc1365963729","folder":"tf","game":"Team Fortress","app_id":440,"player_count":0,"max_players":24,"Bots":0,"server_type":"Dedicated","server_os":"Linux","password":true,"vac":true,"version":"7961495","steam_id":85568392924742826,"keywords":["cp","nocrits","nodmgspread","uncletopia"],"game_id":440,"stv_port":27046,"stv_name":"Uncletopia | San Francisco | 4 | Community | STV","players":null},{"server_id":141,"name":"Uncletopia | Sydney | 1 | All Maps","name_short":"syd-1","host":"syd-1.au.uncletopia.com","port":27015,"enabled":true,"region":"au","cc":"au","latitude":-33.865143,"longitude":151.2099,"reserved":0,"last_update":"0001-01-01T00:00:00Z","name_a2s":"Uncletopia | Sydney | 1 | All Maps","protocol":17,"map":"cp_sunshine","folder":"tf","game":"Team Fortress","app_id":440,"player_count":0,"max_players":24,"Bots":0,"server_type":"Dedicated","server_os":"Linux","password":true,"vac":true,"version":"7961495","steam_id":85568392924470001,"keywords":["cp","nocrits","nodmgspread","uncletopia"],"game_id":440,"stv_port":27016,"stv_name":"Uncletopia | Sydney | 1 | All Maps | STV","players":null},{"server_id":123,"name":"Uncletopia | Sydney | 2 | All Maps","name_short":"syd-2","host":"syd-1.au.uncletopia.com","port":27025,"enabled":true,"region":"au","cc":"au","latitude":-33.865143,"longitude":151.2099,"reserved":0,"last_update":"0001-01-01T00:00:00Z","name_a2s":"Uncletopia | Sydney | 2 | All Maps","protocol":17,"map":"koth_highpass","folder":"tf","game":"Team Fortress","app_id":440,"player_count":0,"max_players":24,"Bots":0,"server_type":"Dedicated","server_os":"Linux","password":true,"vac":true,"version":"7961495","steam_id":85568392924470002,"keywords":["cp","nocrits","nodmgspread","uncletopia"],"game_id":440,"stv_port":27026,"stv_name":"Uncletopia | Sydney | 2 | All Maps | STV","players":null},{"server_id":395,"name":"Uncletopia | Sydney | 3 | All Maps","name_short":"syd-3","host":"syd-1.au.uncletopia.com","port":27035,"enabled":true,"region":"au","cc":"au","latitude":-33.865143,"longitude":151.2099,"reserved":0,"last_update":"0001-01-01T00:00:00Z","name_a2s":"Uncletopia | Sydney | 3 | All Maps","protocol":17,"map":"cp_sunshine","folder":"tf","game":"Team Fortress","app_id":440,"player_count":3,"max_players":24,"Bots":0,"server_type":"Dedicated","server_os":"Linux","password":true,"vac":true,"version":"7961495","steam_id":85568392925194467,"keywords":["cp","nocrits","nodmgspread","uncletopia"],"game_id":440,"stv_port":27036,"stv_name":"Uncletopia | Sydney | 3 | All Maps | STV","players":[{"user_id":13,"name":"CETERA .zap","steam_id":76561197986022470,"connected_time":682000000000,"state":"active","ping":64},{"user_id":11,"name":"Jesse","steam_id":76561198105982416,"connected_time":1239000000000,"state":"active","ping":45},{"user_id":12,"name":"the rot consumes","steam_id":76561198042198744,"connected_time":1233000000000,"state":"active","ping":38}]},{"server_id":396,"name":"Uncletopia | Sydney | 4 | All Maps","name_short":"syd-4","host":"syd-1.au.uncletopia.com","port":27045,"enabled":true,"region":"au","cc":"au","latitude":-33.865143,"longitude":151.2099,"reserved":0,"last_update":"0001-01-01T00:00:00Z","name_a2s":"Uncletopia | Sydney | 4 | All Maps","protocol":17,"map":"cp_snakewater_final1","folder":"tf","game":"Team Fortress","app_id":440,"player_count":0,"max_players":24,"Bots":0,"server_type":"Dedicated","server_os":"Linux","password":true,"vac":true,"version":"7961495","steam_id":85568392925397958,"keywords":["cp","nocrits","nodmgspread","uncletopia"],"game_id":440,"stv_port":27046,"stv_name":"Uncletopia | Sydney | 4 | All Maps | STV","players":null},{"server_id":58,"name":"Uncletopia | Sydney | 5 | Stopwatch","name_short":"syd-5","host":"syd-1.au.uncletopia.com","port":27055,"enabled":true,"region":"au","cc":"au","latitude":-33.865143,"longitude":151.2099,"reserved":0,"last_update":"0001-01-01T00:00:00Z","name_a2s":"Uncletopia | Sydney | 5 | Stopwatch","protocol":17,"map":"koth_highpass","folder":"tf","game":"Team Fortress","app_id":440,"player_count":0,"max_players":24,"Bots":0,"server_type":"Dedicated","server_os":"Linux","password":true,"vac":true,"version":"7961495","steam_id":85568392925397959,"keywords":["cp","nocrits","nodmgspread","uncletopia"],"game_id":440,"stv_port":27056,"stv_name":"Uncletopia | Sydney | 5 | Stopwatch | STV","players":null},{"server_id":59,"name":"Uncletopia | Sydney | 6 | Community","name_short":"syd-6","host":"syd-1.au.uncletopia.com","port":27065,"enabled":true,"region":"au","cc":"au","latitude":-33.865143,"longitude":151.2099,"reserved":0,"last_update":"0001-01-01T00:00:00Z","name_a2s":"Uncletopia | Sydney | 6 | Community","protocol":17,"map":"workshop/koth_soot_final1.ugc2969540689","folder":"tf","game":"Team Fortress","app_id":440,"player_count":0,"max_players":24,"Bots":0,"server_type":"Dedicated","server_os":"Linux","password":true,"vac":true,"version":"7961495","steam_id":85568392925397960,"keywords":["cp","nocrits","nodmgspread","uncletopia"],"game_id":440,"stv_port":27066,"stv_name":"Uncletopia | Sydney | 6 | Community | STV","players":null},{"server_id":49,"name":"Uncletopia | Warsaw | 1 | One Thousand Uncles","name_short":"waw-1","host":"waw-1.pl.uncletopia.com","port":27015,"enabled":true,"region":"eu","cc":"pl","latitude":52.2297,"longitude":21.017532,"reserved":0,"last_update":"0001-01-01T00:00:00Z","name_a2s":"Uncletopia | Warsaw | 1 | One Thousand Uncles","protocol":17,"map":"cp_dustbowl","folder":"tf","game":"Team Fortress","app_id":440,"player_count":21,"max_players":32,"Bots":20,"server_type":"Dedicated","server_os":"Linux","password":true,"vac":true,"version":"7961495","steam_id":85568392925397850,"keywords":["alltalk","bots","cp","danepve","increased_maxplayers","norespawntime","uncletopia"],"game_id":440,"stv_port":0,"stv_name":"","players":[{"user_id":627,"name":"AsuX","steam_id":76561197990333289,"connected_time":757000000000,"state":"active","ping":75}]},{"server_id":50,"name":"Uncletopia | Warsaw | 2 | One Thousand Uncles","name_short":"waw-2","host":"waw-1.pl.uncletopia.com","port":27025,"enabled":true,"region":"eu","cc":"pl","latitude":52.2297,"longitude":21.017532,"reserved":0,"last_update":"0001-01-01T00:00:00Z","name_a2s":"Uncletopia | Warsaw | 2 | One Thousand Uncles","protocol":17,"map":"pl_thundermountain","folder":"tf","game":"Team Fortress","app_id":440,"player_count":0,"max_players":32,"Bots":0,"server_type":"Dedicated","server_os":"Linux","password":true,"vac":true,"version":"7961495","steam_id":85568392925397851,"keywords":["alltalk","danepve","increased_maxplayers","norespawntime","payload","uncletopia"],"game_id":440,"stv_port":0,"stv_name":"","players":null},{"server_id":51,"name":"Uncletopia | Warsaw | 3 | All Maps","name_short":"waw-3","host":"waw-1.pl.uncletopia.com","port":27035,"enabled":true,"region":"eu","cc":"pl","latitude":52.2297,"longitude":21.017532,"reserved":0,"last_update":"0001-01-01T00:00:00Z","name_a2s":"Uncletopia | Warsaw | 3 | All Maps","protocol":17,"map":"pl_barnblitz","folder":"tf","game":"Team Fortress","app_id":440,"player_count":0,"max_players":24,"Bots":0,"server_type":"Dedicated","server_os":"Linux","password":true,"vac":true,"version":"7961495","steam_id":85568392925397852,"keywords":["nocrits","nodmgspread","payload","uncletopia"],"game_id":440,"stv_port":27036,"stv_name":"Uncletopia | Warsaw | 3 | All Maps | STV","players":null},{"server_id":52,"name":"Uncletopia | Warsaw | 4 | All Maps","name_short":"waw-4","host":"waw-1.pl.uncletopia.com","port":27045,"enabled":true,"region":"eu","cc":"pl","latitude":52.2297,"longitude":21.017532,"reserved":0,"last_update":"0001-01-01T00:00:00Z","name_a2s":"Uncletopia | Warsaw | 4 | All Maps","protocol":17,"map":"koth_viaduct","folder":"tf","game":"Team Fortress","app_id":440,"player_count":0,"max_players":24,"Bots":0,"server_type":"Dedicated","server_os":"Linux","password":true,"vac":true,"version":"7961495","steam_id":85568392925397853,"keywords":["cp","nocrits","nodmgspread","uncletopia"],"game_id":440,"stv_port":27046,"stv_name":"Uncletopia | Warsaw | 4 | All Maps | STV","players":null},{"server_id":53,"name":"Uncletopia | Warsaw | 5 | Stopwatch","name_short":"waw-5","host":"waw-1.pl.uncletopia.com","port":27055,"enabled":true,"region":"eu","cc":"pl","latitude":52.2297,"longitude":21.017532,"reserved":0,"last_update":"0001-01-01T00:00:00Z","name_a2s":"Uncletopia | Warsaw | 5 | Stopwatch","protocol":17,"map":"workshop/pl_summercoast_rc8e.ugc1761528829","folder":"tf","game":"Team Fortress","app_id":440,"player_count":0,"max_players":24,"Bots":0,"server_type":"Dedicated","server_os":"Linux","password":true,"vac":true,"version":"7961495","steam_id":85568392925397854,"keywords":["nocrits","nodmgspread","payload","uncletopia"],"game_id":440,"stv_port":27056,"stv_name":"Uncletopia | Warsaw | 5 | Stopwatch | STV","players":null},{"server_id":54,"name":"Uncletopia | Warsaw | 6 | Community","name_short":"waw-6","host":"waw-1.pl.uncletopia.com","port":27065,"enabled":true,"region":"eu","cc":"pl","latitude":52.2297,"longitude":21.017532,"reserved":0,"last_update":"0001-01-01T00:00:00Z","name_a2s":"Uncletopia | Warsaw | 6 | Community","protocol":17,"map":"workshop/cp_fulgur_rc2a.ugc2068252300","folder":"tf","game":"Team Fortress","app_id":440,"player_count":0,"max_players":24,"Bots":0,"server_type":"Dedicated","server_os":"Linux","password":true,"vac":true,"version":"7961495","steam_id":85568392925397856,"keywords":["cp","nocrits","nodmgspread","uncletopia"],"game_id":440,"stv_port":27066,"stv_name":"Uncletopia | Warsaw | 6 | Community | STV","players":null}]}