{"status":true,"message":"","result":[{"server_id":9,"name":"Uncletopia | Atlanta | 1 | All Maps","name_short":"atl-1","host":"atl-1.us.uncletopia.com","port":27015,"enabled":true,"region":"us-east","cc":"us","latitude":33.753746,"longitude":-84.38633,"reserved":0,"last_update":"0001-01-01T00:00:00Z","name_a2s":"Uncletopia | Atlanta | 1 | All Maps","protocol":17,"map":"cp_sunshine","folder":"tf","game":"Team Fortress","app_id":440,"player_count":24,"max_players":24,"Bots":0,"server_type":"Dedicated","server_os":"Linux","password":true,"vac":true,"version":"7708610","steam_id":85568392924469982,"keywords":["cp","nocrits","nodmgspread","uncletopia"],"game_id":440,"stv_port":27016,"stv_name":"Uncletopia | Atlanta | 1 | All Maps | STV","players":[{"user_id":327,"name":"rose","steam_id":76561198048882285,"connected_time":1751000000000,"state":"active","ping":59},{"user_id":323,"name":"The Dead Weight","steam_id":76561198056694098,"connected_time":2273000000000,"state":"active","ping":67},{"user_id":338,"name":"papa","steam_id":76561198109308860,"connected_time":376000000000,"state":"active","ping":60},{"user_id":285,"name":"abomination","steam_id":76561198167974713,"connected_time":6020000000000,"state":"active","ping":54},{"user_id":255,"name":"Pills","steam_id":76561198799440163,"connected_time":8455000000000,"state":"active","ping":93},{"user_id":325,"name":"Rockgraham101","steam_id":76561198171740458,"connected_time":2202000000000,"state":"active","ping":64},{"user_id":339,"name":"Taro","steam_id":76561198146782074,"connected_time":373000000000,"state":"active","ping":78},{"user_id":335,"name":"Vladikr1","steam_id":76561198401495362,"connected_time":414000000000,"state":"active","ping":87},{"user_id":289,"name":"cola","steam_id":76561198374390458,"connected_time":5058000000000,"state":"active","ping":58},{"user_id":326,"name":"David De Bergerac","steam_id":76561198010306294,"connected_time":2041000000000,"state":"active","ping":75},{"user_id":328,"name":"--_Cook_--","steam_id":76561198080855748,"connected_time":1668000000000,"state":"active","ping":47},{"user_id":296,"name":"Jhon Ultrakill","steam_id":76561198207877387,"connected_time":4315000000000,"state":"active","ping":97},{"user_id":337,"name":"Rat","steam_id":76561198137925582,"connected_time":396000000000,"state":"active","ping":68},{"user_id":256,"name":"shaderoses","steam_id":76561198070800500,"connected_time":8398000000000,"state":"active","ping":74},{"user_id":330,"name":"ATL1 | J O V A","steam_id":76561198090333536,"connected_time":1598000000000,"state":"active","ping":78},{"user_id":336,"name":"ATL6 Wingm4n","steam_id":76561198064127012,"connected_time":398000000000,"state":"active","ping":66},{"user_id":332,"name":"James","steam_id":76561198081313916,"connected_time":1025000000000,"state":"active","ping":117},{"user_id":286,"name":"inebriated newt fancier","steam_id":76561197985428155,"connected_time":5764000000000,"state":"active","ping":85},{"user_id":333,"name":"Gary Budussy","steam_id":76561197969793969,"connected_time":549000000000,"state":"active","ping":68},{"user_id":313,"name":"ATL6 Deez Noel","steam_id":76561198246700372,"connected_time":3382000000000,"state":"active","ping":69},{"user_id":314,"name":"Bogg","steam_id":76561198111417325,"connected_time":3060000000000,"state":"active","ping":75},{"user_id":340,"name":"Burilo","steam_id":76561198014445055,"connected_time":226000000000,"state":"active","ping":173},{"user_id":294,"name":"cl","steam_id":76561199436640904,"connected_time":4807000000000,"state":"active","ping":175},{"user_id":312,"name":"joe","steam_id":76561198045781320,"connected_time":3590000000000,"state":"active","ping":73}]},{"server_id":400,"name":"Uncletopia | Atlanta | 3 | All Maps","name_short":"atl-3","host":"atl-1.us.uncletopia.com","port":27035,"enabled":true,"region":"us-east","cc":"us","latitude":33.753746,"longitude":-84.38633,"reserved":0,"last_update":"0001-01-01T00:00:00Z","name_a2s":"Uncletopia | Atlanta | 3 | All Maps","protocol":17,"map":"pl_upward","folder":"tf","game":"Team Fortress","app_id":440,"player_count":0,"max_players":24,"Bots":0,"server_type":"Dedicated","server_os":"Linux","password":true,"vac":true,"version":"7708610","steam_id":85568392924515187,"keywords":["nocrits","nodmgspread","payload","uncletopia"],"game_id":440,"stv_port":27036,"stv_name":"Uncletopia | Atlanta | 3 | All Maps | STV","players":null},{"server_id":401,"name":"Uncletopia | Atlanta | 4 | No Payload","name_short":"atl-4","host":"atl-1.us.uncletopia.com","port":27045,"enabled":true,"region":"us-east","cc":"us","latitude":33.753746,"longitude":-84.38633,"reserved":0,"last_update":"0001-01-01T00:00:00Z","name_a2s":"Uncletopia | Atlanta | 4 | No Payload","protocol":17,"map":"plr_hightower","folder":"tf","game":"Team Fortress","app_id":440,"player_count":0,"max_players":24,"Bots":0,"server_type":"Dedicated","server_os":"Linux","password":true,"vac":true,"version":"7708610","steam_id":85568392924515188,"keywords":["nocrits","nodmgspread","payload","uncletopia"],"game_id":440,"stv_port":27046,"stv_name":"Uncletopia | Atlanta | 4 | No Payload | STV","players":null},{"server_id":2,"name":"Uncletopia | Chicago | 1 | All Maps","name_short":"chi-1","host":"chi-1.us.uncletopia.com","port":27015,"enabled":true,"region":"us-central","cc":"us","latitude":41.881832,"longitude":-87.62318,"reserved":0,"last_update":"0001-01-01T00:00:00Z","name_a2s":"Uncletopia | Chicago | 1 | All Maps","protocol":17,"map":"pl_pier","folder":"tf","game":"Team Fortress","app_id":440,"player_count":24,"max_players":24,"Bots":0,"server_type":"Dedicated","server_os":"Linux","password":true,"vac":true,"version":"7708610","steam_id":85568392924469984,"keywords":["nocrits","nodmgspread","payload","uncletopia"],"game_id":440,"stv_port":27016,"stv_name":"Uncletopia | Chicago | 1 | All Maps | STV","players":[{"user_id":206,"name":"asbestos","steam_id":76561198079178866,"connected_time":6719000000000,"state":"active","ping":74},{"user_id":270,"name":"floof","steam_id":76561198167756375,"connected_time":1394000000000,"state":"active","ping":98},{"user_id":250,"name":"Wang of Wall St","steam_id":76561198047460598,"connected_time":3273000000000,"state":"active","ping":68},{"user_id":266,"name":"WizzyKitty","steam_id":76561199063342104,"connected_time":2051000000000,"state":"active","ping":44},{"user_id":269,"name":"Hylic","steam_id":76561199051314589,"connected_time":1466000000000,"state":"active","ping":70},{"user_id":257,"name":"[K.Y.L.L.]Logic (They/Them)","steam_id":76561198027321950,"connected_time":3156000000000,"state":"active","ping":95},{"user_id":277,"name":"a_person_159","steam_id":76561199024416326,"connected_time":477000000000,"state":"active","ping":65},{"user_id":224,"name":"dr peppah chug!","steam_id":76561198068835693,"connected_time":5031000000000,"state":"active","ping":85},{"user_id":280,"name":"Soda","steam_id":76561198219209367,"connected_time":68000000000,"state":"active","ping":56},{"user_id":259,"name":"Ras","steam_id":76561198123546775,"connected_time":2895000000000,"state":"active","ping":60},{"user_id":271,"name":"blob","steam_id":76561198122375328,"connected_time":1000000000000,"state":"active","ping":60},{"user_id":245,"name":"Errrmmett","steam_id":76561198041314051,"connected_time":3380000000000,"state":"active","ping":59},{"user_id":275,"name":"gnome \"kooky ass mf\" fan","steam_id":76561198148199120,"connected_time":885000000000,"state":"active","ping":90},{"user_id":207,"name":"Kevin Y.","steam_id":76561198364331423,"connected_time":6718000000000,"state":"active","ping":83},{"user_id":111,"name":"Potato-Protein-Pancake","steam_id":76561198027198306,"connected_time":13808000000000,"state":"active","ping":59},{"user_id":246,"name":"CAdaverOusPRophet","steam_id":76561198045304110,"connected_time":3380000000000,"state":"active","ping":46},{"user_id":268,"name":"IGotTheLettuce","steam_id":76561198062473897,"connected_time":1819000000000,"state":"active","ping":75},{"user_id":267,"name":"Owen","steam_id":76561198025446908,"connected_time":1851000000000,"state":"active","ping":68},{"user_id":279,"name":"DADDY ESCANOR","steam_id":76561198075102565,"connected_time":190000000000,"state":"active","ping":56},{"user_id":273,"name":"Catboy Potemkin","steam_id":76561198078474420,"connected_time":990000000000,"state":"active","ping":71},{"user_id":276,"name":"HarryjusttHarry","steam_id":76561198982810452,"connected_time":861000000000,"state":"active","ping":85},{"user_id":278,"name":"Stormz64 (but festive)","steam_id":76561198239036482,"connected_time":466000000000,"state":"active","ping":68},{"user_id":263,"name":"PKBEAST_7","steam_id":76561198177136537,"connected_time":2662000000000,"state":"active","ping":83},{"user_id":258,"name":"Be Gay, Do Crimes, Smoke Weed!","steam_id":76561198092419868,"connected_time":2906000000000,"state":"active","ping":98}]},{"server_id":106,"name":"Uncletopia | Chicago | 2 | All Maps","name_short":"chi-2","host":"chi-1.us.uncletopia.com","port":27025,"enabled":true,"region":"us-central","cc":"us","latitude":41.881832,"longitude":-87.62318,"reserved":0,"last_update":"0001-01-01T00:00:00Z","name_a2s":"Uncletopia | Chicago | 2 | All Maps","protocol":17,"map":"pl_barnblitz","folder":"tf","game":"Team Fortress","app_id":440,"player_count":24,"max_players":24,"Bots":0,"server_type":"Dedicated","server_os":"Linux","password":true,"vac":true,"version":"7708610","steam_id":85568392924469985,"keywords":["nocrits","nodmgspread","payload","uncletopia"],"game_id":440,"stv_port":27026,"stv_name":"Uncletopia | Chicago | 2 | All Maps | STV","players":[{"user_id":79,"name":"IRAcide","steam_id":76561198236149504,"connected_time":3406000000000,"state":"active","ping":96},{"user_id":135,"name":"PintoVero","steam_id":76561198088369252,"connected_time":350000000000,"state":"active","ping":60},{"user_id":120,"name":"Qrow","steam_id":76561198355935693,"connected_time":1626000000000,"state":"active","ping":46},{"user_id":136,"name":"Potato","steam_id":76561198989551964,"connected_time":336000000000,"state":"active","ping":50},{"user_id":111,"name":"Soliton","steam_id":76561198085286373,"connected_time":2103000000000,"state":"active","ping":59},{"user_id":109,"name":"Merchants of Misery","steam_id":76561199188142396,"connected_time":2168000000000,"state":"active","ping":74},{"user_id":143,"name":"jae are","steam_id":76561198027906463,"connected_time":194000000000,"state":"active","ping":57},{"user_id":96,"name":"Big Tobacco","steam_id":76561198130165656,"connected_time":2374000000000,"state":"active","ping":51},{"user_id":113,"name":"GLURRIN","steam_id":76561198315690955,"connected_time":1953000000000,"state":"active","ping":48},{"user_id":130,"name":"Sootyquill","steam_id":76561198186883927,"connected_time":786000000000,"state":"active","ping":88},{"user_id":83,"name":"Rornir","steam_id":76561198081829615,"connected_time":3331000000000,"state":"active","ping":41},{"user_id":131,"name":"rickrolled","steam_id":76561199401509126,"connected_time":756000000000,"state":"active","ping":66},{"user_id":121,"name":"qory","steam_id":76561198152064890,"connected_time":1602000000000,"state":"active","ping":56},{"user_id":140,"name":"Splinto","steam_id":76561198111260488,"connected_time":282000000000,"state":"active","ping":48},{"user_id":138,"name":"a crazy hobo","steam_id":76561198289650060,"connected_time":314000000000,"state":"active","ping":82},{"user_id":106,"name":"ReformedOrthodoxRabbiBillClinto","steam_id":76561198401455467,"connected_time":2294000000000,"state":"active","ping":106},{"user_id":139,"name":"pakin157","steam_id":76561198035125667,"connected_time":297000000000,"state":"active","ping":181},{"user_id":117,"name":"Fitts1099","steam_id":76561198044986906,"connected_time":1777000000000,"state":"active","ping":42},{"user_id":141,"name":"Chesh","steam_id":76561197990316722,"connected_time":281000000000,"state":"active","ping":83},{"user_id":129,"name":"peachy","steam_id":76561198026664629,"connected_time":898000000000,"state":"active","ping":55},{"user_id":86,"name":"Super Noob","steam_id":76561199179611350,"connected_time":3302000000000,"state":"active","ping":61},{"user_id":133,"name":"Cheatcommando","steam_id":76561198034825735,"connected_time":372000000000,"state":"active","ping":46},{"user_id":142,"name":"Jules","steam_id":76561199065191952,"connected_time":265000000000,"state":"active","ping":83},{"user_id":134,"name":"Gaming Pro","steam_id":76561198979637556,"connected_time":371000000000,"state":"active","ping":54}]},{"server_id":402,"name":"Uncletopia | Chicago | 3 | All Maps","name_short":"chi-3","host":"chi-1.us.uncletopia.com","port":27035,"enabled":true,"region":"us-central","cc":"us","latitude":41.881832,"longitude":-87.62318,"reserved":0,"last_update":"0001-01-01T00:00:00Z","name_a2s":"Uncletopia | Chicago | 3 | All Maps","protocol":17,"map":"cp_process_final","folder":"tf","game":"Team Fortress","app_id":440,"player_count":4,"max_players":24,"Bots":0,"server_type":"Dedicated","server_os":"Linux","password":true,"vac":true,"version":"7708610","steam_id":85568392924515191,"keywords":["cp","nocrits","nodmgspread","uncletopia"],"game_id":440,"stv_port":27036,"stv_name":"Uncletopia | Chicago | 3 | All Maps | STV","players":[{"user_id":19,"name":"jerma enthusiast","steam_id":76561198359466264,"connected_time":74000000000,"state":"active","ping":60},{"user_id":14,"name":"ultrax.extremex","steam_id":76561199201770653,"connected_time":438000000000,"state":"active","ping":64},{"user_id":20,"name":"Jacksepticeye (real)","steam_id":76561199240539291,"connected_time":24000000000,"state":"active","ping":62},{"user_id":16,"name":"The Potato Romancer","steam_id":76561198204197648,"connected_time":334000000000,"state":"active","ping":92}]},{"server_id":403,"name":"Uncletopia | Chicago | 4 | All Maps","name_short":"chi-4","host":"chi-1.us.uncletopia.com","port":27045,"enabled":true,"region":"us-central","cc":"us","latitude":41.881832,"longitude":-87.62318,"reserved":0,"last_update":"0001-01-01T00:00:00Z","name_a2s":"Uncletopia | Chicago | 4 | All Maps","protocol":17,"map":"pl_swiftwater_final1","folder":"tf","game":"Team Fortress","app_id":440,"player_count":0,"max_players":24,"Bots":0,"server_type":"Dedicated","server_os":"Linux","password":true,"vac":true,"version":"7708610","steam_id":85568392924515193,"keywords":["nocrits","nodmgspread","payload","uncletopia"],"game_id":440,"stv_port":27046,"stv_name":"Uncletopia | Chicago | 4 | All Maps | STV","players":null},{"server_id":36,"name":"Uncletopia | Chicago | 5 | All Maps","name_short":"chi-5","host":"chi-2.us.uncletopia.com","port":27015,"enabled":true,"region":"us-central","cc":"us","latitude":41.881832,"longitude":-87.62318,"reserved":0,"last_update":"0001-01-01T00:00:00Z","name_a2s":"Uncletopia | Chicago | 5 | All Maps","protocol":17,"map":"koth_lakeside_final","folder":"tf","game":"Team Fortress","app_id":440,"player_count":0,"max_players":24,"Bots":0,"server_type":"Dedicated","server_os":"Linux","password":true,"vac":true,"version":"7708610","steam_id":85568392924866362,"keywords":["cp","nocrits","nodmgspread","uncletopia"],"game_id":440,"stv_port":27016,"stv_name":"Uncletopia | Chicago | 5 | All Maps | STV","players":null},{"server_id":37,"name":"Uncletopia | Chicago | 6 | All Maps","name_short":"chi-6","host":"chi-2.us.uncletopia.com","port":27025,"enabled":true,"region":"us-central","cc":"us","latitude":41.881832,"longitude":-87.62318,"reserved":0,"last_update":"0001-01-01T00:00:00Z","name_a2s":"Uncletopia | Chicago | 6 | All Maps","protocol":17,"map":"pl_swiftwater_final1","folder":"tf","game":"Team Fortress","app_id":440,"player_count":0,"max_players":24,"Bots":0,"server_type":"Dedicated","server_os":"Linux","password":true,"vac":true,"version":"7708610","steam_id":85568392924866363,"keywords":["nocrits","nodmgspread","payload","uncletopia"],"game_id":440,"stv_port":27026,"stv_name":"Uncletopia | Chicago | 6 | All Maps | STV","players":null},{"server_id":38,"name":"Uncletopia | Chicago | 7 | No Payload","name_short":"chi-7","host":"chi-2.us.uncletopia.com","port":27035,"enabled":true,"region":"us-central","cc":"us","latitude":41.881832,"longitude":-87.62318,"reserved":0,"last_update":"0001-01-01T00:00:00Z","name_a2s":"Uncletopia | Chicago | 7 | No Payload","protocol":17,"map":"koth_badlands","folder":"tf","game":"Team Fortress","app_id":440,"player_count":0,"max_players":24,"Bots":0,"server_type":"Dedicated","server_os":"Linux","password":true,"vac":true,"version":"7708610","steam_id":85568392924866364,"keywords":["cp","nocrits","nodmgspread","uncletopia"],"game_id":440,"stv_port":27036,"stv_name":"Uncletopia | Chicago | 7 | No Payload | STV","players":null},{"server_id":39,"name":"Uncletopia | Chicago | 8 | Community","name_short":"chi-8","host":"chi-2.us.uncletopia.com","port":27045,"enabled":true,"region":"us-central","cc":"us","latitude":41.881832,"longitude":-87.62318,"reserved":0,"last_update":"0001-01-01T00:00:00Z","name_a2s":"Uncletopia | Chicago | 8 | Community","protocol":17,"map":"workshop/koth_ashville_final.ugc2130459942","folder":"tf","game":"Team Fortress","app_id":440,"player_count":0,"max_players":24,"Bots":0,"server_type":"Dedicated","server_os":"Linux","password":true,"vac":true,"version":"7708610","steam_id":85568392924866365,"keywords":["cp","nocrits","nodmgspread","uncletopia"],"game_id":440,"stv_port":27046,"stv_name":"Uncletopia | Chicago | 8 | Community | STV","players":null},{"server_id":8,"name":"Uncletopia | Dallas | 1 | All Maps","name_short":"dal-1","host":"dal-1.us.uncletopia.com","port":27015,"enabled":true,"region":"us-central","cc":"us","latitude":32.779167,"longitude":-96.80889,"reserved":0,"last_update":"0001-01-01T00:00:00Z","name_a2s":"Uncletopia | Dallas | 1 | All Maps","protocol":17,"map":"pl_swiftwater_final1","folder":"tf","game":"Team Fortress","app_id":440,"player_count":24,"max_players":24,"Bots":0,"server_type":"Dedicated","server_os":"Linux","password":true,"vac":true,"version":"7708610","steam_id":85568392924469986,"keywords":["nocrits","nodmgspread","payload","uncletopia"],"game_id":440,"stv_port":27016,"stv_name":"Uncletopia | Dallas | 1 | All Maps | STV","players":[{"user_id":121,"name":"M.L.JEW","steam_id":76561198997375055,"connected_time":1648000000000,"state":"active","ping":87},{"user_id":116,"name":"Winter the Witchie","steam_id":76561198151971178,"connected_time":1962000000000,"state":"active","ping":80},{"user_id":113,"name":"Gian","steam_id":76561198041434512,"connected_time":2280000000000,"state":"active","ping":112},{"user_id":132,"name":"Throckmorton","steam_id":76561198083636412,"connected_time":1355000000000,"state":"active","ping":91},{"user_id":17,"name":"katryna","steam_id":76561198023440304,"connected_time":8967000000000,"state":"active","ping":68},{"user_id":136,"name":"Barmy","steam_id":76561198111626352,"connected_time":834000000000,"state":"active","ping":95},{"user_id":114,"name":"Oak","steam_id":76561198092135570,"connected_time":2254000000000,"state":"active","ping":45},{"user_id":99,"name":"Donkski","steam_id":76561198406895347,"connected_time":3487000000000,"state":"active","ping":63},{"user_id":137,"name":"Batso","steam_id":76561198106589452,"connected_time":823000000000,"state":"active","ping":79},{"user_id":143,"name":"double tap 2.0","steam_id":76561198062146253,"connected_time":37000000000,"state":"spawning","ping":117},{"user_id":122,"name":"Heti","steam_id":76561197972832497,"connected_time":1646000000000,"state":"active","ping":89},{"user_id":134,"name":"Pillow Man","steam_id":76561198841357708,"connected_time":1181000000000,"state":"active","ping":79},{"user_id":69,"name":"cosmik","steam_id":76561198071193180,"connected_time":5805000000000,"state":"active","ping":70},{"user_id":135,"name":"The Engie","steam_id":76561198029782412,"connected_time":1086000000000,"state":"active","ping":59},{"user_id":129,"name":"Texas Man","steam_id":76561198353412986,"connected_time":1501000000000,"state":"active","ping":91},{"user_id":140,"name":"Cassius","steam_id":76561198146163328,"connected_time":504000000000,"state":"active","ping":87},{"user_id":96,"name":"Tmiracle","steam_id":76561198052375275,"connected_time":3804000000000,"state":"active","ping":62},{"user_id":105,"name":"SanitysEdge","steam_id":76561198130732813,"connected_time":3036000000000,"state":"active","ping":81},{"user_id":126,"name":"kangaroo gaming","steam_id":76561198017002866,"connected_time":1544000000000,"state":"active","ping":56},{"user_id":139,"name":"Zilch Nix","steam_id":76561198142595666,"connected_time":606000000000,"state":"active","ping":38},{"user_id":142,"name":"White Woman Fiesta","steam_id":76561198215902495,"connected_time":433000000000,"state":"active","ping":74},{"user_id":109,"name":"the biggest bird","steam_id":76561198026393621,"connected_time":2770000000000,"state":"active","ping":88},{"user_id":131,"name":"Satori","steam_id":76561198214370515,"connected_time":1412000000000,"state":"active","ping":75},{"user_id":128,"name":"j4miecl4rk","steam_id":76561198404312721,"connected_time":1518000000000,"state":"active","ping":82}]},{"server_id":108,"name":"Uncletopia | Dallas | 2 | All Maps","name_short":"dal-2","host":"dal-1.us.uncletopia.com","port":27025,"enabled":true,"region":"us-central","cc":"us","latitude":32.779167,"longitude":-96.80889,"reserved":0,"last_update":"0001-01-01T00:00:00Z","name_a2s":"Uncletopia | Dallas | 2 | All Maps","protocol":17,"map":"koth_highpass","folder":"tf","game":"Team Fortress","app_id":440,"player_count":0,"max_players":24,"Bots":0,"server_type":"Dedicated","server_os":"Linux","password":true,"vac":true,"version":"7708610","steam_id":85568392924469988,"keywords":["cp","nocrits","nodmgspread","uncletopia"],"game_id":440,"stv_port":27026,"stv_name":"Uncletopia | Dallas | 2 | All Maps | STV","players":null},{"server_id":5,"name":"Uncletopia | Frankfurt | 1 | All Maps","name_short":"frk-1","host":"frk-1.de.uncletopia.com","port":27015,"enabled":true,"region":"eu","cc":"de","latitude":50.110924,"longitude":8.682127,"reserved":0,"last_update":"0001-01-01T00:00:00Z","name_a2s":"Uncletopia | Frankfurt | 1 | All Maps","protocol":17,"map":"cp_snakewater_final1","folder":"tf","game":"Team Fortress","app_id":440,"player_count":25,"max_players":24,"Bots":0,"server_type":"Dedicated","server_os":"Linux","password":true,"vac":true,"version":"7708610","steam_id":85568392924469989,"keywords":["cp","nocrits","nodmgspread","uncletopia"],"game_id":440,"stv_port":27016,"stv_name":"Uncletopia | Frankfurt | 1 | All Maps | STV","players":[{"user_id":802,"name":"fruit bowl","steam_id":76561198232398568,"connected_time":1439000000000,"state":"active","ping":78},{"user_id":803,"name":"dongus","steam_id":76561198042774930,"connected_time":1416000000000,"state":"active","ping":77},{"user_id":837,"name":"Yxel","steam_id":76561198123982890,"connected_time":508000000000,"state":"active","ping":58},{"user_id":859,"name":"bocian2703","steam_id":76561198134203031,"connected_time":89000000000,"state":"active","ping":66},{"user_id":787,"name":"Arch","steam_id":76561198079416022,"connected_time":1899000000000,"state":"active","ping":66},{"user_id":849,"name":"欠税哥","steam_id":76561199118856462,"connected_time":203000000000,"state":"active","ping":61},{"user_id":805,"name":"mt","steam_id":76561197961319303,"connected_time":1316000000000,"state":"active","ping":54},{"user_id":860,"name":"gmem","steam_id":76561198070006725,"connected_time":60000000000,"state":"active","ping":67},{"user_id":807,"name":"Fat Pigeon","steam_id":76561198817940142,"connected_time":1278000000000,"state":"active","ping":54},{"user_id":808,"name":"D *","steam_id":76561198086304421,"connected_time":1266000000000,"state":"active","ping":76},{"user_id":809,"name":"Aydin Channel","steam_id":76561198138031624,"connected_time":1189000000000,"state":"active","ping":117},{"user_id":810,"name":"Fran","steam_id":76561199070516960,"connected_time":1156000000000,"state":"active","ping":65},{"user_id":778,"name":"charlag_khan","steam_id":76561197991768268,"connected_time":2109000000000,"state":"active","ping":59},{"user_id":827,"name":"3te Liga","steam_id":76561198009922500,"connected_time":859000000000,"state":"active","ping":59},{"user_id":831,"name":"toothpaste vaper","steam_id":76561198078458780,"connected_time":775000000000,"state":"active","ping":71},{"user_id":813,"name":"Tonne","steam_id":76561197970856766,"connected_time":1081000000000,"state":"active","ping":53},{"user_id":865,"name":"123","steam_id":76561198074299986,"connected_time":0,"state":"spawning","ping":0},{"user_id":863,"name":"Kevin","steam_id":76561198035625423,"connected_time":37000000000,"state":"active","ping":103},{"user_id":795,"name":"Pyrokaliptyk","steam_id":76561198013065105,"connected_time":1784000000000,"state":"active","ping":55},{"user_id":839,"name":"mohemmedmokhter2005","steam_id":76561199197650506,"connected_time":474000000000,"state":"active","ping":109},{"user_id":674,"name":"dotdotdot","steam_id":76561198057628751,"connected_time":9409000000000,"state":"active","ping":73},{"user_id":862,"name":"Kutuzov","steam_id":76561198060988694,"connected_time":47000000000,"state":"active","ping":107},{"user_id":790,"name":"autotopilot","steam_id":76561198261922138,"connected_time":1861000000000,"state":"active","ping":72},{"user_id":823,"name":"alvinulv","steam_id":76561198024487177,"connected_time":960000000000,"state":"active","ping":67},{"user_id":828,"name":"(1)don cheadle","steam_id":76561198032841675,"connected_time":857000000000,"state":"active","ping":62}]},{"server_id":110,"name":"Uncletopia | Frankfurt | 2 | All Maps","name_short":"frk-2","host":"frk-1.de.uncletopia.com","port":27025,"enabled":true,"region":"eu","cc":"de","latitude":50.110924,"longitude":8.682127,"reserved":0,"last_update":"0001-01-01T00:00:00Z","name_a2s":"Uncletopia | Frankfurt | 2 | All Maps","protocol":17,"map":"cp_mountainlab","folder":"tf","game":"Team Fortress","app_id":440,"player_count":24,"max_players":24,"Bots":0,"server_type":"Dedicated","server_os":"Linux","password":true,"vac":true,"version":"7708610","steam_id":85568392924469990,"keywords":["cp","nocrits","nodmgspread","uncletopia"],"game_id":440,"stv_port":27026,"stv_name":"Uncletopia | Frankfurt | 2 | All Maps | STV","players":[{"user_id":551,"name":"Mantis Toboggan, M.D","steam_id":76561197963562704,"connected_time":1572000000000,"state":"active","ping":65},{"user_id":538,"name":"desnot","steam_id":76561198862581894,"connected_time":2528000000000,"state":"active","ping":75},{"user_id":572,"name":"tortellini in brodo","steam_id":76561198066071855,"connected_time":81000000000,"state":"active","ping":56},{"user_id":540,"name":"OVERLORDMALARKEY","steam_id":76561198098267117,"connected_time":2478000000000,"state":"active","ping":68},{"user_id":535,"name":"ldshwt","steam_id":76561198090364357,"connected_time":2777000000000,"state":"active","ping":47},{"user_id":552,"name":"Browlin","steam_id":76561198860807512,"connected_time":1533000000000,"state":"active","ping":81},{"user_id":511,"name":"VibeCheck","steam_id":76561198425961218,"connected_time":4036000000000,"state":"active","ping":113},{"user_id":562,"name":"Salih","steam_id":76561198287934839,"connected_time":691000000000,"state":"active","ping":45},{"user_id":563,"name":"bob","steam_id":76561198353212719,"connected_time":686000000000,"state":"active","ping":76},{"user_id":564,"name":"Temka","steam_id":76561198331323738,"connected_time":628000000000,"state":"active","ping":61},{"user_id":542,"name":"Lag","steam_id":76561198159360376,"connected_time":2352000000000,"state":"active","ping":65},{"user_id":546,"name":"business spy","steam_id":76561198215876044,"connected_time":2286000000000,"state":"active","ping":110},{"user_id":543,"name":"Mr.Schnittlauch","steam_id":76561198295868113,"connected_time":2331000000000,"state":"active","ping":46},{"user_id":565,"name":"jffryy","steam_id":76561198248833932,"connected_time":590000000000,"state":"active","ping":74},{"user_id":566,"name":"Husky","steam_id":76561198106313747,"connected_time":589000000000,"state":"active","ping":50},{"user_id":518,"name":"87rubberducks","steam_id":76561198992460116,"connected_time":3848000000000,"state":"active","ping":85},{"user_id":557,"name":"MeBandae","steam_id":76561198910770432,"connected_time":872000000000,"state":"active","ping":83},{"user_id":567,"name":"Ecton","steam_id":76561198025103720,"connected_time":580000000000,"state":"active","ping":63},{"user_id":556,"name":"Catali","steam_id":76561198054056911,"connected_time":896000000000,"state":"active","ping":64},{"user_id":571,"name":"pavlik rohlik","steam_id":76561198110544279,"connected_time":170000000000,"state":"active","ping":45},{"user_id":569,"name":"darkwater","steam_id":76561197986978738,"connected_time":526000000000,"state":"active","ping":61},{"user_id":555,"name":"Joomig","steam_id":76561198798066767,"connected_time":910000000000,"state":"active","ping":71},{"user_id":561,"name":"Hannü","steam_id":76561197969886128,"connected_time":730000000000,"state":"active","ping":65},{"user_id":545,"name":"Kapitan Polska","steam_id":76561197968069413,"connected_time":2320000000000,"state":"active","ping":69}]},{"server_id":308,"name":"Uncletopia | Frankfurt | 3 | All Maps","name_short":"frk-3","host":"frk-1.de.uncletopia.com","port":27035,"enabled":true,"region":"eu","cc":"de","latitude":50.110924,"longitude":8.682127,"reserved":0,"last_update":"0001-01-01T00:00:00Z","name_a2s":"Uncletopia | Frankfurt | 3 | All Maps","protocol":17,"map":"pl_wutville_event","folder":"tf","game":"Team Fortress","app_id":440,"player_count":22,"max_players":24,"Bots":0,"server_type":"Dedicated","server_os":"Linux","password":true,"vac":true,"version":"7708610","steam_id":85568392924504274,"keywords":["nocrits","nodmgspread","payload","uncletopia"],"game_id":440,"stv_port":27036,"stv_name":"Uncletopia | Frankfurt | 3 | All Maps | STV","players":[{"user_id":495,"name":"BigZZZ","steam_id":76561197998461614,"connected_time":4022000000000,"state":"active","ping":66},{"user_id":554,"name":"KillerQueen (he/they/she)","steam_id":76561199019399725,"connected_time":853000000000,"state":"active","ping":61},{"user_id":560,"name":"Serious Frost","steam_id":76561198096899037,"connected_time":12000000000,"state":"spawning","ping":76},{"user_id":502,"name":"wasto-/-™","steam_id":76561198102888038,"connected_time":3739000000000,"state":"active","ping":45},{"user_id":553,"name":"Kanny","steam_id":76561198058810184,"connected_time":892000000000,"state":"active","ping":59},{"user_id":558,"name":"Cranjis McBasketball","steam_id":76561198051290193,"connected_time":72000000000,"state":"active","ping":65},{"user_id":556,"name":"mAYONEZ INTERNATIONAL","steam_id":76561197999887000,"connected_time":728000000000,"state":"active","ping":74},{"user_id":546,"name":"fallingpencil","steam_id":76561199230233148,"connected_time":1388000000000,"state":"active","ping":53},{"user_id":559,"name":"Mopo","steam_id":76561198068929700,"connected_time":63000000000,"state":"active","ping":66},{"user_id":535,"name":"Assy Page","steam_id":76561199238148627,"connected_time":1786000000000,"state":"active","ping":78},{"user_id":529,"name":"Honest Tom's Discount Beef","steam_id":76561198029971392,"connected_time":2610000000000,"state":"active","ping":68},{"user_id":531,"name":"blonerocks","steam_id":76561199153891186,"connected_time":2054000000000,"state":"active","ping":89},{"user_id":510,"name":"Flostro","steam_id":76561198259793697,"connected_time":3495000000000,"state":"active","ping":55},{"user_id":542,"name":"tzlil","steam_id":76561198399916290,"connected_time":1559000000000,"state":"active","ping":138},{"user_id":473,"name":"mr sir","steam_id":76561198047828651,"connected_time":4476000000000,"state":"active","ping":62},{"user_id":514,"name":"Hahaha rifle go brrrr","steam_id":76561198002162167,"connected_time":3398000000000,"state":"active","ping":73},{"user_id":548,"name":"Swedde","steam_id":76561198297296440,"connected_time":1011000000000,"state":"active","ping":73},{"user_id":550,"name":"shrrrrrrekkkkk","steam_id":76561198347241576,"connected_time":922000000000,"state":"active","ping":60},{"user_id":551,"name":"lofimonkeyjazz","steam_id":76561198117059662,"connected_time":914000000000,"state":"active","ping":78},{"user_id":534,"name":"Ran33","steam_id":76561197991474499,"connected_time":1913000000000,"state":"active","ping":82},{"user_id":539,"name":"baldski gaming","steam_id":76561198986260493,"connected_time":1704000000000,"state":"active","ping":102},{"user_id":392,"name":"links7890","steam_id":76561199322683109,"connected_time":6216000000000,"state":"active","ping":88}]},{"server_id":309,"name":"Uncletopia | Frankfurt | 4 | All Maps","name_short":"frk-4","host":"frk-1.de.uncletopia.com","port":27045,"enabled":true,"region":"eu","cc":"de","latitude":50.110924,"longitude":8.682127,"reserved":0,"last_update":"0001-01-01T00:00:00Z","name_a2s":"Uncletopia | Frankfurt | 4 | All Maps","protocol":17,"map":"pl_snowycoast","folder":"tf","game":"Team Fortress","app_id":440,"player_count":24,"max_players":24,"Bots":0,"server_type":"Dedicated","server_os":"Linux","password":true,"vac":true,"version":"7708610","steam_id":85568392924504275,"keywords":["nocrits","nodmgspread","payload","uncletopia"],"game_id":440,"stv_port":27046,"stv_name":"Uncletopia | Frankfurt | 4 | All Maps | STV","players":[{"user_id":282,"name":"QuantumSleeper","steam_id":76561198082347638,"connected_time":763000000000,"state":"active","ping":61},{"user_id":283,"name":"drew","steam_id":76561198012304706,"connected_time":753000000000,"state":"active","ping":96},{"user_id":284,"name":"mordecai.nmc","steam_id":76561197997223851,"connected_time":721000000000,"state":"active","ping":56},{"user_id":285,"name":"C0d3s","steam_id":76561198093907544,"connected_time":664000000000,"state":"active","ping":94},{"user_id":260,"name":"omnibombulator","steam_id":76561198025858897,"connected_time":3499000000000,"state":"active","ping":63},{"user_id":281,"name":"Jedi Knight","steam_id":76561198039030709,"connected_time":966000000000,"state":"active","ping":59},{"user_id":263,"name":"Ged The Bombad General","steam_id":76561198079288943,"connected_time":2662000000000,"state":"active","ping":112},{"user_id":252,"name":"Dewotter","steam_id":76561198007653168,"connected_time":3886000000000,"state":"active","ping":60},{"user_id":168,"name":"Mari Christmas","steam_id":76561197997020707,"connected_time":9465000000000,"state":"active","ping":65},{"user_id":274,"name":"Dr Sex","steam_id":76561198029044617,"connected_time":1516000000000,"state":"active","ping":60},{"user_id":286,"name":"CitroenSM","steam_id":76561199071383249,"connected_time":658000000000,"state":"active","ping":122},{"user_id":287,"name":"Tea","steam_id":76561198799243030,"connected_time":597000000000,"state":"active","ping":70},{"user_id":301,"name":"Eing","steam_id":76561198253125820,"connected_time":80000000000,"state":"active","ping":67},{"user_id":289,"name":"Michał","steam_id":76561198320346362,"connected_time":593000000000,"state":"active","ping":62},{"user_id":276,"name":"UNRL","steam_id":76561198167986695,"connected_time":1387000000000,"state":"active","ping":52},{"user_id":293,"name":"|20BB)\u003eMach","steam_id":76561198952487564,"connected_time":528000000000,"state":"active","ping":72},{"user_id":290,"name":"Florua","steam_id":76561198182297846,"connected_time":579000000000,"state":"active","ping":62},{"user_id":218,"name":"nedilya","steam_id":76561198039692077,"connected_time":6798000000000,"state":"active","ping":56},{"user_id":302,"name":"pablo.gonzalez.2005","steam_id":76561198971389390,"connected_time":67000000000,"state":"active","ping":67},{"user_id":300,"name":"ReservExE","steam_id":76561198012849180,"connected_time":97000000000,"state":"active","ping":101},{"user_id":298,"name":"Numbe","steam_id":76561198269614930,"connected_time":393000000000,"state":"active","ping":79},{"user_id":292,"name":"pjena","steam_id":76561198207643025,"connected_time":540000000000,"state":"active","ping":52},{"user_id":303,"name":"Mrpg","steam_id":76561198183722103,"connected_time":64000000000,"state":"active","ping":73},{"user_id":239,"name":"Zerfesh","steam_id":76561198117534358,"connected_time":4956000000000,"state":"active","ping":82}]},{"server_id":310,"name":"Uncletopia | Frankfurt | 5 | All Maps","name_short":"frk-5","host":"frk-1.de.uncletopia.com","port":27055,"enabled":true,"region":"eu","cc":"de","latitude":50.110924,"longitude":8.682127,"reserved":0,"last_update":"0001-01-01T00:00:00Z","name_a2s":"Uncletopia | Frankfurt | 5 | All Maps","protocol":17,"map":"ctf_doublecross","folder":"tf","game":"Team Fortress","app_id":440,"player_count":24,"max_players":24,"Bots":0,"server_type":"Dedicated","server_os":"Linux","password":true,"vac":true,"version":"7708610","steam_id":85568392924504277,"keywords":["ctf","nocrits","nodmgspread","uncletopia"],"game_id":440,"stv_port":27056,"stv_name":"Uncletopia | Frankfurt | 5 | All Maps | STV","players":[{"user_id":430,"name":"girth gremlin","steam_id":76561198436424012,"connected_time":3635000000000,"state":"active","ping":58},{"user_id":444,"name":"Frazzles","steam_id":76561199228009586,"connected_time":2673000000000,"state":"active","ping":63},{"user_id":491,"name":"Boboo","steam_id":76561198013175917,"connected_time":64000000000,"state":"active","ping":55},{"user_id":461,"name":"Madoga0 EU","steam_id":76561198102371701,"connected_time":2288000000000,"state":"active","ping":103},{"user_id":445,"name":"BD[PL]","steam_id":76561198115995871,"connected_time":2654000000000,"state":"active","ping":78},{"user_id":487,"name":"DaggerInUrFace","steam_id":76561198169334484,"connected_time":173000000000,"state":"active","ping":97},{"user_id":495,"name":"cult","steam_id":76561198188647690,"connected_time":7000000000,"state":"spawning","ping":76},{"user_id":488,"name":"makarov","steam_id":76561198363892870,"connected_time":131000000000,"state":"active","ping":64},{"user_id":435,"name":"busy busy bee :D","steam_id":76561198128222331,"connected_time":3335000000000,"state":"active","ping":147},{"user_id":469,"name":"dustwrld","steam_id":76561198152576682,"connected_time":1842000000000,"state":"active","ping":74},{"user_id":493,"name":"paguro","steam_id":76561198119560871,"connected_time":17000000000,"state":"active","ping":61},{"user_id":448,"name":"wieto","steam_id":76561198050626427,"connected_time":2585000000000,"state":"active","ping":56},{"user_id":494,"name":"heavy sings (real)","steam_id":76561199023804405,"connected_time":14000000000,"state":"spawning","ping":88},{"user_id":485,"name":"JugoTopia","steam_id":76561197996067209,"connected_time":398000000000,"state":"active","ping":124},{"user_id":455,"name":"Ork","steam_id":76561197968575924,"connected_time":2506000000000,"state":"active","ping":61},{"user_id":459,"name":"round object","steam_id":76561198136239861,"connected_time":2330000000000,"state":"active","ping":60},{"user_id":450,"name":"chachiply","steam_id":76561198316355509,"connected_time":2560000000000,"state":"active","ping":63},{"user_id":497,"name":"TradeDown","steam_id":76561199016426691,"connected_time":1000000000,"state":"spawning","ping":122},{"user_id":486,"name":"Welder","steam_id":76561198355300561,"connected_time":191000000000,"state":"active","ping":71},{"user_id":489,"name":"FreeZ","steam_id":76561199070093469,"connected_time":105000000000,"state":"active","ping":71},{"user_id":483,"name":"Rasmusson [29th ID]","steam_id":76561198191451713,"connected_time":894000000000,"state":"active","ping":88},{"user_id":477,"name":".bRdyyy","steam_id":76561198057256978,"connected_time":1347000000000,"state":"active","ping":48},{"user_id":474,"name":"KarlRanzeier","steam_id":76561198066281337,"connected_time":1758000000000,"state":"active","ping":58},{"user_id":492,"name":"baseba8311","steam_id":76561198327711144,"connected_time":64000000000,"state":"active","ping":220}]},{"server_id":311,"name":"Uncletopia | Frankfurt | 6 | All Maps","name_short":"frk-6","host":"frk-1.de.uncletopia.com","port":27065,"enabled":true,"region":"eu","cc":"de","latitude":50.110924,"longitude":8.682127,"reserved":0,"last_update":"0001-01-01T00:00:00Z","name_a2s":"Uncletopia | Frankfurt | 6 | All Maps","protocol":17,"map":"koth_viaduct","folder":"tf","game":"Team Fortress","app_id":440,"player_count":0,"max_players":24,"Bots":0,"server_type":"Dedicated","server_os":"Linux","password":true,"vac":true,"version":"7708610","steam_id":85568392924504278,"keywords":["cp","nocrits","nodmgspread","uncletopia"],"game_id":440,"stv_port":27066,"stv_name":"Uncletopia | Frankfurt | 6 | All Maps | STV","players":null},{"server_id":23,"name":"Uncletopia | Frankfurt | 7 | No Payload","name_short":"frk-7","host":"frk-1.de.uncletopia.com","port":27075,"enabled":true,"region":"eu","cc":"de","latitude":50.110924,"longitude":8.682127,"reserved":0,"last_update":"0001-01-01T00:00:00Z","name_a2s":"Uncletopia | Frankfurt | 7 | No Payload","protocol":17,"map":"cp_foundry","folder":"tf","game":"Team Fortress","app_id":440,"player_count":1,"max_players":24,"Bots":0,"server_type":"Dedicated","server_os":"Linux","password":true,"vac":true,"version":"7708610","steam_id":85568392924742827,"keywords":["cp","nocrits","nodmgspread","uncletopia"],"game_id":440,"stv_port":27076,"stv_name":"Uncletopia | Frankfurt | 7 | No Payload | STV","players":[{"user_id":53,"name":"TwojaMama","steam_id":76561198258007599,"connected_time":24000000000,"state":"active","ping":216}]},{"server_id":24,"name":"Uncletopia | Frankfurt | 8 | Community","name_short":"frk-8","host":"frk-1.de.uncletopia.com","port":27085,"enabled":true,"region":"eu","cc":"de","latitude":50.110924,"longitude":8.682127,"reserved":0,"last_update":"0001-01-01T00:00:00Z","name_a2s":"Uncletopia | Frankfurt | 8 | Community","protocol":17,"map":"workshop/koth_ramjam_v2_b2.ugc2865676487","folder":"tf","game":"Team Fortress","app_id":440,"player_count":0,"max_players":24,"Bots":0,"server_type":"Dedicated","server_os":"Linux","password":true,"vac":true,"version":"7708610","steam_id":85568392924742828,"keywords":["cp","nocrits","nodmgspread","uncletopia"],"game_id":440,"stv_port":27086,"stv_name":"Uncletopia | Frankfurt | 8 | Community | STV","players":null},{"server_id":202,"name":"Uncletopia | Hong Kong | 1 | All Maps","name_short":"hgk-1","host":"hgk-1.hk.uncletopia.com","port":27015,"enabled":true,"region":"asia","cc":"hk","latitude":22.302711,"longitude":114.177216,"reserved":0,"last_update":"0001-01-01T00:00:00Z","name_a2s":"Uncletopia | Hong Kong | 1 | All Maps","protocol":17,"map":"koth_cascade","folder":"tf","game":"Team Fortress","app_id":440,"player_count":0,"max_players":24,"Bots":0,"server_type":"Dedicated","server_os":"Linux","password":true,"vac":true,"version":"7708610","steam_id":85568392924494504,"keywords":["cp","nocrits","nodmgspread","uncletopia"],"game_id":440,"stv_port":27016,"stv_name":"Uncletopia | Hong Kong | 1 | All Maps | STV","players":null},{"server_id":1,"name":"Uncletopia | Los Angeles | 1 | All Maps","name_short":"lax-1","host":"lax-1.us.uncletopia.com","port":27015,"enabled":true,"region":"us-west","cc":"us","latitude":33.94279,"longitude":-118.41004,"reserved":0,"last_update":"0001-01-01T00:00:00Z","name_a2s":"Uncletopia | Los Angeles | 1 | All Maps","protocol":17,"map":"pl_upward","folder":"tf","game":"Team Fortress","app_id":440,"player_count":24,"max_players":24,"Bots":0,"server_type":"Dedicated","server_os":"Linux","password":true,"vac":true,"version":"7708610","steam_id":85568392924469991,"keywords":["nocrits","nodmgspread","payload","uncletopia"],"game_id":440,"stv_port":27016,"stv_name":"Uncletopia | Los Angeles | 1 | All Maps | STV","players":[{"user_id":34,"name":"cheddabob","steam_id":76561198993259948,"connected_time":1432000000000,"state":"active","ping":76},{"user_id":24,"name":"❤ Alice","steam_id":76561198869945051,"connected_time":2279000000000,"state":"active","ping":96},{"user_id":53,"name":"Seth6537","steam_id":76561198404633529,"connected_time":231000000000,"state":"active","ping":88},{"user_id":35,"name":"existential dread","steam_id":76561198041907345,"connected_time":1383000000000,"state":"active","ping":59},{"user_id":15,"name":"BlockBurst","steam_id":76561199220851075,"connected_time":3087000000000,"state":"active","ping":31},{"user_id":49,"name":"Mr. Girthquake","steam_id":76561198079992325,"connected_time":612000000000,"state":"active","ping":84},{"user_id":54,"name":"HanakoToast","steam_id":76561198045233131,"connected_time":192000000000,"state":"active","ping":57},{"user_id":22,"name":"Jimmy Foo","steam_id":76561198119623731,"connected_time":2440000000000,"state":"active","ping":122},{"user_id":29,"name":"S p a f f y","steam_id":76561198047892151,"connected_time":1916000000000,"state":"active","ping":54},{"user_id":27,"name":"B-0-D-I-E ✓","steam_id":76561198079474904,"connected_time":2241000000000,"state":"active","ping":80},{"user_id":20,"name":"Neco sk8er","steam_id":76561198296295074,"connected_time":2510000000000,"state":"active","ping":112},{"user_id":21,"name":"StarGuyVI","steam_id":76561199366304746,"connected_time":2459000000000,"state":"active","ping":96},{"user_id":36,"name":"SHADOW (he/him)","steam_id":76561198207768148,"connected_time":1350000000000,"state":"active","ping":65},{"user_id":55,"name":"Nasteen27","steam_id":76561199159513164,"connected_time":111000000000,"state":"active","ping":142},{"user_id":37,"name":"zinnk","steam_id":76561198092081825,"connected_time":1305000000000,"state":"active","ping":62},{"user_id":51,"name":"Meth Bomb","steam_id":76561198365857261,"connected_time":432000000000,"state":"active","ping":65},{"user_id":39,"name":"Lord GabeN","steam_id":76561198140862723,"connected_time":1232000000000,"state":"active","ping":111},{"user_id":40,"name":"Johnny Esports","steam_id":76561198115812405,"connected_time":1167000000000,"state":"active","ping":142},{"user_id":41,"name":"The Sinister Potion","steam_id":76561198131280715,"connected_time":1140000000000,"state":"active","ping":124},{"user_id":42,"name":"☃️Festive Wormhole☃","steam_id":76561199008302939,"connected_time":1072000000000,"state":"active","ping":74},{"user_id":52,"name":"pakispot","steam_id":76561198860676239,"connected_time":275000000000,"state":"active","ping":55},{"user_id":44,"name":"2 Point Tom","steam_id":76561198087617008,"connected_time":1026000000000,"state":"active","ping":81},{"user_id":46,"name":"IncogNeeto","steam_id":76561199091278006,"connected_time":991000000000,"state":"active","ping":71},{"user_id":50,"name":"tinkerbell","steam_id":76561197978351201,"connected_time":446000000000,"state":"active","ping":128}]},{"server_id":112,"name":"Uncletopia | Los Angeles | 2 | All Maps","name_short":"lax-2","host":"lax-1.us.uncletopia.com","port":27025,"enabled":true,"region":"us-west","cc":"us","latitude":33.94279,"longitude":-118.41004,"reserved":0,"last_update":"0001-01-01T00:00:00Z","name_a2s":"Uncletopia | Los Angeles | 2 | All Maps","protocol":17,"map":"pl_snowycoast","folder":"tf","game":"Team Fortress","app_id":440,"player_count":0,"max_players":24,"Bots":0,"server_type":"Dedicated","server_os":"Linux","password":true,"vac":true,"version":"7708610","steam_id":85568392924469992,"keywords":["nocrits","nodmgspread","payload","uncletopia"],"game_id":440,"stv_port":27026,"stv_name":"Uncletopia | Los Angeles | 2 | All Maps | STV","players":null},{"server_id":324,"name":"Uncletopia | Los Angeles | 3 | All Maps","name_short":"lax-3","host":"lax-1.us.uncletopia.com","port":27035,"enabled":true,"region":"us-west","cc":"us","latitude":33.94279,"longitude":-118.41004,"reserved":0,"last_update":"0001-01-01T00:00:00Z","name_a2s":"Uncletopia | Los Angeles | 3 | All Maps","protocol":17,"map":"koth_viaduct","folder":"tf","game":"Team Fortress","app_id":440,"player_count":0,"max_players":24,"Bots":0,"server_type":"Dedicated","server_os":"Linux","password":true,"vac":true,"version":"7708610","steam_id":85568392924510198,"keywords":["cp","nocrits","nodmgspread","uncletopia"],"game_id":440,"stv_port":27036,"stv_name":"Uncletopia | Los Angeles | 3 | All Maps | STV","players":null},{"server_id":25,"name":"Uncletopia | Los Angeles | 4 | No Payload","name_short":"lax-4","host":"lax-1.us.uncletopia.com","port":27045,"enabled":true,"region":"us-west","cc":"us","latitude":33.94279,"longitude":-118.41004,"reserved":0,"last_update":"0001-01-01T00:00:00Z","name_a2s":"Uncletopia | Los Angeles | 4 | No Payload","protocol":17,"map":"ctf_well","folder":"tf","game":"Team Fortress","app_id":440,"player_count":0,"max_players":24,"Bots":0,"server_type":"Dedicated","server_os":"Linux","password":true,"vac":true,"version":"7708610","steam_id":85568392924510199,"keywords":["ctf","nocrits","nodmgspread","uncletopia"],"game_id":440,"stv_port":27046,"stv_name":"Uncletopia | Los Angeles | 4 | No Payload | STV","players":null},{"server_id":11,"name":"Uncletopia | London | 1 | All Maps","name_short":"lon-1","host":"lon-1.uk.uncletopia.com","port":27015,"enabled":true,"region":"eu","cc":"gb","latitude":51.509865,"longitude":-0.118092,"reserved":0,"last_update":"0001-01-01T00:00:00Z","name_a2s":"Uncletopia | London | 1 | All Maps","protocol":17,"map":"pl_pier","folder":"tf","game":"Team Fortress","app_id":440,"player_count":24,"max_players":24,"Bots":0,"server_type":"Dedicated","server_os":"Linux","password":true,"vac":true,"version":"7708610","steam_id":85568392924367362,"keywords":["nocrits","nodmgspread","payload","uncletopia"],"game_id":440,"stv_port":27016,"stv_name":"Uncletopia | London | 1 | All Maps | STV","players":[{"user_id":821,"name":"LuigiCultLeader","steam_id":76561199179841147,"connected_time":1905000000000,"state":"active","ping":57},{"user_id":839,"name":"John Daly","steam_id":76561197993849325,"connected_time":415000000000,"state":"active","ping":65},{"user_id":843,"name":"ricky dicky doo dah grimes","steam_id":76561198027307745,"connected_time":254000000000,"state":"active","ping":48},{"user_id":830,"name":"Founder","steam_id":76561198193763778,"connected_time":1441000000000,"state":"active","ping":49},{"user_id":813,"name":"LordTrap.exe","steam_id":76561198318089716,"connected_time":3195000000000,"state":"active","ping":51},{"user_id":823,"name":"Toaster1337","steam_id":76561198103706881,"connected_time":1822000000000,"state":"active","ping":60},{"user_id":832,"name":"ÃNVS DRÃNVS","steam_id":76561198138733015,"connected_time":1220000000000,"state":"active","ping":118},{"user_id":840,"name":"Foonguz","steam_id":76561198834610534,"connected_time":399000000000,"state":"active","ping":68},{"user_id":816,"name":"Senior","steam_id":76561198065014164,"connected_time":3141000000000,"state":"active","ping":45},{"user_id":818,"name":"Posho","steam_id":76561198062396436,"connected_time":2846000000000,"state":"active","ping":44},{"user_id":838,"name":"festive jones","steam_id":76561198073975078,"connected_time":430000000000,"state":"active","ping":48},{"user_id":841,"name":"Peggle Extreme","steam_id":76561198101451654,"connected_time":366000000000,"state":"active","ping":46},{"user_id":812,"name":"Linus Mudrocket","steam_id":76561197979606110,"connected_time":3391000000000,"state":"active","ping":46},{"user_id":837,"name":"MOLITOV","steam_id":76561198392150484,"connected_time":512000000000,"state":"active","ping":82},{"user_id":844,"name":"why rum gone","steam_id":76561198158484784,"connected_time":221000000000,"state":"active","ping":67},{"user_id":825,"name":"√(-Wolf)","steam_id":76561198024769704,"connected_time":1804000000000,"state":"active","ping":91},{"user_id":826,"name":"Acheron","steam_id":76561198306593373,"connected_time":1789000000000,"state":"active","ping":75},{"user_id":835,"name":"KillerPotato!","steam_id":76561198071283721,"connected_time":1203000000000,"state":"active","ping":90},{"user_id":745,"name":"lvl. 50 honkler","steam_id":76561198061688660,"connected_time":9353000000000,"state":"active","ping":108},{"user_id":794,"name":"KPhii","steam_id":76561198970587061,"connected_time":5184000000000,"state":"active","ping":53},{"user_id":836,"name":"SuperBob103","steam_id":76561199175360012,"connected_time":1200000000000,"state":"active","ping":58},{"user_id":822,"name":"tim_ka_","steam_id":76561198174946801,"connected_time":1872000000000,"state":"active","ping":95},{"user_id":828,"name":"hamude.alsarhan2011","steam_id":76561199259727736,"connected_time":1642000000000,"state":"active","ping":54},{"user_id":814,"name":"sova","steam_id":76561199040246790,"connected_time":3193000000000,"state":"active","ping":50}]},{"server_id":114,"name":"Uncletopia | London | 2 | All Maps","name_short":"lon-2","host":"lon-1.uk.uncletopia.com","port":27025,"enabled":true,"region":"eu","cc":"gb","latitude":51.509865,"longitude":-0.118092,"reserved":0,"last_update":"0001-01-01T00:00:00Z","name_a2s":"Uncletopia | London | 2 | All Maps","protocol":17,"map":"cp_process_final","folder":"tf","game":"Team Fortress","app_id":440,"player_count":24,"max_players":24,"Bots":0,"server_type":"Dedicated","server_os":"Linux","password":true,"vac":true,"version":"7708610","steam_id":85568392924470941,"keywords":["cp","nocrits","nodmgspread","uncletopia"],"game_id":440,"stv_port":27026,"stv_name":"Uncletopia | London | 2 | All Maps | STV","players":[{"user_id":221,"name":"there are 5 kids in my basement","steam_id":76561198237489960,"connected_time":75000000000,"state":"active","ping":86},{"user_id":207,"name":"Willy WonkeR ^^","steam_id":76561198017814293,"connected_time":999000000000,"state":"active","ping":60},{"user_id":184,"name":"meatsoupcube","steam_id":76561198276802249,"connected_time":1746000000000,"state":"active","ping":75},{"user_id":209,"name":"Salesman","steam_id":76561198045527771,"connected_time":968000000000,"state":"active","ping":50},{"user_id":169,"name":"moser23","steam_id":76561197960543171,"connected_time":3322000000000,"state":"active","ping":55},{"user_id":212,"name":"Котлета Бога","steam_id":76561198014808352,"connected_time":808000000000,"state":"active","ping":83},{"user_id":202,"name":"soil.dirt.earth","steam_id":76561198014377623,"connected_time":1413000000000,"state":"active","ping":55},{"user_id":210,"name":"2 Numba Nines","steam_id":76561198419028874,"connected_time":924000000000,"state":"active","ping":123},{"user_id":140,"name":"def","steam_id":76561198857396812,"connected_time":4694000000000,"state":"active","ping":55},{"user_id":193,"name":"Layton","steam_id":76561198087221314,"connected_time":1662000000000,"state":"active","ping":56},{"user_id":198,"name":"ZOGG FearLand","steam_id":76561198352683491,"connected_time":1532000000000,"state":"active","ping":39},{"user_id":177,"name":"Bloofred","steam_id":76561198111778052,"connected_time":2452000000000,"state":"active","ping":50},{"user_id":213,"name":"jovi_","steam_id":76561198449280552,"connected_time":788000000000,"state":"active","ping":53},{"user_id":188,"name":"gatherer","steam_id":76561198378235611,"connected_time":1702000000000,"state":"active","ping":82},{"user_id":139,"name":"Spajro","steam_id":76561198257383813,"connected_time":4701000000000,"state":"active","ping":57},{"user_id":214,"name":"Alibi","steam_id":76561198061845595,"connected_time":784000000000,"state":"active","ping":45},{"user_id":215,"name":"DeMano","steam_id":76561198147857776,"connected_time":774000000000,"state":"active","ping":82},{"user_id":164,"name":"( ]KROAN[ )","steam_id":76561198022840710,"connected_time":3471000000000,"state":"active","ping":82},{"user_id":216,"name":"TeZ","steam_id":76561198151910084,"connected_time":767000000000,"state":"active","ping":63},{"user_id":204,"name":"Utvar","steam_id":76561198131838460,"connected_time":1208000000000,"state":"active","ping":57},{"user_id":219,"name":"CougarHunter445","steam_id":76561198389342917,"connected_time":541000000000,"state":"active","ping":118},{"user_id":217,"name":"SaltySeaBiscuts","steam_id":76561199204549005,"connected_time":749000000000,"state":"active","ping":114},{"user_id":189,"name":"Command","steam_id":76561198339873745,"connected_time":1702000000000,"state":"active","ping":84},{"user_id":191,"name":"DeepBlue","steam_id":76561198140075795,"connected_time":1700000000000,"state":"active","ping":61}]},{"server_id":320,"name":"Uncletopia | London | 3 | All Maps","name_short":"lon-3","host":"lon-1.uk.uncletopia.com","port":27035,"enabled":true,"region":"eu","cc":"gb","latitude":51.509865,"longitude":-0.118092,"reserved":0,"last_update":"0001-01-01T00:00:00Z","name_a2s":"Uncletopia | London | 3 | All Maps","protocol":17,"map":"pl_pier","folder":"tf","game":"Team Fortress","app_id":440,"player_count":24,"max_players":24,"Bots":0,"server_type":"Dedicated","server_os":"Linux","password":true,"vac":true,"version":"7708610","steam_id":85568392924510192,"keywords":["nocrits","nodmgspread","payload","uncletopia"],"game_id":440,"stv_port":27036,"stv_name":"Uncletopia | London | 3 | All Maps | STV","players":[{"user_id":254,"name":"Nassu","steam_id":76561198147367577,"connected_time":2842000000000,"state":"active","ping":152},{"user_id":292,"name":"_Starlight_","steam_id":76561197993885738,"connected_time":1086000000000,"state":"active","ping":79},{"user_id":283,"name":"Ross from F.R.I.E.N.D.S.","steam_id":76561198008511665,"connected_time":1351000000000,"state":"active","ping":51},{"user_id":255,"name":"Zelmor","steam_id":76561197997708311,"connected_time":2840000000000,"state":"active","ping":53},{"user_id":293,"name":"habibirubik","steam_id":76561199101752634,"connected_time":72000000000,"state":"active","ping":83},{"user_id":286,"name":"Mr. Huntsman","steam_id":76561197981910397,"connected_time":1272000000000,"state":"active","ping":62},{"user_id":287,"name":"Thors","steam_id":76561197968739075,"connected_time":1264000000000,"state":"active","ping":41},{"user_id":273,"name":"crafteen","steam_id":76561198362185755,"connected_time":1948000000000,"state":"active","ping":47},{"user_id":256,"name":"BepisR47","steam_id":76561198084515716,"connected_time":2832000000000,"state":"active","ping":36},{"user_id":279,"name":"Windows Vista Cruiser","steam_id":76561198064102233,"connected_time":1691000000000,"state":"active","ping":66},{"user_id":259,"name":"Rappin' Sebastian","steam_id":76561198453928256,"connected_time":2777000000000,"state":"active","ping":66},{"user_id":260,"name":"Blink","steam_id":76561198144033005,"connected_time":2723000000000,"state":"active","ping":52},{"user_id":288,"name":"Zembis","steam_id":76561198008017918,"connected_time":1256000000000,"state":"active","ping":96},{"user_id":289,"name":"CaptainMac","steam_id":76561198273156139,"connected_time":1242000000000,"state":"active","ping":56},{"user_id":290,"name":"Tort","steam_id":76561198329646769,"connected_time":1232000000000,"state":"active","ping":45},{"user_id":281,"name":"seneca","steam_id":76561198189243221,"connected_time":1497000000000,"state":"active","ping":121},{"user_id":274,"name":"Breadcrab","steam_id":76561198015924039,"connected_time":1899000000000,"state":"active","ping":58},{"user_id":267,"name":"Washed up","steam_id":76561198347336086,"connected_time":2599000000000,"state":"active","ping":51},{"user_id":276,"name":"Valoxi","steam_id":76561197995042938,"connected_time":1828000000000,"state":"active","ping":66},{"user_id":282,"name":"My name is Spencer, Di Spencer","steam_id":76561198152697674,"connected_time":1361000000000,"state":"active","ping":60},{"user_id":264,"name":"Pizza/Cheese/Pepperoni","steam_id":76561198174510235,"connected_time":2642000000000,"state":"active","ping":54},{"user_id":278,"name":"Clitorina","steam_id":76561198077570815,"connected_time":1762000000000,"state":"active","ping":44},{"user_id":291,"name":"cazador","steam_id":76561198123096922,"connected_time":1225000000000,"state":"active","ping":107},{"user_id":235,"name":"jo bidn' | ETLARTORM","steam_id":76561198869576262,"connected_time":4479000000000,"state":"active","ping":121}]},{"server_id":321,"name":"Uncletopia | London | 4 | All Maps","name_short":"lon-4","host":"lon-1.uk.uncletopia.com","port":27045,"enabled":true,"region":"eu","cc":"gb","latitude":51.509865,"longitude":-0.118092,"reserved":0,"last_update":"0001-01-01T00:00:00Z","name_a2s":"Uncletopia | London | 4 | All Maps","protocol":17,"map":"koth_lakeside_final","folder":"tf","game":"Team Fortress","app_id":440,"player_count":0,"max_players":24,"Bots":0,"server_type":"Dedicated","server_os":"Linux","password":true,"vac":true,"version":"7708610","steam_id":85568392924510193,"keywords":["cp","nocrits","nodmgspread","uncletopia"],"game_id":440,"stv_port":27046,"stv_name":"Uncletopia | London | 4 | All Maps | STV","players":null},{"server_id":21,"name":"Uncletopia | London | 5 | All Maps","name_short":"lon-5","host":"lon-1.uk.uncletopia.com","port":27055,"enabled":true,"region":"eu","cc":"gb","latitude":51.509865,"longitude":-0.118092,"reserved":0,"last_update":"0001-01-01T00:00:00Z","name_a2s":"Uncletopia | London | 5 | All Maps","protocol":17,"map":"cp_process_final","folder":"tf","game":"Team Fortress","app_id":440,"player_count":24,"max_players":24,"Bots":0,"server_type":"Dedicated","server_os":"Linux","password":true,"vac":true,"version":"7708610","steam_id":85568392924742829,"keywords":["cp","nocrits","nodmgspread","uncletopia"],"game_id":440,"stv_port":27056,"stv_name":"Uncletopia | London | 5 | All Maps | STV","players":[{"user_id":417,"name":"Tomex999","steam_id":76561198049587675,"connected_time":7000000000,"state":"spawning","ping":96},{"user_id":378,"name":"bored","steam_id":76561198981796805,"connected_time":2740000000000,"state":"active","ping":68},{"user_id":415,"name":"Catastic","steam_id":76561198332415299,"connected_time":467000000000,"state":"active","ping":45},{"user_id":400,"name":"red square","steam_id":76561198295305088,"connected_time":1256000000000,"state":"active","ping":60},{"user_id":385,"name":"MMS21","steam_id":76561198059351269,"connected_time":1989000000000,"state":"active","ping":52},{"user_id":381,"name":"fénix","steam_id":76561198083199151,"connected_time":2694000000000,"state":"active","ping":57},{"user_id":384,"name":"tf2 enjoyer","steam_id":76561199043416615,"connected_time":2401000000000,"state":"active","ping":68},{"user_id":416,"name":"Hies","steam_id":76561198246324242,"connected_time":193000000000,"state":"active","ping":142},{"user_id":403,"name":"Sexy Medic","steam_id":76561199137711547,"connected_time":1177000000000,"state":"active","ping":83},{"user_id":412,"name":"skiff calendar is out","steam_id":76561198161252578,"connected_time":911000000000,"state":"active","ping":134},{"user_id":404,"name":"AforeKingDwarf","steam_id":76561198043562926,"connected_time":1162000000000,"state":"active","ping":45},{"user_id":386,"name":"Eden","steam_id":76561198180281859,"connected_time":1984000000000,"state":"active","ping":57},{"user_id":382,"name":"Some dude who plays tf2","steam_id":76561199257287496,"connected_time":2484000000000,"state":"active","ping":122},{"user_id":379,"name":"your dads bald spot","steam_id":76561199383437138,"connected_time":2737000000000,"state":"active","ping":119},{"user_id":330,"name":"When Life gives you Lemons","steam_id":76561198318290663,"connected_time":5325000000000,"state":"active","ping":59},{"user_id":365,"name":"Valfezant","steam_id":76561199063983797,"connected_time":3014000000000,"state":"active","ping":72},{"user_id":405,"name":"scout TF2","steam_id":76561198072037878,"connected_time":1162000000000,"state":"active","ping":59},{"user_id":413,"name":"Toofy","steam_id":76561197989727907,"connected_time":771000000000,"state":"active","ping":56},{"user_id":414,"name":"♦Silvia♦","steam_id":76561198373039444,"connected_time":726000000000,"state":"active","ping":109},{"user_id":363,"name":"Oak","steam_id":76561198067315672,"connected_time":3173000000000,"state":"active","ping":49},{"user_id":407,"name":"sentry man","steam_id":76561197993103138,"connected_time":1109000000000,"state":"active","ping":38},{"user_id":327,"name":"coachnetworkoperared514","steam_id":76561198236015392,"connected_time":5544000000000,"state":"active","ping":120},{"user_id":408,"name":"Mor'du","steam_id":76561198274105878,"connected_time":1102000000000,"state":"active","ping":90}]},{"server_id":22,"name":"Uncletopia | London | 6 | All Maps","name_short":"lon-6","host":"lon-1.uk.uncletopia.com","port":27065,"enabled":true,"region":"eu","cc":"gb","latitude":51.509865,"longitude":-0.118092,"reserved":0,"last_update":"0001-01-01T00:00:00Z","name_a2s":"Uncletopia | London | 6 | All Maps","protocol":17,"map":"cp_sunshine","folder":"tf","game":"Team Fortress","app_id":440,"player_count":0,"max_players":24,"Bots":0,"server_type":"Dedicated","server_os":"Linux","password":true,"vac":true,"version":"7708610","steam_id":85568392924742830,"keywords":["cp","nocrits","nodmgspread","uncletopia"],"game_id":440,"stv_port":27066,"stv_name":"Uncletopia | London | 6 | All Maps | STV","players":null},{"server_id":40,"name":"Uncletopia | London | 7 | No Payload","name_short":"lon-7","host":"lon-1.uk.uncletopia.com","port":27075,"enabled":true,"region":"eu","cc":"gb","latitude":51.509865,"longitude":-0.118092,"reserved":0,"last_update":"0001-01-01T00:00:00Z","name_a2s":"Uncletopia | London | 7 | No Payload","protocol":17,"map":"koth_lazarus","folder":"tf","game":"Team Fortress","app_id":440,"player_count":0,"max_players":24,"Bots":0,"server_type":"Dedicated","server_os":"Linux","password":true,"vac":true,"version":"7708610","steam_id":85568392924964314,"keywords":["cp","nocrits","nodmgspread","uncletopia"],"game_id":440,"stv_port":27076,"stv_name":"Uncletopia | London | 7 | No Payload | STV","players":null},{"server_id":41,"name":"Uncletopia | London | 8 | Community","name_short":"lon-8","host":"lon-1.uk.uncletopia.com","port":27085,"enabled":true,"region":"eu","cc":"gb","latitude":51.509865,"longitude":-0.118092,"reserved":0,"last_update":"0001-01-01T00:00:00Z","name_a2s":"Uncletopia | London | 8 | Community","protocol":17,"map":"workshop/pl_cactuscanyon_redux_rc4b.ugc2579644293","folder":"tf","game":"Team Fortress","app_id":440,"player_count":0,"max_players":24,"Bots":0,"server_type":"Dedicated","server_os":"Linux","password":true,"vac":true,"version":"7708610","steam_id":85568392924964315,"keywords":["nocrits","nodmgspread","payload","uncletopia"],"game_id":440,"stv_port":27086,"stv_name":"Uncletopia | London | 8 | Community | STV","players":null},{"server_id":300,"name":"Uncletopia | Montréal | 1 | All Maps","name_short":"mtl-1","host":"mtl-1.ca.uncletopia.com","port":27015,"enabled":true,"region":"us-east","cc":"ca","latitude":45.50889,"longitude":-73.56167,"reserved":0,"last_update":"0001-01-01T00:00:00Z","name_a2s":"Uncletopia | Montréal | 1 | All Maps","protocol":17,"map":"pl_borneo","folder":"tf","game":"Team Fortress","app_id":440,"player_count":0,"max_players":24,"Bots":0,"server_type":"Dedicated","server_os":"Linux","password":true,"vac":true,"version":"7708610","steam_id":85568392924500087,"keywords":["nocrits","nodmgspread","payload","uncletopia"],"game_id":440,"stv_port":27016,"stv_name":"Uncletopia | Montréal | 1 | All Maps | STV","players":null},{"server_id":301,"name":"Uncletopia | Montréal | 2 | All Maps","name_short":"mtl-2","host":"mtl-1.ca.uncletopia.com","port":27025,"enabled":true,"region":"us-east","cc":"ca","latitude":45.50889,"longitude":-73.56167,"reserved":0,"last_update":"0001-01-01T00:00:00Z","name_a2s":"Uncletopia | Montréal | 2 | All Maps","protocol":17,"map":"pl_borneo","folder":"tf","game":"Team Fortress","app_id":440,"player_count":0,"max_players":24,"Bots":0,"server_type":"Dedicated","server_os":"Linux","password":true,"vac":true,"version":"7708610","steam_id":85568392924500088,"keywords":["nocrits","nodmgspread","payload","uncletopia"],"game_id":440,"stv_port":27026,"stv_name":"Uncletopia | Montréal | 2 | All Maps | STV","players":null},{"server_id":302,"name":"Uncletopia | Montréal | 3 | All Maps","name_short":"mtl-3","host":"mtl-1.ca.uncletopia.com","port":27035,"enabled":true,"region":"us-east","cc":"ca","latitude":45.50889,"longitude":-73.56167,"reserved":0,"last_update":"0001-01-01T00:00:00Z","name_a2s":"Uncletopia | Montréal | 3 | All Maps","protocol":17,"map":"cp_process_final","folder":"tf","game":"Team Fortress","app_id":440,"player_count":0,"max_players":24,"Bots":0,"server_type":"Dedicated","server_os":"Linux","password":true,"vac":true,"version":"7708610","steam_id":85568392924500089,"keywords":["cp","nocrits","nodmgspread","uncletopia"],"game_id":440,"stv_port":27036,"stv_name":"Uncletopia | Montréal | 3 | All Maps | STV","players":null},{"server_id":303,"name":"Uncletopia | Montréal | 4 | No Payload","name_short":"mtl-4","host":"mtl-1.ca.uncletopia.com","port":27045,"enabled":true,"region":"us-east","cc":"ca","latitude":45.50889,"longitude":-73.56167,"reserved":0,"last_update":"0001-01-01T00:00:00Z","name_a2s":"Uncletopia | Montréal | 4 | No Payload","protocol":17,"map":"cp_gorge","folder":"tf","game":"Team Fortress","app_id":440,"player_count":0,"max_players":24,"Bots":0,"server_type":"Dedicated","server_os":"Linux","password":true,"vac":true,"version":"7708610","steam_id":85568392924500090,"keywords":["cp","nocrits","nodmgspread","uncletopia"],"game_id":440,"stv_port":27046,"stv_name":"Uncletopia | Montréal | 4 | No Payload | STV","players":null},{"server_id":13,"name":"Uncletopia | New York City | 1 | All Maps","name_short":"nyc-1","host":"nyc-1.us.uncletopia.com","port":27015,"enabled":true,"region":"us-east","cc":"us","latitude":40.73061,"longitude":-73.93524,"reserved":0,"last_update":"0001-01-01T00:00:00Z","name_a2s":"Uncletopia | New York City | 1 | All Maps","protocol":17,"map":"pl_badwater","folder":"tf","game":"Team Fortress","app_id":440,"player_count":24,"max_players":24,"Bots":0,"server_type":"Dedicated","server_os":"Linux","password":true,"vac":true,"version":"7708610","steam_id":85568392924469993,"keywords":["nocrits","nodmgspread","payload","uncletopia"],"game_id":440,"stv_port":27016,"stv_name":"Uncletopia | New York City | 1 | All Maps | STV","players":[{"user_id":49,"name":"swiffie","steam_id":76561198226286700,"connected_time":3445000000000,"state":"active","ping":146},{"user_id":81,"name":"Slondermin","steam_id":76561198320301349,"connected_time":719000000000,"state":"active","ping":60},{"user_id":85,"name":"Kritzburgh","steam_id":76561198149466938,"connected_time":287000000000,"state":"active","ping":48},{"user_id":86,"name":"Sprinklingmydoughnut","steam_id":76561198168009092,"connected_time":282000000000,"state":"active","ping":82},{"user_id":76,"name":"hoboways","steam_id":76561198168035195,"connected_time":1829000000000,"state":"active","ping":81},{"user_id":15,"name":"Daksuki","steam_id":76561198084127751,"connected_time":5047000000000,"state":"active","ping":96},{"user_id":67,"name":"Goreguy122","steam_id":76561198063359352,"connected_time":2249000000000,"state":"active","ping":57},{"user_id":83,"name":"TheGreatAndMightySpence","steam_id":76561198880848609,"connected_time":710000000000,"state":"active","ping":45},{"user_id":64,"name":"veewon","steam_id":76561198276513608,"connected_time":2385000000000,"state":"active","ping":155},{"user_id":55,"name":"static","steam_id":76561199093261935,"connected_time":3335000000000,"state":"active","ping":57},{"user_id":21,"name":"azzy","steam_id":76561198825918211,"connected_time":4796000000000,"state":"active","ping":165},{"user_id":88,"name":"TransWomanGaming","steam_id":76561198809645656,"connected_time":253000000000,"state":"active","ping":104},{"user_id":87,"name":"Griffin.","steam_id":76561197994750414,"connected_time":277000000000,"state":"active","ping":114},{"user_id":80,"name":"xenolith","steam_id":76561198041496496,"connected_time":871000000000,"state":"active","ping":61},{"user_id":26,"name":"Jeffenthropus","steam_id":76561198134204248,"connected_time":4715000000000,"state":"active","ping":44},{"user_id":89,"name":"Bychopy","steam_id":76561198356288911,"connected_time":252000000000,"state":"active","ping":117},{"user_id":53,"name":"Diamond Jack","steam_id":76561198321304762,"connected_time":3370000000000,"state":"active","ping":45},{"user_id":68,"name":"flappyflap2","steam_id":76561198285048973,"connected_time":2219000000000,"state":"active","ping":42},{"user_id":90,"name":"Queen Frau the Round","steam_id":76561197999942134,"connected_time":248000000000,"state":"active","ping":60},{"user_id":84,"name":"goodheartchris","steam_id":76561198045836210,"connected_time":703000000000,"state":"active","ping":74},{"user_id":91,"name":"Alex Narex","steam_id":76561198814364412,"connected_time":244000000000,"state":"active","ping":105},{"user_id":75,"name":"LeTonzy","steam_id":76561198005806699,"connected_time":1901000000000,"state":"active","ping":124},{"user_id":77,"name":"frid","steam_id":76561198005806915,"connected_time":1664000000000,"state":"active","ping":86},{"user_id":92,"name":"Alexander1353","steam_id":76561198249641266,"connected_time":233000000000,"state":"active","ping":110}]},{"server_id":14,"name":"Uncletopia | New York City | 2 | All Maps","name_short":"nyc-2","host":"nyc-1.us.uncletopia.com","port":27025,"enabled":true,"region":"us-east","cc":"us","latitude":40.73061,"longitude":-73.93524,"reserved":0,"last_update":"0001-01-01T00:00:00Z","name_a2s":"Uncletopia | New York City | 2 | All Maps","protocol":17,"map":"cp_dustbowl","folder":"tf","game":"Team Fortress","app_id":440,"player_count":0,"max_players":24,"Bots":0,"server_type":"Dedicated","server_os":"Linux","password":true,"vac":true,"version":"7708610","steam_id":85568392924469994,"keywords":["cp","nocrits","nodmgspread","uncletopia"],"game_id":440,"stv_port":27026,"stv_name":"Uncletopia | New York City | 2 | All Maps | STV","players":null},{"server_id":15,"name":"Uncletopia | New York City | 3 | All Maps","name_short":"nyc-3","host":"nyc-1.us.uncletopia.com","port":27035,"enabled":true,"region":"us-east","cc":"us","latitude":40.73061,"longitude":-73.93524,"reserved":0,"last_update":"0001-01-01T00:00:00Z","name_a2s":"Uncletopia | New York City | 3 | All Maps","protocol":17,"map":"koth_cascade","folder":"tf","game":"Team Fortress","app_id":440,"player_count":0,"max_players":24,"Bots":0,"server_type":"Dedicated","server_os":"Linux","password":true,"vac":true,"version":"7708610","steam_id":85568392924742820,"keywords":["cp","nocrits","nodmgspread","uncletopia"],"game_id":440,"stv_port":27036,"stv_name":"Uncletopia | New York City | 3 | All Maps | STV","players":null},{"server_id":16,"name":"Uncletopia | New York City | 4 | Community","name_short":"nyc-4","host":"nyc-1.us.uncletopia.com","port":27045,"enabled":true,"region":"us-east","cc":"us","latitude":40.73061,"longitude":-73.93524,"reserved":0,"last_update":"0001-01-01T00:00:00Z","name_a2s":"Uncletopia | New York City | 4 | Community","protocol":17,"map":"workshop/rd_asteroid_redux_rc9.ugc2154902912","folder":"tf","game":"Team Fortress","app_id":440,"player_count":0,"max_players":24,"Bots":0,"server_type":"Dedicated","server_os":"Linux","password":true,"vac":true,"version":"7708610","steam_id":85568392924742821,"keywords":["beta","nocrits","nodmgspread","rd","uncletopia"],"game_id":440,"stv_port":27046,"stv_name":"Uncletopia | New York City | 4 | Community | STV","players":null},{"server_id":142,"name":"Uncletopia | São Paulo | 1 | All Maps","name_short":"sao-1","host":"sao-1.br.uncletopia.com","port":27015,"enabled":true,"region":"sa","cc":"br","latitude":-23.533773,"longitude":-46.62529,"reserved":0,"last_update":"0001-01-01T00:00:00Z","name_a2s":"Uncletopia | São Paulo | 1 | All Maps","protocol":17,"map":"cp_sunshine","folder":"tf","game":"Team Fortress","app_id":440,"player_count":0,"max_players":24,"Bots":0,"server_type":"Dedicated","server_os":"Linux","password":true,"vac":true,"version":"7708610","steam_id":85568392924469996,"keywords":["cp","nocrits","nodmgspread","uncletopia"],"game_id":440,"stv_port":27016,"stv_name":"Uncletopia | São Paulo | 1 | All Maps | STV","players":null},{"server_id":143,"name":"Uncletopia | São Paulo | 2 | All Maps","name_short":"sao-2","host":"sao-2.br.uncletopia.com","port":27015,"enabled":true,"region":"sa","cc":"br","latitude":-23.533773,"longitude":-46.62529,"reserved":0,"last_update":"0001-01-01T00:00:00Z","name_a2s":"Uncletopia | São Paulo | 2 | All Maps","protocol":17,"map":"koth_nucleus","folder":"tf","game":"Team Fortress","app_id":440,"player_count":0,"max_players":24,"Bots":0,"server_type":"Dedicated","server_os":"Linux","password":true,"vac":true,"version":"7708610","steam_id":85568392924485349,"keywords":["cp","nocrits","nodmgspread","uncletopia"],"game_id":440,"stv_port":27016,"stv_name":"Uncletopia | São Paulo | 2 | All Maps | STV","players":null},{"server_id":7,"name":"Uncletopia | Seattle | 1 | All Maps","name_short":"sea-1","host":"sea-1.us.uncletopia.com","port":27015,"enabled":true,"region":"us-west","cc":"us","latitude":47.608013,"longitude":-122.33517,"reserved":0,"last_update":"0001-01-01T00:00:00Z","name_a2s":"Uncletopia | Seattle | 1 | All Maps","protocol":17,"map":"pl_borneo","folder":"tf","game":"Team Fortress","app_id":440,"player_count":24,"max_players":24,"Bots":0,"server_type":"Dedicated","server_os":"Linux","password":true,"vac":true,"version":"7708610","steam_id":85568392924469997,"keywords":["nocrits","nodmgspread","payload","uncletopia"],"game_id":440,"stv_port":27016,"stv_name":"Uncletopia | Seattle | 1 | All Maps | STV","players":[{"user_id":362,"name":"God (Fr Tho)","steam_id":76561198834309773,"connected_time":926000000000,"state":"active","ping":53},{"user_id":361,"name":"riff","steam_id":76561198168924361,"connected_time":945000000000,"state":"active","ping":92},{"user_id":363,"name":"PROD CHAMPION","steam_id":76561199245670274,"connected_time":919000000000,"state":"active","ping":75},{"user_id":365,"name":"Susan","steam_id":76561198045705049,"connected_time":840000000000,"state":"active","ping":102},{"user_id":372,"name":"Trooper5k","steam_id":76561198308230713,"connected_time":492000000000,"state":"active","ping":50},{"user_id":371,"name":"chunkysquare","steam_id":76561199076468383,"connected_time":630000000000,"state":"active","ping":73},{"user_id":375,"name":"MAK","steam_id":76561198089361823,"connected_time":120000000000,"state":"active","ping":101},{"user_id":308,"name":"Wind Fucker","steam_id":76561198275362375,"connected_time":3935000000000,"state":"active","ping":57},{"user_id":370,"name":"The A-May-Zing MAY!","steam_id":76561198271939793,"connected_time":691000000000,"state":"active","ping":45},{"user_id":346,"name":"delta eight is from god","steam_id":76561198045926594,"connected_time":1783000000000,"state":"active","ping":73},{"user_id":374,"name":"kebo","steam_id":76561198237159430,"connected_time":343000000000,"state":"active","ping":80},{"user_id":311,"name":"mega","steam_id":76561198089520959,"connected_time":3736000000000,"state":"active","ping":85},{"user_id":368,"name":"Guwop","steam_id":76561197970425737,"connected_time":798000000000,"state":"active","ping":103},{"user_id":348,"name":"Korky Buchek","steam_id":76561198164689254,"connected_time":1737000000000,"state":"active","ping":124},{"user_id":345,"name":"toodles","steam_id":76561198025463883,"connected_time":2002000000000,"state":"active","ping":49},{"user_id":357,"name":"Servitz #savetf2","steam_id":76561198194446835,"connected_time":1183000000000,"state":"active","ping":123},{"user_id":373,"name":"xal","steam_id":76561198045628824,"connected_time":471000000000,"state":"active","ping":58},{"user_id":274,"name":"Mr.Pan","steam_id":76561198069030613,"connected_time":7040000000000,"state":"active","ping":75},{"user_id":341,"name":"cookiegenius2398.r2","steam_id":76561198970759258,"connected_time":2248000000000,"state":"active","ping":63},{"user_id":369,"name":"Yunaa","steam_id":76561198244315088,"connected_time":775000000000,"state":"active","ping":105},{"user_id":356,"name":"mhmyeah_yeahmhm","steam_id":76561198341190679,"connected_time":1262000000000,"state":"active","ping":62},{"user_id":286,"name":"Croxsbow","steam_id":76561198893327481,"connected_time":5923000000000,"state":"active","ping":47},{"user_id":292,"name":"EatSomeBEES","steam_id":76561198047334307,"connected_time":5603000000000,"state":"active","ping":80},{"user_id":360,"name":"charcoal","steam_id":76561198356860204,"connected_time":985000000000,"state":"active","ping":58}]},{"server_id":119,"name":"Uncletopia | Seattle | 2 | All Maps","name_short":"sea-2","host":"sea-1.us.uncletopia.com","port":27025,"enabled":true,"region":"us-west","cc":"us","latitude":47.608013,"longitude":-122.33517,"reserved":0,"last_update":"0001-01-01T00:00:00Z","name_a2s":"Uncletopia | Seattle | 2 | All Maps","protocol":17,"map":"pl_badwater","folder":"tf","game":"Team Fortress","app_id":440,"player_count":0,"max_players":24,"Bots":0,"server_type":"Dedicated","server_os":"Linux","password":true,"vac":true,"version":"7708610","steam_id":85568392924469998,"keywords":["nocrits","nodmgspread","payload","uncletopia"],"game_id":440,"stv_port":27026,"stv_name":"Uncletopia | Seattle | 2 | All Maps | STV","players":null},{"server_id":17,"name":"Uncletopia | San Francisco | 1 | All Maps","name_short":"sfo-1","host":"sfo-1.us.uncletopia.com","port":27015,"enabled":true,"region":"us-west","cc":"us","latitude":37.77397,"longitude":-122.4313,"reserved":0,"last_update":"0001-01-01T00:00:00Z","name_a2s":"Uncletopia | San Francisco | 1 | All Maps","protocol":17,"map":"pl_barnblitz","folder":"tf","game":"Team Fortress","app_id":440,"player_count":0,"max_players":24,"Bots":0,"server_type":"Dedicated","server_os":"Linux","password":true,"vac":true,"version":"7708610","steam_id":85568392924469999,"keywords":["nocrits","nodmgspread","payload","uncletopia"],"game_id":440,"stv_port":27016,"stv_name":"Uncletopia | San Francisco | 1 | All Maps | STV","players":null},{"server_id":18,"name":"Uncletopia | San Francisco | 2 | All Maps","name_short":"sfo-2","host":"sfo-1.us.uncletopia.com","port":27025,"enabled":true,"region":"us-west","cc":"us","latitude":37.77397,"longitude":-122.4313,"reserved":0,"last_update":"0001-01-01T00:00:00Z","name_a2s":"Uncletopia | San Francisco | 2 | All Maps","protocol":17,"map":"pl_upward","folder":"tf","game":"Team Fortress","app_id":440,"player_count":0,"max_players":24,"Bots":0,"server_type":"Dedicated","server_os":"Linux","password":true,"vac":true,"version":"7708610","steam_id":85568392924470000,"keywords":["nocrits","nodmgspread","payload","uncletopia"],"game_id":440,"stv_port":27026,"stv_name":"Uncletopia | San Francisco | 2 | All Maps | STV","players":null},{"server_id":19,"name":"Uncletopia | San Francisco | 3 | No Payload","name_short":"sfo-3","host":"sfo-1.us.uncletopia.com","port":27035,"enabled":true,"region":"us-west","cc":"us","latitude":37.77397,"longitude":-122.4313,"reserved":0,"last_update":"0001-01-01T00:00:00Z","name_a2s":"Uncletopia | San Francisco | 3 | No Payload","protocol":17,"map":"koth_lazarus","folder":"tf","game":"Team Fortress","app_id":440,"player_count":0,"max_players":24,"Bots":0,"server_type":"Dedicated","server_os":"Linux","password":true,"vac":true,"version":"7708610","steam_id":85568392924742824,"keywords":["cp","nocrits","nodmgspread","uncletopia"],"game_id":440,"stv_port":27036,"stv_name":"Uncletopia | San Francisco | 3 | No Payload | STV","players":null},{"server_id":20,"name":"Uncletopia | San Francisco | 4 | Community","name_short":"sfo-4","host":"sfo-1.us.uncletopia.com","port":27045,"enabled":true,"region":"us-west","cc":"us","latitude":37.77397,"longitude":-122.4313,"reserved":0,"last_update":"0001-01-01T00:00:00Z","name_a2s":"Uncletopia | San Francisco | 4 | Community","protocol":17,"map":"workshop/koth_slaughter_rc1.ugc1712845210","folder":"tf","game":"Team Fortress","app_id":440,"player_count":0,"max_players":24,"Bots":0,"server_type":"Dedicated","server_os":"Linux","password":true,"vac":true,"version":"7708610","steam_id":85568392924742826,"keywords":["cp","nocrits","nodmgspread","uncletopia"],"game_id":440,"stv_port":27046,"stv_name":"Uncletopia | San Francisco | 4 | Community | STV","players":null},{"server_id":141,"name":"Uncletopia | Sydney | 1 | All Maps","name_short":"syd-1","host":"syd-1.au.uncletopia.com","port":27015,"enabled":true,"region":"au","cc":"au","latitude":-33.865143,"longitude":151.2099,"reserved":0,"last_update":"0001-01-01T00:00:00Z","name_a2s":"Uncletopia | Sydney | 1 | All Maps","protocol":17,"map":"koth_cascade","folder":"tf","game":"Team Fortress","app_id":440,"player_count":0,"max_players":24,"Bots":0,"server_type":"Dedicated","server_os":"Linux","password":true,"vac":true,"version":"7708610","steam_id":85568392924470001,"keywords":["cp","nocrits","nodmgspread","uncletopia"],"game_id":440,"stv_port":27016,"stv_name":"Uncletopia | Sydney | 1 | All Maps | STV","players":null},{"server_id":123,"name":"Uncletopia | Sydney | 2 | All Maps","name_short":"syd-2","host":"syd-1.au.uncletopia.com","port":27025,"enabled":true,"region":"au","cc":"au","latitude":-33.865143,"longitude":151.2099,"reserved":0,"last_update":"0001-01-01T00:00:00Z","name_a2s":"Uncletopia | Sydney | 2 | All Maps","protocol":17,"map":"pl_barnblitz","folder":"tf","game":"Team Fortress","app_id":440,"player_count":0,"max_players":24,"Bots":0,"server_type":"Dedicated","server_os":"Linux","password":true,"vac":true,"version":"7708610","steam_id":85568392924470002,"keywords":["nocrits","nodmgspread","payload","uncletopia"],"game_id":440,"stv_port":27026,"stv_name":"Uncletopia | Sydney | 2 | All Maps | STV","players":null},{"server_id":395,"name":"Uncletopia | Sydney | 3 | All Maps","name_short":"syd-3","host":"syd-1.au.uncletopia.com","port":27035,"enabled":true,"region":"au","cc":"au","latitude":-33.865143,"longitude":151.2099,"reserved":0,"last_update":"0001-01-01T00:00:00Z","name_a2s":"Uncletopia | Sydney | 3 | All Maps","protocol":17,"map":"koth_viaduct","folder":"tf","game":"Team Fortress","app_id":440,"player_count":0,"max_players":24,"Bots":0,"server_type":"Dedicated","server_os":"Linux","password":true,"vac":true,"version":"7708610","steam_id":85568392925194467,"keywords":["cp","nocrits","nodmgspread","uncletopia"],"game_id":440,"stv_port":27036,"stv_name":"Uncletopia | Sydney | 3 | All Maps | STV","players":null},{"server_id":396,"name":"Uncletopia | Sydney | 4 | All Maps","name_short":"syd-4","host":"syd-1.au.uncletopia.com","port":27045,"enabled":true,"region":"au","cc":"au","latitude":-33.865143,"longitude":151.2099,"reserved":0,"last_update":"0001-01-01T00:00:00Z","name_a2s":"Uncletopia | Sydney | 4 | All Maps","protocol":17,"map":"pl_frontier_final","folder":"tf","game":"Team Fortress","app_id":440,"player_count":0,"max_players":24,"Bots":0,"server_type":"Dedicated","server_os":"Linux","password":true,"vac":true,"version":"7708610","steam_id":85568392925397958,"keywords":["nocrits","nodmgspread","payload","uncletopia"],"game_id":440,"stv_port":27046,"stv_name":"Uncletopia | Sydney | 4 | All Maps | STV","players":null},{"server_id":58,"name":"Uncletopia | Sydney | 5 | No Payload","name_short":"syd-5","host":"syd-1.au.uncletopia.com","port":27055,"enabled":true,"region":"au","cc":"au","latitude":-33.865143,"longitude":151.2099,"reserved":0,"last_update":"0001-01-01T00:00:00Z","name_a2s":"Uncletopia | Sydney | 5 | No Payload","protocol":17,"map":"pl_pier","folder":"tf","game":"Team Fortress","app_id":440,"player_count":0,"max_players":24,"Bots":0,"server_type":"Dedicated","server_os":"Linux","password":true,"vac":true,"version":"7708610","steam_id":85568392925397959,"keywords":["nocrits","nodmgspread","payload","uncletopia"],"game_id":440,"stv_port":27056,"stv_name":"Uncletopia | Sydney | 5 | No Payload | STV","players":null},{"server_id":59,"name":"Uncletopia | Sydney | 6 | Community","name_short":"syd-6","host":"syd-1.au.uncletopia.com","port":27065,"enabled":true,"region":"au","cc":"au","latitude":-33.865143,"longitude":151.2099,"reserved":0,"last_update":"0001-01-01T00:00:00Z","name_a2s":"Uncletopia | Sydney | 6 | Community","protocol":17,"map":"pl_badwater","folder":"tf","game":"Team Fortress","app_id":440,"player_count":0,"max_players":24,"Bots":0,"server_type":"Dedicated","server_os":"Linux","password":true,"vac":true,"version":"7708610","steam_id":85568392925397960,"keywords":["nocrits","nodmgspread","payload","uncletopia"],"game_id":440,"stv_port":27066,"stv_name":"Uncletopia | Sydney | 6 | Community | STV","players":null},{"server_id":49,"name":"Uncletopia | Warsaw | 1 | All Maps","name_short":"waw-1","host":"waw-1.pl.uncletopia.com","port":27015,"enabled":true,"region":"eu","cc":"pl","latitude":52.2297,"longitude":21.017532,"reserved":0,"last_update":"0001-01-01T00:00:00Z","name_a2s":"Uncletopia | Warsaw | 1 | All Maps","protocol":17,"map":"cp_dustbowl","folder":"tf","game":"Team Fortress","app_id":440,"player_count":0,"max_players":24,"Bots":0,"server_type":"Dedicated","server_os":"Linux","password":true,"vac":true,"version":"7708610","steam_id":85568392925397850,"keywords":["cp","nocrits","nodmgspread","uncletopia"],"game_id":440,"stv_port":27016,"stv_name":"Uncletopia | Warsaw | 1 | All Maps | STV","players":null},{"server_id":50,"name":"Uncletopia | Warsaw | 2 | All Maps","name_short":"waw-2","host":"waw-1.pl.uncletopia.com","port":27025,"enabled":true,"region":"eu","cc":"pl","latitude":52.2297,"longitude":21.017532,"reserved":0,"last_update":"0001-01-01T00:00:00Z","name_a2s":"Uncletopia | Warsaw | 2 | All Maps","protocol":17,"map":"koth_highpass","folder":"tf","game":"Team Fortress","app_id":440,"player_count":0,"max_players":24,"Bots":0,"server_type":"Dedicated","server_os":"Linux","password":true,"vac":true,"version":"7708610","steam_id":85568392925397851,"keywords":["cp","nocrits","nodmgspread","uncletopia"],"game_id":440,"stv_port":27026,"stv_name":"Uncletopia | Warsaw | 2 | All Maps | STV","players":null},{"server_id":51,"name":"Uncletopia | Warsaw | 3 | All Maps","name_short":"waw-3","host":"waw-1.pl.uncletopia.com","port":27035,"enabled":true,"region":"eu","cc":"pl","latitude":52.2297,"longitude":21.017532,"reserved":0,"last_update":"0001-01-01T00:00:00Z","name_a2s":"Uncletopia | Warsaw | 3 | All Maps","protocol":17,"map":"cp_sunshine","folder":"tf","game":"Team Fortress","app_id":440,"player_count":0,"max_players":24,"Bots":0,"server_type":"Dedicated","server_os":"Linux","password":true,"vac":true,"version":"7708610","steam_id":85568392925397852,"keywords":["cp","nocrits","nodmgspread","uncletopia"],"game_id":440,"stv_port":27036,"stv_name":"Uncletopia | Warsaw | 3 | All Maps | STV","players":null},{"server_id":52,"name":"Uncletopia | Warsaw | 4 | All Maps","name_short":"waw-4","host":"waw-1.pl.uncletopia.com","port":27045,"enabled":true,"region":"eu","cc":"pl","latitude":52.2297,"longitude":21.017532,"reserved":0,"last_update":"0001-01-01T00:00:00Z","name_a2s":"Uncletopia | Warsaw | 4 | All Maps","protocol":17,"map":"pl_pier","folder":"tf","game":"Team Fortress","app_id":440,"player_count":0,"max_players":24,"Bots":0,"server_type":"Dedicated","server_os":"Linux","password":true,"vac":true,"version":"7708610","steam_id":85568392925397853,"keywords":["nocrits","nodmgspread","payload","uncletopia"],"game_id":440,"stv_port":27046,"stv_name":"Uncletopia | Warsaw | 4 | All Maps | STV","players":null},{"server_id":53,"name":"Uncletopia | Warsaw | 5 | No Payload","name_short":"waw-5","host":"waw-1.pl.uncletopia.com","port":27055,"enabled":true,"region":"eu","cc":"pl","latitude":52.2297,"longitude":21.017532,"reserved":0,"last_update":"0001-01-01T00:00:00Z","name_a2s":"Uncletopia | Warsaw | 5 | No Payload","protocol":17,"map":"pl_borneo","folder":"tf","game":"Team Fortress","app_id":440,"player_count":0,"max_players":24,"Bots":0,"server_type":"Dedicated","server_os":"Linux","password":true,"vac":true,"version":"7708610","steam_id":85568392925397854,"keywords":["nocrits","nodmgspread","payload","uncletopia"],"game_id":440,"stv_port":27056,"stv_name":"Uncletopia | Warsaw | 5 | No Payload | STV","players":null},{"server_id":54,"name":"Uncletopia | Warsaw | 6 | Community","name_short":"waw-6","host":"waw-1.pl.uncletopia.com","port":27065,"enabled":true,"region":"eu","cc":"pl","latitude":52.2297,"longitude":21.017532,"reserved":0,"last_update":"0001-01-01T00:00:00Z","name_a2s":"Uncletopia | Warsaw | 6 | Community","protocol":17,"map":"workshop/pl_barnblitz_pro7.ugc582280235","folder":"tf","game":"Team Fortress","app_id":440,"player_count":0,"max_players":24,"Bots":0,"server_type":"Dedicated","server_os":"Linux","password":true,"vac":true,"version":"7708610","steam_id":85568392925397856,"keywords":["nocrits","nodmgspread","payload","uncletopia"],"game_id":440,"stv_port":27066,"stv_name":"Uncletopia | Warsaw | 6 | Community | STV","players":null}]}