{"status":true,"message":"","result":[{"server_id":9,"name":"Uncletopia | Atlanta | 1 | All Maps","name_short":"atl-1","host":"atl-1.us.uncletopia.com","port":27015,"enabled":true,"region":"us-east","cc":"us","latitude":33.753746,"longitude":-84.38633,"reserved":0,"last_update":"0001-01-01T00:00:00Z","name_a2s":"Uncletopia | Atlanta | 1 | All Maps","protocol":17,"map":"pl_borneo","folder":"tf","game":"Team Fortress","app_id":440,"player_count":24,"max_players":24,"Bots":0,"server_type":"Dedicated","server_os":"Linux","password":true,"vac":true,"version":"7961495","steam_id":85568392924469982,"keywords":["nocrits","nodmgspread","payload","uncletopia"],"game_id":440,"stv_port":27016,"stv_name":"Uncletopia | Atlanta | 1 | All Maps | STV","players":null},{"server_id":104,"name":"Uncletopia | Atlanta | 2 | All Maps","name_short":"atl-2","host":"atl-1.us.uncletopia.com","port":27025,"enabled":true,"region":"us-east","cc":"us","latitude":33.753746,"longitude":-84.38633,"reserved":0,"last_update":"0001-01-01T00:00:00Z","name_a2s":"Uncletopia | Atlanta | 2 | All Maps","protocol":17,"map":"koth_cascade","folder":"tf","game":"Team Fortress","app_id":440,"player_count":22,"max_players":24,"Bots":0,"server_type":"Dedicated","server_os":"Linux","password":true,"vac":true,"version":"7961495","steam_id":85568392924469983,"keywords":["cp","nocrits","nodmgspread","uncletopia"],"game_id":440,"stv_port":27026,"stv_name":"Uncletopia | Atlanta | 2 | All Maps | STV","players":null},{"server_id":400,"name":"Uncletopia | Atlanta | 3 | Stopwatch","name_short":"atl-3","host":"atl-1.us.uncletopia.com","port":27035,"enabled":true,"region":"us-east","cc":"us","latitude":33.753746,"longitude":-84.38633,"reserved":0,"last_update":"0001-01-01T00:00:00Z","name_a2s":"Uncletopia | Atlanta | 3 | Stopwatch","protocol":17,"map":"koth_ramjam_rc1","folder":"tf","game":"Team Fortress","app_id":440,"player_count":0,"max_players":24,"Bots":0,"server_type":"Dedicated","server_os":"Linux","password":true,"vac":true,"version":"7961495","steam_id":85568392924515187,"keywords":["cp","nocrits","nodmgspread","uncletopia"],"game_id":440,"stv_port":27036,"stv_name":"Uncletopia | Atlanta | 3 | Stopwatch | STV","players":null},{"server_id":401,"name":"Uncletopia | Atlanta | 4 | Community","name_short":"atl-4","host":"atl-1.us.uncletopia.com","port":27045,"enabled":true,"region":"us-east","cc":"us","latitude":33.753746,"longitude":-84.38633,"reserved":0,"last_update":"0001-01-01T00:00:00Z","name_a2s":"Uncletopia | Atlanta | 4 | Community","protocol":17,"map":"cp_reckoner_rc6","folder":"tf","game":"Team Fortress","app_id":440,"player_count":0,"max_players":24,"Bots":0,"server_type":"Dedicated","server_os":"Linux","password":true,"vac":true,"version":"7961495","steam_id":85568392924515188,"keywords":["cp","nocrits","nodmgspread","uncletopia"],"game_id":440,"stv_port":27046,"stv_name":"Uncletopia | Atlanta | 4 | Community | STV","players":null},{"server_id":2,"name":"Uncletopia | Chicago | 1 | All Maps","name_short":"chi-1","host":"chi-1.us.uncletopia.com","port":27015,"enabled":true,"region":"us-central","cc":"us","latitude":41.881832,"longitude":-87.62318,"reserved":0,"last_update":"0001-01-01T00:00:00Z","name_a2s":"Uncletopia | Chicago | 1 | All Maps","protocol":17,"map":"pl_snowycoast","folder":"tf","game":"Team Fortress","app_id":440,"player_count":24,"max_players":24,"Bots":0,"server_type":"Dedicated","server_os":"Linux","password":true,"vac":true,"version":"7961495","steam_id":85568392924469984,"keywords":["nocrits","nodmgspread","payload","uncletopia"],"game_id":440,"stv_port":27016,"stv_name":"Uncletopia | Chicago | 1 | All Maps | STV","players":[{"user_id":312,"name":"Discourse","steam_id":76561198984286678,"connected_time":1310000000000,"state":"active","ping":59},{"user_id":324,"name":"Rornir","steam_id":76561198081829615,"connected_time":441000000000,"state":"active","ping":39},{"user_id":313,"name":"Kartyac","steam_id":76561197991069005,"connected_time":1291000000000,"state":"active","ping":78},{"user_id":319,"name":"M1C4A3L","steam_id":76561198009980085,"connected_time":1100000000000,"state":"active","ping":84},{"user_id":297,"name":"Zesty Zucchini Ziti","steam_id":76561198092494136,"connected_time":2703000000000,"state":"active","ping":64},{"user_id":326,"name":"Rex","steam_id":76561198138365053,"connected_time":292000000000,"state":"active","ping":132},{"user_id":302,"name":"Owixan","steam_id":76561198074990070,"connected_time":2669000000000,"state":"active","ping":44},{"user_id":310,"name":"lexi","steam_id":76561198176299759,"connected_time":1549000000000,"state":"active","ping":76},{"user_id":320,"name":"Punished \"I'm Baby\" Snake","steam_id":76561198046895822,"connected_time":1089000000000,"state":"active","ping":76},{"user_id":323,"name":"Ninjoth","steam_id":76561198038611753,"connected_time":566000000000,"state":"active","ping":82},{"user_id":288,"name":"PoisonIvy","steam_id":76561198072384574,"connected_time":3331000000000,"state":"active","ping":50},{"user_id":290,"name":"unlucky bastard","steam_id":76561199216874750,"connected_time":2928000000000,"state":"active","ping":60},{"user_id":327,"name":"Daz","steam_id":76561198041431938,"connected_time":219000000000,"state":"active","ping":98},{"user_id":329,"name":"MoonOfJupiter","steam_id":76561198143766827,"connected_time":30000000000,"state":"active","ping":53},{"user_id":303,"name":"tydogzilla","steam_id":76561198054254518,"connected_time":2651000000000,"state":"active","ping":70},{"user_id":307,"name":"Chaos","steam_id":76561199068325065,"connected_time":1622000000000,"state":"active","ping":99},{"user_id":325,"name":"floppy muppet","steam_id":76561198003076261,"connected_time":356000000000,"state":"active","ping":82},{"user_id":315,"name":"Wilhelmktx","steam_id":76561198158102295,"connected_time":1250000000000,"state":"active","ping":45},{"user_id":318,"name":"marty","steam_id":76561198032782746,"connected_time":1125000000000,"state":"active","ping":87},{"user_id":281,"name":"Toxic Ron","steam_id":76561198089302972,"connected_time":4406000000000,"state":"active","ping":62},{"user_id":280,"name":"MedRed™ #IATAH","steam_id":76561198002962970,"connected_time":4427000000000,"state":"active","ping":106},{"user_id":276,"name":"Khaicchi ♥","steam_id":76561198104454754,"connected_time":4859000000000,"state":"active","ping":176},{"user_id":306,"name":"Urbanzpinapple","steam_id":76561198115426938,"connected_time":2087000000000,"state":"active","ping":61},{"user_id":309,"name":"NikoOS (NO SOUND)","steam_id":76561198180020521,"connected_time":1584000000000,"state":"active","ping":111}]},{"server_id":106,"name":"Uncletopia | Chicago | 2 | All Maps","name_short":"chi-2","host":"chi-1.us.uncletopia.com","port":27025,"enabled":true,"region":"us-central","cc":"us","latitude":41.881832,"longitude":-87.62318,"reserved":0,"last_update":"0001-01-01T00:00:00Z","name_a2s":"Uncletopia | Chicago | 2 | All Maps","protocol":17,"map":"cp_sunshine","folder":"tf","game":"Team Fortress","app_id":440,"player_count":24,"max_players":24,"Bots":0,"server_type":"Dedicated","server_os":"Linux","password":true,"vac":true,"version":"7961495","steam_id":85568392924469985,"keywords":["cp","nocrits","nodmgspread","uncletopia"],"game_id":440,"stv_port":27026,"stv_name":"Uncletopia | Chicago | 2 | All Maps | STV","players":[{"user_id":92,"name":"Life Of A Gambler","steam_id":76561199210782731,"connected_time":669000000000,"state":"active","ping":70},{"user_id":70,"name":"Wishing you godspeed, glory","steam_id":76561198449527009,"connected_time":1753000000000,"state":"active","ping":86},{"user_id":79,"name":"toastman","steam_id":76561198207073088,"connected_time":1444000000000,"state":"active","ping":79},{"user_id":17,"name":"Drone #0432 (they/it)","steam_id":76561198027321950,"connected_time":5678000000000,"state":"active","ping":89},{"user_id":81,"name":"Skaboopy","steam_id":76561198121079438,"connected_time":1423000000000,"state":"active","ping":67},{"user_id":99,"name":"Bee","steam_id":76561198074681324,"connected_time":123000000000,"state":"active","ping":60},{"user_id":100,"name":"she's 12","steam_id":76561198295034584,"connected_time":115000000000,"state":"active","ping":58},{"user_id":74,"name":"the munch","steam_id":76561199164347838,"connected_time":1564000000000,"state":"active","ping":70},{"user_id":90,"name":"RyInc","steam_id":76561198874261643,"connected_time":908000000000,"state":"active","ping":46},{"user_id":47,"name":"Matisguy","steam_id":76561199020903681,"connected_time":3694000000000,"state":"active","ping":83},{"user_id":93,"name":"FizzleWizard","steam_id":76561198045990868,"connected_time":612000000000,"state":"active","ping":62},{"user_id":72,"name":"NUt","steam_id":76561198031007966,"connected_time":1614000000000,"state":"active","ping":67},{"user_id":73,"name":"dope","steam_id":76561198126699550,"connected_time":1605000000000,"state":"active","ping":100},{"user_id":31,"name":"Elpipiribao","steam_id":76561198825371499,"connected_time":5338000000000,"state":"active","ping":145},{"user_id":91,"name":"SLEEPY-Class NHP","steam_id":76561198064583865,"connected_time":886000000000,"state":"active","ping":55},{"user_id":83,"name":"Satori Komeiji","steam_id":76561198158211423,"connected_time":1367000000000,"state":"active","ping":100},{"user_id":88,"name":"BigNugs","steam_id":76561198056402610,"connected_time":1124000000000,"state":"active","ping":63},{"user_id":87,"name":"Kevin Y.","steam_id":76561198364331423,"connected_time":1219000000000,"state":"active","ping":94},{"user_id":98,"name":"Dan","steam_id":76561199236719411,"connected_time":183000000000,"state":"active","ping":72},{"user_id":68,"name":"leaving lunar orbit","steam_id":76561199085974120,"connected_time":1991000000000,"state":"active","ping":72},{"user_id":96,"name":"Hyperactivedimwit","steam_id":76561198134221704,"connected_time":409000000000,"state":"active","ping":50},{"user_id":37,"name":"fish (2:3)","steam_id":76561198134331073,"connected_time":5053000000000,"state":"active","ping":103},{"user_id":41,"name":"puffy","steam_id":76561198411347037,"connected_time":4532000000000,"state":"active","ping":70},{"user_id":66,"name":"jstn","steam_id":76561198845283665,"connected_time":2203000000000,"state":"active","ping":65}]},{"server_id":402,"name":"Uncletopia | Chicago | 3 | All Maps","name_short":"chi-3","host":"chi-1.us.uncletopia.com","port":27035,"enabled":true,"region":"us-central","cc":"us","latitude":41.881832,"longitude":-87.62318,"reserved":0,"last_update":"0001-01-01T00:00:00Z","name_a2s":"Uncletopia | Chicago | 3 | All Maps","protocol":17,"map":"koth_cascade","folder":"tf","game":"Team Fortress","app_id":440,"player_count":0,"max_players":24,"Bots":0,"server_type":"Dedicated","server_os":"Linux","password":true,"vac":true,"version":"7961495","steam_id":85568392924515191,"keywords":["cp","nocrits","nodmgspread","uncletopia"],"game_id":440,"stv_port":27036,"stv_name":"Uncletopia | Chicago | 3 | All Maps | STV","players":null},{"server_id":403,"name":"Uncletopia | Chicago | 4 | All Maps","name_short":"chi-4","host":"chi-1.us.uncletopia.com","port":27045,"enabled":true,"region":"us-central","cc":"us","latitude":41.881832,"longitude":-87.62318,"reserved":0,"last_update":"0001-01-01T00:00:00Z","name_a2s":"Uncletopia | Chicago | 4 | All Maps","protocol":17,"map":"koth_cascade","folder":"tf","game":"Team Fortress","app_id":440,"player_count":0,"max_players":24,"Bots":0,"server_type":"Dedicated","server_os":"Linux","password":true,"vac":true,"version":"7961495","steam_id":85568392924515193,"keywords":["cp","nocrits","nodmgspread","uncletopia"],"game_id":440,"stv_port":27046,"stv_name":"Uncletopia | Chicago | 4 | All Maps | STV","players":null},{"server_id":36,"name":"Uncletopia | Chicago | 5 | All Maps","name_short":"chi-5","host":"chi-2.us.uncletopia.com","port":27015,"enabled":true,"region":"us-central","cc":"us","latitude":41.881832,"longitude":-87.62318,"reserved":0,"last_update":"0001-01-01T00:00:00Z","name_a2s":"Uncletopia | Chicago | 5 | All Maps","protocol":17,"map":"koth_viaduct","folder":"tf","game":"Team Fortress","app_id":440,"player_count":0,"max_players":24,"Bots":0,"server_type":"Dedicated","server_os":"Linux","password":true,"vac":true,"version":"7961495","steam_id":85568392924866362,"keywords":["cp","nocrits","nodmgspread","uncletopia"],"game_id":440,"stv_port":27016,"stv_name":"Uncletopia | Chicago | 5 | All Maps | STV","players":null},{"server_id":37,"name":"Uncletopia | Chicago | 6 | All Maps","name_short":"chi-6","host":"chi-2.us.uncletopia.com","port":27025,"enabled":true,"region":"us-central","cc":"us","latitude":41.881832,"longitude":-87.62318,"reserved":0,"last_update":"0001-01-01T00:00:00Z","name_a2s":"Uncletopia | Chicago | 6 | All Maps","protocol":17,"map":"cp_mountainlab","folder":"tf","game":"Team Fortress","app_id":440,"player_count":0,"max_players":24,"Bots":0,"server_type":"Dedicated","server_os":"Linux","password":true,"vac":true,"version":"7961495","steam_id":85568392924866363,"keywords":["cp","nocrits","nodmgspread","uncletopia"],"game_id":440,"stv_port":27026,"stv_name":"Uncletopia | Chicago | 6 | All Maps | STV","players":null},{"server_id":38,"name":"Uncletopia | Chicago | 7 | Stopwatch","name_short":"chi-7","host":"chi-2.us.uncletopia.com","port":27035,"enabled":true,"region":"us-central","cc":"us","latitude":41.881832,"longitude":-87.62318,"reserved":0,"last_update":"0001-01-01T00:00:00Z","name_a2s":"Uncletopia | Chicago | 7 | Stopwatch","protocol":17,"map":"pl_badwater","folder":"tf","game":"Team Fortress","app_id":440,"player_count":0,"max_players":24,"Bots":0,"server_type":"Dedicated","server_os":"Linux","password":true,"vac":true,"version":"7961495","steam_id":85568392924866364,"keywords":["nocrits","nodmgspread","payload","uncletopia"],"game_id":440,"stv_port":27036,"stv_name":"Uncletopia | Chicago | 7 | Stopwatch | STV","players":null},{"server_id":39,"name":"Uncletopia | Chicago | 8 | Community","name_short":"chi-8","host":"chi-2.us.uncletopia.com","port":27045,"enabled":true,"region":"us-central","cc":"us","latitude":41.881832,"longitude":-87.62318,"reserved":0,"last_update":"0001-01-01T00:00:00Z","name_a2s":"Uncletopia | Chicago | 8 | Community","protocol":17,"map":"workshop/cp_bruhstbowl_b6.ugc2878604990","folder":"tf","game":"Team Fortress","app_id":440,"player_count":0,"max_players":24,"Bots":0,"server_type":"Dedicated","server_os":"Linux","password":true,"vac":true,"version":"7961495","steam_id":85568392924866365,"keywords":["cp","nocrits","nodmgspread","uncletopia"],"game_id":440,"stv_port":27046,"stv_name":"Uncletopia | Chicago | 8 | Community | STV","players":null},{"server_id":8,"name":"Uncletopia | Dallas | 1 | All Maps","name_short":"dal-1","host":"dal-1.us.uncletopia.com","port":27015,"enabled":true,"region":"us-central","cc":"us","latitude":32.779167,"longitude":-96.80889,"reserved":0,"last_update":"0001-01-01T00:00:00Z","name_a2s":"Uncletopia | Dallas | 1 | All Maps","protocol":17,"map":"pl_snowycoast","folder":"tf","game":"Team Fortress","app_id":440,"player_count":24,"max_players":24,"Bots":0,"server_type":"Dedicated","server_os":"Linux","password":true,"vac":true,"version":"7961495","steam_id":85568392924469986,"keywords":["nocrits","nodmgspread","payload","uncletopia"],"game_id":440,"stv_port":27016,"stv_name":"Uncletopia | Dallas | 1 | All Maps | STV","players":[{"user_id":168,"name":"riSygneD","steam_id":76561198331618687,"connected_time":2073000000000,"state":"active","ping":69},{"user_id":158,"name":"Shalom","steam_id":76561198410005222,"connected_time":3293000000000,"state":"active","ping":52},{"user_id":185,"name":"Tufo","steam_id":76561198068963190,"connected_time":875000000000,"state":"active","ping":53},{"user_id":152,"name":"TheGirthquake","steam_id":76561198238895056,"connected_time":4115000000000,"state":"active","ping":58},{"user_id":156,"name":"Rustyorion","steam_id":76561198439186347,"connected_time":3967000000000,"state":"active","ping":102},{"user_id":178,"name":"Elon Bust","steam_id":76561198106217716,"connected_time":1114000000000,"state":"active","ping":70},{"user_id":180,"name":"gayest MF DOOM fan","steam_id":76561198065801979,"connected_time":1070000000000,"state":"active","ping":95},{"user_id":187,"name":"Silvermace","steam_id":76561198090696843,"connected_time":374000000000,"state":"active","ping":60},{"user_id":159,"name":"SadDragonMan","steam_id":76561198358280010,"connected_time":3287000000000,"state":"active","ping":94},{"user_id":186,"name":"MeMyBongusAndTheGreatOutdoors","steam_id":76561198097708978,"connected_time":833000000000,"state":"active","ping":68},{"user_id":162,"name":"denzell05","steam_id":76561198086987061,"connected_time":2822000000000,"state":"active","ping":85},{"user_id":182,"name":"my name jeff","steam_id":76561198179816898,"connected_time":1036000000000,"state":"active","ping":107},{"user_id":183,"name":"com lag","steam_id":76561198019019392,"connected_time":1034000000000,"state":"active","ping":50},{"user_id":173,"name":"YOU WHAT?!","steam_id":76561198418679471,"connected_time":1503000000000,"state":"active","ping":60},{"user_id":82,"name":"NavyDinosaur","steam_id":76561198088459962,"connected_time":9362000000000,"state":"active","ping":101},{"user_id":184,"name":"sloth (be nice im cringe)","steam_id":76561198047098172,"connected_time":1019000000000,"state":"active","ping":94},{"user_id":140,"name":"Midbus","steam_id":76561198989850488,"connected_time":4773000000000,"state":"active","ping":64},{"user_id":164,"name":"JtsRes","steam_id":76561197994809241,"connected_time":2722000000000,"state":"active","ping":62},{"user_id":117,"name":"yuki","steam_id":76561198088403016,"connected_time":6325000000000,"state":"active","ping":191},{"user_id":174,"name":"ADRIEN BRODY","steam_id":76561198009299473,"connected_time":1467000000000,"state":"active","ping":96},{"user_id":175,"name":"Baron Tec","steam_id":76561198043781392,"connected_time":1433000000000,"state":"active","ping":86},{"user_id":160,"name":"reko","steam_id":76561198278020887,"connected_time":3148000000000,"state":"active","ping":58},{"user_id":41,"name":"Daxtrus","steam_id":76561198001502519,"connected_time":12468000000000,"state":"active","ping":90},{"user_id":153,"name":"Jennifer Aniston's Nipples","steam_id":76561198086107548,"connected_time":4064000000000,"state":"active","ping":46}]},{"server_id":108,"name":"Uncletopia | Dallas | 2 | All Maps","name_short":"dal-2","host":"dal-1.us.uncletopia.com","port":27025,"enabled":true,"region":"us-central","cc":"us","latitude":32.779167,"longitude":-96.80889,"reserved":0,"last_update":"0001-01-01T00:00:00Z","name_a2s":"Uncletopia | Dallas | 2 | All Maps","protocol":17,"map":"pl_swiftwater_final1","folder":"tf","game":"Team Fortress","app_id":440,"player_count":2,"max_players":24,"Bots":0,"server_type":"Dedicated","server_os":"Linux","password":true,"vac":true,"version":"7961495","steam_id":85568392924469988,"keywords":["nocrits","nodmgspread","payload","uncletopia"],"game_id":440,"stv_port":27026,"stv_name":"Uncletopia | Dallas | 2 | All Maps | STV","players":[{"user_id":6,"name":"Your Dad™","steam_id":76561198254739340,"connected_time":266000000000,"state":"active","ping":82},{"user_id":7,"name":"Niko","steam_id":76561198185806553,"connected_time":184000000000,"state":"active","ping":47}]},{"server_id":404,"name":"Uncletopia | Dallas | 3 | All Maps","name_short":"dal-3","host":"dal-1.us.uncletopia.com","port":27035,"enabled":true,"region":"us-central","cc":"us","latitude":32.779167,"longitude":-96.80889,"reserved":0,"last_update":"0001-01-01T00:00:00Z","name_a2s":"Uncletopia | Dallas | 3 | All Maps","protocol":17,"map":"pl_badwater","folder":"tf","game":"Team Fortress","app_id":440,"player_count":0,"max_players":24,"Bots":0,"server_type":"Dedicated","server_os":"Linux","password":true,"vac":true,"version":"7961495","steam_id":85568392924515219,"keywords":["nocrits","nodmgspread","payload","uncletopia"],"game_id":440,"stv_port":27036,"stv_name":"Uncletopia | Dallas | 3 | All Maps | STV","players":null},{"server_id":405,"name":"Uncletopia | Dallas | 4 | Community","name_short":"dal-4","host":"dal-1.us.uncletopia.com","port":27045,"enabled":true,"region":"us-central","cc":"us","latitude":32.779167,"longitude":-96.80889,"reserved":0,"last_update":"0001-01-01T00:00:00Z","name_a2s":"Uncletopia | Dallas | 4 | Community","protocol":17,"map":"pl_pier","folder":"tf","game":"Team Fortress","app_id":440,"player_count":0,"max_players":24,"Bots":0,"server_type":"Dedicated","server_os":"Linux","password":true,"vac":true,"version":"7961495","steam_id":85568392924515220,"keywords":["nocrits","nodmgspread","payload","uncletopia"],"game_id":440,"stv_port":27046,"stv_name":"Uncletopia | Dallas | 4 | Community | STV","players":null},{"server_id":5,"name":"Uncletopia | Frankfurt | 1 | All Maps","name_short":"frk-1","host":"frk-1.de.uncletopia.com","port":27015,"enabled":true,"region":"eu","cc":"de","latitude":50.110924,"longitude":8.682127,"reserved":0,"last_update":"0001-01-01T00:00:00Z","name_a2s":"Uncletopia | Frankfurt | 1 | All Maps","protocol":17,"map":"cp_dustbowl","folder":"tf","game":"Team Fortress","app_id":440,"player_count":7,"max_players":24,"Bots":0,"server_type":"Dedicated","server_os":"Linux","password":true,"vac":true,"version":"7961495","steam_id":85568392924469989,"keywords":["cp","nocrits","nodmgspread","uncletopia"],"game_id":440,"stv_port":27016,"stv_name":"Uncletopia | Frankfurt | 1 | All Maps | STV","players":[{"user_id":500,"name":"thorstianer","steam_id":76561199090304505,"connected_time":0,"state":"spawning","ping":0},{"user_id":494,"name":"coderlol","steam_id":76561197981715916,"connected_time":415000000000,"state":"active","ping":97},{"user_id":496,"name":"La buzza la stappa","steam_id":76561198950692337,"connected_time":333000000000,"state":"active","ping":47},{"user_id":499,"name":"MakeItRainbow","steam_id":76561198045098064,"connected_time":234000000000,"state":"active","ping":49},{"user_id":452,"name":"Gunvald","steam_id":76561198020195322,"connected_time":4108000000000,"state":"active","ping":82},{"user_id":459,"name":"DiracDeltaFunction","steam_id":76561199201624841,"connected_time":3786000000000,"state":"active","ping":83},{"user_id":489,"name":"Jannisxxl","steam_id":76561198048377916,"connected_time":884000000000,"state":"active","ping":70}]},{"server_id":110,"name":"Uncletopia | Frankfurt | 2 | All Maps","name_short":"frk-2","host":"frk-1.de.uncletopia.com","port":27025,"enabled":true,"region":"eu","cc":"de","latitude":50.110924,"longitude":8.682127,"reserved":0,"last_update":"0001-01-01T00:00:00Z","name_a2s":"Uncletopia | Frankfurt | 2 | All Maps","protocol":17,"map":"cp_mountainlab","folder":"tf","game":"Team Fortress","app_id":440,"player_count":24,"max_players":24,"Bots":0,"server_type":"Dedicated","server_os":"Linux","password":true,"vac":true,"version":"7961495","steam_id":85568392924469990,"keywords":["cp","nocrits","nodmgspread","uncletopia"],"game_id":440,"stv_port":27026,"stv_name":"Uncletopia | Frankfurt | 2 | All Maps | STV","players":[{"user_id":340,"name":"top 10 turnips","steam_id":76561198069649097,"connected_time":3101000000000,"state":"active","ping":71},{"user_id":337,"name":"XxBenShapiro420xX","steam_id":76561199229373972,"connected_time":3181000000000,"state":"active","ping":91},{"user_id":358,"name":"Fridge","steam_id":76561198071665589,"connected_time":863000000000,"state":"active","ping":90},{"user_id":332,"name":"UltimateAura","steam_id":76561198338361324,"connected_time":3513000000000,"state":"active","ping":46},{"user_id":350,"name":"Eki","steam_id":76561199056176547,"connected_time":2121000000000,"state":"active","ping":78},{"user_id":338,"name":"big naked bruh","steam_id":76561199179040672,"connected_time":3132000000000,"state":"active","ping":65},{"user_id":368,"name":"Otzeo","steam_id":76561198835657637,"connected_time":483000000000,"state":"active","ping":62},{"user_id":373,"name":"Morbeus","steam_id":76561198057717808,"connected_time":113000000000,"state":"active","ping":74},{"user_id":369,"name":"DanonArmagedon","steam_id":76561199448191521,"connected_time":454000000000,"state":"active","ping":101},{"user_id":360,"name":"JP","steam_id":76561198044196452,"connected_time":743000000000,"state":"active","ping":76},{"user_id":361,"name":"Denialman (Muted)","steam_id":76561198309182092,"connected_time":742000000000,"state":"active","ping":57},{"user_id":327,"name":"Kiogeki","steam_id":76561197996707843,"connected_time":4209000000000,"state":"active","ping":55},{"user_id":299,"name":"hananamanna","steam_id":76561198006570285,"connected_time":6099000000000,"state":"active","ping":111},{"user_id":370,"name":"iniT","steam_id":76561198019883794,"connected_time":412000000000,"state":"active","ping":60},{"user_id":289,"name":"Zor","steam_id":76561198009851383,"connected_time":6824000000000,"state":"active","ping":74},{"user_id":297,"name":"God's Goofiest Goober","steam_id":76561198103175187,"connected_time":6489000000000,"state":"active","ping":64},{"user_id":371,"name":"im tired","steam_id":76561198812159557,"connected_time":404000000000,"state":"active","ping":72},{"user_id":324,"name":"Caliban","steam_id":76561197999696839,"connected_time":4523000000000,"state":"active","ping":112},{"user_id":357,"name":"dogs_drink_water","steam_id":76561198296630670,"connected_time":1048000000000,"state":"active","ping":74},{"user_id":372,"name":"aww yeah","steam_id":76561197992978878,"connected_time":352000000000,"state":"active","ping":62},{"user_id":354,"name":"wee nut","steam_id":76561198083288197,"connected_time":1430000000000,"state":"active","ping":87},{"user_id":364,"name":"Dr. Le Quack","steam_id":76561197995711176,"connected_time":724000000000,"state":"active","ping":77},{"user_id":365,"name":"WolfmanCZ","steam_id":76561199157141414,"connected_time":717000000000,"state":"active","ping":67},{"user_id":367,"name":"Zazou","steam_id":76561198028076362,"connected_time":610000000000,"state":"active","ping":60}]},{"server_id":308,"name":"Uncletopia | Frankfurt | 3 | All Maps","name_short":"frk-3","host":"frk-1.de.uncletopia.com","port":27035,"enabled":true,"region":"eu","cc":"de","latitude":50.110924,"longitude":8.682127,"reserved":0,"last_update":"0001-01-01T00:00:00Z","name_a2s":"Uncletopia | Frankfurt | 3 | All Maps","protocol":17,"map":"cp_badlands","folder":"tf","game":"Team Fortress","app_id":440,"player_count":24,"max_players":24,"Bots":0,"server_type":"Dedicated","server_os":"Linux","password":true,"vac":true,"version":"7961495","steam_id":85568392924504274,"keywords":["cp","nocrits","nodmgspread","uncletopia"],"game_id":440,"stv_port":27036,"stv_name":"Uncletopia | Frankfurt | 3 | All Maps | STV","players":[{"user_id":602,"name":"KajaStorm","steam_id":76561199215842872,"connected_time":12000000000,"state":"active","ping":126},{"user_id":598,"name":"dansal","steam_id":76561197997042510,"connected_time":488000000000,"state":"active","ping":176},{"user_id":589,"name":"Willow-w-","steam_id":76561199400481314,"connected_time":1184000000000,"state":"active","ping":68},{"user_id":597,"name":"pepe","steam_id":76561198019562074,"connected_time":710000000000,"state":"active","ping":75},{"user_id":539,"name":"Chronicles of Nornia","steam_id":76561198040509712,"connected_time":4072000000000,"state":"active","ping":60},{"user_id":555,"name":"wasto-/-™","steam_id":76561198102888038,"connected_time":3522000000000,"state":"active","ping":59},{"user_id":528,"name":"Lopy","steam_id":76561198154328467,"connected_time":4545000000000,"state":"active","ping":62},{"user_id":558,"name":"jewbaka","steam_id":76561198040070207,"connected_time":3327000000000,"state":"active","ping":130},{"user_id":599,"name":"manhunter","steam_id":76561198009152277,"connected_time":125000000000,"state":"active","ping":85},{"user_id":590,"name":"Geo","steam_id":76561198267253981,"connected_time":1184000000000,"state":"active","ping":39},{"user_id":600,"name":"Fiurius","steam_id":76561198151910950,"connected_time":118000000000,"state":"active","ping":61},{"user_id":601,"name":"glorpis","steam_id":76561199225333422,"connected_time":23000000000,"state":"spawning","ping":69},{"user_id":574,"name":"KiteNock","steam_id":76561198160622922,"connected_time":2672000000000,"state":"active","ping":63},{"user_id":496,"name":"Gry","steam_id":76561198053961616,"connected_time":7739000000000,"state":"active","ping":60},{"user_id":596,"name":"RuiFPB","steam_id":76561198310115250,"connected_time":809000000000,"state":"active","ping":86},{"user_id":578,"name":"MoR0Z [UA]","steam_id":76561199174561702,"connected_time":1900000000000,"state":"active","ping":67},{"user_id":526,"name":"Sam04","steam_id":76561199004535941,"connected_time":4587000000000,"state":"active","ping":86},{"user_id":594,"name":"JC","steam_id":76561198029213352,"connected_time":994000000000,"state":"active","ping":45},{"user_id":580,"name":"Master Of Noob","steam_id":76561198217926783,"connected_time":1725000000000,"state":"active","ping":72},{"user_id":581,"name":"dusty","steam_id":76561199011977567,"connected_time":1668000000000,"state":"active","ping":102},{"user_id":557,"name":"Mr-Fluf","steam_id":76561198115101757,"connected_time":3514000000000,"state":"active","ping":91},{"user_id":566,"name":"caramel❤","steam_id":76561198819353867,"connected_time":2901000000000,"state":"active","ping":45},{"user_id":576,"name":"ArcX","steam_id":76561198805049375,"connected_time":2640000000000,"state":"active","ping":58},{"user_id":593,"name":"hhhhhh","steam_id":76561198031982574,"connected_time":1073000000000,"state":"active","ping":52}]},{"server_id":309,"name":"Uncletopia | Frankfurt | 4 | All Maps","name_short":"frk-4","host":"frk-1.de.uncletopia.com","port":27045,"enabled":true,"region":"eu","cc":"de","latitude":50.110924,"longitude":8.682127,"reserved":0,"last_update":"0001-01-01T00:00:00Z","name_a2s":"Uncletopia | Frankfurt | 4 | All Maps","protocol":17,"map":"cp_dustbowl","folder":"tf","game":"Team Fortress","app_id":440,"player_count":24,"max_players":24,"Bots":0,"server_type":"Dedicated","server_os":"Linux","password":true,"vac":true,"version":"7961495","steam_id":85568392924504275,"keywords":["cp","nocrits","nodmgspread","uncletopia"],"game_id":440,"stv_port":27046,"stv_name":"Uncletopia | Frankfurt | 4 | All Maps | STV","players":[{"user_id":128,"name":"Vilmukas","steam_id":76561199106648396,"connected_time":3503000000000,"state":"active","ping":60},{"user_id":173,"name":"dick cheese","steam_id":76561197996692535,"connected_time":907000000000,"state":"active","ping":68},{"user_id":159,"name":"Sheen (Khang)","steam_id":76561198371062974,"connected_time":2336000000000,"state":"active","ping":87},{"user_id":155,"name":"Maru","steam_id":76561198030931030,"connected_time":2552000000000,"state":"active","ping":68},{"user_id":177,"name":"Jango","steam_id":76561199497481497,"connected_time":476000000000,"state":"active","ping":82},{"user_id":125,"name":"Ixsus\u003c3","steam_id":76561198094756869,"connected_time":3526000000000,"state":"active","ping":51},{"user_id":171,"name":"Mitt","steam_id":76561199011013919,"connected_time":1001000000000,"state":"active","ping":85},{"user_id":176,"name":"Przemomalin","steam_id":76561197987528170,"connected_time":541000000000,"state":"active","ping":122},{"user_id":184,"name":"greezelag","steam_id":76561198053015949,"connected_time":80000000000,"state":"active","ping":78},{"user_id":146,"name":"Lassie","steam_id":76561198131924713,"connected_time":2898000000000,"state":"active","ping":54},{"user_id":166,"name":"Rimx","steam_id":76561198053034840,"connected_time":1983000000000,"state":"active","ping":93},{"user_id":168,"name":"Toasty5050","steam_id":76561198073540881,"connected_time":1908000000000,"state":"active","ping":42},{"user_id":165,"name":"lyudmilakh","steam_id":76561198362779878,"connected_time":2084000000000,"state":"active","ping":83},{"user_id":162,"name":"aleg228","steam_id":76561199236428794,"connected_time":2178000000000,"state":"active","ping":87},{"user_id":183,"name":"Jonak","steam_id":76561198080832458,"connected_time":283000000000,"state":"active","ping":67},{"user_id":180,"name":"[503. ]captain swiftfingers","steam_id":76561198043684517,"connected_time":388000000000,"state":"active","ping":74},{"user_id":134,"name":"Michal Jordan (real)","steam_id":76561199106262610,"connected_time":3317000000000,"state":"active","ping":52},{"user_id":169,"name":"Naiten","steam_id":76561198051894514,"connected_time":1472000000000,"state":"active","ping":75},{"user_id":182,"name":"finjar","steam_id":76561198350473059,"connected_time":315000000000,"state":"active","ping":75},{"user_id":181,"name":"hardway","steam_id":76561198272529254,"connected_time":382000000000,"state":"active","ping":48},{"user_id":164,"name":"The Storm That Is Approaching","steam_id":76561198982155864,"connected_time":2145000000000,"state":"active","ping":79},{"user_id":117,"name":"Mario Gagnon","steam_id":76561198321687106,"connected_time":4448000000000,"state":"active","ping":178},{"user_id":153,"name":"_Shkoot","steam_id":76561198318170398,"connected_time":2650000000000,"state":"active","ping":52},{"user_id":144,"name":"L.Ron Hoyabembe","steam_id":76561198009887251,"connected_time":3028000000000,"state":"active","ping":69}]},{"server_id":310,"name":"Uncletopia | Frankfurt | 5 | All Maps","name_short":"frk-5","host":"frk-1.de.uncletopia.com","port":27055,"enabled":true,"region":"eu","cc":"de","latitude":50.110924,"longitude":8.682127,"reserved":0,"last_update":"0001-01-01T00:00:00Z","name_a2s":"Uncletopia | Frankfurt | 5 | All Maps","protocol":17,"map":"pl_swiftwater_final1","folder":"tf","game":"Team Fortress","app_id":440,"player_count":24,"max_players":24,"Bots":0,"server_type":"Dedicated","server_os":"Linux","password":true,"vac":true,"version":"7961495","steam_id":85568392924504277,"keywords":["nocrits","nodmgspread","payload","uncletopia"],"game_id":440,"stv_port":27056,"stv_name":"Uncletopia | Frankfurt | 5 | All Maps | STV","players":[{"user_id":139,"name":"white ceiling","steam_id":76561198111134021,"connected_time":2367000000000,"state":"active","ping":81},{"user_id":185,"name":"kreeekz","steam_id":76561198014431602,"connected_time":23000000000,"state":"active","ping":67},{"user_id":108,"name":"hisham","steam_id":76561198414437290,"connected_time":4690000000000,"state":"active","ping":103},{"user_id":114,"name":"baby's first domination","steam_id":76561198325898181,"connected_time":4243000000000,"state":"active","ping":69},{"user_id":157,"name":"BEEG YOSHI","steam_id":76561198329592790,"connected_time":1325000000000,"state":"active","ping":61},{"user_id":134,"name":"yuck","steam_id":76561197987249568,"connected_time":2572000000000,"state":"active","ping":117},{"user_id":168,"name":"elmstJP ₪ F4.exe","steam_id":76561197997909480,"connected_time":1108000000000,"state":"active","ping":75},{"user_id":177,"name":"PLUTO","steam_id":76561198312436128,"connected_time":844000000000,"state":"active","ping":125},{"user_id":181,"name":"Ω","steam_id":76561199088570961,"connected_time":260000000000,"state":"active","ping":104},{"user_id":173,"name":"Jessica","steam_id":76561198342993279,"connected_time":963000000000,"state":"active","ping":115},{"user_id":129,"name":"minimurx","steam_id":76561198858102095,"connected_time":3722000000000,"state":"active","ping":55},{"user_id":163,"name":"Goga11","steam_id":76561198451145010,"connected_time":1259000000000,"state":"active","ping":104},{"user_id":178,"name":"zherny","steam_id":76561198027033926,"connected_time":843000000000,"state":"active","ping":60},{"user_id":113,"name":"Dr. Senpai","steam_id":76561199217893562,"connected_time":4324000000000,"state":"active","ping":63},{"user_id":182,"name":"Spotmonkey","steam_id":76561198003994092,"connected_time":202000000000,"state":"active","ping":88},{"user_id":174,"name":"SwivelHipSmith","steam_id":76561198043906334,"connected_time":933000000000,"state":"active","ping":134},{"user_id":179,"name":"F4.exe","steam_id":76561198278822807,"connected_time":315000000000,"state":"active","ping":60},{"user_id":140,"name":"nobodyy","steam_id":76561198027735766,"connected_time":2366000000000,"state":"active","ping":74},{"user_id":166,"name":"fart reverb","steam_id":76561198093073758,"connected_time":1155000000000,"state":"active","ping":63},{"user_id":167,"name":"Kaziocalvice","steam_id":76561198146425583,"connected_time":1116000000000,"state":"active","ping":65},{"user_id":123,"name":"femboy enjoyer","steam_id":76561199041737814,"connected_time":4050000000000,"state":"active","ping":58},{"user_id":183,"name":"Suspicious Viktor","steam_id":76561198136496249,"connected_time":156000000000,"state":"active","ping":66},{"user_id":106,"name":"youhave2stepgrandfathers","steam_id":76561199387056658,"connected_time":5414000000000,"state":"active","ping":77},{"user_id":105,"name":"youhave2mothers","steam_id":76561198416536990,"connected_time":5431000000000,"state":"active","ping":76}]},{"server_id":311,"name":"Uncletopia | Frankfurt | 6 | All Maps","name_short":"frk-6","host":"frk-1.de.uncletopia.com","port":27065,"enabled":true,"region":"eu","cc":"de","latitude":50.110924,"longitude":8.682127,"reserved":0,"last_update":"0001-01-01T00:00:00Z","name_a2s":"Uncletopia | Frankfurt | 6 | All Maps","protocol":17,"map":"pl_badwater","folder":"tf","game":"Team Fortress","app_id":440,"player_count":0,"max_players":24,"Bots":0,"server_type":"Dedicated","server_os":"Linux","password":true,"vac":true,"version":"7961495","steam_id":85568392924504278,"keywords":["nocrits","nodmgspread","payload","uncletopia"],"game_id":440,"stv_port":27066,"stv_name":"Uncletopia | Frankfurt | 6 | All Maps | STV","players":null},{"server_id":23,"name":"Uncletopia | Frankfurt | 7 | Stopwatch","name_short":"frk-7","host":"frk-1.de.uncletopia.com","port":27075,"enabled":true,"region":"eu","cc":"de","latitude":50.110924,"longitude":8.682127,"reserved":0,"last_update":"0001-01-01T00:00:00Z","name_a2s":"Uncletopia | Frankfurt | 7 | Stopwatch","protocol":17,"map":"pl_frontier_final","folder":"tf","game":"Team Fortress","app_id":440,"player_count":0,"max_players":24,"Bots":0,"server_type":"Dedicated","server_os":"Linux","password":true,"vac":true,"version":"7961495","steam_id":85568392924742827,"keywords":["nocrits","nodmgspread","payload","uncletopia"],"game_id":440,"stv_port":27076,"stv_name":"Uncletopia | Frankfurt | 7 | Stopwatch | STV","players":null},{"server_id":24,"name":"Uncletopia | Frankfurt | 8 | Community","name_short":"frk-8","host":"frk-1.de.uncletopia.com","port":27085,"enabled":true,"region":"eu","cc":"de","latitude":50.110924,"longitude":8.682127,"reserved":0,"last_update":"0001-01-01T00:00:00Z","name_a2s":"Uncletopia | Frankfurt | 8 | Community","protocol":17,"map":"cp_mountainlab","folder":"tf","game":"Team Fortress","app_id":440,"player_count":0,"max_players":24,"Bots":0,"server_type":"Dedicated","server_os":"Linux","password":true,"vac":true,"version":"7961495","steam_id":85568392924742828,"keywords":["cp","nocrits","nodmgspread","uncletopia"],"game_id":440,"stv_port":27086,"stv_name":"Uncletopia | Frankfurt | 8 | Community | STV","players":null},{"server_id":202,"name":"Uncletopia | Hong Kong | 1 | All Maps","name_short":"hgk-1","host":"hgk-1.hk.uncletopia.com","port":27015,"enabled":true,"region":"asia","cc":"hk","latitude":22.302711,"longitude":114.177216,"reserved":0,"last_update":"0001-01-01T00:00:00Z","name_a2s":"Uncletopia | Hong Kong | 1 | All Maps","protocol":17,"map":"koth_viaduct","folder":"tf","game":"Team Fortress","app_id":440,"player_count":4,"max_players":24,"Bots":0,"server_type":"Dedicated","server_os":"Linux","password":true,"vac":true,"version":"7961495","steam_id":85568392924494504,"keywords":["cp","nocrits","nodmgspread","uncletopia"],"game_id":440,"stv_port":27016,"stv_name":"Uncletopia | Hong Kong | 1 | All Maps | STV","players":[{"user_id":670,"name":"NotKomori","steam_id":76561198845165975,"connected_time":2784000000000,"state":"active","ping":115},{"user_id":671,"name":"Raiden00","steam_id":76561197994078111,"connected_time":2498000000000,"state":"active","ping":75},{"user_id":674,"name":"JEE Main","steam_id":76561199206694537,"connected_time":849000000000,"state":"active","ping":127},{"user_id":675,"name":"kdhbuilder","steam_id":76561199058095193,"connected_time":186000000000,"state":"active","ping":281}]},{"server_id":1,"name":"Uncletopia | Los Angeles | 1 | All Maps","name_short":"lax-1","host":"lax-1.us.uncletopia.com","port":27015,"enabled":true,"region":"us-west","cc":"us","latitude":33.94279,"longitude":-118.41004,"reserved":0,"last_update":"0001-01-01T00:00:00Z","name_a2s":"Uncletopia | Los Angeles | 1 | All Maps","protocol":17,"map":"cp_process_final","folder":"tf","game":"Team Fortress","app_id":440,"player_count":0,"max_players":24,"Bots":0,"server_type":"Dedicated","server_os":"Linux","password":true,"vac":true,"version":"7961495","steam_id":85568392924469991,"keywords":["cp","nocrits","nodmgspread","uncletopia"],"game_id":440,"stv_port":27016,"stv_name":"Uncletopia | Los Angeles | 1 | All Maps | STV","players":null},{"server_id":112,"name":"Uncletopia | Los Angeles | 2 | All Maps","name_short":"lax-2","host":"lax-1.us.uncletopia.com","port":27025,"enabled":true,"region":"us-west","cc":"us","latitude":33.94279,"longitude":-118.41004,"reserved":0,"last_update":"0001-01-01T00:00:00Z","name_a2s":"Uncletopia | Los Angeles | 2 | All Maps","protocol":17,"map":"cp_mountainlab","folder":"tf","game":"Team Fortress","app_id":440,"player_count":0,"max_players":24,"Bots":0,"server_type":"Dedicated","server_os":"Linux","password":true,"vac":true,"version":"7961495","steam_id":85568392924469992,"keywords":["cp","nocrits","nodmgspread","uncletopia"],"game_id":440,"stv_port":27026,"stv_name":"Uncletopia | Los Angeles | 2 | All Maps | STV","players":null},{"server_id":324,"name":"Uncletopia | Los Angeles | 3 | All Maps","name_short":"lax-3","host":"lax-1.us.uncletopia.com","port":27035,"enabled":true,"region":"us-west","cc":"us","latitude":33.94279,"longitude":-118.41004,"reserved":0,"last_update":"0001-01-01T00:00:00Z","name_a2s":"Uncletopia | Los Angeles | 3 | All Maps","protocol":17,"map":"pl_frontier_final","folder":"tf","game":"Team Fortress","app_id":440,"player_count":0,"max_players":24,"Bots":0,"server_type":"Dedicated","server_os":"Linux","password":true,"vac":true,"version":"7961495","steam_id":85568392924510198,"keywords":["nocrits","nodmgspread","payload","uncletopia"],"game_id":440,"stv_port":27036,"stv_name":"Uncletopia | Los Angeles | 3 | All Maps | STV","players":null},{"server_id":25,"name":"Uncletopia | Los Angeles | 4 | Stopwatch","name_short":"lax-4","host":"lax-1.us.uncletopia.com","port":27045,"enabled":true,"region":"us-west","cc":"us","latitude":33.94279,"longitude":-118.41004,"reserved":0,"last_update":"0001-01-01T00:00:00Z","name_a2s":"Uncletopia | Los Angeles | 4 | Stopwatch","protocol":17,"map":"pl_barnblitz","folder":"tf","game":"Team Fortress","app_id":440,"player_count":0,"max_players":24,"Bots":0,"server_type":"Dedicated","server_os":"Linux","password":true,"vac":true,"version":"7961495","steam_id":85568392924510199,"keywords":["nocrits","nodmgspread","payload","uncletopia"],"game_id":440,"stv_port":27046,"stv_name":"Uncletopia | Los Angeles | 4 | Stopwatch | STV","players":null},{"server_id":11,"name":"Uncletopia | London | 1 | All Maps","name_short":"lon-1","host":"lon-1.uk.uncletopia.com","port":27015,"enabled":true,"region":"eu","cc":"gb","latitude":51.509865,"longitude":-0.118092,"reserved":0,"last_update":"0001-01-01T00:00:00Z","name_a2s":"Uncletopia | London | 1 | All Maps","protocol":17,"map":"cp_mercenarypark","folder":"tf","game":"Team Fortress","app_id":440,"player_count":24,"max_players":24,"Bots":0,"server_type":"Dedicated","server_os":"Linux","password":true,"vac":true,"version":"7961495","steam_id":85568392924367362,"keywords":["cp","nocrits","nodmgspread","uncletopia"],"game_id":440,"stv_port":27016,"stv_name":"Uncletopia | London | 1 | All Maps | STV","players":[{"user_id":445,"name":"Mariofan1000","steam_id":76561199094124424,"connected_time":100000000000,"state":"active","ping":130},{"user_id":402,"name":"Fish","steam_id":76561198152128484,"connected_time":3087000000000,"state":"active","ping":47},{"user_id":409,"name":"Pvt. Pepper","steam_id":76561198851157897,"connected_time":2672000000000,"state":"active","ping":71},{"user_id":437,"name":"exo","steam_id":76561199171488677,"connected_time":586000000000,"state":"active","ping":29},{"user_id":439,"name":"CaptiaNNooBS437","steam_id":76561198844010921,"connected_time":556000000000,"state":"active","ping":69},{"user_id":440,"name":"Rock..","steam_id":76561198004641963,"connected_time":480000000000,"state":"active","ping":78},{"user_id":422,"name":"Ostropel","steam_id":76561199415989636,"connected_time":1965000000000,"state":"active","ping":89},{"user_id":428,"name":"shooer! (Birthday!!!)","steam_id":76561198110531281,"connected_time":1498000000000,"state":"active","ping":72},{"user_id":408,"name":"♥aura♥","steam_id":76561198066258544,"connected_time":2692000000000,"state":"active","ping":60},{"user_id":438,"name":"Sorig","steam_id":76561199041614478,"connected_time":584000000000,"state":"active","ping":60},{"user_id":380,"name":"Ullr","steam_id":76561198140547483,"connected_time":5524000000000,"state":"active","ping":45},{"user_id":442,"name":"Dr. Livesey","steam_id":76561198071049943,"connected_time":436000000000,"state":"active","ping":68},{"user_id":363,"name":"That Bussy Can Squirt","steam_id":76561199185615752,"connected_time":6183000000000,"state":"active","ping":51},{"user_id":410,"name":"midlpsyzl47","steam_id":76561199475972637,"connected_time":2663000000000,"state":"active","ping":58},{"user_id":404,"name":"Rai_to","steam_id":76561199013720618,"connected_time":2810000000000,"state":"active","ping":83},{"user_id":406,"name":"Plep","steam_id":76561198840259819,"connected_time":2704000000000,"state":"active","ping":59},{"user_id":425,"name":"ein","steam_id":76561198152162834,"connected_time":1814000000000,"state":"active","ping":103},{"user_id":443,"name":"nervy","steam_id":76561199084172974,"connected_time":420000000000,"state":"active","ping":70},{"user_id":432,"name":"owo","steam_id":76561198158209651,"connected_time":921000000000,"state":"active","ping":62},{"user_id":361,"name":"Stunner John Mode! ツ","steam_id":76561199085822219,"connected_time":6195000000000,"state":"active","ping":89},{"user_id":444,"name":"♦Silvia♦","steam_id":76561198373039444,"connected_time":413000000000,"state":"active","ping":115},{"user_id":394,"name":"KnugenIV","steam_id":76561198127091993,"connected_time":3873000000000,"state":"active","ping":60},{"user_id":414,"name":"Ferrariracer5f1","steam_id":76561199229815098,"connected_time":2555000000000,"state":"active","ping":60},{"user_id":435,"name":"Aaron","steam_id":76561197990046953,"connected_time":868000000000,"state":"active","ping":54}]},{"server_id":114,"name":"Uncletopia | London | 2 | All Maps","name_short":"lon-2","host":"lon-1.uk.uncletopia.com","port":27025,"enabled":true,"region":"eu","cc":"gb","latitude":51.509865,"longitude":-0.118092,"reserved":0,"last_update":"0001-01-01T00:00:00Z","name_a2s":"Uncletopia | London | 2 | All Maps","protocol":17,"map":"cp_process_final","folder":"tf","game":"Team Fortress","app_id":440,"player_count":8,"max_players":24,"Bots":0,"server_type":"Dedicated","server_os":"Linux","password":true,"vac":true,"version":"7961495","steam_id":85568392924470941,"keywords":["cp","nocrits","nodmgspread","uncletopia"],"game_id":440,"stv_port":27026,"stv_name":"Uncletopia | London | 2 | All Maps | STV","players":[{"user_id":166,"name":"SaSSolino","steam_id":76561198011308018,"connected_time":46000000000,"state":"active","ping":60},{"user_id":163,"name":"Circular","steam_id":76561198001536710,"connected_time":132000000000,"state":"active","ping":44},{"user_id":165,"name":"Mr Gnash","steam_id":76561198007410990,"connected_time":99000000000,"state":"active","ping":56},{"user_id":96,"name":"IndigoJones","steam_id":76561198050284262,"connected_time":2553000000000,"state":"active","ping":45},{"user_id":167,"name":"❤G a n K","steam_id":76561199125995565,"connected_time":7000000000,"state":"spawning","ping":48},{"user_id":162,"name":"{TPF}Badaabing","steam_id":76561197996161449,"connected_time":188000000000,"state":"active","ping":61},{"user_id":140,"name":"❟❛❟MADARA❟❛❟","steam_id":76561198171416202,"connected_time":1026000000000,"state":"active","ping":84},{"user_id":117,"name":"waitrose gaming","steam_id":76561198011450253,"connected_time":2023000000000,"state":"active","ping":55}]},{"server_id":320,"name":"Uncletopia | London | 3 | All Maps","name_short":"lon-3","host":"lon-1.uk.uncletopia.com","port":27035,"enabled":true,"region":"eu","cc":"gb","latitude":51.509865,"longitude":-0.118092,"reserved":0,"last_update":"0001-01-01T00:00:00Z","name_a2s":"Uncletopia | London | 3 | All Maps","protocol":17,"map":"pl_upward","folder":"tf","game":"Team Fortress","app_id":440,"player_count":24,"max_players":24,"Bots":0,"server_type":"Dedicated","server_os":"Linux","password":true,"vac":true,"version":"7961495","steam_id":85568392924510192,"keywords":["nocrits","nodmgspread","payload","uncletopia"],"game_id":440,"stv_port":27036,"stv_name":"Uncletopia | London | 3 | All Maps | STV","players":[{"user_id":246,"name":"cuddle","steam_id":76561198805181599,"connected_time":501000000000,"state":"active","ping":56},{"user_id":181,"name":"ExtinctPower","steam_id":76561198357826585,"connected_time":3802000000000,"state":"active","ping":45},{"user_id":248,"name":"syms","steam_id":76561198066679812,"connected_time":482000000000,"state":"active","ping":84},{"user_id":249,"name":"cool guy","steam_id":76561199244543995,"connected_time":479000000000,"state":"active","ping":88},{"user_id":245,"name":"Miquel128","steam_id":76561198274955794,"connected_time":553000000000,"state":"active","ping":86},{"user_id":182,"name":"GMsU | Rebikas","steam_id":76561198077053764,"connected_time":3713000000000,"state":"active","ping":53},{"user_id":183,"name":"GMsU | Acoul","steam_id":76561198229222992,"connected_time":3685000000000,"state":"active","ping":60},{"user_id":250,"name":"sad monkey hands on his head","steam_id":76561198116530769,"connected_time":476000000000,"state":"active","ping":108},{"user_id":240,"name":"jmao","steam_id":76561198048998156,"connected_time":1209000000000,"state":"active","ping":47},{"user_id":244,"name":"turbo shart","steam_id":76561198012351808,"connected_time":554000000000,"state":"active","ping":55},{"user_id":254,"name":"H-say","steam_id":76561198177400362,"connected_time":443000000000,"state":"active","ping":92},{"user_id":137,"name":"marvi444","steam_id":76561198431534139,"connected_time":5190000000000,"state":"active","ping":54},{"user_id":252,"name":"d u k k i","steam_id":76561198071807437,"connected_time":467000000000,"state":"active","ping":89},{"user_id":242,"name":"madhead200","steam_id":76561198119498666,"connected_time":630000000000,"state":"active","ping":74},{"user_id":255,"name":"The Bugs Under Your Skin","steam_id":76561198064795519,"connected_time":297000000000,"state":"active","ping":64},{"user_id":230,"name":"spy's arent real","steam_id":76561198165871469,"connected_time":1644000000000,"state":"active","ping":74},{"user_id":231,"name":"TheBeardedM1G","steam_id":76561198040208946,"connected_time":1638000000000,"state":"active","ping":48},{"user_id":235,"name":"DelT","steam_id":76561198204007537,"connected_time":1506000000000,"state":"active","ping":60},{"user_id":157,"name":"ScampSixteen","steam_id":76561198021771000,"connected_time":4340000000000,"state":"active","ping":50},{"user_id":241,"name":"Bun","steam_id":76561197989239999,"connected_time":664000000000,"state":"active","ping":60},{"user_id":233,"name":"H1DD3 gaming","steam_id":76561198855897385,"connected_time":1633000000000,"state":"active","ping":70},{"user_id":159,"name":"AFerociousTeddyBearSlayer","steam_id":76561198247447256,"connected_time":4329000000000,"state":"active","ping":51},{"user_id":253,"name":"Gugu gaga","steam_id":76561198161822358,"connected_time":453000000000,"state":"active","ping":73},{"user_id":234,"name":"kbourbery","steam_id":76561198109943492,"connected_time":1612000000000,"state":"active","ping":48}]},{"server_id":321,"name":"Uncletopia | London | 4 | All Maps","name_short":"lon-4","host":"lon-1.uk.uncletopia.com","port":27045,"enabled":true,"region":"eu","cc":"gb","latitude":51.509865,"longitude":-0.118092,"reserved":0,"last_update":"0001-01-01T00:00:00Z","name_a2s":"Uncletopia | London | 4 | All Maps","protocol":17,"map":"cp_dustbowl","folder":"tf","game":"Team Fortress","app_id":440,"player_count":24,"max_players":24,"Bots":0,"server_type":"Dedicated","server_os":"Linux","password":true,"vac":true,"version":"7961495","steam_id":85568392924510193,"keywords":["cp","nocrits","nodmgspread","uncletopia"],"game_id":440,"stv_port":27046,"stv_name":"Uncletopia | London | 4 | All Maps | STV","players":[{"user_id":13,"name":"chair 2.0","steam_id":76561199233470150,"connected_time":3903000000000,"state":"active","ping":47},{"user_id":23,"name":"Mono","steam_id":76561198114569493,"connected_time":2677000000000,"state":"active","ping":36},{"user_id":45,"name":"jerry","steam_id":76561199180176442,"connected_time":1329000000000,"state":"active","ping":73},{"user_id":54,"name":"Slimeby","steam_id":76561198353438688,"connected_time":1107000000000,"state":"active","ping":88},{"user_id":63,"name":"Treader","steam_id":76561198096555885,"connected_time":733000000000,"state":"active","ping":132},{"user_id":55,"name":"Crazysoul123","steam_id":76561199007939081,"connected_time":1077000000000,"state":"active","ping":84},{"user_id":35,"name":"Laryssa","steam_id":76561198271084076,"connected_time":1501000000000,"state":"active","ping":86},{"user_id":69,"name":"Scobra","steam_id":76561198000734400,"connected_time":22000000000,"state":"spawning","ping":125},{"user_id":68,"name":"Sir. Maurice Ramos","steam_id":76561198106447684,"connected_time":222000000000,"state":"active","ping":47},{"user_id":56,"name":"killbind irl","steam_id":76561198180637374,"connected_time":950000000000,"state":"active","ping":93},{"user_id":37,"name":"BenteBent","steam_id":76561198297920637,"connected_time":1454000000000,"state":"active","ping":32},{"user_id":38,"name":"Guthlaf","steam_id":76561198153564078,"connected_time":1434000000000,"state":"active","ping":93},{"user_id":65,"name":"jermany","steam_id":76561198126599355,"connected_time":669000000000,"state":"active","ping":58},{"user_id":40,"name":"TheRock","steam_id":76561198386889558,"connected_time":1425000000000,"state":"active","ping":94},{"user_id":41,"name":"Ursyn","steam_id":76561198287800213,"connected_time":1424000000000,"state":"active","ping":102},{"user_id":62,"name":"Hrabia","steam_id":76561198164608139,"connected_time":792000000000,"state":"active","ping":84},{"user_id":43,"name":"bryophyta","steam_id":76561197968945306,"connected_time":1361000000000,"state":"active","ping":71},{"user_id":67,"name":"Jᵃᶜᵏᶤᵉ Cʰᵃᶰ","steam_id":76561198250935222,"connected_time":407000000000,"state":"active","ping":172},{"user_id":58,"name":"Zero Sleep Gaming","steam_id":76561198982674420,"connected_time":897000000000,"state":"active","ping":45},{"user_id":48,"name":"tomo","steam_id":76561199015097595,"connected_time":1305000000000,"state":"active","ping":45},{"user_id":50,"name":"Royal Dutch Shell","steam_id":76561198215986979,"connected_time":1252000000000,"state":"active","ping":44},{"user_id":52,"name":"Zurtrun","steam_id":76561198044905628,"connected_time":1162000000000,"state":"active","ping":71},{"user_id":53,"name":"Krabs","steam_id":76561198161679477,"connected_time":1155000000000,"state":"active","ping":46},{"user_id":59,"name":"YARrICk.«+»","steam_id":76561197990126485,"connected_time":887000000000,"state":"active","ping":55}]},{"server_id":21,"name":"Uncletopia | London | 5 | All Maps","name_short":"lon-5","host":"lon-1.uk.uncletopia.com","port":27055,"enabled":true,"region":"eu","cc":"gb","latitude":51.509865,"longitude":-0.118092,"reserved":0,"last_update":"0001-01-01T00:00:00Z","name_a2s":"Uncletopia | London | 5 | All Maps","protocol":17,"map":"pl_pier","folder":"tf","game":"Team Fortress","app_id":440,"player_count":24,"max_players":24,"Bots":0,"server_type":"Dedicated","server_os":"Linux","password":true,"vac":true,"version":"7961495","steam_id":85568392924742829,"keywords":["nocrits","nodmgspread","payload","uncletopia"],"game_id":440,"stv_port":27056,"stv_name":"Uncletopia | London | 5 | All Maps | STV","players":[{"user_id":146,"name":"Cöffee","steam_id":76561198115131952,"connected_time":1175000000000,"state":"active","ping":96},{"user_id":143,"name":"JENNY","steam_id":76561198072302273,"connected_time":1240000000000,"state":"active","ping":50},{"user_id":164,"name":"dunduu","steam_id":76561198875240717,"connected_time":601000000000,"state":"active","ping":77},{"user_id":166,"name":"Klaun","steam_id":76561198077827849,"connected_time":577000000000,"state":"active","ping":83},{"user_id":145,"name":"Beni 🦧🍌","steam_id":76561198011340227,"connected_time":1225000000000,"state":"active","ping":60},{"user_id":172,"name":"Javier dorsaless","steam_id":76561198179324075,"connected_time":269000000000,"state":"active","ping":62},{"user_id":131,"name":"morlo-^","steam_id":76561198249301650,"connected_time":1821000000000,"state":"active","ping":54},{"user_id":147,"name":"3L","steam_id":76561198007208996,"connected_time":1121000000000,"state":"active","ping":51},{"user_id":173,"name":"Rob","steam_id":76561198234139612,"connected_time":200000000000,"state":"active","ping":74},{"user_id":149,"name":"vurtun","steam_id":76561198857395274,"connected_time":1043000000000,"state":"active","ping":66},{"user_id":178,"name":"MargoulGetron","steam_id":76561198020551698,"connected_time":114000000000,"state":"active","ping":59},{"user_id":94,"name":"joachym","steam_id":76561198428579761,"connected_time":4658000000000,"state":"active","ping":71},{"user_id":74,"name":"Penis Contortionist","steam_id":76561198073663784,"connected_time":5249000000000,"state":"active","ping":38},{"user_id":150,"name":"ALARM","steam_id":76561198120686521,"connected_time":1014000000000,"state":"active","ping":70},{"user_id":176,"name":"one in a krillion","steam_id":76561198072320671,"connected_time":173000000000,"state":"active","ping":33},{"user_id":177,"name":"Dr. Funkenstein","steam_id":76561197977816210,"connected_time":146000000000,"state":"active","ping":69},{"user_id":170,"name":"Noob_with_source","steam_id":76561198870362103,"connected_time":403000000000,"state":"active","ping":60},{"user_id":179,"name":"matzi","steam_id":76561198038472045,"connected_time":97000000000,"state":"active","ping":65},{"user_id":163,"name":"powej","steam_id":76561198056381418,"connected_time":711000000000,"state":"active","ping":35},{"user_id":155,"name":"Schmack","steam_id":76561198026535437,"connected_time":889000000000,"state":"active","ping":61},{"user_id":126,"name":"Zerfesh","steam_id":76561198117534358,"connected_time":2323000000000,"state":"active","ping":100},{"user_id":162,"name":"Healing bullet","steam_id":76561198138060189,"connected_time":745000000000,"state":"active","ping":73},{"user_id":175,"name":"BOCIAN","steam_id":76561198251301790,"connected_time":175000000000,"state":"active","ping":86},{"user_id":159,"name":"Dewotter","steam_id":76561198007653168,"connected_time":793000000000,"state":"active","ping":60}]},{"server_id":22,"name":"Uncletopia | London | 6 | All Maps","name_short":"lon-6","host":"lon-1.uk.uncletopia.com","port":27065,"enabled":true,"region":"eu","cc":"gb","latitude":51.509865,"longitude":-0.118092,"reserved":0,"last_update":"0001-01-01T00:00:00Z","name_a2s":"Uncletopia | London | 6 | All Maps","protocol":17,"map":"pl_swiftwater_final1","folder":"tf","game":"Team Fortress","app_id":440,"player_count":24,"max_players":24,"Bots":0,"server_type":"Dedicated","server_os":"Linux","password":true,"vac":true,"version":"7961495","steam_id":85568392924742830,"keywords":["nocrits","nodmgspread","payload","uncletopia"],"game_id":440,"stv_port":27066,"stv_name":"Uncletopia | London | 6 | All Maps | STV","players":[{"user_id":298,"name":"☁ Lou1smeister ☁","steam_id":76561198004032968,"connected_time":1362000000000,"state":"active","ping":67},{"user_id":313,"name":"Logern","steam_id":76561198085243794,"connected_time":413000000000,"state":"active","ping":61},{"user_id":261,"name":"SnootSnootgames","steam_id":76561199204609553,"connected_time":3350000000000,"state":"active","ping":40},{"user_id":295,"name":"GZimmer","steam_id":76561198088794767,"connected_time":1848000000000,"state":"active","ping":58},{"user_id":293,"name":"Duke","steam_id":76561198041713602,"connected_time":1868000000000,"state":"active","ping":63},{"user_id":297,"name":"Andale","steam_id":76561198326236983,"connected_time":1408000000000,"state":"active","ping":59},{"user_id":317,"name":"woman love me","steam_id":76561197991837764,"connected_time":100000000000,"state":"active","ping":60},{"user_id":308,"name":"shankz","steam_id":76561198128803260,"connected_time":1190000000000,"state":"active","ping":56},{"user_id":304,"name":"kenny the hedgehog","steam_id":76561198003529617,"connected_time":1250000000000,"state":"active","ping":53},{"user_id":275,"name":"meriones","steam_id":76561198034234373,"connected_time":2346000000000,"state":"active","ping":43},{"user_id":305,"name":"Klaus","steam_id":76561198150394201,"connected_time":1225000000000,"state":"active","ping":99},{"user_id":312,"name":"Kasper","steam_id":76561198133060222,"connected_time":611000000000,"state":"active","ping":52},{"user_id":301,"name":"Mr_Pulse_","steam_id":76561198095001602,"connected_time":1295000000000,"state":"active","ping":103},{"user_id":315,"name":"jovi_","steam_id":76561198449280552,"connected_time":305000000000,"state":"active","ping":54},{"user_id":311,"name":"richard","steam_id":76561199042470246,"connected_time":650000000000,"state":"active","ping":73},{"user_id":310,"name":"ornithology 1:1","steam_id":76561198097239850,"connected_time":779000000000,"state":"active","ping":68},{"user_id":283,"name":"Oki (Bon)","steam_id":76561199047748534,"connected_time":2019000000000,"state":"active","ping":54},{"user_id":292,"name":"Hexagon","steam_id":76561198151205758,"connected_time":1903000000000,"state":"active","ping":60},{"user_id":285,"name":"Brigade","steam_id":76561198044656610,"connected_time":1996000000000,"state":"active","ping":129},{"user_id":286,"name":"Napoleon","steam_id":76561198074757450,"connected_time":1980000000000,"state":"active","ping":59},{"user_id":287,"name":"padillacampos","steam_id":76561198161923970,"connected_time":1980000000000,"state":"active","ping":83},{"user_id":294,"name":"Mr. Mundy","steam_id":76561198132008918,"connected_time":1863000000000,"state":"active","ping":88},{"user_id":296,"name":"Adolf Potter","steam_id":76561198120554557,"connected_time":1514000000000,"state":"active","ping":60},{"user_id":316,"name":"croud","steam_id":76561198196853835,"connected_time":305000000000,"state":"active","ping":37}]},{"server_id":40,"name":"Uncletopia | London | 7 | Stopwatch","name_short":"lon-7","host":"lon-1.uk.uncletopia.com","port":27075,"enabled":true,"region":"eu","cc":"gb","latitude":51.509865,"longitude":-0.118092,"reserved":0,"last_update":"0001-01-01T00:00:00Z","name_a2s":"Uncletopia | London | 7 | Stopwatch","protocol":17,"map":"workshop/koth_ashville_final.ugc2130459942","folder":"tf","game":"Team Fortress","app_id":440,"player_count":0,"max_players":24,"Bots":0,"server_type":"Dedicated","server_os":"Linux","password":true,"vac":true,"version":"7961495","steam_id":85568392924964314,"keywords":["cp","nocrits","nodmgspread","uncletopia"],"game_id":440,"stv_port":27076,"stv_name":"Uncletopia | London | 7 | Stopwatch | STV","players":null},{"server_id":41,"name":"Uncletopia | London | 8 | Community","name_short":"lon-8","host":"lon-1.uk.uncletopia.com","port":27085,"enabled":true,"region":"eu","cc":"gb","latitude":51.509865,"longitude":-0.118092,"reserved":0,"last_update":"0001-01-01T00:00:00Z","name_a2s":"Uncletopia | London | 8 | Community","protocol":17,"map":"workshop/koth_product_final.ugc454272353","folder":"tf","game":"Team Fortress","app_id":440,"player_count":0,"max_players":24,"Bots":0,"server_type":"Dedicated","server_os":"Linux","password":true,"vac":true,"version":"7961495","steam_id":85568392924964315,"keywords":["cp","nocrits","nodmgspread","uncletopia"],"game_id":440,"stv_port":27086,"stv_name":"Uncletopia | London | 8 | Community | STV","players":null},{"server_id":300,"name":"Uncletopia | Montréal | 1 | One Thousand Uncles","name_short":"mtl-1","host":"mtl-1.ca.uncletopia.com","port":27015,"enabled":true,"region":"us-east","cc":"ca","latitude":45.50889,"longitude":-73.56167,"reserved":0,"last_update":"0001-01-01T00:00:00Z","name_a2s":"","protocol":0,"map":"","folder":"","game":"","app_id":0,"player_count":9,"max_players":0,"Bots":0,"server_type":"","server_os":"","password":false,"vac":false,"version":"","steam_id":0,"keywords":null,"game_id":0,"stv_port":0,"stv_name":"","players":[{"user_id":123,"name":"raspy","steam_id":76561198027298961,"connected_time":8330000000000,"state":"active","ping":44},{"user_id":141,"name":"I just joined","steam_id":76561198057999536,"connected_time":7632000000000,"state":"active","ping":108},{"user_id":171,"name":"DaMultiversalist","steam_id":76561198239552412,"connected_time":4408000000000,"state":"active","ping":80},{"user_id":167,"name":"Mecha","steam_id":76561198014927379,"connected_time":5041000000000,"state":"active","ping":60},{"user_id":224,"name":"Waffle","steam_id":76561198397024973,"connected_time":1369000000000,"state":"active","ping":116},{"user_id":227,"name":"Terminal Brain Rot","steam_id":76561198112594672,"connected_time":942000000000,"state":"active","ping":76},{"user_id":149,"name":"Huey","steam_id":76561198972816386,"connected_time":6131000000000,"state":"active","ping":85},{"user_id":245,"name":"Wafflehead","steam_id":76561198053539741,"connected_time":526000000000,"state":"active","ping":43},{"user_id":246,"name":"BackupYAHmax","steam_id":76561198309468681,"connected_time":373000000000,"state":"active","ping":48}]},{"server_id":301,"name":"Uncletopia | Montréal | 2 | One Thousand Uncles","name_short":"mtl-2","host":"mtl-1.ca.uncletopia.com","port":27025,"enabled":true,"region":"us-east","cc":"ca","latitude":45.50889,"longitude":-73.56167,"reserved":0,"last_update":"0001-01-01T00:00:00Z","name_a2s":"","protocol":0,"map":"","folder":"","game":"","app_id":0,"player_count":2,"max_players":0,"Bots":0,"server_type":"","server_os":"","password":false,"vac":false,"version":"","steam_id":0,"keywords":null,"game_id":0,"stv_port":0,"stv_name":"","players":[{"user_id":36,"name":"Adam Sandler from grown ups 2","steam_id":76561199480087227,"connected_time":735000000000,"state":"active","ping":82},{"user_id":53,"name":"dionisis1976","steam_id":76561198019522905,"connected_time":16000000000,"state":"active","ping":124}]},{"server_id":302,"name":"Uncletopia | Montréal | 3 | One Thousand Uncles","name_short":"mtl-3","host":"mtl-1.ca.uncletopia.com","port":27035,"enabled":true,"region":"us-east","cc":"ca","latitude":45.50889,"longitude":-73.56167,"reserved":0,"last_update":"0001-01-01T00:00:00Z","name_a2s":"","protocol":0,"map":"","folder":"","game":"","app_id":0,"player_count":0,"max_players":0,"Bots":0,"server_type":"","server_os":"","password":false,"vac":false,"version":"","steam_id":0,"keywords":null,"game_id":0,"stv_port":0,"stv_name":"","players":null},{"server_id":13,"name":"Uncletopia | New York City | 1 | All Maps","name_short":"nyc-1","host":"nyc-1.us.uncletopia.com","port":27015,"enabled":true,"region":"us-east","cc":"us","latitude":40.73061,"longitude":-73.93524,"reserved":0,"last_update":"0001-01-01T00:00:00Z","name_a2s":"Uncletopia | New York City | 1 | All Maps","protocol":17,"map":"koth_cascade","folder":"tf","game":"Team Fortress","app_id":440,"player_count":20,"max_players":24,"Bots":0,"server_type":"Dedicated","server_os":"Linux","password":true,"vac":true,"version":"7961495","steam_id":85568392924469993,"keywords":["cp","nocrits","nodmgspread","uncletopia"],"game_id":440,"stv_port":27016,"stv_name":"Uncletopia | New York City | 1 | All Maps | STV","players":[{"user_id":151,"name":"Acro","steam_id":76561198092451804,"connected_time":2338000000000,"state":"active","ping":75},{"user_id":166,"name":"Wallace J","steam_id":76561198131397161,"connected_time":1347000000000,"state":"active","ping":37},{"user_id":177,"name":"GOD of SEX","steam_id":76561198209689295,"connected_time":193000000000,"state":"active","ping":58},{"user_id":149,"name":"TLG, Certified Gamer Mom","steam_id":76561198076669951,"connected_time":2403000000000,"state":"active","ping":56},{"user_id":155,"name":"This Guy","steam_id":76561198158538804,"connected_time":1915000000000,"state":"active","ping":54},{"user_id":170,"name":"Gruset","steam_id":76561198327512432,"connected_time":779000000000,"state":"active","ping":151},{"user_id":176,"name":"Budder Nubbs","steam_id":76561198353763789,"connected_time":382000000000,"state":"active","ping":62},{"user_id":178,"name":"wanderer","steam_id":76561197962607364,"connected_time":191000000000,"state":"active","ping":68},{"user_id":179,"name":"S1apSh0es","steam_id":76561198042663388,"connected_time":115000000000,"state":"active","ping":86},{"user_id":175,"name":"Virtual Zorua","steam_id":76561198196180302,"connected_time":523000000000,"state":"active","ping":106},{"user_id":122,"name":"Bother","steam_id":76561198336750909,"connected_time":4491000000000,"state":"active","ping":42},{"user_id":156,"name":"Indian Elephant From Pokemon","steam_id":76561198064249841,"connected_time":1818000000000,"state":"active","ping":46},{"user_id":70,"name":"Ziath","steam_id":76561198094009164,"connected_time":10202000000000,"state":"active","ping":44},{"user_id":161,"name":"DRUMMY GRAMMY","steam_id":76561198047642540,"connected_time":1472000000000,"state":"active","ping":83},{"user_id":159,"name":"Portizz","steam_id":76561198095732366,"connected_time":1691000000000,"state":"active","ping":76},{"user_id":181,"name":"ndvr","steam_id":76561199379200102,"connected_time":23000000000,"state":"active","ping":85},{"user_id":85,"name":"A Puppy","steam_id":76561198828184456,"connected_time":8520000000000,"state":"active","ping":45},{"user_id":142,"name":"Tony hawks pro skater 2 dlc","steam_id":76561198243387974,"connected_time":2938000000000,"state":"active","ping":52},{"user_id":169,"name":"Ranger","steam_id":76561198171091281,"connected_time":871000000000,"state":"active","ping":46},{"user_id":165,"name":"Your cousin Throckmorton","steam_id":76561198055430804,"connected_time":1374000000000,"state":"active","ping":81}]},{"server_id":14,"name":"Uncletopia | New York City | 2 | All Maps","name_short":"nyc-2","host":"nyc-1.us.uncletopia.com","port":27025,"enabled":true,"region":"us-east","cc":"us","latitude":40.73061,"longitude":-73.93524,"reserved":0,"last_update":"0001-01-01T00:00:00Z","name_a2s":"Uncletopia | New York City | 2 | All Maps","protocol":17,"map":"cp_dustbowl","folder":"tf","game":"Team Fortress","app_id":440,"player_count":25,"max_players":24,"Bots":0,"server_type":"Dedicated","server_os":"Linux","password":true,"vac":true,"version":"7961495","steam_id":85568392924469994,"keywords":["cp","nocrits","nodmgspread","uncletopia"],"game_id":440,"stv_port":27026,"stv_name":"Uncletopia | New York City | 2 | All Maps | STV","players":[{"user_id":111,"name":"d1pp_","steam_id":76561198395577807,"connected_time":581000000000,"state":"active","ping":58},{"user_id":7,"name":"Artgrendadier","steam_id":76561198063305359,"connected_time":9239000000000,"state":"active","ping":59},{"user_id":114,"name":"Sergeant Snowflake","steam_id":76561198041474489,"connected_time":534000000000,"state":"active","ping":72},{"user_id":96,"name":"YourFriendJessie","steam_id":76561198176883097,"connected_time":2280000000000,"state":"active","ping":54},{"user_id":112,"name":"inphlate","steam_id":76561199016973013,"connected_time":570000000000,"state":"active","ping":60},{"user_id":90,"name":"DiscoTraveler","steam_id":76561199240168088,"connected_time":2819000000000,"state":"active","ping":48},{"user_id":95,"name":"RedMint","steam_id":76561198169352967,"connected_time":2360000000000,"state":"active","ping":81},{"user_id":113,"name":"A fucking mistake","steam_id":76561198223131672,"connected_time":564000000000,"state":"active","ping":64},{"user_id":105,"name":"Rapada","steam_id":76561198169153113,"connected_time":1409000000000,"state":"active","ping":118},{"user_id":115,"name":"FrosbeeChill","steam_id":76561198182510862,"connected_time":530000000000,"state":"active","ping":59},{"user_id":69,"name":"Chris","steam_id":76561198044278802,"connected_time":3870000000000,"state":"active","ping":52},{"user_id":110,"name":"Tokyoghoul","steam_id":76561198374759967,"connected_time":583000000000,"state":"active","ping":84},{"user_id":119,"name":"NANI","steam_id":76561198880986922,"connected_time":413000000000,"state":"active","ping":104},{"user_id":109,"name":"pnut","steam_id":76561198043862737,"connected_time":1339000000000,"state":"active","ping":44},{"user_id":124,"name":"femtofarad™","steam_id":76561198308583053,"connected_time":59000000000,"state":"active","ping":60},{"user_id":117,"name":"Meat Dragon","steam_id":76561198120319256,"connected_time":510000000000,"state":"active","ping":68},{"user_id":86,"name":"The Big","steam_id":76561198078572184,"connected_time":3087000000000,"state":"active","ping":85},{"user_id":123,"name":"dirty dank","steam_id":76561198360904432,"connected_time":324000000000,"state":"active","ping":65},{"user_id":82,"name":"Uncle Majic the Hip Hop Magicia","steam_id":76561198107924303,"connected_time":3443000000000,"state":"active","ping":33},{"user_id":104,"name":"Hypelipe","steam_id":76561199171330771,"connected_time":1458000000000,"state":"active","ping":115},{"user_id":125,"name":"duskdotexe","steam_id":76561199353965946,"connected_time":5000000000,"state":"spawning","ping":43},{"user_id":121,"name":"Cold shoulder","steam_id":76561198453824178,"connected_time":391000000000,"state":"active","ping":147},{"user_id":122,"name":"sqerkbo","steam_id":76561198080012700,"connected_time":389000000000,"state":"active","ping":44},{"user_id":71,"name":"Tablaro","steam_id":76561198076915673,"connected_time":3776000000000,"state":"active","ping":69},{"user_id":126,"name":"Tekky☻","steam_id":76561197990987315,"connected_time":5000000000,"state":"spawning","ping":113}]},{"server_id":15,"name":"Uncletopia | New York City | 3 | Stopwatch","name_short":"nyc-3","host":"nyc-1.us.uncletopia.com","port":27035,"enabled":true,"region":"us-east","cc":"us","latitude":40.73061,"longitude":-73.93524,"reserved":0,"last_update":"0001-01-01T00:00:00Z","name_a2s":"Uncletopia | New York City | 3 | Stopwatch","protocol":17,"map":"workshop/koth_bagel_rc6.ugc2514036946","folder":"tf","game":"Team Fortress","app_id":440,"player_count":0,"max_players":24,"Bots":0,"server_type":"Dedicated","server_os":"Linux","password":true,"vac":true,"version":"7961495","steam_id":85568392924742820,"keywords":["cp","nocrits","nodmgspread","uncletopia"],"game_id":440,"stv_port":27036,"stv_name":"Uncletopia | New York City | 3 | Stopwatch | STV","players":null},{"server_id":16,"name":"Uncletopia | New York City | 4 | Community","name_short":"nyc-4","host":"nyc-1.us.uncletopia.com","port":27045,"enabled":true,"region":"us-east","cc":"us","latitude":40.73061,"longitude":-73.93524,"reserved":0,"last_update":"0001-01-01T00:00:00Z","name_a2s":"Uncletopia | New York City | 4 | Community","protocol":17,"map":"workshop/cp_fulgur_rc2a.ugc2068252300","folder":"tf","game":"Team Fortress","app_id":440,"player_count":0,"max_players":24,"Bots":0,"server_type":"Dedicated","server_os":"Linux","password":true,"vac":true,"version":"7961495","steam_id":85568392924742821,"keywords":["cp","nocrits","nodmgspread","uncletopia"],"game_id":440,"stv_port":27046,"stv_name":"Uncletopia | New York City | 4 | Community | STV","players":null},{"server_id":142,"name":"Uncletopia | São Paulo | 1 | All Maps","name_short":"sao-1","host":"sao-1.br.uncletopia.com","port":27015,"enabled":true,"region":"sa","cc":"br","latitude":-23.533773,"longitude":-46.62529,"reserved":0,"last_update":"0001-01-01T00:00:00Z","name_a2s":"Uncletopia | São Paulo | 1 | All Maps","protocol":17,"map":"koth_highpass","folder":"tf","game":"Team Fortress","app_id":440,"player_count":0,"max_players":24,"Bots":0,"server_type":"Dedicated","server_os":"Linux","password":true,"vac":true,"version":"7961495","steam_id":85568392924469996,"keywords":["cp","nocrits","nodmgspread","uncletopia"],"game_id":440,"stv_port":27016,"stv_name":"Uncletopia | São Paulo | 1 | All Maps | STV","players":null},{"server_id":143,"name":"Uncletopia | São Paulo | 2 | Community","name_short":"sao-2","host":"sao-2.br.uncletopia.com","port":27015,"enabled":true,"region":"sa","cc":"br","latitude":-23.533773,"longitude":-46.62529,"reserved":0,"last_update":"0001-01-01T00:00:00Z","name_a2s":"Uncletopia | São Paulo | 2 | Community","protocol":17,"map":"workshop/koth_bagel_rc6.ugc2514036946","folder":"tf","game":"Team Fortress","app_id":440,"player_count":0,"max_players":24,"Bots":0,"server_type":"Dedicated","server_os":"Linux","password":true,"vac":true,"version":"7961495","steam_id":85568392924485349,"keywords":["cp","nocrits","nodmgspread","uncletopia"],"game_id":440,"stv_port":27016,"stv_name":"Uncletopia | São Paulo | 2 | Community | STV","players":null},{"server_id":7,"name":"Uncletopia | Seattle | 1 | All Maps","name_short":"sea-1","host":"sea-1.us.uncletopia.com","port":27015,"enabled":true,"region":"us-west","cc":"us","latitude":47.608013,"longitude":-122.33517,"reserved":0,"last_update":"0001-01-01T00:00:00Z","name_a2s":"Uncletopia | Seattle | 1 | All Maps","protocol":17,"map":"pl_badwater","folder":"tf","game":"Team Fortress","app_id":440,"player_count":24,"max_players":24,"Bots":0,"server_type":"Dedicated","server_os":"Linux","password":true,"vac":true,"version":"7961495","steam_id":85568392924469997,"keywords":["nocrits","nodmgspread","payload","uncletopia"],"game_id":440,"stv_port":27016,"stv_name":"Uncletopia | Seattle | 1 | All Maps | STV","players":[{"user_id":337,"name":"soundcloud.com/cremexav","steam_id":76561198134544837,"connected_time":607000000000,"state":"active","ping":74},{"user_id":293,"name":"SeeNik","steam_id":76561198149499817,"connected_time":4109000000000,"state":"active","ping":142},{"user_id":340,"name":"triph","steam_id":76561198067196509,"connected_time":377000000000,"state":"active","ping":60},{"user_id":323,"name":"amagicowl","steam_id":76561199060487814,"connected_time":1357000000000,"state":"active","ping":49},{"user_id":338,"name":"Strikerbolt","steam_id":76561199095622897,"connected_time":585000000000,"state":"active","ping":76},{"user_id":308,"name":"my monitor is off","steam_id":76561198074499537,"connected_time":2149000000000,"state":"active","ping":74},{"user_id":309,"name":"Killer/Perk_Roulette","steam_id":76561198139972201,"connected_time":2133000000000,"state":"active","ping":436},{"user_id":346,"name":"gamer_cruncher","steam_id":76561198973306314,"connected_time":73000000000,"state":"active","ping":73},{"user_id":324,"name":"Anti fun enforcement","steam_id":76561199121285443,"connected_time":1279000000000,"state":"active","ping":116},{"user_id":316,"name":"Chirp","steam_id":76561198240780230,"connected_time":1655000000000,"state":"active","ping":64},{"user_id":341,"name":"Ichibanprofen","steam_id":76561199192132061,"connected_time":314000000000,"state":"active","ping":92},{"user_id":122,"name":"ena - d","steam_id":76561198072329335,"connected_time":16675000000000,"state":"active","ping":101},{"user_id":328,"name":"jayeskae","steam_id":76561198144220801,"connected_time":891000000000,"state":"active","ping":45},{"user_id":315,"name":"Imitation Caucasian","steam_id":76561198320536166,"connected_time":1692000000000,"state":"active","ping":97},{"user_id":325,"name":"corg","steam_id":76561198338740292,"connected_time":1133000000000,"state":"active","ping":77},{"user_id":342,"name":"The Assistant Regional Manager","steam_id":76561199221484936,"connected_time":292000000000,"state":"active","ping":84},{"user_id":307,"name":"Maid 'n' China","steam_id":76561198423392976,"connected_time":2164000000000,"state":"active","ping":50},{"user_id":260,"name":"John Calibur","steam_id":76561197999986606,"connected_time":7278000000000,"state":"active","ping":73},{"user_id":311,"name":"Fish Lambert","steam_id":76561198098279668,"connected_time":1927000000000,"state":"active","ping":91},{"user_id":343,"name":"Lucide","steam_id":76561197998530400,"connected_time":245000000000,"state":"active","ping":61},{"user_id":334,"name":"joebot","steam_id":76561197975606100,"connected_time":671000000000,"state":"active","ping":112},{"user_id":344,"name":"RAWRWAIFU","steam_id":76561198032118386,"connected_time":239000000000,"state":"active","ping":147},{"user_id":345,"name":"727","steam_id":76561198045891560,"connected_time":238000000000,"state":"active","ping":106},{"user_id":329,"name":"Petrivus","steam_id":76561198202152453,"connected_time":785000000000,"state":"active","ping":45}]},{"server_id":119,"name":"Uncletopia | Seattle | 2 | All Maps","name_short":"sea-2","host":"sea-1.us.uncletopia.com","port":27025,"enabled":true,"region":"us-west","cc":"us","latitude":47.608013,"longitude":-122.33517,"reserved":0,"last_update":"0001-01-01T00:00:00Z","name_a2s":"Uncletopia | Seattle | 2 | All Maps","protocol":17,"map":"koth_highpass","folder":"tf","game":"Team Fortress","app_id":440,"player_count":0,"max_players":24,"Bots":0,"server_type":"Dedicated","server_os":"Linux","password":true,"vac":true,"version":"7961495","steam_id":85568392924469998,"keywords":["cp","nocrits","nodmgspread","uncletopia"],"game_id":440,"stv_port":27026,"stv_name":"Uncletopia | Seattle | 2 | All Maps | STV","players":null},{"server_id":406,"name":"Uncletopia | Seattle | 3 | Stopwatch","name_short":"sea-3","host":"sea-1.us.uncletopia.com","port":27035,"enabled":true,"region":"us-west","cc":"us","latitude":47.608013,"longitude":-122.33517,"reserved":0,"last_update":"0001-01-01T00:00:00Z","name_a2s":"Uncletopia | Seattle | 3 | Stopwatch","protocol":17,"map":"cp_snakewater_final1","folder":"tf","game":"Team Fortress","app_id":440,"player_count":0,"max_players":24,"Bots":0,"server_type":"Dedicated","server_os":"Linux","password":true,"vac":true,"version":"7961495","steam_id":85568392924515217,"keywords":["cp","nocrits","nodmgspread","uncletopia"],"game_id":440,"stv_port":27036,"stv_name":"Uncletopia | Seattle | 3 | Stopwatch | STV","players":null},{"server_id":17,"name":"Uncletopia | San Francisco | 1 | All Maps","name_short":"sfo-1","host":"sfo-1.us.uncletopia.com","port":27015,"enabled":true,"region":"us-west","cc":"us","latitude":37.77397,"longitude":-122.4313,"reserved":0,"last_update":"0001-01-01T00:00:00Z","name_a2s":"Uncletopia | San Francisco | 1 | All Maps","protocol":17,"map":"koth_cascade","folder":"tf","game":"Team Fortress","app_id":440,"player_count":0,"max_players":24,"Bots":0,"server_type":"Dedicated","server_os":"Linux","password":true,"vac":true,"version":"7961495","steam_id":85568392924469999,"keywords":["cp","nocrits","nodmgspread","uncletopia"],"game_id":440,"stv_port":27016,"stv_name":"Uncletopia | San Francisco | 1 | All Maps | STV","players":null},{"server_id":18,"name":"Uncletopia | San Francisco | 2 | All Maps","name_short":"sfo-2","host":"sfo-1.us.uncletopia.com","port":27025,"enabled":true,"region":"us-west","cc":"us","latitude":37.77397,"longitude":-122.4313,"reserved":0,"last_update":"0001-01-01T00:00:00Z","name_a2s":"Uncletopia | San Francisco | 2 | All Maps","protocol":17,"map":"pl_frontier_final","folder":"tf","game":"Team Fortress","app_id":440,"player_count":0,"max_players":24,"Bots":0,"server_type":"Dedicated","server_os":"Linux","password":true,"vac":true,"version":"7961495","steam_id":85568392924470000,"keywords":["nocrits","nodmgspread","payload","uncletopia"],"game_id":440,"stv_port":27026,"stv_name":"Uncletopia | San Francisco | 2 | All Maps | STV","players":null},{"server_id":19,"name":"Uncletopia | San Francisco | 3 | Stopwatch","name_short":"sfo-3","host":"sfo-1.us.uncletopia.com","port":27035,"enabled":true,"region":"us-west","cc":"us","latitude":37.77397,"longitude":-122.4313,"reserved":0,"last_update":"0001-01-01T00:00:00Z","name_a2s":"Uncletopia | San Francisco | 3 | Stopwatch","protocol":17,"map":"workshop/cp_process_f12.ugc2302948105","folder":"tf","game":"Team Fortress","app_id":440,"player_count":0,"max_players":24,"Bots":0,"server_type":"Dedicated","server_os":"Linux","password":true,"vac":true,"version":"7961495","steam_id":85568392924742824,"keywords":["cp","nocrits","nodmgspread","uncletopia"],"game_id":440,"stv_port":27036,"stv_name":"Uncletopia | San Francisco | 3 | Stopwatch | STV","players":null},{"server_id":20,"name":"Uncletopia | San Francisco | 4 | Community","name_short":"sfo-4","host":"sfo-1.us.uncletopia.com","port":27045,"enabled":true,"region":"us-west","cc":"us","latitude":37.77397,"longitude":-122.4313,"reserved":0,"last_update":"0001-01-01T00:00:00Z","name_a2s":"Uncletopia | San Francisco | 4 | Community","protocol":17,"map":"pl_pier","folder":"tf","game":"Team Fortress","app_id":440,"player_count":0,"max_players":24,"Bots":0,"server_type":"Dedicated","server_os":"Linux","password":true,"vac":true,"version":"7961495","steam_id":85568392924742826,"keywords":["nocrits","nodmgspread","payload","uncletopia"],"game_id":440,"stv_port":27046,"stv_name":"Uncletopia | San Francisco | 4 | Community | STV","players":null},{"server_id":141,"name":"Uncletopia | Sydney | 1 | All Maps","name_short":"syd-1","host":"syd-1.au.uncletopia.com","port":27015,"enabled":true,"region":"au","cc":"au","latitude":-33.865143,"longitude":151.2099,"reserved":0,"last_update":"0001-01-01T00:00:00Z","name_a2s":"Uncletopia | Sydney | 1 | All Maps","protocol":17,"map":"koth_viaduct","folder":"tf","game":"Team Fortress","app_id":440,"player_count":0,"max_players":24,"Bots":0,"server_type":"Dedicated","server_os":"Linux","password":true,"vac":true,"version":"7961495","steam_id":85568392924470001,"keywords":["cp","nocrits","nodmgspread","uncletopia"],"game_id":440,"stv_port":27016,"stv_name":"Uncletopia | Sydney | 1 | All Maps | STV","players":null},{"server_id":123,"name":"Uncletopia | Sydney | 2 | All Maps","name_short":"syd-2","host":"syd-1.au.uncletopia.com","port":27025,"enabled":true,"region":"au","cc":"au","latitude":-33.865143,"longitude":151.2099,"reserved":0,"last_update":"0001-01-01T00:00:00Z","name_a2s":"Uncletopia | Sydney | 2 | All Maps","protocol":17,"map":"koth_highpass","folder":"tf","game":"Team Fortress","app_id":440,"player_count":0,"max_players":24,"Bots":0,"server_type":"Dedicated","server_os":"Linux","password":true,"vac":true,"version":"7961495","steam_id":85568392924470002,"keywords":["cp","nocrits","nodmgspread","uncletopia"],"game_id":440,"stv_port":27026,"stv_name":"Uncletopia | Sydney | 2 | All Maps | STV","players":null},{"server_id":395,"name":"Uncletopia | Sydney | 3 | All Maps","name_short":"syd-3","host":"syd-1.au.uncletopia.com","port":27035,"enabled":true,"region":"au","cc":"au","latitude":-33.865143,"longitude":151.2099,"reserved":0,"last_update":"0001-01-01T00:00:00Z","name_a2s":"Uncletopia | Sydney | 3 | All Maps","protocol":17,"map":"koth_lakeside_final","folder":"tf","game":"Team Fortress","app_id":440,"player_count":0,"max_players":24,"Bots":0,"server_type":"Dedicated","server_os":"Linux","password":true,"vac":true,"version":"7961495","steam_id":85568392925194467,"keywords":["cp","nocrits","nodmgspread","uncletopia"],"game_id":440,"stv_port":27036,"stv_name":"Uncletopia | Sydney | 3 | All Maps | STV","players":null},{"server_id":396,"name":"Uncletopia | Sydney | 4 | All Maps","name_short":"syd-4","host":"syd-1.au.uncletopia.com","port":27045,"enabled":true,"region":"au","cc":"au","latitude":-33.865143,"longitude":151.2099,"reserved":0,"last_update":"0001-01-01T00:00:00Z","name_a2s":"Uncletopia | Sydney | 4 | All Maps","protocol":17,"map":"pl_barnblitz","folder":"tf","game":"Team Fortress","app_id":440,"player_count":0,"max_players":24,"Bots":0,"server_type":"Dedicated","server_os":"Linux","password":true,"vac":true,"version":"7961495","steam_id":85568392925397958,"keywords":["nocrits","nodmgspread","payload","uncletopia"],"game_id":440,"stv_port":27046,"stv_name":"Uncletopia | Sydney | 4 | All Maps | STV","players":null},{"server_id":58,"name":"Uncletopia | Sydney | 5 | Stopwatch","name_short":"syd-5","host":"syd-1.au.uncletopia.com","port":27055,"enabled":true,"region":"au","cc":"au","latitude":-33.865143,"longitude":151.2099,"reserved":0,"last_update":"0001-01-01T00:00:00Z","name_a2s":"Uncletopia | Sydney | 5 | Stopwatch","protocol":17,"map":"workshop/pl_badwater_pro_v12.ugc2142942074","folder":"tf","game":"Team Fortress","app_id":440,"player_count":0,"max_players":24,"Bots":0,"server_type":"Dedicated","server_os":"Linux","password":true,"vac":true,"version":"7961495","steam_id":85568392925397959,"keywords":["nocrits","nodmgspread","payload","uncletopia"],"game_id":440,"stv_port":27056,"stv_name":"Uncletopia | Sydney | 5 | Stopwatch | STV","players":null},{"server_id":59,"name":"Uncletopia | Sydney | 6 | Community","name_short":"syd-6","host":"syd-1.au.uncletopia.com","port":27065,"enabled":true,"region":"au","cc":"au","latitude":-33.865143,"longitude":151.2099,"reserved":0,"last_update":"0001-01-01T00:00:00Z","name_a2s":"Uncletopia | Sydney | 6 | Community","protocol":17,"map":"workshop/cp_snowbase_b18.ugc2081770490","folder":"tf","game":"Team Fortress","app_id":440,"player_count":0,"max_players":24,"Bots":0,"server_type":"Dedicated","server_os":"Linux","password":true,"vac":true,"version":"7961495","steam_id":85568392925397960,"keywords":["cp","nocrits","nodmgspread","uncletopia"],"game_id":440,"stv_port":27066,"stv_name":"Uncletopia | Sydney | 6 | Community | STV","players":null},{"server_id":49,"name":"Uncletopia | Warsaw | 1 | One Thousand Uncles","name_short":"waw-1","host":"waw-1.pl.uncletopia.com","port":27015,"enabled":true,"region":"eu","cc":"pl","latitude":52.2297,"longitude":21.017532,"reserved":0,"last_update":"0001-01-01T00:00:00Z","name_a2s":"Uncletopia | Warsaw | 1 | One Thousand Uncles","protocol":17,"map":"cp_mercenarypark","folder":"tf","game":"Team Fortress","app_id":440,"player_count":28,"max_players":32,"Bots":16,"server_type":"Dedicated","server_os":"Linux","password":true,"vac":true,"version":"7961495","steam_id":85568392925397850,"keywords":["alltalk","bots","danepve","increased_maxplayers","nocrits","norespawntime","payload","uncletopia"],"game_id":440,"stv_port":0,"stv_name":"","players":[{"user_id":183,"name":"alcoholic 7blak","steam_id":76561198078928120,"connected_time":3713000000000,"state":"connecting","ping":76},{"user_id":230,"name":"ws1md","steam_id":76561199405509062,"connected_time":485000000000,"state":"connecting","ping":262},{"user_id":236,"name":"purplecan","steam_id":76561199208283508,"connected_time":71000000000,"state":"connecting","ping":75},{"user_id":231,"name":"Padgriffin","steam_id":76561198205745757,"connected_time":457000000000,"state":"connecting","ping":126},{"user_id":157,"name":"Trolling Man","steam_id":76561198044084210,"connected_time":5171000000000,"state":"connecting","ping":127},{"user_id":234,"name":"GeraldyJones65","steam_id":76561199122297098,"connected_time":248000000000,"state":"connecting","ping":185},{"user_id":233,"name":"Vexu","steam_id":76561198113145846,"connected_time":259000000000,"state":"connecting","ping":137},{"user_id":224,"name":"Comorito","steam_id":76561198183143669,"connected_time":1547000000000,"state":"connecting","ping":157},{"user_id":237,"name":"2b","steam_id":76561199149307190,"connected_time":47000000000,"state":"connecting","ping":115},{"user_id":225,"name":"Amon Gus","steam_id":76561199094540960,"connected_time":1488000000000,"state":"connecting","ping":119},{"user_id":235,"name":"sam vallen fan boy","steam_id":76561198998906545,"connected_time":105000000000,"state":"connecting","ping":131},{"user_id":140,"name":"hubert","steam_id":76561198057722639,"connected_time":5324000000000,"state":"connecting","ping":94}]},{"server_id":50,"name":"Uncletopia | Warsaw | 2 | One Thousand Uncles","name_short":"waw-2","host":"waw-1.pl.uncletopia.com","port":27025,"enabled":true,"region":"eu","cc":"pl","latitude":52.2297,"longitude":21.017532,"reserved":0,"last_update":"0001-01-01T00:00:00Z","name_a2s":"Uncletopia | Warsaw | 2 | One Thousand Uncles","protocol":17,"map":"cp_dustbowl","folder":"tf","game":"Team Fortress","app_id":440,"player_count":29,"max_players":32,"Bots":16,"server_type":"Dedicated","server_os":"Linux","password":true,"vac":true,"version":"7961495","steam_id":85568392925397851,"keywords":["alltalk","bots","cp","danepve","increased_maxplayers","nocrits","norespawntime","uncletopia"],"game_id":440,"stv_port":0,"stv_name":"","players":[{"user_id":640,"name":"conykevin","steam_id":76561198111864971,"connected_time":5825000000000,"state":"active","ping":75},{"user_id":577,"name":"orneps489","steam_id":76561199124755916,"connected_time":10556000000000,"state":"active","ping":143},{"user_id":601,"name":"63756d","steam_id":76561198808699024,"connected_time":8430000000000,"state":"active","ping":74},{"user_id":680,"name":"Mannshees of Inisherin","steam_id":76561198146194820,"connected_time":3420000000000,"state":"active","ping":65},{"user_id":702,"name":"ForryCat228","steam_id":76561199443903418,"connected_time":2871000000000,"state":"active","ping":67},{"user_id":703,"name":"Zeitung-GER","steam_id":76561198049095266,"connected_time":2129000000000,"state":"active","ping":79},{"user_id":710,"name":"Lt.Fantax","steam_id":76561198060752455,"connected_time":1005000000000,"state":"active","ping":95},{"user_id":698,"name":"Loyde","steam_id":76561198029919524,"connected_time":3299000000000,"state":"active","ping":105},{"user_id":649,"name":"JamesPepega","steam_id":76561198019156154,"connected_time":5229000000000,"state":"active","ping":79},{"user_id":631,"name":"matvejisakov7","steam_id":76561199493568179,"connected_time":6943000000000,"state":"active","ping":152},{"user_id":713,"name":"Gooby","steam_id":76561198383937031,"connected_time":424000000000,"state":"active","ping":83},{"user_id":705,"name":"Dommy","steam_id":76561197990864747,"connected_time":1731000000000,"state":"active","ping":74},{"user_id":715,"name":"s a i","steam_id":76561197970379754,"connected_time":334000000000,"state":"active","ping":65}]},{"server_id":51,"name":"Uncletopia | Warsaw | 3 | All Maps","name_short":"waw-3","host":"waw-1.pl.uncletopia.com","port":27035,"enabled":true,"region":"eu","cc":"pl","latitude":52.2297,"longitude":21.017532,"reserved":0,"last_update":"0001-01-01T00:00:00Z","name_a2s":"Uncletopia | Warsaw | 3 | All Maps","protocol":17,"map":"cp_process_final","folder":"tf","game":"Team Fortress","app_id":440,"player_count":0,"max_players":24,"Bots":0,"server_type":"Dedicated","server_os":"Linux","password":true,"vac":true,"version":"7961495","steam_id":85568392925397852,"keywords":["cp","nocrits","nodmgspread","uncletopia"],"game_id":440,"stv_port":27036,"stv_name":"Uncletopia | Warsaw | 3 | All Maps | STV","players":null},{"server_id":52,"name":"Uncletopia | Warsaw | 4 | All Maps","name_short":"waw-4","host":"waw-1.pl.uncletopia.com","port":27045,"enabled":true,"region":"eu","cc":"pl","latitude":52.2297,"longitude":21.017532,"reserved":0,"last_update":"0001-01-01T00:00:00Z","name_a2s":"Uncletopia | Warsaw | 4 | All Maps","protocol":17,"map":"pl_swiftwater_final1","folder":"tf","game":"Team Fortress","app_id":440,"player_count":0,"max_players":24,"Bots":0,"server_type":"Dedicated","server_os":"Linux","password":true,"vac":true,"version":"7961495","steam_id":85568392925397853,"keywords":["nocrits","nodmgspread","payload","uncletopia"],"game_id":440,"stv_port":27046,"stv_name":"Uncletopia | Warsaw | 4 | All Maps | STV","players":null},{"server_id":53,"name":"Uncletopia | Warsaw | 5 | Stopwatch","name_short":"waw-5","host":"waw-1.pl.uncletopia.com","port":27055,"enabled":true,"region":"eu","cc":"pl","latitude":52.2297,"longitude":21.017532,"reserved":0,"last_update":"0001-01-01T00:00:00Z","name_a2s":"Uncletopia | Warsaw | 5 | Stopwatch","protocol":17,"map":"workshop/koth_bagel_rc6.ugc2514036946","folder":"tf","game":"Team Fortress","app_id":440,"player_count":0,"max_players":24,"Bots":0,"server_type":"Dedicated","server_os":"Linux","password":true,"vac":true,"version":"7961495","steam_id":85568392925397854,"keywords":["cp","nocrits","nodmgspread","uncletopia"],"game_id":440,"stv_port":27056,"stv_name":"Uncletopia | Warsaw | 5 | Stopwatch | STV","players":null},{"server_id":54,"name":"Uncletopia | Warsaw | 6 | Community","name_short":"waw-6","host":"waw-1.pl.uncletopia.com","port":27065,"enabled":true,"region":"eu","cc":"pl","latitude":52.2297,"longitude":21.017532,"reserved":0,"last_update":"0001-01-01T00:00:00Z","name_a2s":"Uncletopia | Warsaw | 6 | Community","protocol":17,"map":"workshop/pl_badwater_pro_v12.ugc2142942074","folder":"tf","game":"Team Fortress","app_id":440,"player_count":0,"max_players":24,"Bots":0,"server_type":"Dedicated","server_os":"Linux","password":true,"vac":true,"version":"7961495","steam_id":85568392925397856,"keywords":["nocrits","nodmgspread","payload","uncletopia"],"game_id":440,"stv_port":27066,"stv_name":"Uncletopia | Warsaw | 6 | Community | STV","players":null}]}