{"status":true,"message":"","result":[{"server_id":9,"name":"Uncletopia | Atlanta | 1 | All Maps","name_short":"atl-1","host":"atl-1.us.uncletopia.com","port":27015,"enabled":true,"region":"us-east","cc":"us","latitude":33.753746,"longitude":-84.38633,"reserved":0,"last_update":"0001-01-01T00:00:00Z","name_a2s":"Uncletopia | Atlanta | 1 | All Maps","protocol":17,"map":"pl_badwater","folder":"tf","game":"Team Fortress","app_id":440,"player_count":24,"max_players":24,"Bots":0,"server_type":"Dedicated","server_os":"Linux","password":true,"vac":true,"version":"7757534","steam_id":85568392924469982,"keywords":["nocrits","nodmgspread","payload","uncletopia"],"game_id":440,"stv_port":27016,"stv_name":"Uncletopia | Atlanta | 1 | All Maps | STV","players":[{"user_id":501,"name":"Roberto Del Fuego","steam_id":76561198043458554,"connected_time":3830000000000,"state":"active","ping":72},{"user_id":436,"name":"ATL 1 | Save your wifi","steam_id":76561198286147372,"connected_time":10304000000000,"state":"active","ping":53},{"user_id":504,"name":"Sm0ky","steam_id":76561198418262145,"connected_time":2565000000000,"state":"active","ping":107},{"user_id":493,"name":"Monkey Mode","steam_id":76561197961267543,"connected_time":4978000000000,"state":"active","ping":60},{"user_id":465,"name":"Motreir","steam_id":76561198151717946,"connected_time":7686000000000,"state":"active","ping":84},{"user_id":518,"name":"lamadre07","steam_id":76561198067337453,"connected_time":552000000000,"state":"active","ping":102},{"user_id":487,"name":"MyamE","steam_id":76561198133278462,"connected_time":5968000000000,"state":"active","ping":74},{"user_id":517,"name":"merge without looking","steam_id":76561198056702628,"connected_time":713000000000,"state":"active","ping":58},{"user_id":495,"name":"lil hog","steam_id":76561199230929836,"connected_time":4776000000000,"state":"active","ping":89},{"user_id":429,"name":"cola","steam_id":76561198374390458,"connected_time":10458000000000,"state":"active","ping":55},{"user_id":412,"name":"cheeks","steam_id":76561197993371179,"connected_time":11036000000000,"state":"active","ping":48},{"user_id":510,"name":"Spiee","steam_id":76561199032011974,"connected_time":1683000000000,"state":"active","ping":84},{"user_id":516,"name":"Sexy Julian","steam_id":76561198024596083,"connected_time":827000000000,"state":"active","ping":112},{"user_id":507,"name":"stink","steam_id":76561198099318923,"connected_time":2467000000000,"state":"active","ping":87},{"user_id":515,"name":"Boop","steam_id":76561198376703875,"connected_time":904000000000,"state":"active","ping":74},{"user_id":479,"name":"Cherry Coke","steam_id":76561198178233006,"connected_time":6506000000000,"state":"active","ping":82},{"user_id":343,"name":"eish","steam_id":76561198089463603,"connected_time":18633000000000,"state":"active","ping":122},{"user_id":519,"name":"mayhem","steam_id":76561199246637881,"connected_time":27000000000,"state":"active","ping":60},{"user_id":458,"name":"Onyx","steam_id":76561198275349640,"connected_time":8517000000000,"state":"active","ping":74},{"user_id":511,"name":"The Cop Fentanyl Debuff","steam_id":76561197991817974,"connected_time":1678000000000,"state":"active","ping":111},{"user_id":494,"name":"BIG HOG","steam_id":76561198079923652,"connected_time":4840000000000,"state":"active","ping":75},{"user_id":485,"name":"O'Keearns","steam_id":76561198042213797,"connected_time":6240000000000,"state":"active","ping":46},{"user_id":492,"name":"Lost (15)","steam_id":76561198093713427,"connected_time":5085000000000,"state":"active","ping":87},{"user_id":499,"name":"bovvle","steam_id":76561198259113008,"connected_time":4340000000000,"state":"active","ping":79}]},{"server_id":400,"name":"Uncletopia | Atlanta | 3 | Community","name_short":"atl-3","host":"atl-1.us.uncletopia.com","port":27035,"enabled":true,"region":"us-east","cc":"us","latitude":33.753746,"longitude":-84.38633,"reserved":0,"last_update":"0001-01-01T00:00:00Z","name_a2s":"Uncletopia | Atlanta | 3 | Community","protocol":17,"map":"workshop/koth_ramjam_rc1.ugc459778887","folder":"tf","game":"Team Fortress","app_id":440,"player_count":0,"max_players":24,"Bots":0,"server_type":"Dedicated","server_os":"Linux","password":true,"vac":true,"version":"7757534","steam_id":85568392924515187,"keywords":["cp","nocrits","nodmgspread","uncletopia"],"game_id":440,"stv_port":27036,"stv_name":"Uncletopia | Atlanta | 3 | Community | STV","players":null},{"server_id":401,"name":"Uncletopia | Atlanta | 4 | No Payload","name_short":"atl-4","host":"atl-1.us.uncletopia.com","port":27045,"enabled":true,"region":"us-east","cc":"us","latitude":33.753746,"longitude":-84.38633,"reserved":0,"last_update":"0001-01-01T00:00:00Z","name_a2s":"","protocol":0,"map":"","folder":"","game":"","app_id":0,"player_count":0,"max_players":0,"Bots":0,"server_type":"","server_os":"","password":false,"vac":false,"version":"","steam_id":0,"keywords":null,"game_id":0,"stv_port":0,"stv_name":"","players":null},{"server_id":2,"name":"Uncletopia | Chicago | 1 | All Maps","name_short":"chi-1","host":"chi-1.us.uncletopia.com","port":27015,"enabled":true,"region":"us-central","cc":"us","latitude":41.881832,"longitude":-87.62318,"reserved":0,"last_update":"0001-01-01T00:00:00Z","name_a2s":"Uncletopia | Chicago | 1 | All Maps","protocol":17,"map":"pl_goldrush","folder":"tf","game":"Team Fortress","app_id":440,"player_count":24,"max_players":24,"Bots":0,"server_type":"Dedicated","server_os":"Linux","password":true,"vac":true,"version":"7757534","steam_id":85568392924469984,"keywords":["nocrits","nodmgspread","payload","uncletopia"],"game_id":440,"stv_port":27016,"stv_name":"Uncletopia | Chicago | 1 | All Maps | STV","players":[{"user_id":837,"name":"lker","steam_id":76561197976975075,"connected_time":899000000000,"state":"active","ping":60},{"user_id":766,"name":"you are loved","steam_id":76561198108524571,"connected_time":8779000000000,"state":"active","ping":70},{"user_id":800,"name":"Funkadilla","steam_id":76561198420639264,"connected_time":5166000000000,"state":"active","ping":80},{"user_id":796,"name":"spooky kabuki","steam_id":76561198030361635,"connected_time":5326000000000,"state":"active","ping":46},{"user_id":828,"name":"goober","steam_id":76561199014881883,"connected_time":2129000000000,"state":"active","ping":71},{"user_id":847,"name":"hashmap","steam_id":76561198043794014,"connected_time":381000000000,"state":"active","ping":50},{"user_id":823,"name":"Enron Hubbard","steam_id":76561198012951411,"connected_time":2374000000000,"state":"active","ping":58},{"user_id":798,"name":"kairOs.fk","steam_id":76561197972421260,"connected_time":5313000000000,"state":"active","ping":60},{"user_id":848,"name":"PeopleOrderOurPatties","steam_id":76561198323144922,"connected_time":67000000000,"state":"active","ping":59},{"user_id":816,"name":"mario,","steam_id":76561198068947832,"connected_time":3804000000000,"state":"active","ping":72},{"user_id":839,"name":"nautical nonsense","steam_id":76561198099412571,"connected_time":556000000000,"state":"active","ping":73},{"user_id":834,"name":"kittak","steam_id":76561198065464574,"connected_time":930000000000,"state":"active","ping":61},{"user_id":842,"name":"AkimboAoki","steam_id":76561198158323058,"connected_time":455000000000,"state":"active","ping":98},{"user_id":846,"name":"Skyrim killable children mod","steam_id":76561198862836173,"connected_time":402000000000,"state":"active","ping":108},{"user_id":843,"name":"Bee's","steam_id":76561198041888432,"connected_time":438000000000,"state":"active","ping":112},{"user_id":844,"name":"The Super Mario Bros. Movie","steam_id":76561198871692156,"connected_time":425000000000,"state":"active","ping":92},{"user_id":845,"name":"Punished Obesity","steam_id":76561198809257409,"connected_time":414000000000,"state":"active","ping":66},{"user_id":716,"name":"blob","steam_id":76561198122375328,"connected_time":12828000000000,"state":"active","ping":66},{"user_id":841,"name":"AnonymousCritter","steam_id":76561198864475187,"connected_time":465000000000,"state":"active","ping":51},{"user_id":836,"name":"Mintavious","steam_id":76561198235953338,"connected_time":904000000000,"state":"active","ping":67},{"user_id":818,"name":"Big Phony","steam_id":76561199092395311,"connected_time":3020000000000,"state":"active","ping":68},{"user_id":820,"name":"Phil Collins","steam_id":76561198068868644,"connected_time":2389000000000,"state":"active","ping":105},{"user_id":801,"name":"bingus","steam_id":76561198283992686,"connected_time":5158000000000,"state":"active","ping":75},{"user_id":835,"name":"Ademar","steam_id":76561199391802581,"connected_time":930000000000,"state":"active","ping":57}]},{"server_id":106,"name":"Uncletopia | Chicago | 2 | All Maps","name_short":"chi-2","host":"chi-1.us.uncletopia.com","port":27025,"enabled":true,"region":"us-central","cc":"us","latitude":41.881832,"longitude":-87.62318,"reserved":0,"last_update":"0001-01-01T00:00:00Z","name_a2s":"Uncletopia | Chicago | 2 | All Maps","protocol":17,"map":"pl_barnblitz","folder":"tf","game":"Team Fortress","app_id":440,"player_count":24,"max_players":24,"Bots":0,"server_type":"Dedicated","server_os":"Linux","password":true,"vac":true,"version":"7757534","steam_id":85568392924469985,"keywords":["nocrits","nodmgspread","payload","uncletopia"],"game_id":440,"stv_port":27026,"stv_name":"Uncletopia | Chicago | 2 | All Maps | STV","players":[{"user_id":674,"name":"Convict Police Officers","steam_id":76561197993527275,"connected_time":1705000000000,"state":"active","ping":47},{"user_id":692,"name":"Fudge_Cake","steam_id":76561198059218167,"connected_time":271000000000,"state":"active","ping":76},{"user_id":693,"name":"DO NOT call me BART SIMPSON!!","steam_id":76561198069113375,"connected_time":154000000000,"state":"active","ping":69},{"user_id":658,"name":"gyozaking","steam_id":76561197972312696,"connected_time":2757000000000,"state":"active","ping":73},{"user_id":672,"name":"ratie","steam_id":76561198059399661,"connected_time":1742000000000,"state":"active","ping":78},{"user_id":647,"name":"hansi kÃ¼rsch","steam_id":76561198046650995,"connected_time":3107000000000,"state":"active","ping":83},{"user_id":660,"name":"jubattz","steam_id":76561198044874072,"connected_time":2728000000000,"state":"active","ping":56},{"user_id":694,"name":"El Apestoso","steam_id":76561198084646266,"connected_time":103000000000,"state":"active","ping":77},{"user_id":675,"name":"ðŸ…œðŸ…”ðŸ…”ðŸ…šðŸ…¢ðŸ…£ðŸ…”\ufffd\ufffd\ufffd","steam_id":76561197999748343,"connected_time":1695000000000,"state":"active","ping":60},{"user_id":673,"name":"Aeront","steam_id":76561198072032723,"connected_time":1736000000000,"state":"active","ping":90},{"user_id":681,"name":"â–³","steam_id":76561198060642242,"connected_time":1618000000000,"state":"active","ping":84},{"user_id":676,"name":"Blitzy","steam_id":76561198149472890,"connected_time":1695000000000,"state":"active","ping":74},{"user_id":685,"name":"Laphroaig","steam_id":76561197992690915,"connected_time":826000000000,"state":"active","ping":112},{"user_id":686,"name":"Davy Jones","steam_id":76561198956823243,"connected_time":745000000000,"state":"active","ping":68},{"user_id":662,"name":"Faraday","steam_id":76561198089928357,"connected_time":2657000000000,"state":"active","ping":73},{"user_id":684,"name":"far1ne","steam_id":76561198418853168,"connected_time":1011000000000,"state":"active","ping":91},{"user_id":642,"name":"HumFreY","steam_id":76561198076639682,"connected_time":3419000000000,"state":"active","ping":74},{"user_id":646,"name":"Carbonated Knightquill","steam_id":76561198044362988,"connected_time":3167000000000,"state":"active","ping":48},{"user_id":678,"name":"Î»","steam_id":76561198120426683,"connected_time":1648000000000,"state":"active","ping":105},{"user_id":689,"name":"Thing","steam_id":76561199261081812,"connected_time":565000000000,"state":"active","ping":114},{"user_id":671,"name":"admiralmonk","steam_id":76561198845021470,"connected_time":1810000000000,"state":"active","ping":57},{"user_id":680,"name":"TheElderFrog","steam_id":76561197985743135,"connected_time":1623000000000,"state":"active","ping":77},{"user_id":632,"name":"Theory-ZaZa","steam_id":76561198116419931,"connected_time":4449000000000,"state":"active","ping":113},{"user_id":688,"name":"THE CAPN","steam_id":76561198170210979,"connected_time":614000000000,"state":"active","ping":109}]},{"server_id":402,"name":"Uncletopia | Chicago | 3 | All Maps","name_short":"chi-3","host":"chi-1.us.uncletopia.com","port":27035,"enabled":true,"region":"us-central","cc":"us","latitude":41.881832,"longitude":-87.62318,"reserved":0,"last_update":"0001-01-01T00:00:00Z","name_a2s":"Uncletopia | Chicago | 3 | All Maps","protocol":17,"map":"pl_frontier_final","folder":"tf","game":"Team Fortress","app_id":440,"player_count":23,"max_players":24,"Bots":0,"server_type":"Dedicated","server_os":"Linux","password":true,"vac":true,"version":"7757534","steam_id":85568392924515191,"keywords":["nocrits","nodmgspread","payload","uncletopia"],"game_id":440,"stv_port":27036,"stv_name":"Uncletopia | Chicago | 3 | All Maps | STV","players":[{"user_id":343,"name":"kab789","steam_id":76561198069842202,"connected_time":1175000000000,"state":"active","ping":66},{"user_id":326,"name":"Fermenting Kiwi","steam_id":76561198253303497,"connected_time":2403000000000,"state":"active","ping":73},{"user_id":334,"name":"Horrizan","steam_id":76561197965028480,"connected_time":1475000000000,"state":"active","ping":77},{"user_id":303,"name":"MaximumAce","steam_id":76561198359596849,"connected_time":4087000000000,"state":"active","ping":63},{"user_id":356,"name":"darkjustin54","steam_id":76561198060056280,"connected_time":560000000000,"state":"active","ping":56},{"user_id":327,"name":"Your Local NPR Station","steam_id":76561198143830279,"connected_time":2362000000000,"state":"active","ping":60},{"user_id":344,"name":"Ben Sadfleck","steam_id":76561198057963508,"connected_time":1174000000000,"state":"active","ping":141},{"user_id":351,"name":"GregGaming098","steam_id":76561198882415360,"connected_time":613000000000,"state":"active","ping":98},{"user_id":333,"name":"FoodzAreGoodz","steam_id":76561198309262052,"connected_time":1706000000000,"state":"active","ping":112},{"user_id":362,"name":"bodi","steam_id":76561199062396598,"connected_time":192000000000,"state":"active","ping":75},{"user_id":349,"name":"I Lead MLB In \"Bats Eaten\"","steam_id":76561198034079853,"connected_time":766000000000,"state":"active","ping":69},{"user_id":348,"name":"Hank J. Wimbleton","steam_id":76561198070630030,"connected_time":892000000000,"state":"active","ping":70},{"user_id":329,"name":"TheLonliestThelonius","steam_id":76561198097657243,"connected_time":2068000000000,"state":"active","ping":82},{"user_id":353,"name":"Porsy","steam_id":76561198041850843,"connected_time":591000000000,"state":"active","ping":45},{"user_id":347,"name":"BannedMist","steam_id":76561198905992575,"connected_time":956000000000,"state":"active","ping":54},{"user_id":332,"name":"super","steam_id":76561198800358844,"connected_time":1846000000000,"state":"active","ping":83},{"user_id":350,"name":"big fish","steam_id":76561198186479818,"connected_time":679000000000,"state":"active","ping":112},{"user_id":355,"name":"Carson","steam_id":76561198076771071,"connected_time":570000000000,"state":"active","ping":50},{"user_id":357,"name":"Project Dusk","steam_id":76561198193521149,"connected_time":556000000000,"state":"active","ping":88},{"user_id":358,"name":"Sebastian","steam_id":76561198279661941,"connected_time":545000000000,"state":"active","ping":87},{"user_id":359,"name":"Killswitch469","steam_id":76561198019128314,"connected_time":543000000000,"state":"active","ping":91},{"user_id":338,"name":"Captain S. Forrest","steam_id":76561198062463029,"connected_time":1403000000000,"state":"active","ping":69},{"user_id":363,"name":"Alan","steam_id":76561198281442409,"connected_time":185000000000,"state":"active","ping":48}]},{"server_id":403,"name":"Uncletopia | Chicago | 4 | All Maps","name_short":"chi-4","host":"chi-1.us.uncletopia.com","port":27045,"enabled":true,"region":"us-central","cc":"us","latitude":41.881832,"longitude":-87.62318,"reserved":0,"last_update":"0001-01-01T00:00:00Z","name_a2s":"Uncletopia | Chicago | 4 | All Maps","protocol":17,"map":"koth_harvest_final","folder":"tf","game":"Team Fortress","app_id":440,"player_count":24,"max_players":24,"Bots":0,"server_type":"Dedicated","server_os":"Linux","password":true,"vac":true,"version":"7757534","steam_id":85568392924515193,"keywords":["cp","nocrits","nodmgspread","uncletopia"],"game_id":440,"stv_port":27046,"stv_name":"Uncletopia | Chicago | 4 | All Maps | STV","players":[{"user_id":430,"name":"laszlo","steam_id":76561198141198352,"connected_time":2688000000000,"state":"active","ping":39},{"user_id":440,"name":"laddie","steam_id":76561198063029230,"connected_time":1651000000000,"state":"active","ping":70},{"user_id":446,"name":"Shichinitzi","steam_id":76561198003833732,"connected_time":883000000000,"state":"active","ping":46},{"user_id":455,"name":"Rockcrusher","steam_id":76561199012666353,"connected_time":434000000000,"state":"active","ping":55},{"user_id":431,"name":"Rein","steam_id":76561198300340427,"connected_time":2539000000000,"state":"active","ping":60},{"user_id":456,"name":"Marisad","steam_id":76561198843890616,"connected_time":372000000000,"state":"active","ping":91},{"user_id":447,"name":"RedBot Noob","steam_id":76561198260764846,"connected_time":872000000000,"state":"active","ping":109},{"user_id":458,"name":"Smack Ass","steam_id":76561198065902690,"connected_time":97000000000,"state":"active","ping":64},{"user_id":459,"name":"Zizen","steam_id":76561199011832069,"connected_time":60000000000,"state":"active","ping":104},{"user_id":449,"name":"YHH face","steam_id":76561198035629877,"connected_time":827000000000,"state":"active","ping":44},{"user_id":454,"name":"thecal","steam_id":76561198307893384,"connected_time":690000000000,"state":"active","ping":49},{"user_id":438,"name":"Orca?","steam_id":76561198164341099,"connected_time":1777000000000,"state":"active","ping":87},{"user_id":418,"name":"Scita","steam_id":76561198066861559,"connected_time":3163000000000,"state":"active","ping":70},{"user_id":450,"name":"raphaim #bb","steam_id":76561198089649422,"connected_time":823000000000,"state":"active","ping":101},{"user_id":451,"name":"it's thicc thirty","steam_id":76561198027052378,"connected_time":822000000000,"state":"active","ping":73},{"user_id":368,"name":"Sprucelass","steam_id":76561197998391724,"connected_time":5577000000000,"state":"active","ping":51},{"user_id":402,"name":"shadowjango","steam_id":76561198001475833,"connected_time":4263000000000,"state":"active","ping":60},{"user_id":398,"name":"Candy Quill","steam_id":76561198044092009,"connected_time":4993000000000,"state":"active","ping":97},{"user_id":396,"name":"Consentual non-consent","steam_id":76561199013702818,"connected_time":5062000000000,"state":"active","ping":103},{"user_id":452,"name":"Laxoloni","steam_id":76561199197045700,"connected_time":822000000000,"state":"active","ping":104},{"user_id":453,"name":"Primrose","steam_id":76561198031708819,"connected_time":822000000000,"state":"active","ping":60},{"user_id":442,"name":"Si1entSn1pa","steam_id":76561198170095479,"connected_time":1341000000000,"state":"active","ping":91},{"user_id":432,"name":"Torei","steam_id":76561198799229190,"connected_time":2538000000000,"state":"active","ping":59},{"user_id":404,"name":"wheres my drink?","steam_id":76561198031675881,"connected_time":4260000000000,"state":"active","ping":68}]},{"server_id":36,"name":"Uncletopia | Chicago | 5 | All Maps","name_short":"chi-5","host":"chi-2.us.uncletopia.com","port":27015,"enabled":true,"region":"us-central","cc":"us","latitude":41.881832,"longitude":-87.62318,"reserved":0,"last_update":"0001-01-01T00:00:00Z","name_a2s":"Uncletopia | Chicago | 5 | All Maps","protocol":17,"map":"pl_barnblitz","folder":"tf","game":"Team Fortress","app_id":440,"player_count":24,"max_players":24,"Bots":0,"server_type":"Dedicated","server_os":"Linux","password":true,"vac":true,"version":"7757534","steam_id":85568392924866362,"keywords":["nocrits","nodmgspread","payload","uncletopia"],"game_id":440,"stv_port":27016,"stv_name":"Uncletopia | Chicago | 5 | All Maps | STV","players":[{"user_id":576,"name":"Bronxi","steam_id":76561198044530252,"connected_time":462000000000,"state":"active","ping":71},{"user_id":498,"name":"M-Looskinator","steam_id":76561198135649941,"connected_time":3819000000000,"state":"active","ping":122},{"user_id":549,"name":"Tick","steam_id":76561198184161214,"connected_time":2010000000000,"state":"active","ping":42},{"user_id":560,"name":"Wicki","steam_id":76561198122590990,"connected_time":1572000000000,"state":"active","ping":91},{"user_id":577,"name":"Hairy Pear","steam_id":76561198087397457,"connected_time":201000000000,"state":"active","ping":77},{"user_id":561,"name":"Stapler","steam_id":76561198099295077,"connected_time":1565000000000,"state":"active","ping":90},{"user_id":471,"name":"Rond Gong The Dong Machine","steam_id":76561198283349215,"connected_time":5056000000000,"state":"active","ping":88},{"user_id":495,"name":"Lore","steam_id":76561198098407538,"connected_time":3972000000000,"state":"active","ping":50},{"user_id":457,"name":"Bel","steam_id":76561198213140033,"connected_time":5826000000000,"state":"active","ping":85},{"user_id":574,"name":"Glass Joe","steam_id":76561198317365741,"connected_time":735000000000,"state":"active","ping":86},{"user_id":535,"name":"Normalux","steam_id":76561198293891426,"connected_time":2469000000000,"state":"active","ping":97},{"user_id":458,"name":"BellGrief","steam_id":76561198453489762,"connected_time":5810000000000,"state":"active","ping":93},{"user_id":500,"name":"SomeScuffedKid","steam_id":76561198086113234,"connected_time":3658000000000,"state":"active","ping":69},{"user_id":579,"name":"Poison Duck","steam_id":76561198103155890,"connected_time":124000000000,"state":"active","ping":83},{"user_id":508,"name":"SeniorPigu","steam_id":76561198072001437,"connected_time":2971000000000,"state":"active","ping":73},{"user_id":580,"name":"TheGameGuy","steam_id":76561198039321143,"connected_time":103000000000,"state":"active","ping":58},{"user_id":505,"name":"Helios79","steam_id":76561198198358469,"connected_time":3279000000000,"state":"active","ping":70},{"user_id":570,"name":"garfield","steam_id":76561198114119308,"connected_time":1068000000000,"state":"active","ping":68},{"user_id":565,"name":"Kaluka","steam_id":76561198036861445,"connected_time":1512000000000,"state":"active","ping":74},{"user_id":573,"name":"deech","steam_id":76561198066429444,"connected_time":801000000000,"state":"active","ping":67},{"user_id":568,"name":"benito","steam_id":76561199098569869,"connected_time":1475000000000,"state":"active","ping":80},{"user_id":567,"name":"joelthetroll","steam_id":76561198026605788,"connected_time":1501000000000,"state":"active","ping":80},{"user_id":497,"name":"Trox","steam_id":76561198263581464,"connected_time":3937000000000,"state":"active","ping":148},{"user_id":575,"name":"Unlock The Shock (She/They)","steam_id":76561198823616667,"connected_time":628000000000,"state":"active","ping":85}]},{"server_id":37,"name":"Uncletopia | Chicago | 6 | All Maps","name_short":"chi-6","host":"chi-2.us.uncletopia.com","port":27025,"enabled":true,"region":"us-central","cc":"us","latitude":41.881832,"longitude":-87.62318,"reserved":0,"last_update":"0001-01-01T00:00:00Z","name_a2s":"Uncletopia | Chicago | 6 | All Maps","protocol":17,"map":"pl_pier","folder":"tf","game":"Team Fortress","app_id":440,"player_count":24,"max_players":24,"Bots":0,"server_type":"Dedicated","server_os":"Linux","password":true,"vac":true,"version":"7757534","steam_id":85568392924866363,"keywords":["nocrits","nodmgspread","payload","uncletopia"],"game_id":440,"stv_port":27026,"stv_name":"Uncletopia | Chicago | 6 | All Maps | STV","players":[{"user_id":188,"name":"Real Demo Man TF2","steam_id":76561199073122406,"connected_time":3533000000000,"state":"active","ping":57},{"user_id":200,"name":"floral green","steam_id":76561198332519926,"connected_time":2332000000000,"state":"active","ping":84},{"user_id":208,"name":"NovaSc6ut","steam_id":76561198277163301,"connected_time":1046000000000,"state":"active","ping":69},{"user_id":134,"name":"Razz","steam_id":76561198158027533,"connected_time":8922000000000,"state":"active","ping":42},{"user_id":151,"name":"NÃ©miscau","steam_id":76561198257979613,"connected_time":6180000000000,"state":"active","ping":95},{"user_id":189,"name":"Cutovercarp","steam_id":76561199065978512,"connected_time":3506000000000,"state":"active","ping":63},{"user_id":152,"name":"foura","steam_id":76561198181972739,"connected_time":6176000000000,"state":"active","ping":100},{"user_id":214,"name":"Ecliptica","steam_id":76561198171951333,"connected_time":306000000000,"state":"active","ping":113},{"user_id":177,"name":"IcyGlaciers (She/They)","steam_id":76561198087843846,"connected_time":4710000000000,"state":"active","ping":101},{"user_id":210,"name":"threethree","steam_id":76561198177354155,"connected_time":1001000000000,"state":"active","ping":57},{"user_id":201,"name":"riSygneD","steam_id":76561198331618687,"connected_time":2314000000000,"state":"active","ping":94},{"user_id":212,"name":"caption cool","steam_id":76561197990612056,"connected_time":389000000000,"state":"active","ping":47},{"user_id":145,"name":"Gachalover","steam_id":76561199231552074,"connected_time":8137000000000,"state":"active","ping":72},{"user_id":202,"name":"Clout God Usopp","steam_id":76561198415152933,"connected_time":2310000000000,"state":"active","ping":88},{"user_id":203,"name":"Dr.KombatPhD.ttv","steam_id":76561198263847667,"connected_time":1857000000000,"state":"active","ping":70},{"user_id":187,"name":"chicken joe from surfs up 2","steam_id":76561198060807152,"connected_time":3684000000000,"state":"active","ping":75},{"user_id":159,"name":"nastypass","steam_id":76561198002601054,"connected_time":5969000000000,"state":"active","ping":70},{"user_id":204,"name":"Femboy Hooters","steam_id":76561198333128330,"connected_time":1840000000000,"state":"active","ping":38},{"user_id":213,"name":"Rudy","steam_id":76561198013456828,"connected_time":375000000000,"state":"active","ping":67},{"user_id":132,"name":"Wilhelmktx","steam_id":76561198158102295,"connected_time":9050000000000,"state":"active","ping":58},{"user_id":162,"name":"Oifey","steam_id":76561198073474038,"connected_time":5927000000000,"state":"active","ping":61},{"user_id":215,"name":"Dispenser (Twan)","steam_id":76561197991064908,"connected_time":6000000000,"state":"spawning","ping":60},{"user_id":164,"name":"add the 3 stooges to fortnite","steam_id":76561198107343544,"connected_time":5900000000000,"state":"active","ping":87},{"user_id":172,"name":"Ringo x Seiran","steam_id":76561198357437908,"connected_time":5189000000000,"state":"active","ping":63}]},{"server_id":38,"name":"Uncletopia | Chicago | 7 | Stopwatch Beta","name_short":"chi-7","host":"chi-2.us.uncletopia.com","port":27035,"enabled":true,"region":"us-central","cc":"us","latitude":41.881832,"longitude":-87.62318,"reserved":0,"last_update":"0001-01-01T00:00:00Z","name_a2s":"Uncletopia | Chicago | 7 | Stopwatch Beta","protocol":17,"map":"koth_viaduct","folder":"tf","game":"Team Fortress","app_id":440,"player_count":0,"max_players":24,"Bots":0,"server_type":"Dedicated","server_os":"Linux","password":true,"vac":true,"version":"7757534","steam_id":85568392924866364,"keywords":["cp","nocrits","nodmgspread","uncletopia"],"game_id":440,"stv_port":27036,"stv_name":"Uncletopia | Chicago | 7 | Stopwatch Beta | STV","players":null},{"server_id":39,"name":"Uncletopia | Chicago | 8 | Community","name_short":"chi-8","host":"chi-2.us.uncletopia.com","port":27045,"enabled":true,"region":"us-central","cc":"us","latitude":41.881832,"longitude":-87.62318,"reserved":0,"last_update":"0001-01-01T00:00:00Z","name_a2s":"Uncletopia | Chicago | 8 | Community","protocol":17,"map":"workshop/koth_trenchfoot_b1a.ugc731436616","folder":"tf","game":"Team Fortress","app_id":440,"player_count":2,"max_players":24,"Bots":0,"server_type":"Dedicated","server_os":"Linux","password":true,"vac":true,"version":"7757534","steam_id":85568392924866365,"keywords":["cp","nocrits","nodmgspread","uncletopia"],"game_id":440,"stv_port":27046,"stv_name":"Uncletopia | Chicago | 8 | Community | STV","players":[{"user_id":32,"name":"dudu","steam_id":76561198188673074,"connected_time":156000000000,"state":"active","ping":74},{"user_id":33,"name":"pain","steam_id":76561199440272639,"connected_time":87000000000,"state":"active","ping":87}]},{"server_id":8,"name":"Uncletopia | Dallas | 1 | All Maps","name_short":"dal-1","host":"dal-1.us.uncletopia.com","port":27015,"enabled":true,"region":"us-central","cc":"us","latitude":32.779167,"longitude":-96.80889,"reserved":0,"last_update":"0001-01-01T00:00:00Z","name_a2s":"Uncletopia | Dallas | 1 | All Maps","protocol":17,"map":"pl_frontier_final","folder":"tf","game":"Team Fortress","app_id":440,"player_count":24,"max_players":24,"Bots":0,"server_type":"Dedicated","server_os":"Linux","password":true,"vac":true,"version":"7757534","steam_id":85568392924469986,"keywords":["nocrits","nodmgspread","payload","uncletopia"],"game_id":440,"stv_port":27016,"stv_name":"Uncletopia | Dallas | 1 | All Maps | STV","players":[{"user_id":509,"name":"c0wmanglr","steam_id":76561198025342064,"connected_time":2160000000000,"state":"active","ping":65},{"user_id":506,"name":"SlickStick04","steam_id":76561199016580456,"connected_time":2306000000000,"state":"active","ping":83},{"user_id":510,"name":"Pixeled","steam_id":76561198088917077,"connected_time":2153000000000,"state":"active","ping":95},{"user_id":525,"name":"Laggy","steam_id":76561198125110756,"connected_time":409000000000,"state":"active","ping":76},{"user_id":503,"name":"Muse","steam_id":76561198177715869,"connected_time":3344000000000,"state":"active","ping":68},{"user_id":518,"name":"Arctem","steam_id":76561198012937871,"connected_time":1605000000000,"state":"active","ping":64},{"user_id":524,"name":"Ballista","steam_id":76561197983182562,"connected_time":449000000000,"state":"active","ping":55},{"user_id":500,"name":"Epha","steam_id":76561198079379951,"connected_time":4106000000000,"state":"active","ping":88},{"user_id":511,"name":"radtap","steam_id":76561198054060391,"connected_time":2125000000000,"state":"active","ping":63},{"user_id":513,"name":"74","steam_id":76561198070923665,"connected_time":1747000000000,"state":"active","ping":110},{"user_id":463,"name":"BurningKev","steam_id":76561198057688837,"connected_time":9619000000000,"state":"active","ping":77},{"user_id":515,"name":"BatJet","steam_id":76561198147738441,"connected_time":1613000000000,"state":"active","ping":90},{"user_id":516,"name":"Orange","steam_id":76561197960854889,"connected_time":1609000000000,"state":"active","ping":97},{"user_id":527,"name":"ChottoAMinute","steam_id":76561198873157775,"connected_time":100000000000,"state":"active","ping":37},{"user_id":521,"name":"meh","steam_id":76561198136808129,"connected_time":475000000000,"state":"active","ping":63},{"user_id":434,"name":"Giselle","steam_id":76561198162593640,"connected_time":11224000000000,"state":"active","ping":105},{"user_id":499,"name":"crumblebungus","steam_id":76561199323707429,"connected_time":4666000000000,"state":"active","ping":69},{"user_id":514,"name":"Dictator Noodle","steam_id":76561198277243768,"connected_time":1616000000000,"state":"active","ping":81},{"user_id":526,"name":"[LINUX] Purple Penguin Pybro","steam_id":76561198093538786,"connected_time":272000000000,"state":"active","ping":53},{"user_id":481,"name":"iluvtoust","steam_id":76561198869269207,"connected_time":7248000000000,"state":"active","ping":46},{"user_id":517,"name":"56","steam_id":76561199161322235,"connected_time":1609000000000,"state":"active","ping":75},{"user_id":519,"name":"Sableye","steam_id":76561198061247147,"connected_time":1604000000000,"state":"active","ping":75},{"user_id":230,"name":"SIGMA [BS]","steam_id":76561197962604879,"connected_time":26304000000000,"state":"active","ping":97},{"user_id":369,"name":"Joe Swanson","steam_id":76561199089907740,"connected_time":16022000000000,"state":"active","ping":68}]},{"server_id":108,"name":"Uncletopia | Dallas | 2 | All Maps","name_short":"dal-2","host":"dal-1.us.uncletopia.com","port":27025,"enabled":true,"region":"us-central","cc":"us","latitude":32.779167,"longitude":-96.80889,"reserved":0,"last_update":"0001-01-01T00:00:00Z","name_a2s":"Uncletopia | Dallas | 2 | All Maps","protocol":17,"map":"pl_swiftwater_final1","folder":"tf","game":"Team Fortress","app_id":440,"player_count":24,"max_players":24,"Bots":0,"server_type":"Dedicated","server_os":"Linux","password":true,"vac":true,"version":"7757534","steam_id":85568392924469988,"keywords":["nocrits","nodmgspread","payload","uncletopia"],"game_id":440,"stv_port":27026,"stv_name":"Uncletopia | Dallas | 2 | All Maps | STV","players":[{"user_id":462,"name":"Brug","steam_id":76561199060377718,"connected_time":894000000000,"state":"active","ping":59},{"user_id":393,"name":"GenericName","steam_id":76561198104074968,"connected_time":5602000000000,"state":"active","ping":70},{"user_id":465,"name":"The Caretaker","steam_id":76561198125241411,"connected_time":46000000000,"state":"spawning","ping":103},{"user_id":456,"name":"BraggerCrab","steam_id":76561198153310992,"connected_time":1348000000000,"state":"active","ping":77},{"user_id":427,"name":"WhackyOrc","steam_id":76561199470020355,"connected_time":3637000000000,"state":"active","ping":81},{"user_id":450,"name":"derdds","steam_id":76561198034339940,"connected_time":1427000000000,"state":"active","ping":75},{"user_id":458,"name":"bladees saddest, realest verse","steam_id":76561198098099826,"connected_time":1125000000000,"state":"active","ping":68},{"user_id":464,"name":"bottom pride burger","steam_id":76561198322247602,"connected_time":390000000000,"state":"active","ping":90},{"user_id":463,"name":"Avem","steam_id":76561198058763710,"connected_time":726000000000,"state":"active","ping":74},{"user_id":371,"name":"The Ultimate Coomer","steam_id":76561199128833757,"connected_time":7758000000000,"state":"active","ping":51},{"user_id":447,"name":"SmokeyGalaxy","steam_id":76561198118780516,"connected_time":2097000000000,"state":"active","ping":58},{"user_id":460,"name":"Boogie","steam_id":76561198043626626,"connected_time":1045000000000,"state":"active","ping":66},{"user_id":448,"name":"leopardo123atl","steam_id":76561198872648238,"connected_time":2040000000000,"state":"active","ping":80},{"user_id":459,"name":"Lebron Jame","steam_id":76561199102385595,"connected_time":1117000000000,"state":"active","ping":92},{"user_id":461,"name":"Sorrow.R","steam_id":76561198309957185,"connected_time":1037000000000,"state":"active","ping":76},{"user_id":457,"name":"errant","steam_id":76561197961758410,"connected_time":1165000000000,"state":"active","ping":39},{"user_id":451,"name":"Concolor","steam_id":76561198027734150,"connected_time":1421000000000,"state":"active","ping":64},{"user_id":453,"name":"Dat Dere Kirby","steam_id":76561198084054568,"connected_time":1414000000000,"state":"active","ping":92},{"user_id":416,"name":"cardboardwarrior1","steam_id":76561199145044693,"connected_time":4647000000000,"state":"active","ping":149},{"user_id":426,"name":"dont suck me i uber","steam_id":76561198281968441,"connected_time":4010000000000,"state":"active","ping":81},{"user_id":466,"name":"sopmod","steam_id":76561198453203619,"connected_time":25000000000,"state":"active","ping":74},{"user_id":409,"name":"landogg","steam_id":76561198049000586,"connected_time":5049000000000,"state":"active","ping":72},{"user_id":455,"name":"The Made Mann","steam_id":76561198341252201,"connected_time":1358000000000,"state":"active","ping":59},{"user_id":378,"name":"Pie","steam_id":76561198054721133,"connected_time":7404000000000,"state":"active","ping":69}]},{"server_id":5,"name":"Uncletopia | Frankfurt | 1 | All Maps","name_short":"frk-1","host":"frk-1.de.uncletopia.com","port":27015,"enabled":true,"region":"eu","cc":"de","latitude":50.110924,"longitude":8.682127,"reserved":0,"last_update":"0001-01-01T00:00:00Z","name_a2s":"Uncletopia | Frankfurt | 1 | All Maps","protocol":17,"map":"cp_sunshine","folder":"tf","game":"Team Fortress","app_id":440,"player_count":0,"max_players":24,"Bots":0,"server_type":"Dedicated","server_os":"Linux","password":true,"vac":true,"version":"7757534","steam_id":85568392924469989,"keywords":["cp","nocrits","nodmgspread","uncletopia"],"game_id":440,"stv_port":27016,"stv_name":"Uncletopia | Frankfurt | 1 | All Maps | STV","players":null},{"server_id":110,"name":"Uncletopia | Frankfurt | 2 | All Maps","name_short":"frk-2","host":"frk-1.de.uncletopia.com","port":27025,"enabled":true,"region":"eu","cc":"de","latitude":50.110924,"longitude":8.682127,"reserved":0,"last_update":"0001-01-01T00:00:00Z","name_a2s":"Uncletopia | Frankfurt | 2 | All Maps","protocol":17,"map":"koth_viaduct","folder":"tf","game":"Team Fortress","app_id":440,"player_count":0,"max_players":24,"Bots":0,"server_type":"Dedicated","server_os":"Linux","password":true,"vac":true,"version":"7757534","steam_id":85568392924469990,"keywords":["cp","nocrits","nodmgspread","uncletopia"],"game_id":440,"stv_port":27026,"stv_name":"Uncletopia | Frankfurt | 2 | All Maps | STV","players":null},{"server_id":308,"name":"Uncletopia | Frankfurt | 3 | All Maps","name_short":"frk-3","host":"frk-1.de.uncletopia.com","port":27035,"enabled":true,"region":"eu","cc":"de","latitude":50.110924,"longitude":8.682127,"reserved":0,"last_update":"0001-01-01T00:00:00Z","name_a2s":"Uncletopia | Frankfurt | 3 | All Maps","protocol":17,"map":"pl_badwater","folder":"tf","game":"Team Fortress","app_id":440,"player_count":0,"max_players":24,"Bots":0,"server_type":"Dedicated","server_os":"Linux","password":true,"vac":true,"version":"7757534","steam_id":85568392924504274,"keywords":["nocrits","nodmgspread","payload","uncletopia"],"game_id":440,"stv_port":27036,"stv_name":"Uncletopia | Frankfurt | 3 | All Maps | STV","players":null},{"server_id":309,"name":"Uncletopia | Frankfurt | 4 | All Maps","name_short":"frk-4","host":"frk-1.de.uncletopia.com","port":27045,"enabled":true,"region":"eu","cc":"de","latitude":50.110924,"longitude":8.682127,"reserved":0,"last_update":"0001-01-01T00:00:00Z","name_a2s":"Uncletopia | Frankfurt | 4 | All Maps","protocol":17,"map":"koth_cascade","folder":"tf","game":"Team Fortress","app_id":440,"player_count":0,"max_players":24,"Bots":0,"server_type":"Dedicated","server_os":"Linux","password":true,"vac":true,"version":"7757534","steam_id":85568392924504275,"keywords":["cp","nocrits","nodmgspread","uncletopia"],"game_id":440,"stv_port":27046,"stv_name":"Uncletopia | Frankfurt | 4 | All Maps | STV","players":null},{"server_id":310,"name":"Uncletopia | Frankfurt | 5 | All Maps","name_short":"frk-5","host":"frk-1.de.uncletopia.com","port":27055,"enabled":true,"region":"eu","cc":"de","latitude":50.110924,"longitude":8.682127,"reserved":0,"last_update":"0001-01-01T00:00:00Z","name_a2s":"Uncletopia | Frankfurt | 5 | All Maps","protocol":17,"map":"pl_snowycoast","folder":"tf","game":"Team Fortress","app_id":440,"player_count":0,"max_players":24,"Bots":0,"server_type":"Dedicated","server_os":"Linux","password":true,"vac":true,"version":"7757534","steam_id":85568392924504277,"keywords":["nocrits","nodmgspread","payload","uncletopia"],"game_id":440,"stv_port":27056,"stv_name":"Uncletopia | Frankfurt | 5 | All Maps | STV","players":null},{"server_id":311,"name":"Uncletopia | Frankfurt | 6 | All Maps","name_short":"frk-6","host":"frk-1.de.uncletopia.com","port":27065,"enabled":true,"region":"eu","cc":"de","latitude":50.110924,"longitude":8.682127,"reserved":0,"last_update":"0001-01-01T00:00:00Z","name_a2s":"Uncletopia | Frankfurt | 6 | All Maps","protocol":17,"map":"koth_viaduct","folder":"tf","game":"Team Fortress","app_id":440,"player_count":0,"max_players":24,"Bots":0,"server_type":"Dedicated","server_os":"Linux","password":true,"vac":true,"version":"7757534","steam_id":85568392924504278,"keywords":["cp","nocrits","nodmgspread","uncletopia"],"game_id":440,"stv_port":27066,"stv_name":"Uncletopia | Frankfurt | 6 | All Maps | STV","players":null},{"server_id":23,"name":"Uncletopia | Frankfurt | 7 | Stopwatch Beta","name_short":"frk-7","host":"frk-1.de.uncletopia.com","port":27075,"enabled":true,"region":"eu","cc":"de","latitude":50.110924,"longitude":8.682127,"reserved":0,"last_update":"0001-01-01T00:00:00Z","name_a2s":"Uncletopia | Frankfurt | 7 | Stopwatch Beta","protocol":17,"map":"workshop/koth_bagel_rc6.ugc2514036946","folder":"tf","game":"Team Fortress","app_id":440,"player_count":0,"max_players":24,"Bots":0,"server_type":"Dedicated","server_os":"Linux","password":true,"vac":true,"version":"7757534","steam_id":85568392924742827,"keywords":["cp","nocrits","nodmgspread","uncletopia"],"game_id":440,"stv_port":27076,"stv_name":"Uncletopia | Frankfurt | 7 | Stopwatch Beta | STV","players":null},{"server_id":24,"name":"Uncletopia | Frankfurt | 8 | Community","name_short":"frk-8","host":"frk-1.de.uncletopia.com","port":27085,"enabled":true,"region":"eu","cc":"de","latitude":50.110924,"longitude":8.682127,"reserved":0,"last_update":"0001-01-01T00:00:00Z","name_a2s":"Uncletopia | Frankfurt | 8 | Community","protocol":17,"map":"workshop/koth_bagel_rc6.ugc2514036946","folder":"tf","game":"Team Fortress","app_id":440,"player_count":0,"max_players":24,"Bots":0,"server_type":"Dedicated","server_os":"Linux","password":true,"vac":true,"version":"7757534","steam_id":85568392924742828,"keywords":["cp","nocrits","nodmgspread","uncletopia"],"game_id":440,"stv_port":27086,"stv_name":"Uncletopia | Frankfurt | 8 | Community | STV","players":null},{"server_id":202,"name":"Uncletopia | Hong Kong | 1 | All Maps","name_short":"hgk-1","host":"hgk-1.hk.uncletopia.com","port":27015,"enabled":true,"region":"asia","cc":"hk","latitude":22.302711,"longitude":114.177216,"reserved":0,"last_update":"0001-01-01T00:00:00Z","name_a2s":"Uncletopia | Hong Kong | 1 | All Maps","protocol":17,"map":"koth_viaduct","folder":"tf","game":"Team Fortress","app_id":440,"player_count":7,"max_players":24,"Bots":0,"server_type":"Dedicated","server_os":"Linux","password":true,"vac":true,"version":"7757534","steam_id":85568392924494504,"keywords":["cp","nocrits","nodmgspread","uncletopia"],"game_id":440,"stv_port":27016,"stv_name":"Uncletopia | Hong Kong | 1 | All Maps | STV","players":[{"user_id":21,"name":"screaming sniper","steam_id":76561199085568674,"connected_time":853000000000,"state":"active","ping":65},{"user_id":22,"name":"Nonexistent","steam_id":76561198980563251,"connected_time":758000000000,"state":"active","ping":80},{"user_id":23,"name":"killman47","steam_id":76561198348487408,"connected_time":540000000000,"state":"active","ping":37},{"user_id":24,"name":"Windmill","steam_id":76561199230997986,"connected_time":524000000000,"state":"active","ping":85},{"user_id":25,"name":"spinach (old mouse)","steam_id":76561198042539541,"connected_time":446000000000,"state":"active","ping":74},{"user_id":26,"name":"corpse_cadaver","steam_id":76561199225360457,"connected_time":94000000000,"state":"spawning","ping":56},{"user_id":27,"name":"ãƒžã‚°ãƒŠã‚¹","steam_id":76561198208990721,"connected_time":14000000000,"state":"spawning","ping":136}]},{"server_id":1,"name":"Uncletopia | Los Angeles | 1 | All Maps","name_short":"lax-1","host":"lax-1.us.uncletopia.com","port":27015,"enabled":true,"region":"us-west","cc":"us","latitude":33.94279,"longitude":-118.41004,"reserved":0,"last_update":"0001-01-01T00:00:00Z","name_a2s":"Uncletopia | Los Angeles | 1 | All Maps","protocol":17,"map":"cp_sunshine","folder":"tf","game":"Team Fortress","app_id":440,"player_count":0,"max_players":24,"Bots":0,"server_type":"Dedicated","server_os":"Linux","password":true,"vac":true,"version":"7757534","steam_id":85568392924469991,"keywords":["cp","nocrits","nodmgspread","uncletopia"],"game_id":440,"stv_port":27016,"stv_name":"Uncletopia | Los Angeles | 1 | All Maps | STV","players":null},{"server_id":112,"name":"Uncletopia | Los Angeles | 2 | All Maps","name_short":"lax-2","host":"lax-1.us.uncletopia.com","port":27025,"enabled":true,"region":"us-west","cc":"us","latitude":33.94279,"longitude":-118.41004,"reserved":0,"last_update":"0001-01-01T00:00:00Z","name_a2s":"Uncletopia | Los Angeles | 2 | All Maps","protocol":17,"map":"cp_sunshine","folder":"tf","game":"Team Fortress","app_id":440,"player_count":24,"max_players":24,"Bots":0,"server_type":"Dedicated","server_os":"Linux","password":true,"vac":true,"version":"7757534","steam_id":85568392924469992,"keywords":["cp","nocrits","nodmgspread","uncletopia"],"game_id":440,"stv_port":27026,"stv_name":"Uncletopia | Los Angeles | 2 | All Maps | STV","players":[{"user_id":791,"name":"An00bis","steam_id":76561198044084508,"connected_time":1087000000000,"state":"active","ping":55},{"user_id":795,"name":"Nugakku","steam_id":76561198082346219,"connected_time":874000000000,"state":"active","ping":60},{"user_id":772,"name":"Inside Joke","steam_id":76561199127820756,"connected_time":1852000000000,"state":"active","ping":29},{"user_id":756,"name":"Justin","steam_id":76561198110865423,"connected_time":2464000000000,"state":"active","ping":33},{"user_id":778,"name":"Mal","steam_id":76561198051415265,"connected_time":1510000000000,"state":"active","ping":126},{"user_id":789,"name":"tie dye die guy","steam_id":76561198049845337,"connected_time":1107000000000,"state":"active","ping":63},{"user_id":799,"name":"M3tr0idPrim3","steam_id":76561198138329107,"connected_time":237000000000,"state":"active","ping":57},{"user_id":796,"name":"skelly702","steam_id":76561198384117003,"connected_time":813000000000,"state":"active","ping":42},{"user_id":792,"name":"bballbhuddababyboy","steam_id":76561198079516052,"connected_time":1028000000000,"state":"active","ping":45},{"user_id":779,"name":"moe","steam_id":76561198929586245,"connected_time":1407000000000,"state":"active","ping":40},{"user_id":780,"name":"walrooos","steam_id":76561198024521839,"connected_time":1392000000000,"state":"active","ping":45},{"user_id":793,"name":"shali gang foo","steam_id":76561199072087645,"connected_time":1028000000000,"state":"active","ping":32},{"user_id":797,"name":"This game sucks","steam_id":76561198042007578,"connected_time":261000000000,"state":"active","ping":49},{"user_id":688,"name":"Natalie","steam_id":76561198048848289,"connected_time":6590000000000,"state":"active","ping":59},{"user_id":787,"name":"yourmomsbff","steam_id":76561198018237656,"connected_time":1123000000000,"state":"active","ping":47},{"user_id":798,"name":"BigGoose","steam_id":76561198833281392,"connected_time":260000000000,"state":"active","ping":93},{"user_id":781,"name":"Golden Robot","steam_id":76561198149576075,"connected_time":1384000000000,"state":"active","ping":93},{"user_id":790,"name":"Moth","steam_id":76561198170253694,"connected_time":1103000000000,"state":"active","ping":93},{"user_id":770,"name":"chucknut","steam_id":76561199329553584,"connected_time":1888000000000,"state":"active","ping":90},{"user_id":738,"name":"Nanners","steam_id":76561198378587138,"connected_time":3481000000000,"state":"active","ping":49},{"user_id":794,"name":"Leftshadows","steam_id":76561199089515791,"connected_time":981000000000,"state":"active","ping":64},{"user_id":740,"name":"massive dumbass","steam_id":76561199447881058,"connected_time":3399000000000,"state":"active","ping":98},{"user_id":783,"name":"Re:Lie","steam_id":76561198125401588,"connected_time":1235000000000,"state":"active","ping":67},{"user_id":755,"name":"bigman1","steam_id":76561198050225055,"connected_time":2595000000000,"state":"active","ping":49}]},{"server_id":324,"name":"Uncletopia | Los Angeles | 3 | All Maps","name_short":"lax-3","host":"lax-1.us.uncletopia.com","port":27035,"enabled":true,"region":"us-west","cc":"us","latitude":33.94279,"longitude":-118.41004,"reserved":0,"last_update":"0001-01-01T00:00:00Z","name_a2s":"Uncletopia | Los Angeles | 3 | All Maps","protocol":17,"map":"koth_viaduct","folder":"tf","game":"Team Fortress","app_id":440,"player_count":0,"max_players":24,"Bots":0,"server_type":"Dedicated","server_os":"Linux","password":true,"vac":true,"version":"7757534","steam_id":85568392924510198,"keywords":["cp","nocrits","nodmgspread","uncletopia"],"game_id":440,"stv_port":27036,"stv_name":"Uncletopia | Los Angeles | 3 | All Maps | STV","players":null},{"server_id":25,"name":"Uncletopia | Los Angeles | 4 | Stopwatch Beta","name_short":"lax-4","host":"lax-1.us.uncletopia.com","port":27045,"enabled":true,"region":"us-west","cc":"us","latitude":33.94279,"longitude":-118.41004,"reserved":0,"last_update":"0001-01-01T00:00:00Z","name_a2s":"Uncletopia | Los Angeles | 4 | Stopwatch Beta","protocol":17,"map":"pl_borneo","folder":"tf","game":"Team Fortress","app_id":440,"player_count":0,"max_players":24,"Bots":0,"server_type":"Dedicated","server_os":"Linux","password":true,"vac":true,"version":"7757534","steam_id":85568392924510199,"keywords":["nocrits","nodmgspread","payload","uncletopia"],"game_id":440,"stv_port":27046,"stv_name":"Uncletopia | Los Angeles | 4 | Stopwatch Beta | STV","players":null},{"server_id":11,"name":"Uncletopia | London | 1 | All Maps","name_short":"lon-1","host":"lon-1.uk.uncletopia.com","port":27015,"enabled":true,"region":"eu","cc":"gb","latitude":51.509865,"longitude":-0.118092,"reserved":0,"last_update":"0001-01-01T00:00:00Z","name_a2s":"Uncletopia | London | 1 | All Maps","protocol":17,"map":"cp_mountainlab","folder":"tf","game":"Team Fortress","app_id":440,"player_count":0,"max_players":24,"Bots":0,"server_type":"Dedicated","server_os":"Linux","password":true,"vac":true,"version":"7757534","steam_id":85568392924367362,"keywords":["cp","nocrits","nodmgspread","uncletopia"],"game_id":440,"stv_port":27016,"stv_name":"Uncletopia | London | 1 | All Maps | STV","players":null},{"server_id":114,"name":"Uncletopia | London | 2 | All Maps","name_short":"lon-2","host":"lon-1.uk.uncletopia.com","port":27025,"enabled":true,"region":"eu","cc":"gb","latitude":51.509865,"longitude":-0.118092,"reserved":0,"last_update":"0001-01-01T00:00:00Z","name_a2s":"Uncletopia | London | 2 | All Maps","protocol":17,"map":"koth_viaduct","folder":"tf","game":"Team Fortress","app_id":440,"player_count":0,"max_players":24,"Bots":0,"server_type":"Dedicated","server_os":"Linux","password":true,"vac":true,"version":"7757534","steam_id":85568392924470941,"keywords":["cp","nocrits","nodmgspread","uncletopia"],"game_id":440,"stv_port":27026,"stv_name":"Uncletopia | London | 2 | All Maps | STV","players":null},{"server_id":320,"name":"Uncletopia | London | 3 | All Maps","name_short":"lon-3","host":"lon-1.uk.uncletopia.com","port":27035,"enabled":true,"region":"eu","cc":"gb","latitude":51.509865,"longitude":-0.118092,"reserved":0,"last_update":"0001-01-01T00:00:00Z","name_a2s":"Uncletopia | London | 3 | All Maps","protocol":17,"map":"pl_badwater","folder":"tf","game":"Team Fortress","app_id":440,"player_count":24,"max_players":24,"Bots":0,"server_type":"Dedicated","server_os":"Linux","password":true,"vac":true,"version":"7757534","steam_id":85568392924510192,"keywords":["nocrits","nodmgspread","payload","uncletopia"],"game_id":440,"stv_port":27036,"stv_name":"Uncletopia | London | 3 | All Maps | STV","players":[{"user_id":652,"name":"Kris","steam_id":76561198240638652,"connected_time":1941000000000,"state":"active","ping":45},{"user_id":653,"name":"Wabbajack","steam_id":76561199147501514,"connected_time":1925000000000,"state":"active","ping":67},{"user_id":614,"name":"thekoolest88","steam_id":76561199022415672,"connected_time":3524000000000,"state":"active","ping":137},{"user_id":677,"name":"bladee - Sugar","steam_id":76561198064878900,"connected_time":437000000000,"state":"active","ping":72},{"user_id":675,"name":"dorak","steam_id":76561198818037965,"connected_time":498000000000,"state":"active","ping":102},{"user_id":663,"name":"chgivan","steam_id":76561198060010064,"connected_time":1201000000000,"state":"active","ping":84},{"user_id":676,"name":"Ich stinke","steam_id":76561198065076046,"connected_time":454000000000,"state":"active","ping":67},{"user_id":669,"name":"skulltrooper","steam_id":76561198136500817,"connected_time":1053000000000,"state":"active","ping":68},{"user_id":673,"name":"Frog","steam_id":76561198131977071,"connected_time":655000000000,"state":"active","ping":90},{"user_id":678,"name":"death is coming, live fast","steam_id":76561198284086634,"connected_time":358000000000,"state":"active","ping":59},{"user_id":638,"name":"agent boulder","steam_id":76561198057150798,"connected_time":2672000000000,"state":"active","ping":86},{"user_id":679,"name":"lawn","steam_id":76561198001243486,"connected_time":327000000000,"state":"active","ping":56},{"user_id":661,"name":"Dude Time","steam_id":76561198092991160,"connected_time":1459000000000,"state":"active","ping":161},{"user_id":670,"name":"Lewylow","steam_id":76561198005425686,"connected_time":848000000000,"state":"active","ping":57},{"user_id":666,"name":"sketchex","steam_id":76561198344458602,"connected_time":1075000000000,"state":"active","ping":41},{"user_id":624,"name":"DariBro","steam_id":76561198155444173,"connected_time":3143000000000,"state":"active","ping":70},{"user_id":671,"name":"Why is he so angry.","steam_id":76561199259288856,"connected_time":748000000000,"state":"active","ping":109},{"user_id":649,"name":"god","steam_id":76561198346638308,"connected_time":2217000000000,"state":"active","ping":53},{"user_id":659,"name":"A lost cow.","steam_id":76561198047673765,"connected_time":1716000000000,"state":"active","ping":157},{"user_id":667,"name":"stun","steam_id":76561198276681691,"connected_time":1060000000000,"state":"active","ping":47},{"user_id":660,"name":"Macro","steam_id":76561199442846226,"connected_time":1605000000000,"state":"active","ping":168},{"user_id":668,"name":"Karla","steam_id":76561198118584476,"connected_time":1059000000000,"state":"active","ping":55},{"user_id":561,"name":"Julius Caesar","steam_id":76561199105553271,"connected_time":7512000000000,"state":"active","ping":93},{"user_id":680,"name":"psyko lunatic","steam_id":76561198213759580,"connected_time":322000000000,"state":"active","ping":45}]},{"server_id":321,"name":"Uncletopia | London | 4 | All Maps","name_short":"lon-4","host":"lon-1.uk.uncletopia.com","port":27045,"enabled":true,"region":"eu","cc":"gb","latitude":51.509865,"longitude":-0.118092,"reserved":0,"last_update":"0001-01-01T00:00:00Z","name_a2s":"Uncletopia | London | 4 | All Maps","protocol":17,"map":"koth_harvest_final","folder":"tf","game":"Team Fortress","app_id":440,"player_count":3,"max_players":24,"Bots":0,"server_type":"Dedicated","server_os":"Linux","password":true,"vac":true,"version":"7757534","steam_id":85568392924510193,"keywords":["cp","nocrits","nodmgspread","uncletopia"],"game_id":440,"stv_port":27046,"stv_name":"Uncletopia | London | 4 | All Maps | STV","players":[{"user_id":73,"name":"Psyche","steam_id":76561198091662001,"connected_time":3910000000000,"state":"active","ping":67},{"user_id":77,"name":"katana on the trains","steam_id":76561198202464032,"connected_time":73000000000,"state":"active","ping":58},{"user_id":56,"name":"Nyhde","steam_id":76561198012771416,"connected_time":17941000000000,"state":"active","ping":113}]},{"server_id":21,"name":"Uncletopia | London | 5 | All Maps","name_short":"lon-5","host":"lon-1.uk.uncletopia.com","port":27055,"enabled":true,"region":"eu","cc":"gb","latitude":51.509865,"longitude":-0.118092,"reserved":0,"last_update":"0001-01-01T00:00:00Z","name_a2s":"Uncletopia | London | 5 | All Maps","protocol":17,"map":"cp_snakewater_final1","folder":"tf","game":"Team Fortress","app_id":440,"player_count":0,"max_players":24,"Bots":0,"server_type":"Dedicated","server_os":"Linux","password":true,"vac":true,"version":"7757534","steam_id":85568392924742829,"keywords":["cp","nocrits","nodmgspread","uncletopia"],"game_id":440,"stv_port":27056,"stv_name":"Uncletopia | London | 5 | All Maps | STV","players":null},{"server_id":22,"name":"Uncletopia | London | 6 | All Maps","name_short":"lon-6","host":"lon-1.uk.uncletopia.com","port":27065,"enabled":true,"region":"eu","cc":"gb","latitude":51.509865,"longitude":-0.118092,"reserved":0,"last_update":"0001-01-01T00:00:00Z","name_a2s":"Uncletopia | London | 6 | All Maps","protocol":17,"map":"koth_highpass","folder":"tf","game":"Team Fortress","app_id":440,"player_count":0,"max_players":24,"Bots":0,"server_type":"Dedicated","server_os":"Linux","password":true,"vac":true,"version":"7757534","steam_id":85568392924742830,"keywords":["cp","nocrits","nodmgspread","uncletopia"],"game_id":440,"stv_port":27066,"stv_name":"Uncletopia | London | 6 | All Maps | STV","players":null},{"server_id":40,"name":"Uncletopia | London | 7 | No Payload","name_short":"lon-7","host":"lon-1.uk.uncletopia.com","port":27075,"enabled":true,"region":"eu","cc":"gb","latitude":51.509865,"longitude":-0.118092,"reserved":0,"last_update":"0001-01-01T00:00:00Z","name_a2s":"Uncletopia | London | 7 | No Payload","protocol":17,"map":"cp_sunshine","folder":"tf","game":"Team Fortress","app_id":440,"player_count":0,"max_players":24,"Bots":0,"server_type":"Dedicated","server_os":"Linux","password":true,"vac":true,"version":"7757534","steam_id":85568392924964314,"keywords":["cp","nocrits","nodmgspread","uncletopia"],"game_id":440,"stv_port":27076,"stv_name":"Uncletopia | London | 7 | No Payload | STV","players":null},{"server_id":41,"name":"Uncletopia | London | 8 | Community","name_short":"lon-8","host":"lon-1.uk.uncletopia.com","port":27085,"enabled":true,"region":"eu","cc":"gb","latitude":51.509865,"longitude":-0.118092,"reserved":0,"last_update":"0001-01-01T00:00:00Z","name_a2s":"Uncletopia | London | 8 | Community","protocol":17,"map":"workshop/koth_ramjam_rc1.ugc459778887","folder":"tf","game":"Team Fortress","app_id":440,"player_count":0,"max_players":24,"Bots":0,"server_type":"Dedicated","server_os":"Linux","password":true,"vac":true,"version":"7757534","steam_id":85568392924964315,"keywords":["cp","nocrits","nodmgspread","uncletopia"],"game_id":440,"stv_port":27086,"stv_name":"Uncletopia | London | 8 | Community | STV","players":null},{"server_id":300,"name":"Uncletopia | MontrÃ©al | 1 | All Maps","name_short":"mtl-1","host":"mtl-1.ca.uncletopia.com","port":27015,"enabled":true,"region":"us-east","cc":"ca","latitude":45.50889,"longitude":-73.56167,"reserved":0,"last_update":"0001-01-01T00:00:00Z","name_a2s":"Uncletopia | MontrÃ©al | 1 | All Maps","protocol":17,"map":"pl_snowycoast","folder":"tf","game":"Team Fortress","app_id":440,"player_count":24,"max_players":24,"Bots":0,"server_type":"Dedicated","server_os":"Linux","password":true,"vac":true,"version":"7757534","steam_id":85568392924500087,"keywords":["nocrits","nodmgspread","payload","uncletopia"],"game_id":440,"stv_port":27016,"stv_name":"Uncletopia | MontrÃ©al | 1 | All Maps | STV","players":[{"user_id":164,"name":"still bad at video games","steam_id":76561198328675913,"connected_time":4624000000000,"state":"active","ping":119},{"user_id":182,"name":"GRIM GAMING","steam_id":76561198107491637,"connected_time":2140000000000,"state":"active","ping":72},{"user_id":196,"name":"ã‚¯ãƒ¬ã‚ªãƒ©","steam_id":76561198000830794,"connected_time":1153000000000,"state":"active","ping":104},{"user_id":199,"name":"Grandpa Baozhai","steam_id":76561198086667725,"connected_time":770000000000,"state":"active","ping":133},{"user_id":188,"name":"wesker can hit it tbh","steam_id":76561197968351430,"connected_time":1950000000000,"state":"active","ping":117},{"user_id":189,"name":"Fiendish Frog","steam_id":76561198029478821,"connected_time":1928000000000,"state":"active","ping":59},{"user_id":201,"name":"dingding2","steam_id":76561198278895127,"connected_time":553000000000,"state":"active","ping":55},{"user_id":197,"name":"thanks pfizer","steam_id":76561198881665250,"connected_time":821000000000,"state":"active","ping":117},{"user_id":190,"name":"DiscoTraveler","steam_id":76561199240168088,"connected_time":1874000000000,"state":"active","ping":56},{"user_id":191,"name":"TheChickenChuck","steam_id":76561199192686708,"connected_time":1869000000000,"state":"active","ping":81},{"user_id":192,"name":"[DEEP] Roz257","steam_id":76561198842844532,"connected_time":1863000000000,"state":"active","ping":57},{"user_id":179,"name":"dicksouls26","steam_id":76561198838196266,"connected_time":2860000000000,"state":"active","ping":56},{"user_id":200,"name":"read umineko","steam_id":76561198035288369,"connected_time":764000000000,"state":"active","ping":79},{"user_id":176,"name":"PCR","steam_id":76561198048748102,"connected_time":3107000000000,"state":"active","ping":65},{"user_id":181,"name":"10 rule","steam_id":76561198125261443,"connected_time":2386000000000,"state":"active","ping":129},{"user_id":202,"name":"God's not dead, I am.","steam_id":76561198840484105,"connected_time":513000000000,"state":"active","ping":76},{"user_id":160,"name":"The Drunk Clown","steam_id":76561197986850426,"connected_time":4893000000000,"state":"active","ping":51},{"user_id":198,"name":"Trailminer","steam_id":76561198312663785,"connected_time":796000000000,"state":"active","ping":90},{"user_id":170,"name":"Rythmitic","steam_id":76561198137198932,"connected_time":4107000000000,"state":"active","ping":309},{"user_id":178,"name":"lynt","steam_id":76561198988333976,"connected_time":2889000000000,"state":"active","ping":60},{"user_id":165,"name":"Chuck Pickle","steam_id":76561197998230866,"connected_time":4491000000000,"state":"active","ping":58},{"user_id":205,"name":"Forklift Certified Cat Girl","steam_id":76561198072555204,"connected_time":313000000000,"state":"active","ping":63},{"user_id":130,"name":"Tough Puffin","steam_id":76561198024011010,"connected_time":7147000000000,"state":"active","ping":67},{"user_id":162,"name":"Monsieur Hon Hon","steam_id":76561198023120057,"connected_time":4840000000000,"state":"active","ping":72}]},{"server_id":301,"name":"Uncletopia | MontrÃ©al | 2 | All Maps","name_short":"mtl-2","host":"mtl-1.ca.uncletopia.com","port":27025,"enabled":true,"region":"us-east","cc":"ca","latitude":45.50889,"longitude":-73.56167,"reserved":0,"last_update":"0001-01-01T00:00:00Z","name_a2s":"Uncletopia | MontrÃ©al | 2 | All Maps","protocol":17,"map":"pl_pier","folder":"tf","game":"Team Fortress","app_id":440,"player_count":24,"max_players":24,"Bots":0,"server_type":"Dedicated","server_os":"Linux","password":true,"vac":true,"version":"7757534","steam_id":85568392924500088,"keywords":["nocrits","nodmgspread","payload","uncletopia"],"game_id":440,"stv_port":27026,"stv_name":"Uncletopia | MontrÃ©al | 2 | All Maps | STV","players":[{"user_id":146,"name":"kentucky fried beef","steam_id":76561199087141206,"connected_time":769000000000,"state":"active","ping":137},{"user_id":149,"name":"Jamie Hyneman","steam_id":76561199196036481,"connected_time":549000000000,"state":"active","ping":100},{"user_id":139,"name":"kametro4","steam_id":76561198835430429,"connected_time":1187000000000,"state":"active","ping":77},{"user_id":145,"name":"Kago","steam_id":76561198122617301,"connected_time":891000000000,"state":"active","ping":55},{"user_id":167,"name":"Riske","steam_id":76561198115840568,"connected_time":151000000000,"state":"active","ping":86},{"user_id":150,"name":"totally not a pile of beans","steam_id":76561198119851931,"connected_time":497000000000,"state":"active","ping":81},{"user_id":168,"name":"Flashtasm","steam_id":76561198026635660,"connected_time":92000000000,"state":"active","ping":57},{"user_id":151,"name":"Scheduled Program","steam_id":76561198196911453,"connected_time":489000000000,"state":"active","ping":74},{"user_id":169,"name":"Slashes","steam_id":76561197968573499,"connected_time":84000000000,"state":"active","ping":47},{"user_id":152,"name":"smyers","steam_id":76561198189476114,"connected_time":482000000000,"state":"active","ping":72},{"user_id":153,"name":"Fiwi","steam_id":76561198961051367,"connected_time":458000000000,"state":"active","ping":52},{"user_id":130,"name":"loco503","steam_id":76561198827495121,"connected_time":1916000000000,"state":"active","ping":123},{"user_id":154,"name":"canadian boy (derogatory)","steam_id":76561198812820921,"connected_time":450000000000,"state":"active","ping":99},{"user_id":155,"name":"DigitLuck","steam_id":76561199222376379,"connected_time":413000000000,"state":"active","ping":59},{"user_id":156,"name":"[ 7 ]","steam_id":76561199229668733,"connected_time":363000000000,"state":"active","ping":58},{"user_id":166,"name":"All Tomorrow's Parties","steam_id":76561197995936212,"connected_time":242000000000,"state":"active","ping":59},{"user_id":141,"name":"Wiener Hole Paper Cut","steam_id":76561198000808203,"connected_time":1052000000000,"state":"active","ping":68},{"user_id":158,"name":"supcupman","steam_id":76561198051513866,"connected_time":335000000000,"state":"active","ping":125},{"user_id":159,"name":"BreadGod","steam_id":76561198050665205,"connected_time":327000000000,"state":"active","ping":59},{"user_id":160,"name":"Squid's","steam_id":76561198826820952,"connected_time":317000000000,"state":"active","ping":47},{"user_id":162,"name":"baby sensory videos","steam_id":76561198085762430,"connected_time":296000000000,"state":"active","ping":77},{"user_id":163,"name":"Great Chinaman","steam_id":76561198409907417,"connected_time":293000000000,"state":"active","ping":131},{"user_id":164,"name":"pipebombrater","steam_id":76561199029030831,"connected_time":283000000000,"state":"active","ping":78},{"user_id":165,"name":"Omega4D2","steam_id":76561198044097128,"connected_time":268000000000,"state":"active","ping":58}]},{"server_id":302,"name":"Uncletopia | MontrÃ©al | 3 | All Maps","name_short":"mtl-3","host":"mtl-1.ca.uncletopia.com","port":27035,"enabled":true,"region":"us-east","cc":"ca","latitude":45.50889,"longitude":-73.56167,"reserved":0,"last_update":"0001-01-01T00:00:00Z","name_a2s":"Uncletopia | MontrÃ©al | 3 | All Maps","protocol":17,"map":"cp_sunshine","folder":"tf","game":"Team Fortress","app_id":440,"player_count":0,"max_players":24,"Bots":0,"server_type":"Dedicated","server_os":"Linux","password":true,"vac":true,"version":"7757534","steam_id":85568392924500089,"keywords":["cp","nocrits","nodmgspread","uncletopia"],"game_id":440,"stv_port":27036,"stv_name":"Uncletopia | MontrÃ©al | 3 | All Maps | STV","players":null},{"server_id":303,"name":"Uncletopia | MontrÃ©al | 4 | No Payload","name_short":"mtl-4","host":"mtl-1.ca.uncletopia.com","port":27045,"enabled":true,"region":"us-east","cc":"ca","latitude":45.50889,"longitude":-73.56167,"reserved":0,"last_update":"0001-01-01T00:00:00Z","name_a2s":"Uncletopia | MontrÃ©al | 4 | No Payload","protocol":17,"map":"plr_pipeline","folder":"tf","game":"Team Fortress","app_id":440,"player_count":0,"max_players":24,"Bots":0,"server_type":"Dedicated","server_os":"Linux","password":true,"vac":true,"version":"7757534","steam_id":85568392924500090,"keywords":["nocrits","nodmgspread","payload","uncletopia"],"game_id":440,"stv_port":27046,"stv_name":"Uncletopia | MontrÃ©al | 4 | No Payload | STV","players":null},{"server_id":13,"name":"Uncletopia | New York City | 1 | All Maps","name_short":"nyc-1","host":"nyc-1.us.uncletopia.com","port":27015,"enabled":true,"region":"us-east","cc":"us","latitude":40.73061,"longitude":-73.93524,"reserved":0,"last_update":"0001-01-01T00:00:00Z","name_a2s":"Uncletopia | New York City | 1 | All Maps","protocol":17,"map":"pl_barnblitz","folder":"tf","game":"Team Fortress","app_id":440,"player_count":24,"max_players":24,"Bots":0,"server_type":"Dedicated","server_os":"Linux","password":true,"vac":true,"version":"7757534","steam_id":85568392924469993,"keywords":["nocrits","nodmgspread","payload","uncletopia"],"game_id":440,"stv_port":27016,"stv_name":"Uncletopia | New York City | 1 | All Maps | STV","players":[{"user_id":299,"name":"Pizza","steam_id":76561198118748364,"connected_time":4097000000000,"state":"active","ping":74},{"user_id":350,"name":"Malex","steam_id":76561198012216805,"connected_time":85000000000,"state":"active","ping":57},{"user_id":352,"name":"Phyre112","steam_id":76561198064367510,"connected_time":58000000000,"state":"spawning","ping":111},{"user_id":336,"name":"The Blood Starved Beast","steam_id":76561198067879051,"connected_time":1317000000000,"state":"active","ping":162},{"user_id":324,"name":"ObsessedNerd505","steam_id":76561199045531456,"connected_time":1430000000000,"state":"active","ping":64},{"user_id":351,"name":"Eel God","steam_id":76561198109037147,"connected_time":81000000000,"state":"active","ping":70},{"user_id":326,"name":"jeremimi","steam_id":76561198818225102,"connected_time":1403000000000,"state":"active","ping":116},{"user_id":327,"name":"Vivid Hut 64","steam_id":76561198170050059,"connected_time":1397000000000,"state":"active","ping":59},{"user_id":328,"name":"Spherigon","steam_id":76561198149867606,"connected_time":1395000000000,"state":"active","ping":75},{"user_id":329,"name":"Eris The Undaunted","steam_id":76561198821557286,"connected_time":1387000000000,"state":"active","ping":114},{"user_id":331,"name":"ikids3","steam_id":76561198148982351,"connected_time":1375000000000,"state":"active","ping":69},{"user_id":332,"name":"Fluff","steam_id":76561198255399052,"connected_time":1348000000000,"state":"active","ping":75},{"user_id":333,"name":"Just-Some-Menace","steam_id":76561198152324397,"connected_time":1327000000000,"state":"active","ping":73},{"user_id":337,"name":"DerpyMustache","steam_id":76561198143390351,"connected_time":1309000000000,"state":"active","ping":41},{"user_id":335,"name":"Chapter Master","steam_id":76561198799698323,"connected_time":1320000000000,"state":"active","ping":131},{"user_id":344,"name":"coal","steam_id":76561198027252280,"connected_time":1052000000000,"state":"active","ping":60},{"user_id":348,"name":"Raisin Bran","steam_id":76561199091250844,"connected_time":889000000000,"state":"active","ping":73},{"user_id":353,"name":"floyd","steam_id":76561198172453443,"connected_time":38000000000,"state":"active","ping":61},{"user_id":341,"name":"Cassius Money","steam_id":76561197979696414,"connected_time":1236000000000,"state":"active","ping":70},{"user_id":342,"name":"xxballfondlerxx","steam_id":76561197991546630,"connected_time":1207000000000,"state":"active","ping":71},{"user_id":343,"name":"dailyspesh","steam_id":76561197988072369,"connected_time":1181000000000,"state":"active","ping":101},{"user_id":298,"name":"Marshall","steam_id":76561198042570322,"connected_time":4207000000000,"state":"active","ping":74},{"user_id":349,"name":"quinn","steam_id":76561199187747394,"connected_time":337000000000,"state":"active","ping":57},{"user_id":302,"name":"Autogyro","steam_id":76561198047943679,"connected_time":3711000000000,"state":"active","ping":79}]},{"server_id":14,"name":"Uncletopia | New York City | 2 | All Maps","name_short":"nyc-2","host":"nyc-1.us.uncletopia.com","port":27025,"enabled":true,"region":"us-east","cc":"us","latitude":40.73061,"longitude":-73.93524,"reserved":0,"last_update":"0001-01-01T00:00:00Z","name_a2s":"Uncletopia | New York City | 2 | All Maps","protocol":17,"map":"pl_snowycoast","folder":"tf","game":"Team Fortress","app_id":440,"player_count":24,"max_players":24,"Bots":0,"server_type":"Dedicated","server_os":"Linux","password":true,"vac":true,"version":"7757534","steam_id":85568392924469994,"keywords":["nocrits","nodmgspread","payload","uncletopia"],"game_id":440,"stv_port":27026,"stv_name":"Uncletopia | New York City | 2 | All Maps | STV","players":[{"user_id":746,"name":"Sir Quacksalot","steam_id":76561198048942777,"connected_time":5228000000000,"state":"active","ping":87},{"user_id":783,"name":"Fly_Johnson","steam_id":76561198882285873,"connected_time":1336000000000,"state":"active","ping":46},{"user_id":788,"name":"Lawtumn","steam_id":76561198347286009,"connected_time":1145000000000,"state":"active","ping":61},{"user_id":777,"name":"what","steam_id":76561198082336619,"connected_time":2313000000000,"state":"active","ping":58},{"user_id":767,"name":"AyEasyEngie","steam_id":76561198856769712,"connected_time":3354000000000,"state":"active","ping":83},{"user_id":773,"name":"Antifa Alligator","steam_id":76561197988170816,"connected_time":2564000000000,"state":"active","ping":80},{"user_id":678,"name":"DerpyTC","steam_id":76561198881239323,"connected_time":9643000000000,"state":"active","ping":78},{"user_id":794,"name":"The Depressed John","steam_id":76561198148193895,"connected_time":131000000000,"state":"active","ping":61},{"user_id":789,"name":"saurhead","steam_id":76561198132937722,"connected_time":692000000000,"state":"active","ping":45},{"user_id":771,"name":"Mika  Laakso","steam_id":76561198115035132,"connected_time":2590000000000,"state":"active","ping":75},{"user_id":776,"name":"Sprinklingmydoughnut","steam_id":76561198168009092,"connected_time":2362000000000,"state":"active","ping":84},{"user_id":778,"name":"Dill","steam_id":76561197995325198,"connected_time":2139000000000,"state":"active","ping":86},{"user_id":766,"name":"RÌ·iÌ·sÌ·oÌ·tÌ·tÌ·oÌ·","steam_id":76561198090271815,"connected_time":3478000000000,"state":"active","ping":121},{"user_id":744,"name":"Braamklauw","steam_id":76561198283287697,"connected_time":5249000000000,"state":"active","ping":141},{"user_id":769,"name":"Venezia","steam_id":76561197994107407,"connected_time":3333000000000,"state":"active","ping":45},{"user_id":770,"name":"Bad News Panda","steam_id":76561197993327110,"connected_time":3105000000000,"state":"active","ping":46},{"user_id":785,"name":"MAXIMUS","steam_id":76561198085809453,"connected_time":1330000000000,"state":"active","ping":79},{"user_id":791,"name":"Ascended SoS","steam_id":76561198123441203,"connected_time":650000000000,"state":"active","ping":73},{"user_id":772,"name":"Emata","steam_id":76561198020321209,"connected_time":2588000000000,"state":"active","ping":58},{"user_id":786,"name":"Chopped Season 13 Episode 8","steam_id":76561198140933445,"connected_time":1300000000000,"state":"active","ping":84},{"user_id":751,"name":"Magenta Feline","steam_id":76561198293804468,"connected_time":4972000000000,"state":"active","ping":55},{"user_id":793,"name":"Thot Police","steam_id":76561198084299100,"connected_time":169000000000,"state":"active","ping":61},{"user_id":782,"name":"Ä 1 â™¦ Synth","steam_id":76561198058660228,"connected_time":1945000000000,"state":"active","ping":73},{"user_id":790,"name":"Lyritt","steam_id":76561198078455910,"connected_time":678000000000,"state":"active","ping":89}]},{"server_id":15,"name":"Uncletopia | New York City | 3 | Stopwatch Beta","name_short":"nyc-3","host":"nyc-1.us.uncletopia.com","port":27035,"enabled":true,"region":"us-east","cc":"us","latitude":40.73061,"longitude":-73.93524,"reserved":0,"last_update":"0001-01-01T00:00:00Z","name_a2s":"Uncletopia | New York City | 3 | Stopwatch Beta","protocol":17,"map":"workshop/cp_process_f12.ugc2302948105","folder":"tf","game":"Team Fortress","app_id":440,"player_count":0,"max_players":24,"Bots":0,"server_type":"Dedicated","server_os":"Linux","password":true,"vac":true,"version":"7757534","steam_id":85568392924742820,"keywords":["cp","nocrits","nodmgspread","uncletopia"],"game_id":440,"stv_port":27036,"stv_name":"Uncletopia | New York City | 3 | Stopwatch Beta | STV","players":null},{"server_id":16,"name":"Uncletopia | New York City | 4 | Community","name_short":"nyc-4","host":"nyc-1.us.uncletopia.com","port":27045,"enabled":true,"region":"us-east","cc":"us","latitude":40.73061,"longitude":-73.93524,"reserved":0,"last_update":"0001-01-01T00:00:00Z","name_a2s":"Uncletopia | New York City | 4 | Community","protocol":17,"map":"workshop/koth_bagel_rc6.ugc2514036946","folder":"tf","game":"Team Fortress","app_id":440,"player_count":0,"max_players":24,"Bots":0,"server_type":"Dedicated","server_os":"Linux","password":true,"vac":true,"version":"7757534","steam_id":85568392924742821,"keywords":["cp","nocrits","nodmgspread","uncletopia"],"game_id":440,"stv_port":27046,"stv_name":"Uncletopia | New York City | 4 | Community | STV","players":null},{"server_id":142,"name":"Uncletopia | SÃ£o Paulo | 1 | All Maps","name_short":"sao-1","host":"sao-1.br.uncletopia.com","port":27015,"enabled":true,"region":"sa","cc":"br","latitude":-23.533773,"longitude":-46.62529,"reserved":0,"last_update":"0001-01-01T00:00:00Z","name_a2s":"Uncletopia | SÃ£o Paulo | 1 | All Maps","protocol":17,"map":"cp_snakewater_final1","folder":"tf","game":"Team Fortress","app_id":440,"player_count":0,"max_players":24,"Bots":0,"server_type":"Dedicated","server_os":"Linux","password":true,"vac":true,"version":"7757534","steam_id":85568392924469996,"keywords":["cp","nocrits","nodmgspread","uncletopia"],"game_id":440,"stv_port":27016,"stv_name":"Uncletopia | SÃ£o Paulo | 1 | All Maps | STV","players":null},{"server_id":143,"name":"Uncletopia | SÃ£o Paulo | 2 | All Maps","name_short":"sao-2","host":"sao-2.br.uncletopia.com","port":27015,"enabled":true,"region":"sa","cc":"br","latitude":-23.533773,"longitude":-46.62529,"reserved":0,"last_update":"0001-01-01T00:00:00Z","name_a2s":"Uncletopia | SÃ£o Paulo | 2 | All Maps","protocol":17,"map":"pl_frontier_final","folder":"tf","game":"Team Fortress","app_id":440,"player_count":0,"max_players":24,"Bots":0,"server_type":"Dedicated","server_os":"Linux","password":true,"vac":true,"version":"7757534","steam_id":85568392924485349,"keywords":["nocrits","nodmgspread","payload","uncletopia"],"game_id":440,"stv_port":27016,"stv_name":"Uncletopia | SÃ£o Paulo | 2 | All Maps | STV","players":null},{"server_id":7,"name":"Uncletopia | Seattle | 1 | All Maps","name_short":"sea-1","host":"sea-1.us.uncletopia.com","port":27015,"enabled":true,"region":"us-west","cc":"us","latitude":47.608013,"longitude":-122.33517,"reserved":0,"last_update":"0001-01-01T00:00:00Z","name_a2s":"Uncletopia | Seattle | 1 | All Maps","protocol":17,"map":"pl_snowycoast","folder":"tf","game":"Team Fortress","app_id":440,"player_count":24,"max_players":24,"Bots":0,"server_type":"Dedicated","server_os":"Linux","password":true,"vac":true,"version":"7757534","steam_id":85568392924469997,"keywords":["nocrits","nodmgspread","payload","uncletopia"],"game_id":440,"stv_port":27016,"stv_name":"Uncletopia | Seattle | 1 | All Maps | STV","players":[{"user_id":449,"name":"big car","steam_id":76561198067082350,"connected_time":1526000000000,"state":"active","ping":84},{"user_id":266,"name":"Dunkle","steam_id":76561198041903573,"connected_time":14778000000000,"state":"active","ping":43},{"user_id":402,"name":"Llynch21","steam_id":76561197968784663,"connected_time":5239000000000,"state":"active","ping":137},{"user_id":437,"name":"Celia [ +/- ] âœ”","steam_id":76561198067164431,"connected_time":2925000000000,"state":"active","ping":63},{"user_id":460,"name":"Dilo","steam_id":76561198799078414,"connected_time":139000000000,"state":"active","ping":96},{"user_id":461,"name":"Maniac Hat","steam_id":76561199082942851,"connected_time":137000000000,"state":"active","ping":120},{"user_id":455,"name":"flowstate","steam_id":76561198095480838,"connected_time":558000000000,"state":"active","ping":47},{"user_id":445,"name":"Amish Supremacist","steam_id":76561198396181197,"connected_time":2344000000000,"state":"active","ping":126},{"user_id":462,"name":"Scoliosis King","steam_id":76561199143329892,"connected_time":111000000000,"state":"active","ping":57},{"user_id":459,"name":"needle_","steam_id":76561199152845426,"connected_time":170000000000,"state":"active","ping":95},{"user_id":425,"name":"Adobe Premiere","steam_id":76561198411025724,"connected_time":3835000000000,"state":"active","ping":99},{"user_id":453,"name":"WACKY JIM","steam_id":76561198961641122,"connected_time":1101000000000,"state":"active","ping":59},{"user_id":368,"name":"MinusSoup918","steam_id":76561198060902773,"connected_time":7401000000000,"state":"active","ping":98},{"user_id":358,"name":"BolognaWithOlives","steam_id":76561198101262668,"connected_time":8532000000000,"state":"active","ping":83},{"user_id":463,"name":"TrustMeILie","steam_id":76561199089990183,"connected_time":102000000000,"state":"active","ping":94},{"user_id":438,"name":"Killer_Bite_","steam_id":76561198153259922,"connected_time":2884000000000,"state":"active","ping":71},{"user_id":422,"name":"doopsies","steam_id":76561198083000867,"connected_time":3993000000000,"state":"active","ping":48},{"user_id":458,"name":"a Goofy Goober","steam_id":76561199396787833,"connected_time":327000000000,"state":"active","ping":59},{"user_id":456,"name":"Crake","steam_id":76561198001959071,"connected_time":514000000000,"state":"active","ping":61},{"user_id":414,"name":"MonteJT","steam_id":76561198055409360,"connected_time":4447000000000,"state":"active","ping":52},{"user_id":454,"name":"Vacc Onetrick","steam_id":76561198207987376,"connected_time":619000000000,"state":"active","ping":104},{"user_id":452,"name":"--)YawgMoss(-- \"The Salt\"","steam_id":76561198072971649,"connected_time":1424000000000,"state":"active","ping":66},{"user_id":400,"name":"Enchanced","steam_id":76561198797393854,"connected_time":5653000000000,"state":"active","ping":51},{"user_id":457,"name":"JohnnyBoi","steam_id":76561199082599937,"connected_time":419000000000,"state":"active","ping":85}]},{"server_id":119,"name":"Uncletopia | Seattle | 2 | All Maps","name_short":"sea-2","host":"sea-1.us.uncletopia.com","port":27025,"enabled":true,"region":"us-west","cc":"us","latitude":47.608013,"longitude":-122.33517,"reserved":0,"last_update":"0001-01-01T00:00:00Z","name_a2s":"Uncletopia | Seattle | 2 | All Maps","protocol":17,"map":"pl_upward","folder":"tf","game":"Team Fortress","app_id":440,"player_count":24,"max_players":24,"Bots":0,"server_type":"Dedicated","server_os":"Linux","password":true,"vac":true,"version":"7757534","steam_id":85568392924469998,"keywords":["nocrits","nodmgspread","payload","uncletopia"],"game_id":440,"stv_port":27026,"stv_name":"Uncletopia | Seattle | 2 | All Maps | STV","players":[{"user_id":542,"name":"Weed Dealer","steam_id":76561198418604400,"connected_time":6514000000000,"state":"active","ping":53},{"user_id":626,"name":"Jimbo","steam_id":76561198208426085,"connected_time":87000000000,"state":"active","ping":106},{"user_id":541,"name":"Creature","steam_id":76561198194585781,"connected_time":6522000000000,"state":"active","ping":92},{"user_id":595,"name":"happer","steam_id":76561198018252253,"connected_time":3725000000000,"state":"active","ping":74},{"user_id":607,"name":"Keamy","steam_id":76561199471434875,"connected_time":2323000000000,"state":"active","ping":35},{"user_id":620,"name":"trackpad gaming | f2p","steam_id":76561198840414371,"connected_time":369000000000,"state":"active","ping":45},{"user_id":554,"name":"Jasmine Rice","steam_id":76561198163163590,"connected_time":5813000000000,"state":"active","ping":72},{"user_id":614,"name":"keithykeithers","steam_id":76561197995552615,"connected_time":1800000000000,"state":"active","ping":50},{"user_id":594,"name":"IntravenusDeMilo","steam_id":76561197970629020,"connected_time":3767000000000,"state":"active","ping":44},{"user_id":503,"name":"Digitic","steam_id":76561198080295536,"connected_time":8740000000000,"state":"active","ping":122},{"user_id":623,"name":"BasedGod","steam_id":76561198061177973,"connected_time":257000000000,"state":"active","ping":60},{"user_id":606,"name":"soup","steam_id":76561198043209046,"connected_time":2866000000000,"state":"active","ping":75},{"user_id":611,"name":"Copy","steam_id":76561198025031590,"connected_time":2274000000000,"state":"active","ping":55},{"user_id":574,"name":"DoubleX2000","steam_id":76561198164134387,"connected_time":4966000000000,"state":"active","ping":71},{"user_id":618,"name":"Adobe Photoshop","steam_id":76561198840524987,"connected_time":1460000000000,"state":"active","ping":152},{"user_id":592,"name":"how do i control my guy?","steam_id":76561198158855211,"connected_time":3836000000000,"state":"active","ping":48},{"user_id":622,"name":"Default Avatar","steam_id":76561198357834716,"connected_time":325000000000,"state":"active","ping":69},{"user_id":596,"name":"jimmy outlaw","steam_id":76561198070380402,"connected_time":3720000000000,"state":"active","ping":107},{"user_id":628,"name":"Weeb","steam_id":76561198935795395,"connected_time":68000000000,"state":"active","ping":97},{"user_id":625,"name":"doobie the hutt","steam_id":76561198088873640,"connected_time":189000000000,"state":"active","ping":53},{"user_id":624,"name":"Amateur Glaswegian","steam_id":76561198030851956,"connected_time":238000000000,"state":"active","ping":45},{"user_id":603,"name":"Sal In Haiti","steam_id":76561198055452939,"connected_time":3071000000000,"state":"active","ping":88},{"user_id":573,"name":"Error_404","steam_id":76561198163074047,"connected_time":5056000000000,"state":"active","ping":77},{"user_id":588,"name":"eau:","steam_id":76561198110020262,"connected_time":4227000000000,"state":"active","ping":74}]},{"server_id":406,"name":"Uncletopia | Seattle | 3 | Stopwatch Beta","name_short":"sea-3","host":"sea-1.us.uncletopia.com","port":27035,"enabled":true,"region":"us-west","cc":"us","latitude":47.608013,"longitude":-122.33517,"reserved":0,"last_update":"0001-01-01T00:00:00Z","name_a2s":"Uncletopia | Seattle | 3 | Stopwatch Beta","protocol":17,"map":"workshop/cp_reckoner_rc6.ugc674719999","folder":"tf","game":"Team Fortress","app_id":440,"player_count":5,"max_players":24,"Bots":0,"server_type":"Dedicated","server_os":"Linux","password":true,"vac":true,"version":"7757534","steam_id":85568392924515217,"keywords":["cp","nocrits","nodmgspread","uncletopia"],"game_id":440,"stv_port":27036,"stv_name":"Uncletopia | Seattle | 3 | Stopwatch Beta | STV","players":[{"user_id":66,"name":"Darakrish","steam_id":76561198133126686,"connected_time":56000000000,"state":"active","ping":199},{"user_id":56,"name":"Green Cumulon","steam_id":76561198142332110,"connected_time":668000000000,"state":"active","ping":45},{"user_id":63,"name":"Villchip","steam_id":76561198198599982,"connected_time":219000000000,"state":"active","ping":50},{"user_id":65,"name":"Most Powerfulest Gamer","steam_id":76561198045233127,"connected_time":192000000000,"state":"active","ping":49},{"user_id":50,"name":"Thequirka","steam_id":76561198968058652,"connected_time":946000000000,"state":"active","ping":44}]},{"server_id":17,"name":"Uncletopia | San Francisco | 1 | All Maps","name_short":"sfo-1","host":"sfo-1.us.uncletopia.com","port":27015,"enabled":true,"region":"us-west","cc":"us","latitude":37.77397,"longitude":-122.4313,"reserved":0,"last_update":"0001-01-01T00:00:00Z","name_a2s":"Uncletopia | San Francisco | 1 | All Maps","protocol":17,"map":"pl_badwater","folder":"tf","game":"Team Fortress","app_id":440,"player_count":24,"max_players":24,"Bots":0,"server_type":"Dedicated","server_os":"Linux","password":true,"vac":true,"version":"7757534","steam_id":85568392924469999,"keywords":["nocrits","nodmgspread","payload","uncletopia"],"game_id":440,"stv_port":27016,"stv_name":"Uncletopia | San Francisco | 1 | All Maps | STV","players":[{"user_id":507,"name":"Mysteryred12","steam_id":76561199206772814,"connected_time":264000000000,"state":"active","ping":75},{"user_id":478,"name":"Not Crow","steam_id":76561199002672790,"connected_time":3088000000000,"state":"active","ping":44},{"user_id":509,"name":"Saggy","steam_id":76561198166706479,"connected_time":204000000000,"state":"active","ping":115},{"user_id":503,"name":"Delta","steam_id":76561198021957971,"connected_time":941000000000,"state":"active","ping":46},{"user_id":500,"name":"Moe","steam_id":76561198022368062,"connected_time":1238000000000,"state":"active","ping":124},{"user_id":510,"name":"l8rsxx","steam_id":76561198803030993,"connected_time":198000000000,"state":"active","ping":135},{"user_id":480,"name":"Ashannabuda","steam_id":76561198129552058,"connected_time":3081000000000,"state":"active","ping":79},{"user_id":468,"name":"Psychosis","steam_id":76561198078659070,"connected_time":4169000000000,"state":"active","ping":117},{"user_id":513,"name":"â­•âƒ¤ POOPOO","steam_id":76561198167594968,"connected_time":18000000000,"state":"active","ping":70},{"user_id":506,"name":"DRISZI","steam_id":76561198209217272,"connected_time":365000000000,"state":"active","ping":71},{"user_id":466,"name":"shawarma.lord007","steam_id":76561198115458307,"connected_time":4362000000000,"state":"active","ping":60},{"user_id":499,"name":"kitarooni","steam_id":76561197995012442,"connected_time":1242000000000,"state":"active","ping":99},{"user_id":512,"name":"â­•âƒ¤ PP","steam_id":76561198317338045,"connected_time":175000000000,"state":"active","ping":92},{"user_id":486,"name":"no step on snek","steam_id":76561197991645400,"connected_time":3021000000000,"state":"active","ping":126},{"user_id":501,"name":"Cambridge 1969","steam_id":76561199031241776,"connected_time":1232000000000,"state":"active","ping":87},{"user_id":505,"name":"Jykle","steam_id":76561198077352807,"connected_time":370000000000,"state":"active","ping":119},{"user_id":496,"name":"psychic","steam_id":76561198136301926,"connected_time":1750000000000,"state":"active","ping":59},{"user_id":508,"name":"yolginmo","steam_id":76561198157985901,"connected_time":224000000000,"state":"active","ping":81},{"user_id":429,"name":"b3afy","steam_id":76561198084208649,"connected_time":6650000000000,"state":"active","ping":75},{"user_id":511,"name":"John Wick's puppy","steam_id":76561198064662875,"connected_time":198000000000,"state":"active","ping":49},{"user_id":484,"name":"Borrowed Thyme","steam_id":76561197997401615,"connected_time":3046000000000,"state":"active","ping":137},{"user_id":471,"name":"Whapper","steam_id":76561198044029606,"connected_time":3640000000000,"state":"active","ping":58},{"user_id":491,"name":"pyrotechnic","steam_id":76561198043558709,"connected_time":2796000000000,"state":"active","ping":62},{"user_id":492,"name":"p9 jorts FULL of pilk","steam_id":76561199041179985,"connected_time":2507000000000,"state":"active","ping":81}]},{"server_id":18,"name":"Uncletopia | San Francisco | 2 | All Maps","name_short":"sfo-2","host":"sfo-1.us.uncletopia.com","port":27025,"enabled":true,"region":"us-west","cc":"us","latitude":37.77397,"longitude":-122.4313,"reserved":0,"last_update":"0001-01-01T00:00:00Z","name_a2s":"Uncletopia | San Francisco | 2 | All Maps","protocol":17,"map":"pl_badwater","folder":"tf","game":"Team Fortress","app_id":440,"player_count":24,"max_players":24,"Bots":0,"server_type":"Dedicated","server_os":"Linux","password":true,"vac":true,"version":"7757534","steam_id":85568392924470000,"keywords":["nocrits","nodmgspread","payload","uncletopia"],"game_id":440,"stv_port":27026,"stv_name":"Uncletopia | San Francisco | 2 | All Maps | STV","players":[{"user_id":131,"name":"self sufficient kitten","steam_id":76561197960592612,"connected_time":2429000000000,"state":"active","ping":63},{"user_id":167,"name":"daring","steam_id":76561198066270405,"connected_time":565000000000,"state":"active","ping":44},{"user_id":100,"name":"Vergil","steam_id":76561198133905845,"connected_time":4679000000000,"state":"active","ping":79},{"user_id":149,"name":"all of brasil","steam_id":76561197979056451,"connected_time":1431000000000,"state":"active","ping":64},{"user_id":150,"name":"kanye vs darth vader erb season","steam_id":76561198068672882,"connected_time":1425000000000,"state":"active","ping":56},{"user_id":168,"name":"Frenchfry_Addict","steam_id":76561199156867989,"connected_time":497000000000,"state":"active","ping":69},{"user_id":161,"name":"Veritox","steam_id":76561198075778026,"connected_time":875000000000,"state":"active","ping":60},{"user_id":145,"name":"CB1 Cousin Junebug","steam_id":76561198090573639,"connected_time":1483000000000,"state":"active","ping":56},{"user_id":166,"name":"squid","steam_id":76561198070236972,"connected_time":580000000000,"state":"active","ping":72},{"user_id":136,"name":"ZonarlJarl","steam_id":76561198390130328,"connected_time":2019000000000,"state":"active","ping":86},{"user_id":146,"name":"Vorg","steam_id":76561198271959087,"connected_time":1469000000000,"state":"active","ping":107},{"user_id":169,"name":"Got Oil?","steam_id":76561199238964574,"connected_time":470000000000,"state":"active","ping":67},{"user_id":159,"name":"kaede","steam_id":76561198345528370,"connected_time":1007000000000,"state":"active","ping":44},{"user_id":162,"name":"The_Pacific_gamer","steam_id":76561198089491446,"connected_time":865000000000,"state":"active","ping":70},{"user_id":172,"name":"Jams and Bread","steam_id":76561199240243522,"connected_time":55000000000,"state":"active","ping":58},{"user_id":133,"name":"jj874181","steam_id":76561199455124144,"connected_time":2390000000000,"state":"active","ping":92},{"user_id":170,"name":"beefskewer","steam_id":76561198049992949,"connected_time":468000000000,"state":"active","ping":59},{"user_id":173,"name":"wasterr","steam_id":76561198418239391,"connected_time":40000000000,"state":"active","ping":45},{"user_id":158,"name":"F3RRAL","steam_id":76561198172279275,"connected_time":1135000000000,"state":"active","ping":61},{"user_id":138,"name":"selling rice","steam_id":76561198063357023,"connected_time":1686000000000,"state":"active","ping":49},{"user_id":108,"name":"amia","steam_id":76561198228125224,"connected_time":4340000000000,"state":"active","ping":61},{"user_id":97,"name":"zaza2k","steam_id":76561198393760567,"connected_time":5184000000000,"state":"active","ping":65},{"user_id":157,"name":"NANO","steam_id":76561199009634635,"connected_time":1159000000000,"state":"active","ping":62},{"user_id":163,"name":"Lune","steam_id":76561198124572077,"connected_time":865000000000,"state":"active","ping":111}]},{"server_id":19,"name":"Uncletopia | San Francisco | 3 | Stopwatch Beta","name_short":"sfo-3","host":"sfo-1.us.uncletopia.com","port":27035,"enabled":true,"region":"us-west","cc":"us","latitude":37.77397,"longitude":-122.4313,"reserved":0,"last_update":"0001-01-01T00:00:00Z","name_a2s":"Uncletopia | San Francisco | 3 | Stopwatch Beta","protocol":17,"map":"workshop/koth_ramjam_rc1.ugc459778887","folder":"tf","game":"Team Fortress","app_id":440,"player_count":0,"max_players":24,"Bots":0,"server_type":"Dedicated","server_os":"Linux","password":true,"vac":true,"version":"7757534","steam_id":85568392924742824,"keywords":["cp","nocrits","nodmgspread","uncletopia"],"game_id":440,"stv_port":27036,"stv_name":"Uncletopia | San Francisco | 3 | Stopwatch Beta | STV","players":null},{"server_id":20,"name":"Uncletopia | San Francisco | 4 | Community","name_short":"sfo-4","host":"sfo-1.us.uncletopia.com","port":27045,"enabled":true,"region":"us-west","cc":"us","latitude":37.77397,"longitude":-122.4313,"reserved":0,"last_update":"0001-01-01T00:00:00Z","name_a2s":"Uncletopia | San Francisco | 4 | Community","protocol":17,"map":"workshop/cp_bruhstbowl_b5.ugc2878604990","folder":"tf","game":"Team Fortress","app_id":440,"player_count":23,"max_players":24,"Bots":0,"server_type":"Dedicated","server_os":"Linux","password":true,"vac":true,"version":"7757534","steam_id":85568392924742826,"keywords":["cp","nocrits","nodmgspread","uncletopia"],"game_id":440,"stv_port":27046,"stv_name":"Uncletopia | San Francisco | 4 | Community | STV","players":[{"user_id":124,"name":"noob","steam_id":76561198064273568,"connected_time":1111000000000,"state":"active","ping":56},{"user_id":122,"name":"Cake Noddle","steam_id":76561198070072005,"connected_time":1120000000000,"state":"active","ping":100},{"user_id":145,"name":"Seanvich","steam_id":76561198065805500,"connected_time":350000000000,"state":"active","ping":102},{"user_id":138,"name":"George Washington","steam_id":76561198033828615,"connected_time":680000000000,"state":"active","ping":47},{"user_id":146,"name":"SiwelZ","steam_id":76561198849976664,"connected_time":346000000000,"state":"active","ping":46},{"user_id":129,"name":"Anomet","steam_id":76561198060246255,"connected_time":944000000000,"state":"active","ping":75},{"user_id":130,"name":"Erm... What the Deuce","steam_id":76561198418288939,"connected_time":929000000000,"state":"active","ping":51},{"user_id":97,"name":"Stryder","steam_id":76561199387418697,"connected_time":1910000000000,"state":"active","ping":112},{"user_id":65,"name":"Spooky","steam_id":76561198030817605,"connected_time":3553000000000,"state":"active","ping":58},{"user_id":66,"name":"Casleau","steam_id":76561198011835184,"connected_time":3492000000000,"state":"active","ping":58},{"user_id":131,"name":"hersheybargame","steam_id":76561199162003623,"connected_time":922000000000,"state":"active","ping":54},{"user_id":121,"name":"Persona Mann","steam_id":76561198293857963,"connected_time":1128000000000,"state":"active","ping":73},{"user_id":132,"name":"Big Eat","steam_id":76561198066921755,"connected_time":914000000000,"state":"active","ping":128},{"user_id":148,"name":"Champagne Supernova","steam_id":76561198918114562,"connected_time":300000000000,"state":"active","ping":59},{"user_id":149,"name":"Flo","steam_id":76561198880866690,"connected_time":277000000000,"state":"active","ping":93},{"user_id":74,"name":"Also UbeR","steam_id":76561198166926843,"connected_time":2996000000000,"state":"active","ping":59},{"user_id":134,"name":"Apricot","steam_id":76561198355699935,"connected_time":904000000000,"state":"active","ping":117},{"user_id":77,"name":"fruitymario","steam_id":76561198047190430,"connected_time":2884000000000,"state":"active","ping":123},{"user_id":139,"name":"GlizzLord","steam_id":76561198321010427,"connected_time":670000000000,"state":"active","ping":72},{"user_id":115,"name":"Dive(z)","steam_id":76561198140843225,"connected_time":1307000000000,"state":"active","ping":83},{"user_id":80,"name":"schizophrenicGhost","steam_id":76561198126341923,"connected_time":2793000000000,"state":"active","ping":110},{"user_id":140,"name":"Bony","steam_id":76561199001748822,"connected_time":667000000000,"state":"active","ping":58},{"user_id":93,"name":"kr1tsurf3r","steam_id":76561198076402476,"connected_time":2090000000000,"state":"active","ping":72}]},{"server_id":141,"name":"Uncletopia | Sydney | 1 | All Maps","name_short":"syd-1","host":"syd-1.au.uncletopia.com","port":27015,"enabled":true,"region":"au","cc":"au","latitude":-33.865143,"longitude":151.2099,"reserved":0,"last_update":"0001-01-01T00:00:00Z","name_a2s":"Uncletopia | Sydney | 1 | All Maps","protocol":17,"map":"pl_rumford_event","folder":"tf","game":"Team Fortress","app_id":440,"player_count":24,"max_players":24,"Bots":0,"server_type":"Dedicated","server_os":"Linux","password":true,"vac":true,"version":"7757534","steam_id":85568392924470001,"keywords":["nocrits","nodmgspread","payload","uncletopia"],"game_id":440,"stv_port":27016,"stv_name":"Uncletopia | Sydney | 1 | All Maps | STV","players":[{"user_id":274,"name":"Mayor Ballsworth","steam_id":76561199174593635,"connected_time":4979000000000,"state":"active","ping":76},{"user_id":321,"name":"FreeBeers","steam_id":76561198095448607,"connected_time":3271000000000,"state":"active","ping":75},{"user_id":353,"name":"Deeznutz69Gamer","steam_id":76561199221531190,"connected_time":689000000000,"state":"active","ping":148},{"user_id":354,"name":"FlatChestEnthusiast","steam_id":76561198027125951,"connected_time":540000000000,"state":"active","ping":85},{"user_id":281,"name":"Balsamic Vinegar","steam_id":76561198260148888,"connected_time":4607000000000,"state":"active","ping":66},{"user_id":329,"name":"table","steam_id":76561199218095319,"connected_time":2865000000000,"state":"active","ping":52},{"user_id":350,"name":"Strike","steam_id":76561198254083849,"connected_time":913000000000,"state":"active","ping":74},{"user_id":340,"name":"Spooky Cheese","steam_id":76561198062026096,"connected_time":1640000000000,"state":"active","ping":63},{"user_id":335,"name":"Critz Eastwood","steam_id":76561198050094688,"connected_time":1990000000000,"state":"active","ping":52},{"user_id":287,"name":"CypressFluff (She/Her)","steam_id":76561198174667818,"connected_time":4132000000000,"state":"active","ping":61},{"user_id":318,"name":"Berri_Blast","steam_id":76561199077700308,"connected_time":3301000000000,"state":"active","ping":106},{"user_id":351,"name":"Cv76","steam_id":76561198817942619,"connected_time":731000000000,"state":"active","ping":43},{"user_id":352,"name":"Captain Canadia","steam_id":76561198167967735,"connected_time":726000000000,"state":"active","ping":50},{"user_id":292,"name":"El Chupacabra","steam_id":76561198070641651,"connected_time":4005000000000,"state":"active","ping":46},{"user_id":341,"name":"TuaMater","steam_id":76561198021019008,"connected_time":1616000000000,"state":"active","ping":68},{"user_id":304,"name":"soupy","steam_id":76561198073734936,"connected_time":3650000000000,"state":"active","ping":89},{"user_id":346,"name":"FIX","steam_id":76561197995157189,"connected_time":1227000000000,"state":"active","ping":53},{"user_id":345,"name":"electro599","steam_id":76561198058148858,"connected_time":1380000000000,"state":"active","ping":55},{"user_id":312,"name":"Paper","steam_id":76561198041517737,"connected_time":3492000000000,"state":"active","ping":36},{"user_id":317,"name":"seiran","steam_id":76561198880907232,"connected_time":3334000000000,"state":"active","ping":100},{"user_id":338,"name":"MikkyD","steam_id":76561198043452962,"connected_time":1865000000000,"state":"active","ping":66},{"user_id":320,"name":"the normoaner","steam_id":76561198082423230,"connected_time":3295000000000,"state":"active","ping":81},{"user_id":348,"name":"Empr","steam_id":76561198024387396,"connected_time":1016000000000,"state":"active","ping":64},{"user_id":333,"name":"oldbie","steam_id":76561198053297711,"connected_time":2752000000000,"state":"active","ping":82}]},{"server_id":123,"name":"Uncletopia | Sydney | 2 | All Maps","name_short":"syd-2","host":"syd-1.au.uncletopia.com","port":27025,"enabled":true,"region":"au","cc":"au","latitude":-33.865143,"longitude":151.2099,"reserved":0,"last_update":"0001-01-01T00:00:00Z","name_a2s":"Uncletopia | Sydney | 2 | All Maps","protocol":17,"map":"koth_cascade","folder":"tf","game":"Team Fortress","app_id":440,"player_count":2,"max_players":24,"Bots":0,"server_type":"Dedicated","server_os":"Linux","password":true,"vac":true,"version":"7757534","steam_id":85568392924470002,"keywords":["cp","nocrits","nodmgspread","uncletopia"],"game_id":440,"stv_port":27026,"stv_name":"Uncletopia | Sydney | 2 | All Maps | STV","players":[{"user_id":83,"name":"Shadow Puppeteer","steam_id":76561198151121997,"connected_time":37000000000,"state":"spawning","ping":61},{"user_id":84,"name":"SaltierThanYou","steam_id":76561198444395188,"connected_time":8000000000,"state":"spawning","ping":56}]},{"server_id":395,"name":"Uncletopia | Sydney | 3 | All Maps","name_short":"syd-3","host":"syd-1.au.uncletopia.com","port":27035,"enabled":true,"region":"au","cc":"au","latitude":-33.865143,"longitude":151.2099,"reserved":0,"last_update":"0001-01-01T00:00:00Z","name_a2s":"Uncletopia | Sydney | 3 | All Maps","protocol":17,"map":"koth_lakeside_final","folder":"tf","game":"Team Fortress","app_id":440,"player_count":0,"max_players":24,"Bots":0,"server_type":"Dedicated","server_os":"Linux","password":true,"vac":true,"version":"7757534","steam_id":85568392925194467,"keywords":["cp","nocrits","nodmgspread","uncletopia"],"game_id":440,"stv_port":27036,"stv_name":"Uncletopia | Sydney | 3 | All Maps | STV","players":null},{"server_id":396,"name":"Uncletopia | Sydney | 4 | All Maps","name_short":"syd-4","host":"syd-1.au.uncletopia.com","port":27045,"enabled":true,"region":"au","cc":"au","latitude":-33.865143,"longitude":151.2099,"reserved":0,"last_update":"0001-01-01T00:00:00Z","name_a2s":"Uncletopia | Sydney | 4 | All Maps","protocol":17,"map":"koth_lakeside_final","folder":"tf","game":"Team Fortress","app_id":440,"player_count":0,"max_players":24,"Bots":0,"server_type":"Dedicated","server_os":"Linux","password":true,"vac":true,"version":"7757534","steam_id":85568392925397958,"keywords":["cp","nocrits","nodmgspread","uncletopia"],"game_id":440,"stv_port":27046,"stv_name":"Uncletopia | Sydney | 4 | All Maps | STV","players":null},{"server_id":58,"name":"Uncletopia | Sydney | 5 | Stopwatch Beta","name_short":"syd-5","host":"syd-1.au.uncletopia.com","port":27055,"enabled":true,"region":"au","cc":"au","latitude":-33.865143,"longitude":151.2099,"reserved":0,"last_update":"0001-01-01T00:00:00Z","name_a2s":"Uncletopia | Sydney | 5 | Stopwatch Beta","protocol":17,"map":"koth_cascade","folder":"tf","game":"Team Fortress","app_id":440,"player_count":0,"max_players":24,"Bots":0,"server_type":"Dedicated","server_os":"Linux","password":true,"vac":true,"version":"7757534","steam_id":85568392925397959,"keywords":["cp","nocrits","nodmgspread","uncletopia"],"game_id":440,"stv_port":27056,"stv_name":"Uncletopia | Sydney | 5 | Stopwatch Beta | STV","players":null},{"server_id":59,"name":"Uncletopia | Sydney | 6 | Community","name_short":"syd-6","host":"syd-1.au.uncletopia.com","port":27065,"enabled":true,"region":"au","cc":"au","latitude":-33.865143,"longitude":151.2099,"reserved":0,"last_update":"0001-01-01T00:00:00Z","name_a2s":"Uncletopia | Sydney | 6 | Community","protocol":17,"map":"workshop/koth_kemptown_rc1.ugc767410655","folder":"tf","game":"Team Fortress","app_id":440,"player_count":0,"max_players":24,"Bots":0,"server_type":"Dedicated","server_os":"Linux","password":true,"vac":true,"version":"7757534","steam_id":85568392925397960,"keywords":["cp","nocrits","nodmgspread","uncletopia"],"game_id":440,"stv_port":27066,"stv_name":"Uncletopia | Sydney | 6 | Community | STV","players":null},{"server_id":49,"name":"Uncletopia | Warsaw | 1 | All Maps","name_short":"waw-1","host":"waw-1.pl.uncletopia.com","port":27015,"enabled":true,"region":"eu","cc":"pl","latitude":52.2297,"longitude":21.017532,"reserved":0,"last_update":"0001-01-01T00:00:00Z","name_a2s":"","protocol":0,"map":"","folder":"","game":"","app_id":0,"player_count":0,"max_players":0,"Bots":0,"server_type":"","server_os":"","password":false,"vac":false,"version":"","steam_id":0,"keywords":null,"game_id":0,"stv_port":0,"stv_name":"","players":null},{"server_id":50,"name":"Uncletopia | Warsaw | 2 | All Maps","name_short":"waw-2","host":"waw-1.pl.uncletopia.com","port":27025,"enabled":true,"region":"eu","cc":"pl","latitude":52.2297,"longitude":21.017532,"reserved":0,"last_update":"0001-01-01T00:00:00Z","name_a2s":"Uncletopia | Warsaw | 2 | All Maps","protocol":17,"map":"koth_highpass","folder":"tf","game":"Team Fortress","app_id":440,"player_count":0,"max_players":24,"Bots":0,"server_type":"Dedicated","server_os":"Linux","password":true,"vac":true,"version":"7757534","steam_id":85568392925397851,"keywords":["cp","nocrits","nodmgspread","uncletopia"],"game_id":440,"stv_port":27026,"stv_name":"Uncletopia | Warsaw | 2 | All Maps | STV","players":null},{"server_id":51,"name":"Uncletopia | Warsaw | 3 | All Maps","name_short":"waw-3","host":"waw-1.pl.uncletopia.com","port":27035,"enabled":true,"region":"eu","cc":"pl","latitude":52.2297,"longitude":21.017532,"reserved":0,"last_update":"0001-01-01T00:00:00Z","name_a2s":"Uncletopia | Warsaw | 3 | All Maps","protocol":17,"map":"koth_highpass","folder":"tf","game":"Team Fortress","app_id":440,"player_count":0,"max_players":24,"Bots":0,"server_type":"Dedicated","server_os":"Linux","password":true,"vac":true,"version":"7757534","steam_id":85568392925397852,"keywords":["cp","nocrits","nodmgspread","uncletopia"],"game_id":440,"stv_port":27036,"stv_name":"Uncletopia | Warsaw | 3 | All Maps | STV","players":null},{"server_id":52,"name":"Uncletopia | Warsaw | 4 | All Maps","name_short":"waw-4","host":"waw-1.pl.uncletopia.com","port":27045,"enabled":true,"region":"eu","cc":"pl","latitude":52.2297,"longitude":21.017532,"reserved":0,"last_update":"0001-01-01T00:00:00Z","name_a2s":"Uncletopia | Warsaw | 4 | All Maps","protocol":17,"map":"koth_lakeside_final","folder":"tf","game":"Team Fortress","app_id":440,"player_count":0,"max_players":24,"Bots":0,"server_type":"Dedicated","server_os":"Linux","password":true,"vac":true,"version":"7757534","steam_id":85568392925397853,"keywords":["cp","nocrits","nodmgspread","uncletopia"],"game_id":440,"stv_port":27046,"stv_name":"Uncletopia | Warsaw | 4 | All Maps | STV","players":null},{"server_id":53,"name":"Uncletopia | Warsaw | 5 | Stopwatch Beta","name_short":"waw-5","host":"waw-1.pl.uncletopia.com","port":27055,"enabled":true,"region":"eu","cc":"pl","latitude":52.2297,"longitude":21.017532,"reserved":0,"last_update":"0001-01-01T00:00:00Z","name_a2s":"Uncletopia | Warsaw | 5 | Stopwatch Beta","protocol":17,"map":"pl_pier","folder":"tf","game":"Team Fortress","app_id":440,"player_count":0,"max_players":24,"Bots":0,"server_type":"Dedicated","server_os":"Linux","password":true,"vac":true,"version":"7757534","steam_id":85568392925397854,"keywords":["nocrits","nodmgspread","payload","uncletopia"],"game_id":440,"stv_port":27056,"stv_name":"Uncletopia | Warsaw | 5 | Stopwatch Beta | STV","players":null},{"server_id":54,"name":"Uncletopia | Warsaw | 6 | Community","name_short":"waw-6","host":"waw-1.pl.uncletopia.com","port":27065,"enabled":true,"region":"eu","cc":"pl","latitude":52.2297,"longitude":21.017532,"reserved":0,"last_update":"0001-01-01T00:00:00Z","name_a2s":"Uncletopia | Warsaw | 6 | Community","protocol":17,"map":"koth_highpass","folder":"tf","game":"Team Fortress","app_id":440,"player_count":0,"max_players":24,"Bots":0,"server_type":"Dedicated","server_os":"Linux","password":true,"vac":true,"version":"7757534","steam_id":85568392925397856,"keywords":["cp","nocrits","nodmgspread","uncletopia"],"game_id":440,"stv_port":27066,"stv_name":"Uncletopia | Warsaw | 6 | Community | STV","players":null}]}