{"status":true,"message":"","result":[{"server_id":9,"name":"Uncletopia | Atlanta | 1 | All Maps","name_short":"atl-1","host":"atl-1.us.uncletopia.com","port":27015,"enabled":true,"region":"us-east","cc":"us","latitude":33.753746,"longitude":-84.38633,"reserved":0,"last_update":"0001-01-01T00:00:00Z","name_a2s":"Uncletopia | Atlanta | 1 | All Maps","protocol":17,"map":"pl_snowycoast","folder":"tf","game":"Team Fortress","app_id":440,"player_count":17,"max_players":24,"Bots":0,"server_type":"Dedicated","server_os":"Linux","password":true,"vac":true,"version":"7932396","steam_id":85568392924469982,"keywords":["nocrits","nodmgspread","payload","uncletopia"],"game_id":440,"stv_port":27016,"stv_name":"Uncletopia | Atlanta | 1 | All Maps | STV","players":[{"user_id":447,"name":"RoboWarrior0410a","steam_id":76561199106531261,"connected_time":1025000000000,"state":"active","ping":54},{"user_id":390,"name":"Gunpla Lobotomy","steam_id":76561198097438408,"connected_time":2035000000000,"state":"active","ping":98},{"user_id":491,"name":"wahooka","steam_id":76561197981211922,"connected_time":145000000000,"state":"active","ping":58},{"user_id":489,"name":"Zigadox","steam_id":76561198079813479,"connected_time":211000000000,"state":"active","ping":82},{"user_id":304,"name":"GOLDIE","steam_id":76561199375258674,"connected_time":3742000000000,"state":"active","ping":101},{"user_id":480,"name":"TheNerdyPirate","steam_id":76561198185806923,"connected_time":381000000000,"state":"active","ping":85},{"user_id":496,"name":"Duncan Idaho","steam_id":76561197988963861,"connected_time":22000000000,"state":"active","ping":100},{"user_id":478,"name":"Piss Lord Moose","steam_id":76561199027129554,"connected_time":442000000000,"state":"active","ping":100},{"user_id":484,"name":"CassiopeiaNeko","steam_id":76561198880417527,"connected_time":362000000000,"state":"active","ping":181},{"user_id":492,"name":"Garfewloid 5000","steam_id":76561199189282912,"connected_time":120000000000,"state":"active","ping":93},{"user_id":495,"name":"GRONT","steam_id":76561198040464533,"connected_time":59000000000,"state":"active","ping":93},{"user_id":497,"name":"WaywardFinn","steam_id":76561198040391296,"connected_time":12000000000,"state":"spawning","ping":101},{"user_id":464,"name":"ATL","steam_id":76561198431196926,"connected_time":671000000000,"state":"active","ping":80},{"user_id":468,"name":"Rivet","steam_id":76561198122059898,"connected_time":567000000000,"state":"active","ping":94},{"user_id":427,"name":"AnnieM","steam_id":76561199435467297,"connected_time":1564000000000,"state":"active","ping":73},{"user_id":396,"name":"Sqilluy","steam_id":76561198130993466,"connected_time":1922000000000,"state":"active","ping":101},{"user_id":411,"name":"cuzimlatin2704","steam_id":76561199094752899,"connected_time":1731000000000,"state":"active","ping":101}]},{"server_id":104,"name":"Uncletopia | Atlanta | 2 | All Maps","name_short":"atl-2","host":"atl-1.us.uncletopia.com","port":27025,"enabled":true,"region":"us-east","cc":"us","latitude":33.753746,"longitude":-84.38633,"reserved":0,"last_update":"0001-01-01T00:00:00Z","name_a2s":"Uncletopia | Atlanta | 2 | All Maps","protocol":17,"map":"koth_highpass","folder":"tf","game":"Team Fortress","app_id":440,"player_count":0,"max_players":24,"Bots":0,"server_type":"Dedicated","server_os":"Linux","password":true,"vac":true,"version":"7932396","steam_id":85568392924469983,"keywords":["cp","nocrits","nodmgspread","uncletopia"],"game_id":440,"stv_port":27026,"stv_name":"Uncletopia | Atlanta | 2 | All Maps | STV","players":null},{"server_id":400,"name":"Uncletopia | Atlanta | 3 | Community","name_short":"atl-3","host":"atl-1.us.uncletopia.com","port":27035,"enabled":true,"region":"us-east","cc":"us","latitude":33.753746,"longitude":-84.38633,"reserved":0,"last_update":"0001-01-01T00:00:00Z","name_a2s":"Uncletopia | Atlanta | 3 | Community","protocol":17,"map":"workshop/koth_ramjam_rc1.ugc459778887","folder":"tf","game":"Team Fortress","app_id":440,"player_count":0,"max_players":24,"Bots":0,"server_type":"Dedicated","server_os":"Linux","password":true,"vac":true,"version":"7932396","steam_id":85568392924515187,"keywords":["cp","nocrits","nodmgspread","uncletopia"],"game_id":440,"stv_port":27036,"stv_name":"Uncletopia | Atlanta | 3 | Community | STV","players":null},{"server_id":401,"name":"Uncletopia | Atlanta | 4 | No Payload","name_short":"atl-4","host":"atl-1.us.uncletopia.com","port":27045,"enabled":true,"region":"us-east","cc":"us","latitude":33.753746,"longitude":-84.38633,"reserved":0,"last_update":"0001-01-01T00:00:00Z","name_a2s":"","protocol":0,"map":"","folder":"","game":"","app_id":0,"player_count":0,"max_players":0,"Bots":0,"server_type":"","server_os":"","password":false,"vac":false,"version":"","steam_id":0,"keywords":null,"game_id":0,"stv_port":0,"stv_name":"","players":null},{"server_id":2,"name":"Uncletopia | Chicago | 1 | All Maps","name_short":"chi-1","host":"chi-1.us.uncletopia.com","port":27015,"enabled":true,"region":"us-central","cc":"us","latitude":41.881832,"longitude":-87.62318,"reserved":0,"last_update":"0001-01-01T00:00:00Z","name_a2s":"Uncletopia | Chicago | 1 | All Maps","protocol":17,"map":"pl_pier","folder":"tf","game":"Team Fortress","app_id":440,"player_count":24,"max_players":24,"Bots":0,"server_type":"Dedicated","server_os":"Linux","password":true,"vac":true,"version":"7932396","steam_id":85568392924469984,"keywords":["nocrits","nodmgspread","payload","uncletopia"],"game_id":440,"stv_port":27016,"stv_name":"Uncletopia | Chicago | 1 | All Maps | STV","players":[{"user_id":724,"name":"Sanic_Bum","steam_id":76561198094179822,"connected_time":1570000000000,"state":"active","ping":59},{"user_id":717,"name":"StonedGiant","steam_id":76561197984386932,"connected_time":1976000000000,"state":"active","ping":60},{"user_id":641,"name":"Mr_Frosty","steam_id":76561199380389079,"connected_time":8325000000000,"state":"active","ping":101},{"user_id":702,"name":"Final_MarioXD","steam_id":76561199184862419,"connected_time":3224000000000,"state":"active","ping":96},{"user_id":737,"name":"ma0re","steam_id":76561199231971506,"connected_time":205000000000,"state":"active","ping":61},{"user_id":693,"name":"uhooter","steam_id":76561198007829078,"connected_time":3980000000000,"state":"active","ping":47},{"user_id":732,"name":"Drooop","steam_id":76561198856700517,"connected_time":297000000000,"state":"active","ping":65},{"user_id":707,"name":"asbestos","steam_id":76561198079178866,"connected_time":2236000000000,"state":"active","ping":62},{"user_id":664,"name":"stink","steam_id":76561198099318923,"connected_time":5889000000000,"state":"active","ping":51},{"user_id":726,"name":"Glue Gulper","steam_id":76561198158014525,"connected_time":1473000000000,"state":"active","ping":60},{"user_id":738,"name":"izzydex","steam_id":76561199101531034,"connected_time":180000000000,"state":"active","ping":68},{"user_id":739,"name":"Your Local Queer Librarian","steam_id":76561198013077080,"connected_time":10000000000,"state":"active","ping":117},{"user_id":713,"name":"Hatfam","steam_id":76561199192629036,"connected_time":2106000000000,"state":"active","ping":103},{"user_id":731,"name":"Kimba","steam_id":76561199092078325,"connected_time":322000000000,"state":"active","ping":82},{"user_id":680,"name":"â™¡Alyxâ™¡","steam_id":76561198024303978,"connected_time":4343000000000,"state":"active","ping":65},{"user_id":708,"name":"Buckleberry","steam_id":76561198020832310,"connected_time":2234000000000,"state":"active","ping":61},{"user_id":687,"name":"Room_237","steam_id":76561199135081315,"connected_time":4219000000000,"state":"active","ping":80},{"user_id":690,"name":"The Incredible Fem Boy","steam_id":76561198355754259,"connected_time":4210000000000,"state":"active","ping":72},{"user_id":695,"name":"Lost","steam_id":76561198093713427,"connected_time":3447000000000,"state":"active","ping":59},{"user_id":722,"name":"Space","steam_id":76561198350489754,"connected_time":1706000000000,"state":"active","ping":60},{"user_id":728,"name":"FieryRainbowDog","steam_id":76561199047810065,"connected_time":1139000000000,"state":"active","ping":63},{"user_id":705,"name":"FattSucc","steam_id":76561198009500503,"connected_time":2576000000000,"state":"active","ping":88},{"user_id":735,"name":"blob","steam_id":76561198122375328,"connected_time":219000000000,"state":"active","ping":59},{"user_id":736,"name":"Smile from God","steam_id":76561198032663494,"connected_time":219000000000,"state":"active","ping":73}]},{"server_id":106,"name":"Uncletopia | Chicago | 2 | All Maps","name_short":"chi-2","host":"chi-1.us.uncletopia.com","port":27025,"enabled":true,"region":"us-central","cc":"us","latitude":41.881832,"longitude":-87.62318,"reserved":0,"last_update":"0001-01-01T00:00:00Z","name_a2s":"Uncletopia | Chicago | 2 | All Maps","protocol":17,"map":"pl_upward","folder":"tf","game":"Team Fortress","app_id":440,"player_count":24,"max_players":24,"Bots":0,"server_type":"Dedicated","server_os":"Linux","password":true,"vac":true,"version":"7932396","steam_id":85568392924469985,"keywords":["nocrits","nodmgspread","payload","uncletopia"],"game_id":440,"stv_port":27026,"stv_name":"Uncletopia | Chicago | 2 | All Maps | STV","players":[{"user_id":502,"name":"extra purple","steam_id":76561198044344111,"connected_time":1075000000000,"state":"active","ping":55},{"user_id":519,"name":"A Sun","steam_id":76561198142545364,"connected_time":27000000000,"state":"spawning","ping":59},{"user_id":427,"name":"MedRedâ„¢ #IATAH","steam_id":76561198002962970,"connected_time":5659000000000,"state":"active","ping":105},{"user_id":474,"name":"Swash","steam_id":76561197969421355,"connected_time":2814000000000,"state":"active","ping":61},{"user_id":497,"name":"Stranger in a Strange Land","steam_id":76561198049843671,"connected_time":1159000000000,"state":"active","ping":58},{"user_id":511,"name":"Norman","steam_id":76561198154715990,"connected_time":423000000000,"state":"active","ping":109},{"user_id":506,"name":"Joe Family guy","steam_id":76561198065327106,"connected_time":692000000000,"state":"active","ping":70},{"user_id":488,"name":"kritik","steam_id":76561198075216115,"connected_time":1551000000000,"state":"active","ping":150},{"user_id":512,"name":"YOLOSWAG696969","steam_id":76561198337692867,"connected_time":342000000000,"state":"active","ping":66},{"user_id":520,"name":"loser","steam_id":76561198259380127,"connected_time":1000000000,"state":"spawning","ping":29},{"user_id":494,"name":"smash2tec","steam_id":76561199171564052,"connected_time":1352000000000,"state":"active","ping":85},{"user_id":496,"name":"Sugahu17S","steam_id":76561198799403828,"connected_time":1290000000000,"state":"active","ping":50},{"user_id":447,"name":"while(1)","steam_id":76561198000876529,"connected_time":4840000000000,"state":"active","ping":60},{"user_id":508,"name":"Dice","steam_id":76561198035511080,"connected_time":687000000000,"state":"active","ping":71},{"user_id":489,"name":"caption cool","steam_id":76561197990612056,"connected_time":1527000000000,"state":"active","ping":32},{"user_id":479,"name":"Music Man","steam_id":76561199123296782,"connected_time":2455000000000,"state":"active","ping":63},{"user_id":510,"name":"shnowshner","steam_id":76561198066450438,"connected_time":553000000000,"state":"active","ping":81},{"user_id":443,"name":"Pizza","steam_id":76561198118748364,"connected_time":5147000000000,"state":"active","ping":76},{"user_id":486,"name":"Lia_Rein","steam_id":76561198151569597,"connected_time":2098000000000,"state":"active","ping":145},{"user_id":470,"name":"Osrio","steam_id":76561198083428069,"connected_time":2975000000000,"state":"active","ping":89},{"user_id":424,"name":"hej","steam_id":76561197996366940,"connected_time":6278000000000,"state":"active","ping":60},{"user_id":422,"name":"Makina","steam_id":76561198057475567,"connected_time":7160000000000,"state":"active","ping":68},{"user_id":509,"name":"CEO of Sex","steam_id":76561199331620180,"connected_time":682000000000,"state":"active","ping":100},{"user_id":518,"name":"Ohio Gremlin(f2p)","steam_id":76561199484409491,"connected_time":115000000000,"state":"active","ping":57}]},{"server_id":402,"name":"Uncletopia | Chicago | 3 | All Maps","name_short":"chi-3","host":"chi-1.us.uncletopia.com","port":27035,"enabled":true,"region":"us-central","cc":"us","latitude":41.881832,"longitude":-87.62318,"reserved":0,"last_update":"0001-01-01T00:00:00Z","name_a2s":"Uncletopia | Chicago | 3 | All Maps","protocol":17,"map":"ctf_2fort","folder":"tf","game":"Team Fortress","app_id":440,"player_count":24,"max_players":24,"Bots":0,"server_type":"Dedicated","server_os":"Linux","password":true,"vac":true,"version":"7932396","steam_id":85568392924515191,"keywords":["ctf","nocrits","nodmgspread","uncletopia"],"game_id":440,"stv_port":27036,"stv_name":"Uncletopia | Chicago | 3 | All Maps | STV","players":[{"user_id":561,"name":"Amari","steam_id":76561198272446730,"connected_time":20000000000,"state":"active","ping":96},{"user_id":554,"name":"jackhane109","steam_id":76561199076232027,"connected_time":306000000000,"state":"active","ping":52},{"user_id":547,"name":"Another Neko Weeb","steam_id":76561198051785884,"connected_time":954000000000,"state":"active","ping":49},{"user_id":504,"name":"thisisnotaustin","steam_id":76561198074463510,"connected_time":2770000000000,"state":"active","ping":57},{"user_id":555,"name":"SomeSimpleton","steam_id":76561199183492031,"connected_time":305000000000,"state":"active","ping":86},{"user_id":480,"name":"thecal","steam_id":76561198307893384,"connected_time":5244000000000,"state":"active","ping":59},{"user_id":559,"name":"Discourse","steam_id":76561198984286678,"connected_time":274000000000,"state":"active","ping":52},{"user_id":557,"name":"SpectreBurn","steam_id":76561198163300780,"connected_time":301000000000,"state":"active","ping":71},{"user_id":517,"name":"iUseDvorak","steam_id":76561198064439037,"connected_time":2468000000000,"state":"active","ping":74},{"user_id":509,"name":"Once in a Lifetime","steam_id":76561199180652178,"connected_time":2577000000000,"state":"active","ping":89},{"user_id":545,"name":"KING","steam_id":76561198122223730,"connected_time":987000000000,"state":"active","ping":67},{"user_id":551,"name":"fuckwit","steam_id":76561198342160837,"connected_time":583000000000,"state":"active","ping":59},{"user_id":552,"name":"-Ï€- BakaD","steam_id":76561197960559169,"connected_time":325000000000,"state":"active","ping":51},{"user_id":546,"name":"blossom","steam_id":76561198042735130,"connected_time":983000000000,"state":"active","ping":109},{"user_id":548,"name":"viego","steam_id":76561198273568117,"connected_time":944000000000,"state":"active","ping":61},{"user_id":550,"name":"stupid bastard","steam_id":76561199195104977,"connected_time":893000000000,"state":"active","ping":71},{"user_id":542,"name":"Barmy","steam_id":76561198111626352,"connected_time":1249000000000,"state":"active","ping":87},{"user_id":531,"name":"Goose of Wisdom","steam_id":76561198233465044,"connected_time":1421000000000,"state":"active","ping":70},{"user_id":507,"name":"Mecha","steam_id":76561198014927379,"connected_time":2590000000000,"state":"active","ping":70},{"user_id":505,"name":"Pwnzer","steam_id":76561198057735725,"connected_time":2597000000000,"state":"active","ping":55},{"user_id":519,"name":"Ghost Lord","steam_id":76561198088956723,"connected_time":2008000000000,"state":"active","ping":98},{"user_id":541,"name":"Lonely Friendless Gamer","steam_id":76561198046728155,"connected_time":1302000000000,"state":"active","ping":45},{"user_id":529,"name":"Eins","steam_id":76561199030343810,"connected_time":1486000000000,"state":"active","ping":61},{"user_id":516,"name":"nickles","steam_id":76561199177498487,"connected_time":2506000000000,"state":"active","ping":61}]},{"server_id":403,"name":"Uncletopia | Chicago | 4 | All Maps","name_short":"chi-4","host":"chi-1.us.uncletopia.com","port":27045,"enabled":true,"region":"us-central","cc":"us","latitude":41.881832,"longitude":-87.62318,"reserved":0,"last_update":"0001-01-01T00:00:00Z","name_a2s":"Uncletopia | Chicago | 4 | All Maps","protocol":17,"map":"pl_upward","folder":"tf","game":"Team Fortress","app_id":440,"player_count":24,"max_players":24,"Bots":0,"server_type":"Dedicated","server_os":"Linux","password":true,"vac":true,"version":"7932396","steam_id":85568392924515193,"keywords":["nocrits","nodmgspread","payload","uncletopia"],"game_id":440,"stv_port":27046,"stv_name":"Uncletopia | Chicago | 4 | All Maps | STV","players":[{"user_id":182,"name":"keebee46","steam_id":76561198820249048,"connected_time":1940000000000,"state":"active","ping":83},{"user_id":207,"name":"Tis_Me_Hacksoulslayer1","steam_id":76561198340064206,"connected_time":112000000000,"state":"active","ping":79},{"user_id":193,"name":"acxeu","steam_id":76561198394435000,"connected_time":1397000000000,"state":"active","ping":59},{"user_id":205,"name":"soupy","steam_id":76561197974283797,"connected_time":126000000000,"state":"active","ping":45},{"user_id":199,"name":"MattAttack","steam_id":76561198815505051,"connected_time":1119000000000,"state":"active","ping":164},{"user_id":197,"name":"joe","steam_id":76561199389283507,"connected_time":1295000000000,"state":"active","ping":61},{"user_id":212,"name":"[DS]Yeti","steam_id":76561197961076874,"connected_time":1000000000,"state":"spawning","ping":71},{"user_id":179,"name":"PieSpie","steam_id":76561198054531169,"connected_time":2363000000000,"state":"active","ping":80},{"user_id":161,"name":"jello_hey","steam_id":76561199176327650,"connected_time":3334000000000,"state":"active","ping":70},{"user_id":108,"name":"Grand","steam_id":76561198290143399,"connected_time":9213000000000,"state":"active","ping":73},{"user_id":198,"name":"JackSepticEye","steam_id":76561198398918486,"connected_time":1171000000000,"state":"active","ping":79},{"user_id":209,"name":"Gotta Move That Gear Up","steam_id":76561197993467034,"connected_time":99000000000,"state":"active","ping":45},{"user_id":163,"name":"Goblin (Real)","steam_id":76561199160926985,"connected_time":3320000000000,"state":"active","ping":70},{"user_id":189,"name":"Arabictruman","steam_id":76561198155112367,"connected_time":1653000000000,"state":"active","ping":75},{"user_id":206,"name":"plutonium isotope","steam_id":76561198319442494,"connected_time":125000000000,"state":"active","ping":106},{"user_id":177,"name":"Boboblin:)","steam_id":76561199030131717,"connected_time":2487000000000,"state":"active","ping":112},{"user_id":191,"name":"BugsAreMyWorstEnemy","steam_id":76561199440395505,"connected_time":1612000000000,"state":"active","ping":80},{"user_id":201,"name":"az_noob","steam_id":76561199382983284,"connected_time":821000000000,"state":"active","ping":86},{"user_id":203,"name":"0deity","steam_id":76561199467458076,"connected_time":241000000000,"state":"active","ping":87},{"user_id":155,"name":"mndbrkn","steam_id":76561198054390505,"connected_time":4261000000000,"state":"active","ping":45},{"user_id":171,"name":"wack","steam_id":76561198095697330,"connected_time":3103000000000,"state":"active","ping":79},{"user_id":135,"name":"evnobev","steam_id":76561198038966462,"connected_time":6966000000000,"state":"active","ping":60},{"user_id":211,"name":"coolguy","steam_id":76561199079292596,"connected_time":61000000000,"state":"spawning","ping":110},{"user_id":178,"name":"Architect","steam_id":76561198015242016,"connected_time":2483000000000,"state":"active","ping":45}]},{"server_id":36,"name":"Uncletopia | Chicago | 5 | All Maps","name_short":"chi-5","host":"chi-2.us.uncletopia.com","port":27015,"enabled":true,"region":"us-central","cc":"us","latitude":41.881832,"longitude":-87.62318,"reserved":0,"last_update":"0001-01-01T00:00:00Z","name_a2s":"Uncletopia | Chicago | 5 | All Maps","protocol":17,"map":"pl_upward","folder":"tf","game":"Team Fortress","app_id":440,"player_count":24,"max_players":24,"Bots":0,"server_type":"Dedicated","server_os":"Linux","password":true,"vac":true,"version":"7932396","steam_id":85568392924866362,"keywords":["nocrits","nodmgspread","payload","uncletopia"],"game_id":440,"stv_port":27016,"stv_name":"Uncletopia | Chicago | 5 | All Maps | STV","players":[{"user_id":465,"name":"blent","steam_id":76561198032830213,"connected_time":569000000000,"state":"active","ping":64},{"user_id":442,"name":"Grilled Jizo","steam_id":76561199250875340,"connected_time":1828000000000,"state":"active","ping":77},{"user_id":438,"name":"A_Malebolgia","steam_id":76561198097722818,"connected_time":2303000000000,"state":"active","ping":89},{"user_id":444,"name":"SamTheSandvichSales-Mann","steam_id":76561198052382315,"connected_time":1785000000000,"state":"active","ping":55},{"user_id":466,"name":"Cap'n Short Legs","steam_id":76561198164139410,"connected_time":82000000000,"state":"active","ping":75},{"user_id":469,"name":"Slashes","steam_id":76561197968573499,"connected_time":44000000000,"state":"active","ping":57},{"user_id":456,"name":"beats","steam_id":76561199245717718,"connected_time":1072000000000,"state":"active","ping":47},{"user_id":445,"name":"Firenew","steam_id":76561199057241801,"connected_time":1743000000000,"state":"active","ping":84},{"user_id":467,"name":"Chimpus","steam_id":76561198284680798,"connected_time":74000000000,"state":"active","ping":47},{"user_id":440,"name":"General Scout","steam_id":76561198072395300,"connected_time":2154000000000,"state":"active","ping":95},{"user_id":441,"name":"i like trains","steam_id":76561198090531755,"connected_time":2134000000000,"state":"active","ping":77},{"user_id":457,"name":"The Grim Heaper","steam_id":76561197987759101,"connected_time":922000000000,"state":"active","ping":116},{"user_id":468,"name":"leumas","steam_id":76561198240408540,"connected_time":50000000000,"state":"active","ping":80},{"user_id":451,"name":"Thunderchief","steam_id":76561198022802780,"connected_time":1400000000000,"state":"active","ping":114},{"user_id":449,"name":"Arrythmia","steam_id":76561198093748123,"connected_time":1454000000000,"state":"active","ping":88},{"user_id":461,"name":"Estrogen Bundle","steam_id":76561198086733903,"connected_time":837000000000,"state":"active","ping":60},{"user_id":405,"name":"ðŸ’›MercyðŸ’›","steam_id":76561198147095572,"connected_time":4296000000000,"state":"active","ping":62},{"user_id":460,"name":"ryghehn","steam_id":76561198195359229,"connected_time":838000000000,"state":"active","ping":94},{"user_id":428,"name":"Scout","steam_id":76561198081464125,"connected_time":3210000000000,"state":"active","ping":70},{"user_id":462,"name":"Nekomancie","steam_id":76561198429090803,"connected_time":834000000000,"state":"active","ping":76},{"user_id":463,"name":"Kartyac","steam_id":76561197991069005,"connected_time":828000000000,"state":"active","ping":82},{"user_id":433,"name":"L4gman","steam_id":76561198048227040,"connected_time":2969000000000,"state":"active","ping":156},{"user_id":434,"name":"Wickyboo","steam_id":76561198234623008,"connected_time":2674000000000,"state":"active","ping":69},{"user_id":470,"name":"Fredrick","steam_id":76561197981419964,"connected_time":36000000000,"state":"active","ping":70}]},{"server_id":37,"name":"Uncletopia | Chicago | 6 | All Maps","name_short":"chi-6","host":"chi-2.us.uncletopia.com","port":27025,"enabled":true,"region":"us-central","cc":"us","latitude":41.881832,"longitude":-87.62318,"reserved":0,"last_update":"0001-01-01T00:00:00Z","name_a2s":"Uncletopia | Chicago | 6 | All Maps","protocol":17,"map":"pl_swiftwater_final1","folder":"tf","game":"Team Fortress","app_id":440,"player_count":24,"max_players":24,"Bots":0,"server_type":"Dedicated","server_os":"Linux","password":true,"vac":true,"version":"7932396","steam_id":85568392924866363,"keywords":["nocrits","nodmgspread","payload","uncletopia"],"game_id":440,"stv_port":27026,"stv_name":"Uncletopia | Chicago | 6 | All Maps | STV","players":[{"user_id":355,"name":"Generic_Soda","steam_id":76561197993528721,"connected_time":1476000000000,"state":"active","ping":61},{"user_id":345,"name":"bear","steam_id":76561198301165813,"connected_time":2078000000000,"state":"active","ping":69},{"user_id":354,"name":"Mythical Manchild","steam_id":76561198209944361,"connected_time":1612000000000,"state":"active","ping":74},{"user_id":371,"name":"Walkiing","steam_id":76561198074473413,"connected_time":498000000000,"state":"active","ping":48},{"user_id":361,"name":"AnonymousCritter","steam_id":76561198864475187,"connected_time":864000000000,"state":"active","ping":55},{"user_id":369,"name":"Raptortastic","steam_id":76561198105613110,"connected_time":631000000000,"state":"active","ping":63},{"user_id":366,"name":"GooniOoni","steam_id":76561198102154561,"connected_time":752000000000,"state":"active","ping":46},{"user_id":360,"name":"Crisp","steam_id":76561198132644084,"connected_time":878000000000,"state":"active","ping":73},{"user_id":316,"name":"cactus eater","steam_id":76561199107499844,"connected_time":3824000000000,"state":"active","ping":119},{"user_id":376,"name":"carter","steam_id":76561198391280639,"connected_time":284000000000,"state":"active","ping":60},{"user_id":370,"name":"Galactic Grass","steam_id":76561198097983927,"connected_time":547000000000,"state":"active","ping":90},{"user_id":375,"name":"Prot4g","steam_id":76561198036164393,"connected_time":334000000000,"state":"active","ping":69},{"user_id":367,"name":"comet sooicidy","steam_id":76561198025173479,"connected_time":712000000000,"state":"active","ping":96},{"user_id":368,"name":"Tri-Dot","steam_id":76561199075186597,"connected_time":644000000000,"state":"active","ping":68},{"user_id":352,"name":"FreedomBoi69","steam_id":76561198799688963,"connected_time":1815000000000,"state":"active","ping":83},{"user_id":332,"name":"Yapple Dapple","steam_id":76561198082422815,"connected_time":2764000000000,"state":"active","ping":83},{"user_id":374,"name":"Robin","steam_id":76561198121165149,"connected_time":415000000000,"state":"active","ping":45},{"user_id":372,"name":"Angelripper","steam_id":76561198858392741,"connected_time":490000000000,"state":"active","ping":73},{"user_id":356,"name":"the man","steam_id":76561199103120314,"connected_time":1447000000000,"state":"active","ping":116},{"user_id":377,"name":"sirsmit1","steam_id":76561199129778001,"connected_time":265000000000,"state":"active","ping":89},{"user_id":378,"name":"extra salty nutz","steam_id":76561197993620971,"connected_time":260000000000,"state":"active","ping":115},{"user_id":330,"name":"GruntRule","steam_id":76561198039987143,"connected_time":3099000000000,"state":"active","ping":91},{"user_id":331,"name":"tiernan330","steam_id":76561198271912722,"connected_time":3098000000000,"state":"active","ping":73},{"user_id":348,"name":"Vali","steam_id":76561199487388562,"connected_time":2030000000000,"state":"active","ping":82}]},{"server_id":38,"name":"Uncletopia | Chicago | 7 | Stopwatch Beta","name_short":"chi-7","host":"chi-2.us.uncletopia.com","port":27035,"enabled":true,"region":"us-central","cc":"us","latitude":41.881832,"longitude":-87.62318,"reserved":0,"last_update":"0001-01-01T00:00:00Z","name_a2s":"Uncletopia | Chicago | 7 | Stopwatch Beta","protocol":17,"map":"pl_borneo","folder":"tf","game":"Team Fortress","app_id":440,"player_count":0,"max_players":24,"Bots":0,"server_type":"Dedicated","server_os":"Linux","password":true,"vac":true,"version":"7932396","steam_id":85568392924866364,"keywords":["nocrits","nodmgspread","payload","uncletopia"],"game_id":440,"stv_port":27036,"stv_name":"Uncletopia | Chicago | 7 | Stopwatch Beta | STV","players":null},{"server_id":39,"name":"Uncletopia | Chicago | 8 | Community","name_short":"chi-8","host":"chi-2.us.uncletopia.com","port":27045,"enabled":true,"region":"us-central","cc":"us","latitude":41.881832,"longitude":-87.62318,"reserved":0,"last_update":"0001-01-01T00:00:00Z","name_a2s":"Uncletopia | Chicago | 8 | Community","protocol":17,"map":"workshop/pl_barnblitz_pro7.ugc582280235","folder":"tf","game":"Team Fortress","app_id":440,"player_count":23,"max_players":24,"Bots":0,"server_type":"Dedicated","server_os":"Linux","password":true,"vac":true,"version":"7932396","steam_id":85568392924866365,"keywords":["nocrits","nodmgspread","payload","uncletopia"],"game_id":440,"stv_port":27046,"stv_name":"Uncletopia | Chicago | 8 | Community | STV","players":[{"user_id":236,"name":"TheSquirrelofHuscurl","steam_id":76561198073379623,"connected_time":2497000000000,"state":"active","ping":94},{"user_id":237,"name":"Dr Nefario","steam_id":76561198254646194,"connected_time":2485000000000,"state":"active","ping":60},{"user_id":225,"name":"bobby wasabi","steam_id":76561198380018244,"connected_time":3926000000000,"state":"active","ping":76},{"user_id":218,"name":"NarcolepticRock","steam_id":76561199123103642,"connected_time":4323000000000,"state":"active","ping":61},{"user_id":239,"name":"sock","steam_id":76561199117597830,"connected_time":2422000000000,"state":"active","ping":61},{"user_id":215,"name":"Rin \"Hindwing\" Redtail","steam_id":76561199074865638,"connected_time":4517000000000,"state":"active","ping":74},{"user_id":256,"name":"Jfrvl Gvl","steam_id":76561199013465852,"connected_time":1728000000000,"state":"active","ping":69},{"user_id":260,"name":"The Wise Guy","steam_id":76561198031080216,"connected_time":1249000000000,"state":"active","ping":76},{"user_id":240,"name":"DoubleX2000","steam_id":76561198164134387,"connected_time":2412000000000,"state":"active","ping":104},{"user_id":227,"name":"Erce","steam_id":76561198183481573,"connected_time":3655000000000,"state":"active","ping":68},{"user_id":261,"name":"Mushman","steam_id":76561198163936154,"connected_time":886000000000,"state":"active","ping":92},{"user_id":195,"name":"Nicobalt-60","steam_id":76561198062868441,"connected_time":5559000000000,"state":"active","ping":87},{"user_id":259,"name":"Jade Jetts [She/They]","steam_id":76561198206130076,"connected_time":1285000000000,"state":"active","ping":105},{"user_id":257,"name":"â˜†ShinyMew112","steam_id":76561198042820161,"connected_time":1468000000000,"state":"active","ping":55},{"user_id":242,"name":"Fuzzy","steam_id":76561199100612353,"connected_time":2349000000000,"state":"active","ping":57},{"user_id":216,"name":"aiden","steam_id":76561198449527009,"connected_time":4496000000000,"state":"active","ping":90},{"user_id":234,"name":"Hob-Goblin Jim The IV","steam_id":76561199046650666,"connected_time":3028000000000,"state":"active","ping":61},{"user_id":223,"name":"Rudolph Jermaine Gillespie","steam_id":76561198271964253,"connected_time":3958000000000,"state":"active","ping":79},{"user_id":209,"name":"Digitic","steam_id":76561198080295536,"connected_time":4926000000000,"state":"active","ping":82},{"user_id":263,"name":"Torrensz64(But weezer)","steam_id":76561198239036482,"connected_time":135000000000,"state":"active","ping":50},{"user_id":248,"name":"DAS MUTTERRECHT","steam_id":76561198075608405,"connected_time":2100000000000,"state":"active","ping":95},{"user_id":264,"name":"Ace Chromatica","steam_id":76561198042211131,"connected_time":132000000000,"state":"active","ping":55},{"user_id":255,"name":"get rotated idiot","steam_id":76561198045724540,"connected_time":1801000000000,"state":"active","ping":119}]},{"server_id":8,"name":"Uncletopia | Dallas | 1 | All Maps","name_short":"dal-1","host":"dal-1.us.uncletopia.com","port":27015,"enabled":true,"region":"us-central","cc":"us","latitude":32.779167,"longitude":-96.80889,"reserved":0,"last_update":"0001-01-01T00:00:00Z","name_a2s":"Uncletopia | Dallas | 1 | All Maps","protocol":17,"map":"cp_mercenarypark","folder":"tf","game":"Team Fortress","app_id":440,"player_count":24,"max_players":24,"Bots":0,"server_type":"Dedicated","server_os":"Linux","password":true,"vac":true,"version":"7932396","steam_id":85568392924469986,"keywords":["cp","nocrits","nodmgspread","uncletopia"],"game_id":440,"stv_port":27016,"stv_name":"Uncletopia | Dallas | 1 | All Maps | STV","players":[{"user_id":665,"name":"zam","steam_id":76561198295713840,"connected_time":3386000000000,"state":"active","ping":67},{"user_id":664,"name":"flame","steam_id":76561198079321914,"connected_time":3458000000000,"state":"active","ping":94},{"user_id":716,"name":"Wiscipline","steam_id":76561198019206178,"connected_time":216000000000,"state":"active","ping":89},{"user_id":648,"name":"Darling","steam_id":76561198127525888,"connected_time":3817000000000,"state":"active","ping":46},{"user_id":702,"name":"the pigeonkicker","steam_id":76561199078815637,"connected_time":1336000000000,"state":"active","ping":98},{"user_id":705,"name":"DrMisteryous2","steam_id":76561198336307012,"connected_time":1177000000000,"state":"active","ping":190},{"user_id":708,"name":"bulbasaur890","steam_id":76561198093443639,"connected_time":809000000000,"state":"active","ping":51},{"user_id":693,"name":"5mech","steam_id":76561198979167520,"connected_time":1590000000000,"state":"active","ping":47},{"user_id":697,"name":"ChickenzRcoul","steam_id":76561199187193665,"connected_time":1412000000000,"state":"active","ping":62},{"user_id":707,"name":"willangpat","steam_id":76561199106970878,"connected_time":876000000000,"state":"active","ping":111},{"user_id":706,"name":"basilberry","steam_id":76561198145275937,"connected_time":1011000000000,"state":"active","ping":62},{"user_id":709,"name":"Tuvok Shakur","steam_id":76561198018875334,"connected_time":770000000000,"state":"active","ping":75},{"user_id":710,"name":"TECHNONEKO","steam_id":76561198094040998,"connected_time":707000000000,"state":"active","ping":77},{"user_id":717,"name":"Flubby","steam_id":76561198069171252,"connected_time":201000000000,"state":"active","ping":60},{"user_id":712,"name":"Blazing Hyena","steam_id":76561199121852680,"connected_time":644000000000,"state":"active","ping":83},{"user_id":680,"name":"oh the treachery","steam_id":76561198127851014,"connected_time":2609000000000,"state":"active","ping":45},{"user_id":713,"name":"havarti gaming","steam_id":76561198069895678,"connected_time":303000000000,"state":"active","ping":124},{"user_id":666,"name":"serious","steam_id":76561198089649422,"connected_time":3379000000000,"state":"active","ping":90},{"user_id":694,"name":"BADWOLF42","steam_id":76561198055447523,"connected_time":1518000000000,"state":"active","ping":54},{"user_id":676,"name":"Galactamarx","steam_id":76561198028065755,"connected_time":3042000000000,"state":"active","ping":76},{"user_id":673,"name":"nogoodnameshere","steam_id":76561199065926375,"connected_time":3196000000000,"state":"active","ping":109},{"user_id":671,"name":"TechnoBear2099","steam_id":76561198238863596,"connected_time":3298000000000,"state":"active","ping":47},{"user_id":695,"name":"Spaghetti Ball? The Bloody Hell","steam_id":76561198056848783,"connected_time":1508000000000,"state":"active","ping":50},{"user_id":704,"name":"Ferguson","steam_id":76561198121349387,"connected_time":1244000000000,"state":"active","ping":54}]},{"server_id":108,"name":"Uncletopia | Dallas | 2 | All Maps","name_short":"dal-2","host":"dal-1.us.uncletopia.com","port":27025,"enabled":true,"region":"us-central","cc":"us","latitude":32.779167,"longitude":-96.80889,"reserved":0,"last_update":"0001-01-01T00:00:00Z","name_a2s":"Uncletopia | Dallas | 2 | All Maps","protocol":17,"map":"pl_badwater","folder":"tf","game":"Team Fortress","app_id":440,"player_count":23,"max_players":24,"Bots":0,"server_type":"Dedicated","server_os":"Linux","password":true,"vac":true,"version":"7932396","steam_id":85568392924469988,"keywords":["nocrits","nodmgspread","payload","uncletopia"],"game_id":440,"stv_port":27026,"stv_name":"Uncletopia | Dallas | 2 | All Maps | STV","players":[{"user_id":415,"name":"Bubba Bass","steam_id":76561198026767327,"connected_time":3311000000000,"state":"active","ping":54},{"user_id":440,"name":"Gamerfan64","steam_id":76561198801410962,"connected_time":1003000000000,"state":"active","ping":47},{"user_id":448,"name":"Model of a Modern Major General","steam_id":76561198237304364,"connected_time":55000000000,"state":"active","ping":131},{"user_id":419,"name":"errant","steam_id":76561197961758410,"connected_time":2597000000000,"state":"active","ping":44},{"user_id":435,"name":"Heathcliff","steam_id":76561198044288534,"connected_time":1816000000000,"state":"active","ping":88},{"user_id":367,"name":"Zing","steam_id":76561198097160898,"connected_time":6443000000000,"state":"active","ping":59},{"user_id":446,"name":"PaperJamming","steam_id":76561198042335495,"connected_time":522000000000,"state":"active","ping":78},{"user_id":444,"name":"antoniov00gaming","steam_id":76561198364632073,"connected_time":825000000000,"state":"active","ping":125},{"user_id":413,"name":"Moonflower âœ¦","steam_id":76561198191782483,"connected_time":3633000000000,"state":"active","ping":50},{"user_id":442,"name":"eggzy","steam_id":76561198085439508,"connected_time":945000000000,"state":"active","ping":63},{"user_id":447,"name":"trks","steam_id":76561198233984300,"connected_time":195000000000,"state":"active","ping":72},{"user_id":431,"name":"krakowski","steam_id":76561198119536224,"connected_time":2109000000000,"state":"active","ping":79},{"user_id":443,"name":"moe","steam_id":76561198929586245,"connected_time":945000000000,"state":"active","ping":94},{"user_id":420,"name":"wildpiercy","steam_id":76561198067760414,"connected_time":2597000000000,"state":"active","ping":73},{"user_id":449,"name":"bkiller","steam_id":76561198029265697,"connected_time":46000000000,"state":"active","ping":78},{"user_id":411,"name":"mkl","steam_id":76561197986401685,"connected_time":4090000000000,"state":"active","ping":63},{"user_id":450,"name":"Team Fartpiss Poo","steam_id":76561199163591880,"connected_time":41000000000,"state":"active","ping":89},{"user_id":445,"name":"Malevo","steam_id":76561198148606522,"connected_time":669000000000,"state":"active","ping":60},{"user_id":434,"name":"Kirby.exe","steam_id":76561198242714582,"connected_time":1902000000000,"state":"active","ping":52},{"user_id":430,"name":"Arcana","steam_id":76561198120924164,"connected_time":2145000000000,"state":"active","ping":73},{"user_id":429,"name":"littlesack","steam_id":76561197960270526,"connected_time":2238000000000,"state":"active","ping":79},{"user_id":396,"name":"K2f","steam_id":76561198049600563,"connected_time":4823000000000,"state":"active","ping":90},{"user_id":439,"name":"jandajanda","steam_id":76561198235722476,"connected_time":1622000000000,"state":"active","ping":71}]},{"server_id":5,"name":"Uncletopia | Frankfurt | 1 | All Maps","name_short":"frk-1","host":"frk-1.de.uncletopia.com","port":27015,"enabled":true,"region":"eu","cc":"de","latitude":50.110924,"longitude":8.682127,"reserved":0,"last_update":"0001-01-01T00:00:00Z","name_a2s":"Uncletopia | Frankfurt | 1 | All Maps","protocol":17,"map":"cp_snakewater_final1","folder":"tf","game":"Team Fortress","app_id":440,"player_count":0,"max_players":24,"Bots":0,"server_type":"Dedicated","server_os":"Linux","password":true,"vac":true,"version":"7932396","steam_id":85568392924469989,"keywords":["cp","nocrits","nodmgspread","uncletopia"],"game_id":440,"stv_port":27016,"stv_name":"Uncletopia | Frankfurt | 1 | All Maps | STV","players":null},{"server_id":110,"name":"Uncletopia | Frankfurt | 2 | All Maps","name_short":"frk-2","host":"frk-1.de.uncletopia.com","port":27025,"enabled":true,"region":"eu","cc":"de","latitude":50.110924,"longitude":8.682127,"reserved":0,"last_update":"0001-01-01T00:00:00Z","name_a2s":"Uncletopia | Frankfurt | 2 | All Maps","protocol":17,"map":"pl_goldrush","folder":"tf","game":"Team Fortress","app_id":440,"player_count":0,"max_players":24,"Bots":0,"server_type":"Dedicated","server_os":"Linux","password":true,"vac":true,"version":"7932396","steam_id":85568392924469990,"keywords":["nocrits","nodmgspread","payload","uncletopia"],"game_id":440,"stv_port":27026,"stv_name":"Uncletopia | Frankfurt | 2 | All Maps | STV","players":null},{"server_id":308,"name":"Uncletopia | Frankfurt | 3 | All Maps","name_short":"frk-3","host":"frk-1.de.uncletopia.com","port":27035,"enabled":true,"region":"eu","cc":"de","latitude":50.110924,"longitude":8.682127,"reserved":0,"last_update":"0001-01-01T00:00:00Z","name_a2s":"Uncletopia | Frankfurt | 3 | All Maps","protocol":17,"map":"cp_sunshine","folder":"tf","game":"Team Fortress","app_id":440,"player_count":6,"max_players":24,"Bots":0,"server_type":"Dedicated","server_os":"Linux","password":true,"vac":true,"version":"7932396","steam_id":85568392924504274,"keywords":["cp","nocrits","nodmgspread","uncletopia"],"game_id":440,"stv_port":27036,"stv_name":"Uncletopia | Frankfurt | 3 | All Maps | STV","players":[{"user_id":899,"name":"shadowarrior","steam_id":76561198231304076,"connected_time":2754000000000,"state":"active","ping":168},{"user_id":956,"name":"MarciDiMarcMarc","steam_id":76561199001920688,"connected_time":1022000000000,"state":"active","ping":57},{"user_id":949,"name":"Choccy Dates","steam_id":76561198056790920,"connected_time":1352000000000,"state":"active","ping":60},{"user_id":937,"name":"SUSman","steam_id":76561199193589170,"connected_time":1763000000000,"state":"active","ping":101},{"user_id":936,"name":"Pingu","steam_id":76561198074477219,"connected_time":1773000000000,"state":"active","ping":53},{"user_id":918,"name":"Bucket","steam_id":76561199165494885,"connected_time":2349000000000,"state":"active","ping":192}]},{"server_id":309,"name":"Uncletopia | Frankfurt | 4 | All Maps","name_short":"frk-4","host":"frk-1.de.uncletopia.com","port":27045,"enabled":true,"region":"eu","cc":"de","latitude":50.110924,"longitude":8.682127,"reserved":0,"last_update":"0001-01-01T00:00:00Z","name_a2s":"Uncletopia | Frankfurt | 4 | All Maps","protocol":17,"map":"cp_snakewater_final1","folder":"tf","game":"Team Fortress","app_id":440,"player_count":0,"max_players":24,"Bots":0,"server_type":"Dedicated","server_os":"Linux","password":true,"vac":true,"version":"7932396","steam_id":85568392924504275,"keywords":["cp","nocrits","nodmgspread","uncletopia"],"game_id":440,"stv_port":27046,"stv_name":"Uncletopia | Frankfurt | 4 | All Maps | STV","players":null},{"server_id":310,"name":"Uncletopia | Frankfurt | 5 | All Maps","name_short":"frk-5","host":"frk-1.de.uncletopia.com","port":27055,"enabled":true,"region":"eu","cc":"de","latitude":50.110924,"longitude":8.682127,"reserved":0,"last_update":"0001-01-01T00:00:00Z","name_a2s":"Uncletopia | Frankfurt | 5 | All Maps","protocol":17,"map":"koth_highpass","folder":"tf","game":"Team Fortress","app_id":440,"player_count":0,"max_players":24,"Bots":0,"server_type":"Dedicated","server_os":"Linux","password":true,"vac":true,"version":"7932396","steam_id":85568392924504277,"keywords":["cp","nocrits","nodmgspread","uncletopia"],"game_id":440,"stv_port":27056,"stv_name":"Uncletopia | Frankfurt | 5 | All Maps | STV","players":null},{"server_id":311,"name":"Uncletopia | Frankfurt | 6 | All Maps","name_short":"frk-6","host":"frk-1.de.uncletopia.com","port":27065,"enabled":true,"region":"eu","cc":"de","latitude":50.110924,"longitude":8.682127,"reserved":0,"last_update":"0001-01-01T00:00:00Z","name_a2s":"Uncletopia | Frankfurt | 6 | All Maps","protocol":17,"map":"pl_upward","folder":"tf","game":"Team Fortress","app_id":440,"player_count":24,"max_players":24,"Bots":0,"server_type":"Dedicated","server_os":"Linux","password":true,"vac":true,"version":"7932396","steam_id":85568392924504278,"keywords":["nocrits","nodmgspread","payload","uncletopia"],"game_id":440,"stv_port":27066,"stv_name":"Uncletopia | Frankfurt | 6 | All Maps | STV","players":[{"user_id":497,"name":"cuddles \u003c3","steam_id":76561198805181599,"connected_time":865000000000,"state":"active","ping":63},{"user_id":472,"name":"Famous Collector","steam_id":76561198097693666,"connected_time":2491000000000,"state":"active","ping":46},{"user_id":449,"name":"Gnaisse","steam_id":76561198010560642,"connected_time":4297000000000,"state":"active","ping":81},{"user_id":486,"name":"Burpman","steam_id":76561198022897937,"connected_time":1796000000000,"state":"active","ping":61},{"user_id":479,"name":"everything bagel","steam_id":76561198083615367,"connected_time":1895000000000,"state":"active","ping":48},{"user_id":443,"name":"flr","steam_id":76561198249327786,"connected_time":4701000000000,"state":"active","ping":61},{"user_id":492,"name":"Ch4bby","steam_id":76561198058792875,"connected_time":1487000000000,"state":"active","ping":60},{"user_id":428,"name":"cinny","steam_id":76561198832112629,"connected_time":5611000000000,"state":"active","ping":82},{"user_id":498,"name":"DarkSoulBG24","steam_id":76561198273701478,"connected_time":811000000000,"state":"active","ping":76},{"user_id":501,"name":"Nohudi","steam_id":76561198073367240,"connected_time":652000000000,"state":"active","ping":90},{"user_id":476,"name":"Samplee","steam_id":76561198063406140,"connected_time":2361000000000,"state":"active","ping":74},{"user_id":504,"name":"skubri","steam_id":76561198044361926,"connected_time":372000000000,"state":"active","ping":75},{"user_id":499,"name":"Balen","steam_id":76561198036522265,"connected_time":699000000000,"state":"active","ping":79},{"user_id":500,"name":"Astroknight","steam_id":76561198093990026,"connected_time":691000000000,"state":"active","ping":83},{"user_id":473,"name":"Silvestro","steam_id":76561198021660066,"connected_time":2489000000000,"state":"active","ping":68},{"user_id":432,"name":"Coja","steam_id":76561198083974982,"connected_time":5435000000000,"state":"active","ping":70},{"user_id":423,"name":"nedilya","steam_id":76561198039692077,"connected_time":6118000000000,"state":"active","ping":50},{"user_id":503,"name":"Door","steam_id":76561198111462976,"connected_time":502000000000,"state":"active","ping":67},{"user_id":505,"name":"berahne khosh hal","steam_id":76561198327135462,"connected_time":34000000000,"state":"active","ping":169},{"user_id":464,"name":"XL54M15Y","steam_id":76561198048250715,"connected_time":2771000000000,"state":"active","ping":47},{"user_id":414,"name":"Futatito","steam_id":76561198349648942,"connected_time":6929000000000,"state":"active","ping":89},{"user_id":415,"name":"maiden","steam_id":76561197994492154,"connected_time":6916000000000,"state":"active","ping":67},{"user_id":496,"name":"Hussain_144","steam_id":76561198346029208,"connected_time":973000000000,"state":"active","ping":189},{"user_id":425,"name":"Mau","steam_id":76561198003382595,"connected_time":5895000000000,"state":"active","ping":60}]},{"server_id":23,"name":"Uncletopia | Frankfurt | 7 | Stopwatch Beta","name_short":"frk-7","host":"frk-1.de.uncletopia.com","port":27075,"enabled":true,"region":"eu","cc":"de","latitude":50.110924,"longitude":8.682127,"reserved":0,"last_update":"0001-01-01T00:00:00Z","name_a2s":"Uncletopia | Frankfurt | 7 | Stopwatch Beta","protocol":17,"map":"pl_snowycoast","folder":"tf","game":"Team Fortress","app_id":440,"player_count":0,"max_players":24,"Bots":0,"server_type":"Dedicated","server_os":"Linux","password":true,"vac":true,"version":"7932396","steam_id":85568392924742827,"keywords":["nocrits","nodmgspread","payload","uncletopia"],"game_id":440,"stv_port":27076,"stv_name":"Uncletopia | Frankfurt | 7 | Stopwatch Beta | STV","players":null},{"server_id":24,"name":"Uncletopia | Frankfurt | 8 | Community","name_short":"frk-8","host":"frk-1.de.uncletopia.com","port":27085,"enabled":true,"region":"eu","cc":"de","latitude":50.110924,"longitude":8.682127,"reserved":0,"last_update":"0001-01-01T00:00:00Z","name_a2s":"Uncletopia | Frankfurt | 8 | Community","protocol":17,"map":"workshop/pl_fifthcurve_rc1.ugc648227046","folder":"tf","game":"Team Fortress","app_id":440,"player_count":0,"max_players":24,"Bots":0,"server_type":"Dedicated","server_os":"Linux","password":true,"vac":true,"version":"7932396","steam_id":85568392924742828,"keywords":["nocrits","nodmgspread","payload","uncletopia"],"game_id":440,"stv_port":27086,"stv_name":"Uncletopia | Frankfurt | 8 | Community | STV","players":null},{"server_id":202,"name":"Uncletopia | Hong Kong | 1 | All Maps","name_short":"hgk-1","host":"hgk-1.hk.uncletopia.com","port":27015,"enabled":true,"region":"asia","cc":"hk","latitude":22.302711,"longitude":114.177216,"reserved":0,"last_update":"0001-01-01T00:00:00Z","name_a2s":"Uncletopia | Hong Kong | 1 | All Maps","protocol":17,"map":"cp_altitude","folder":"tf","game":"Team Fortress","app_id":440,"player_count":0,"max_players":24,"Bots":0,"server_type":"Dedicated","server_os":"Linux","password":true,"vac":true,"version":"7932396","steam_id":85568392924494504,"keywords":["cp","nocrits","nodmgspread","uncletopia"],"game_id":440,"stv_port":27016,"stv_name":"Uncletopia | Hong Kong | 1 | All Maps | STV","players":null},{"server_id":1,"name":"Uncletopia | Los Angeles | 1 | All Maps","name_short":"lax-1","host":"lax-1.us.uncletopia.com","port":27015,"enabled":true,"region":"us-west","cc":"us","latitude":33.94279,"longitude":-118.41004,"reserved":0,"last_update":"0001-01-01T00:00:00Z","name_a2s":"Uncletopia | Los Angeles | 1 | All Maps","protocol":17,"map":"koth_viaduct","folder":"tf","game":"Team Fortress","app_id":440,"player_count":24,"max_players":24,"Bots":0,"server_type":"Dedicated","server_os":"Linux","password":true,"vac":true,"version":"7932396","steam_id":85568392924469991,"keywords":["cp","nocrits","nodmgspread","uncletopia"],"game_id":440,"stv_port":27016,"stv_name":"Uncletopia | Los Angeles | 1 | All Maps | STV","players":[{"user_id":590,"name":"the man who bonks","steam_id":76561199073225395,"connected_time":41000000000,"state":"active","ping":125},{"user_id":576,"name":"Brain Magic","steam_id":76561198010201477,"connected_time":827000000000,"state":"active","ping":55},{"user_id":591,"name":"chouzetsusaikawa tenshi-chan","steam_id":76561198103231699,"connected_time":39000000000,"state":"active","ping":92},{"user_id":579,"name":"fungus","steam_id":76561198155478710,"connected_time":670000000000,"state":"active","ping":42},{"user_id":580,"name":"Scrumpy_06","steam_id":76561199225798705,"connected_time":656000000000,"state":"active","ping":142},{"user_id":552,"name":"Why Me...","steam_id":76561199124019937,"connected_time":4025000000000,"state":"active","ping":68},{"user_id":541,"name":"swifthicky12op","steam_id":76561198262210064,"connected_time":4725000000000,"state":"active","ping":98},{"user_id":568,"name":"Buuw","steam_id":76561198085707714,"connected_time":1843000000000,"state":"active","ping":50},{"user_id":575,"name":"Aequalis747","steam_id":76561199456589841,"connected_time":1575000000000,"state":"active","ping":63},{"user_id":569,"name":"Tocha","steam_id":76561198119725400,"connected_time":1826000000000,"state":"active","ping":98},{"user_id":587,"name":"pt","steam_id":76561198143023330,"connected_time":317000000000,"state":"active","ping":46},{"user_id":435,"name":"Battery Acid Slurper","steam_id":76561198439793697,"connected_time":10645000000000,"state":"active","ping":134},{"user_id":572,"name":"Zycron0","steam_id":76561199122983789,"connected_time":1726000000000,"state":"active","ping":122},{"user_id":563,"name":"BrockSpread","steam_id":76561198145924402,"connected_time":2524000000000,"state":"active","ping":83},{"user_id":582,"name":"The Enigmatic Dolphin","steam_id":76561197991390953,"connected_time":524000000000,"state":"active","ping":116},{"user_id":578,"name":"Rock Kickass","steam_id":76561198450510841,"connected_time":740000000000,"state":"active","ping":76},{"user_id":584,"name":"elyina","steam_id":76561198035310295,"connected_time":489000000000,"state":"active","ping":55},{"user_id":566,"name":"laxthefreak","steam_id":76561199020449059,"connected_time":2109000000000,"state":"active","ping":117},{"user_id":554,"name":"Cpt. Dingle","steam_id":76561198025720199,"connected_time":3905000000000,"state":"active","ping":89},{"user_id":574,"name":"Still Alive","steam_id":76561198042523000,"connected_time":1693000000000,"state":"active","ping":105},{"user_id":586,"name":"silly jester","steam_id":76561198079609974,"connected_time":400000000000,"state":"active","ping":55},{"user_id":592,"name":"KittyCatMeowMeow","steam_id":76561198211632819,"connected_time":29000000000,"state":"active","ping":156},{"user_id":589,"name":"Judge Judy","steam_id":76561198009492912,"connected_time":57000000000,"state":"active","ping":71},{"user_id":562,"name":"Doctor Sex","steam_id":76561198136205032,"connected_time":2784000000000,"state":"active","ping":70}]},{"server_id":112,"name":"Uncletopia | Los Angeles | 2 | All Maps","name_short":"lax-2","host":"lax-1.us.uncletopia.com","port":27025,"enabled":true,"region":"us-west","cc":"us","latitude":33.94279,"longitude":-118.41004,"reserved":0,"last_update":"0001-01-01T00:00:00Z","name_a2s":"Uncletopia | Los Angeles | 2 | All Maps","protocol":17,"map":"koth_cascade","folder":"tf","game":"Team Fortress","app_id":440,"player_count":0,"max_players":24,"Bots":0,"server_type":"Dedicated","server_os":"Linux","password":true,"vac":true,"version":"7932396","steam_id":85568392924469992,"keywords":["cp","nocrits","nodmgspread","uncletopia"],"game_id":440,"stv_port":27026,"stv_name":"Uncletopia | Los Angeles | 2 | All Maps | STV","players":null},{"server_id":324,"name":"Uncletopia | Los Angeles | 3 | All Maps","name_short":"lax-3","host":"lax-1.us.uncletopia.com","port":27035,"enabled":true,"region":"us-west","cc":"us","latitude":33.94279,"longitude":-118.41004,"reserved":0,"last_update":"0001-01-01T00:00:00Z","name_a2s":"Uncletopia | Los Angeles | 3 | All Maps","protocol":17,"map":"pl_badwater","folder":"tf","game":"Team Fortress","app_id":440,"player_count":24,"max_players":24,"Bots":0,"server_type":"Dedicated","server_os":"Linux","password":true,"vac":true,"version":"7932396","steam_id":85568392924510198,"keywords":["nocrits","nodmgspread","payload","uncletopia"],"game_id":440,"stv_port":27036,"stv_name":"Uncletopia | Los Angeles | 3 | All Maps | STV","players":[{"user_id":58,"name":"Danny Fentanyl","steam_id":76561197970791798,"connected_time":1084000000000,"state":"active","ping":60},{"user_id":73,"name":"Ass Blaster, Disaster Master","steam_id":76561197997774469,"connected_time":20000000000,"state":"spawning","ping":29},{"user_id":55,"name":"Amogous Supreme","steam_id":76561198025476774,"connected_time":1252000000000,"state":"active","ping":65},{"user_id":25,"name":"a cat plushie","steam_id":76561198080046542,"connected_time":2470000000000,"state":"active","ping":74},{"user_id":63,"name":"Iron Argus","steam_id":76561198181088245,"connected_time":1006000000000,"state":"active","ping":135},{"user_id":67,"name":"chF","steam_id":76561198319869378,"connected_time":405000000000,"state":"active","ping":117},{"user_id":53,"name":"Jib","steam_id":76561198328210524,"connected_time":1387000000000,"state":"active","ping":37},{"user_id":23,"name":"Skyblade64","steam_id":76561198042177790,"connected_time":2663000000000,"state":"active","ping":100},{"user_id":69,"name":"Bronze Age Furvert","steam_id":76561198859118263,"connected_time":209000000000,"state":"active","ping":128},{"user_id":50,"name":"AL_Rojo","steam_id":76561199237909494,"connected_time":1660000000000,"state":"active","ping":87},{"user_id":54,"name":"Marc G","steam_id":76561198062650363,"connected_time":1368000000000,"state":"active","ping":77},{"user_id":28,"name":"Dimmerswitch","steam_id":76561198034782177,"connected_time":2439000000000,"state":"active","ping":39},{"user_id":57,"name":"tiredfisherman69","steam_id":76561199228963816,"connected_time":1145000000000,"state":"active","ping":68},{"user_id":30,"name":"ilun","steam_id":76561198042913843,"connected_time":2417000000000,"state":"active","ping":77},{"user_id":31,"name":"â—¥(â—¥â–¶_â—€â—¤)â—¤","steam_id":76561198007464245,"connected_time":2416000000000,"state":"active","ping":112},{"user_id":32,"name":"Biggest Iron","steam_id":76561199072443102,"connected_time":2411000000000,"state":"active","ping":116},{"user_id":70,"name":"dekemori","steam_id":76561198373889573,"connected_time":144000000000,"state":"active","ping":71},{"user_id":74,"name":"selvhat","steam_id":76561198114225509,"connected_time":11000000000,"state":"active","ping":59},{"user_id":35,"name":"fish LFT :)","steam_id":76561198054070811,"connected_time":2343000000000,"state":"active","ping":48},{"user_id":72,"name":"henry","steam_id":76561198034510339,"connected_time":42000000000,"state":"connecting","ping":104},{"user_id":49,"name":"FlashofAsh","steam_id":76561198400422981,"connected_time":1744000000000,"state":"active","ping":74},{"user_id":51,"name":"Silly Shark","steam_id":76561198130714378,"connected_time":1644000000000,"state":"active","ping":89},{"user_id":75,"name":"tinkerbell","steam_id":76561197978351201,"connected_time":6000000000,"state":"spawning","ping":102},{"user_id":56,"name":"Cooliflower","steam_id":76561198061731211,"connected_time":1189000000000,"state":"active","ping":84}]},{"server_id":25,"name":"Uncletopia | Los Angeles | 4 | Stopwatch Beta","name_short":"lax-4","host":"lax-1.us.uncletopia.com","port":27045,"enabled":true,"region":"us-west","cc":"us","latitude":33.94279,"longitude":-118.41004,"reserved":0,"last_update":"0001-01-01T00:00:00Z","name_a2s":"Uncletopia | Los Angeles | 4 | Stopwatch Beta","protocol":17,"map":"workshop/cp_process_f12.ugc2302948105","folder":"tf","game":"Team Fortress","app_id":440,"player_count":0,"max_players":24,"Bots":0,"server_type":"Dedicated","server_os":"Linux","password":true,"vac":true,"version":"7932396","steam_id":85568392924510199,"keywords":["cp","nocrits","nodmgspread","uncletopia"],"game_id":440,"stv_port":27046,"stv_name":"Uncletopia | Los Angeles | 4 | Stopwatch Beta | STV","players":null},{"server_id":11,"name":"Uncletopia | London | 1 | All Maps","name_short":"lon-1","host":"lon-1.uk.uncletopia.com","port":27015,"enabled":true,"region":"eu","cc":"gb","latitude":51.509865,"longitude":-0.118092,"reserved":0,"last_update":"0001-01-01T00:00:00Z","name_a2s":"Uncletopia | London | 1 | All Maps","protocol":17,"map":"pl_borneo","folder":"tf","game":"Team Fortress","app_id":440,"player_count":24,"max_players":24,"Bots":0,"server_type":"Dedicated","server_os":"Linux","password":true,"vac":true,"version":"7932396","steam_id":85568392924367362,"keywords":["nocrits","nodmgspread","payload","uncletopia"],"game_id":440,"stv_port":27016,"stv_name":"Uncletopia | London | 1 | All Maps | STV","players":[{"user_id":619,"name":"Minimi","steam_id":76561198873850443,"connected_time":5888000000000,"state":"active","ping":41},{"user_id":624,"name":"gnarly business","steam_id":76561198832688767,"connected_time":4653000000000,"state":"active","ping":46},{"user_id":664,"name":"TheBlueJay75","steam_id":76561198124751291,"connected_time":896000000000,"state":"active","ping":147},{"user_id":647,"name":"Faustino","steam_id":76561198061771785,"connected_time":2382000000000,"state":"active","ping":82},{"user_id":667,"name":"Dr.Disrespect","steam_id":76561198043820228,"connected_time":469000000000,"state":"active","ping":59},{"user_id":668,"name":"Dan the man","steam_id":76561197993573576,"connected_time":297000000000,"state":"active","ping":80},{"user_id":662,"name":"Son Goku","steam_id":76561199383437138,"connected_time":921000000000,"state":"active","ping":119},{"user_id":578,"name":"Mr_Pulse_","steam_id":76561198095001602,"connected_time":11376000000000,"state":"active","ping":101},{"user_id":644,"name":"Christmas Ham","steam_id":76561198119601623,"connected_time":2717000000000,"state":"active","ping":51},{"user_id":633,"name":"AnanasGerste","steam_id":76561198133825211,"connected_time":3581000000000,"state":"active","ping":45},{"user_id":632,"name":"slippin jimmy","steam_id":76561198090788590,"connected_time":3582000000000,"state":"active","ping":42},{"user_id":663,"name":"ArmedWithWings","steam_id":76561198154615474,"connected_time":920000000000,"state":"active","ping":97},{"user_id":621,"name":"teddy","steam_id":76561198007436837,"connected_time":5664000000000,"state":"active","ping":30},{"user_id":625,"name":"MagPootis","steam_id":76561198157065778,"connected_time":4638000000000,"state":"active","ping":77},{"user_id":638,"name":"Lyncurion","steam_id":76561199260022725,"connected_time":3518000000000,"state":"active","ping":81},{"user_id":655,"name":"Zina Tv","steam_id":76561198116530769,"connected_time":1490000000000,"state":"active","ping":93},{"user_id":666,"name":"Kick gibus-engineers","steam_id":76561198046368451,"connected_time":622000000000,"state":"active","ping":101},{"user_id":658,"name":"legalize nuclear bombs","steam_id":76561198061107149,"connected_time":996000000000,"state":"active","ping":92},{"user_id":661,"name":"mercedes ben","steam_id":76561198000147423,"connected_time":973000000000,"state":"active","ping":44},{"user_id":614,"name":"beebo","steam_id":76561199120277007,"connected_time":6851000000000,"state":"active","ping":47},{"user_id":634,"name":"LIGHTWEIGHT BABY","steam_id":76561198002761980,"connected_time":3568000000000,"state":"active","ping":60},{"user_id":650,"name":"Genesis","steam_id":76561198999652040,"connected_time":2215000000000,"state":"active","ping":55},{"user_id":657,"name":"H-say","steam_id":76561198177400362,"connected_time":1430000000000,"state":"active","ping":97},{"user_id":601,"name":"sora","steam_id":76561198096547662,"connected_time":8238000000000,"state":"active","ping":57}]},{"server_id":114,"name":"Uncletopia | London | 2 | All Maps","name_short":"lon-2","host":"lon-1.uk.uncletopia.com","port":27025,"enabled":true,"region":"eu","cc":"gb","latitude":51.509865,"longitude":-0.118092,"reserved":0,"last_update":"0001-01-01T00:00:00Z","name_a2s":"Uncletopia | London | 2 | All Maps","protocol":17,"map":"pl_swiftwater_final1","folder":"tf","game":"Team Fortress","app_id":440,"player_count":24,"max_players":24,"Bots":0,"server_type":"Dedicated","server_os":"Linux","password":true,"vac":true,"version":"7932396","steam_id":85568392924470941,"keywords":["nocrits","nodmgspread","payload","uncletopia"],"game_id":440,"stv_port":27026,"stv_name":"Uncletopia | London | 2 | All Maps | STV","players":[{"user_id":791,"name":"roygbiv","steam_id":76561198344281978,"connected_time":915000000000,"state":"active","ping":56},{"user_id":792,"name":"JadeBun","steam_id":76561198118242806,"connected_time":906000000000,"state":"active","ping":148},{"user_id":801,"name":"Alpaca","steam_id":76561198029839079,"connected_time":231000000000,"state":"active","ping":46},{"user_id":800,"name":"Lempii","steam_id":76561198433507634,"connected_time":344000000000,"state":"active","ping":91},{"user_id":763,"name":"SPOOKY_","steam_id":76561198073395404,"connected_time":2787000000000,"state":"active","ping":74},{"user_id":802,"name":"NerfHerder","steam_id":76561198095128450,"connected_time":112000000000,"state":"spawning","ping":51},{"user_id":775,"name":"Donutellaî„ƒ","steam_id":76561198193972491,"connected_time":2009000000000,"state":"active","ping":44},{"user_id":803,"name":"God's Silliest Little Jester","steam_id":76561197987168654,"connected_time":100000000000,"state":"active","ping":58},{"user_id":785,"name":"Mecha","steam_id":76561198094531215,"connected_time":1111000000000,"state":"active","ping":126},{"user_id":762,"name":"(no monitor) ayylien","steam_id":76561198042127970,"connected_time":3063000000000,"state":"active","ping":137},{"user_id":804,"name":"ItsJustReno","steam_id":76561198431390404,"connected_time":77000000000,"state":"active","ping":57},{"user_id":799,"name":"Ursy","steam_id":76561198045898897,"connected_time":373000000000,"state":"active","ping":88},{"user_id":772,"name":"POZO chachiply","steam_id":76561198316355509,"connected_time":2062000000000,"state":"active","ping":72},{"user_id":787,"name":"JakeLemons","steam_id":76561198065945816,"connected_time":1105000000000,"state":"active","ping":149},{"user_id":776,"name":"etc","steam_id":76561197998394797,"connected_time":1995000000000,"state":"active","ping":52},{"user_id":788,"name":"Phreaker","steam_id":76561198065649351,"connected_time":1101000000000,"state":"active","ping":38},{"user_id":789,"name":"AQUÎ›RIA","steam_id":76561198065592204,"connected_time":1077000000000,"state":"active","ping":130},{"user_id":741,"name":"duped","steam_id":76561199003445591,"connected_time":5534000000000,"state":"active","ping":68},{"user_id":795,"name":"in the house like carpet","steam_id":76561199480942903,"connected_time":827000000000,"state":"active","ping":75},{"user_id":793,"name":"Slipsy","steam_id":76561198341574668,"connected_time":875000000000,"state":"active","ping":56},{"user_id":779,"name":"wal","steam_id":76561198066043883,"connected_time":1339000000000,"state":"active","ping":46},{"user_id":774,"name":"hardstyle","steam_id":76561198091840184,"connected_time":2051000000000,"state":"active","ping":48},{"user_id":805,"name":"Pakistani Patriot 2012","steam_id":76561199062091123,"connected_time":16000000000,"state":"active","ping":52},{"user_id":731,"name":"Osaka","steam_id":76561198088909286,"connected_time":6408000000000,"state":"active","ping":75}]},{"server_id":320,"name":"Uncletopia | London | 3 | All Maps","name_short":"lon-3","host":"lon-1.uk.uncletopia.com","port":27035,"enabled":true,"region":"eu","cc":"gb","latitude":51.509865,"longitude":-0.118092,"reserved":0,"last_update":"0001-01-01T00:00:00Z","name_a2s":"Uncletopia | London | 3 | All Maps","protocol":17,"map":"koth_highpass","folder":"tf","game":"Team Fortress","app_id":440,"player_count":0,"max_players":24,"Bots":0,"server_type":"Dedicated","server_os":"Linux","password":true,"vac":true,"version":"7932396","steam_id":85568392924510192,"keywords":["cp","nocrits","nodmgspread","uncletopia"],"game_id":440,"stv_port":27036,"stv_name":"Uncletopia | London | 3 | All Maps | STV","players":null},{"server_id":321,"name":"Uncletopia | London | 4 | All Maps","name_short":"lon-4","host":"lon-1.uk.uncletopia.com","port":27045,"enabled":true,"region":"eu","cc":"gb","latitude":51.509865,"longitude":-0.118092,"reserved":0,"last_update":"0001-01-01T00:00:00Z","name_a2s":"Uncletopia | London | 4 | All Maps","protocol":17,"map":"cp_snakewater_final1","folder":"tf","game":"Team Fortress","app_id":440,"player_count":0,"max_players":24,"Bots":0,"server_type":"Dedicated","server_os":"Linux","password":true,"vac":true,"version":"7932396","steam_id":85568392924510193,"keywords":["cp","nocrits","nodmgspread","uncletopia"],"game_id":440,"stv_port":27046,"stv_name":"Uncletopia | London | 4 | All Maps | STV","players":null},{"server_id":21,"name":"Uncletopia | London | 5 | All Maps","name_short":"lon-5","host":"lon-1.uk.uncletopia.com","port":27055,"enabled":true,"region":"eu","cc":"gb","latitude":51.509865,"longitude":-0.118092,"reserved":0,"last_update":"0001-01-01T00:00:00Z","name_a2s":"Uncletopia | London | 5 | All Maps","protocol":17,"map":"koth_lakeside_final","folder":"tf","game":"Team Fortress","app_id":440,"player_count":4,"max_players":24,"Bots":0,"server_type":"Dedicated","server_os":"Linux","password":true,"vac":true,"version":"7932396","steam_id":85568392924742829,"keywords":["cp","nocrits","nodmgspread","uncletopia"],"game_id":440,"stv_port":27056,"stv_name":"Uncletopia | London | 5 | All Maps | STV","players":[{"user_id":869,"name":"Mobster Tortoise","steam_id":76561199036837091,"connected_time":803000000000,"state":"active","ping":87},{"user_id":867,"name":"Moon","steam_id":76561198808108594,"connected_time":953000000000,"state":"active","ping":94},{"user_id":868,"name":"mrbeast109385079350229083479082","steam_id":76561198370687830,"connected_time":952000000000,"state":"active","ping":114},{"user_id":870,"name":"orange_blossom","steam_id":76561198060141884,"connected_time":660000000000,"state":"active","ping":62}]},{"server_id":22,"name":"Uncletopia | London | 6 | All Maps","name_short":"lon-6","host":"lon-1.uk.uncletopia.com","port":27065,"enabled":true,"region":"eu","cc":"gb","latitude":51.509865,"longitude":-0.118092,"reserved":0,"last_update":"0001-01-01T00:00:00Z","name_a2s":"Uncletopia | London | 6 | All Maps","protocol":17,"map":"pl_badwater","folder":"tf","game":"Team Fortress","app_id":440,"player_count":23,"max_players":24,"Bots":0,"server_type":"Dedicated","server_os":"Linux","password":true,"vac":true,"version":"7932396","steam_id":85568392924742830,"keywords":["nocrits","nodmgspread","payload","uncletopia"],"game_id":440,"stv_port":27066,"stv_name":"Uncletopia | London | 6 | All Maps | STV","players":[{"user_id":590,"name":"10SinkingSummer10","steam_id":76561199051749044,"connected_time":864000000000,"state":"active","ping":49},{"user_id":585,"name":"MR ASSMAN","steam_id":76561198206227241,"connected_time":1436000000000,"state":"active","ping":57},{"user_id":600,"name":"Grenade The green goblin.","steam_id":76561197979603871,"connected_time":328000000000,"state":"active","ping":62},{"user_id":598,"name":"Dr.Kentuki","steam_id":76561199005328153,"connected_time":373000000000,"state":"active","ping":100},{"user_id":579,"name":"Transbian mommy GF","steam_id":76561198153233822,"connected_time":1528000000000,"state":"active","ping":146},{"user_id":556,"name":"Lambda","steam_id":76561198313133913,"connected_time":4500000000000,"state":"active","ping":63},{"user_id":580,"name":"Well-seasoned mokI","steam_id":76561198964028825,"connected_time":1519000000000,"state":"active","ping":50},{"user_id":581,"name":"O'brien","steam_id":76561198289339403,"connected_time":1505000000000,"state":"active","ping":160},{"user_id":593,"name":"C.H.E.R.E.P.","steam_id":76561198026938595,"connected_time":592000000000,"state":"active","ping":75},{"user_id":589,"name":"mysterious stranger","steam_id":76561199061893308,"connected_time":1064000000000,"state":"active","ping":106},{"user_id":603,"name":"aight","steam_id":76561198174474613,"connected_time":211000000000,"state":"active","ping":40},{"user_id":594,"name":"garfield telephone","steam_id":76561199121717685,"connected_time":525000000000,"state":"active","ping":66},{"user_id":595,"name":"frosty","steam_id":76561198094560834,"connected_time":447000000000,"state":"active","ping":53},{"user_id":596,"name":"dd","steam_id":76561198257836694,"connected_time":405000000000,"state":"active","ping":39},{"user_id":597,"name":"Johan","steam_id":76561199380849468,"connected_time":400000000000,"state":"active","ping":60},{"user_id":599,"name":"Jospeh","steam_id":76561198120930790,"connected_time":373000000000,"state":"active","ping":43},{"user_id":559,"name":"Zedifo","steam_id":76561198044032070,"connected_time":4445000000000,"state":"active","ping":42},{"user_id":602,"name":"Zenssei","steam_id":76561198209895623,"connected_time":278000000000,"state":"active","ping":106},{"user_id":574,"name":"random_player691","steam_id":76561199209946306,"connected_time":1957000000000,"state":"active","ping":49},{"user_id":604,"name":"Bobirulez","steam_id":76561198009125458,"connected_time":191000000000,"state":"active","ping":75},{"user_id":605,"name":"BoBunny McGlitter","steam_id":76561198057403817,"connected_time":175000000000,"state":"active","ping":72},{"user_id":606,"name":"LeafConsumer","steam_id":76561198866802561,"connected_time":124000000000,"state":"active","ping":52},{"user_id":607,"name":"ÙØ¯ ÙˆØ§Ø­Ø¯ Ø¹Ø±Ø§Ù‚ÙŠ","steam_id":76561199058257545,"connected_time":52000000000,"state":"active","ping":137}]},{"server_id":40,"name":"Uncletopia | London | 7 | No Payload","name_short":"lon-7","host":"lon-1.uk.uncletopia.com","port":27075,"enabled":true,"region":"eu","cc":"gb","latitude":51.509865,"longitude":-0.118092,"reserved":0,"last_update":"0001-01-01T00:00:00Z","name_a2s":"Uncletopia | London | 7 | No Payload","protocol":17,"map":"cp_coldfront","folder":"tf","game":"Team Fortress","app_id":440,"player_count":0,"max_players":24,"Bots":0,"server_type":"Dedicated","server_os":"Linux","password":true,"vac":true,"version":"7932396","steam_id":85568392924964314,"keywords":["cp","nocrits","nodmgspread","uncletopia"],"game_id":440,"stv_port":27076,"stv_name":"Uncletopia | London | 7 | No Payload | STV","players":null},{"server_id":41,"name":"Uncletopia | London | 8 | Community","name_short":"lon-8","host":"lon-1.uk.uncletopia.com","port":27085,"enabled":true,"region":"eu","cc":"gb","latitude":51.509865,"longitude":-0.118092,"reserved":0,"last_update":"0001-01-01T00:00:00Z","name_a2s":"Uncletopia | London | 8 | Community","protocol":17,"map":"workshop/cp_hazyfort_rc6.ugc1365963729","folder":"tf","game":"Team Fortress","app_id":440,"player_count":0,"max_players":24,"Bots":0,"server_type":"Dedicated","server_os":"Linux","password":true,"vac":true,"version":"7932396","steam_id":85568392924964315,"keywords":["cp","nocrits","nodmgspread","uncletopia"],"game_id":440,"stv_port":27086,"stv_name":"Uncletopia | London | 8 | Community | STV","players":null},{"server_id":300,"name":"Uncletopia | MontrÃ©al | 1 | All Maps","name_short":"mtl-1","host":"mtl-1.ca.uncletopia.com","port":27015,"enabled":true,"region":"us-east","cc":"ca","latitude":45.50889,"longitude":-73.56167,"reserved":0,"last_update":"0001-01-01T00:00:00Z","name_a2s":"Uncletopia | MontrÃ©al | 1 | All Maps","protocol":17,"map":"pl_snowycoast","folder":"tf","game":"Team Fortress","app_id":440,"player_count":0,"max_players":24,"Bots":0,"server_type":"Dedicated","server_os":"Linux","password":true,"vac":true,"version":"7932396","steam_id":85568392924500087,"keywords":["nocrits","nodmgspread","payload","uncletopia"],"game_id":440,"stv_port":27016,"stv_name":"Uncletopia | MontrÃ©al | 1 | All Maps | STV","players":null},{"server_id":301,"name":"Uncletopia | MontrÃ©al | 2 | All Maps","name_short":"mtl-2","host":"mtl-1.ca.uncletopia.com","port":27025,"enabled":true,"region":"us-east","cc":"ca","latitude":45.50889,"longitude":-73.56167,"reserved":0,"last_update":"0001-01-01T00:00:00Z","name_a2s":"Uncletopia | MontrÃ©al | 2 | All Maps","protocol":17,"map":"pl_borneo","folder":"tf","game":"Team Fortress","app_id":440,"player_count":0,"max_players":24,"Bots":0,"server_type":"Dedicated","server_os":"Linux","password":true,"vac":true,"version":"7932396","steam_id":85568392924500088,"keywords":["nocrits","nodmgspread","payload","uncletopia"],"game_id":440,"stv_port":27026,"stv_name":"Uncletopia | MontrÃ©al | 2 | All Maps | STV","players":null},{"server_id":302,"name":"Uncletopia | MontrÃ©al | 3 | All Maps","name_short":"mtl-3","host":"mtl-1.ca.uncletopia.com","port":27035,"enabled":true,"region":"us-east","cc":"ca","latitude":45.50889,"longitude":-73.56167,"reserved":0,"last_update":"0001-01-01T00:00:00Z","name_a2s":"Uncletopia | MontrÃ©al | 3 | All Maps","protocol":17,"map":"cp_process_final","folder":"tf","game":"Team Fortress","app_id":440,"player_count":0,"max_players":24,"Bots":0,"server_type":"Dedicated","server_os":"Linux","password":true,"vac":true,"version":"7932396","steam_id":85568392924500089,"keywords":["cp","nocrits","nodmgspread","uncletopia"],"game_id":440,"stv_port":27036,"stv_name":"Uncletopia | MontrÃ©al | 3 | All Maps | STV","players":null},{"server_id":303,"name":"Uncletopia | MontrÃ©al | 4 | No Payload","name_short":"mtl-4","host":"mtl-1.ca.uncletopia.com","port":27045,"enabled":true,"region":"us-east","cc":"ca","latitude":45.50889,"longitude":-73.56167,"reserved":0,"last_update":"0001-01-01T00:00:00Z","name_a2s":"Uncletopia | MontrÃ©al | 4 | No Payload","protocol":17,"map":"cp_5gorge","folder":"tf","game":"Team Fortress","app_id":440,"player_count":0,"max_players":24,"Bots":0,"server_type":"Dedicated","server_os":"Linux","password":true,"vac":true,"version":"7932396","steam_id":85568392924500090,"keywords":["cp","nocrits","nodmgspread","uncletopia"],"game_id":440,"stv_port":27046,"stv_name":"Uncletopia | MontrÃ©al | 4 | No Payload | STV","players":null},{"server_id":13,"name":"Uncletopia | New York City | 1 | All Maps","name_short":"nyc-1","host":"nyc-1.us.uncletopia.com","port":27015,"enabled":true,"region":"us-east","cc":"us","latitude":40.73061,"longitude":-73.93524,"reserved":0,"last_update":"0001-01-01T00:00:00Z","name_a2s":"Uncletopia | New York City | 1 | All Maps","protocol":17,"map":"cp_snakewater_final1","folder":"tf","game":"Team Fortress","app_id":440,"player_count":24,"max_players":24,"Bots":0,"server_type":"Dedicated","server_os":"Linux","password":true,"vac":true,"version":"7932396","steam_id":85568392924469993,"keywords":["cp","nocrits","nodmgspread","uncletopia"],"game_id":440,"stv_port":27016,"stv_name":"Uncletopia | New York City | 1 | All Maps | STV","players":[{"user_id":453,"name":"The_Epic_Conclusion","steam_id":76561198084250179,"connected_time":4395000000000,"state":"active","ping":56},{"user_id":520,"name":"NovaHibiscus","steam_id":76561199151185588,"connected_time":223000000000,"state":"active","ping":91},{"user_id":517,"name":"Draco6257","steam_id":76561199147322448,"connected_time":566000000000,"state":"active","ping":33},{"user_id":525,"name":"Gandlaf","steam_id":76561198056184041,"connected_time":19000000000,"state":"active","ping":66},{"user_id":515,"name":"chiswola","steam_id":76561198046920142,"connected_time":722000000000,"state":"active","ping":94},{"user_id":516,"name":"A Puppy","steam_id":76561198828184456,"connected_time":637000000000,"state":"active","ping":45},{"user_id":470,"name":"gIBBY","steam_id":76561198080099598,"connected_time":3204000000000,"state":"active","ping":44},{"user_id":512,"name":"St. Michael","steam_id":76561198037611052,"connected_time":839000000000,"state":"active","ping":88},{"user_id":511,"name":"lost in spaaaaace","steam_id":76561199085974120,"connected_time":1282000000000,"state":"active","ping":56},{"user_id":507,"name":"Queso2469","steam_id":76561197993024580,"connected_time":1597000000000,"state":"active","ping":45},{"user_id":436,"name":"goon squad","steam_id":76561198402168146,"connected_time":6238000000000,"state":"active","ping":60},{"user_id":513,"name":"LiftN","steam_id":76561198167974713,"connected_time":817000000000,"state":"active","ping":66},{"user_id":442,"name":"philipibba1","steam_id":76561199470534991,"connected_time":5535000000000,"state":"active","ping":140},{"user_id":518,"name":"imnotadoctor","steam_id":76561199012642245,"connected_time":291000000000,"state":"active","ping":115},{"user_id":494,"name":"spillproff (INACTIVE)","steam_id":76561198082337619,"connected_time":2087000000000,"state":"active","ping":50},{"user_id":478,"name":"J21","steam_id":76561198066590783,"connected_time":2897000000000,"state":"active","ping":59},{"user_id":523,"name":"Cold shoulder","steam_id":76561198453824178,"connected_time":108000000000,"state":"active","ping":130},{"user_id":489,"name":"ItKiwi","steam_id":76561198076425607,"connected_time":2410000000000,"state":"active","ping":89},{"user_id":496,"name":"scrapheap","steam_id":76561198202407087,"connected_time":1908000000000,"state":"active","ping":86},{"user_id":504,"name":"FLORAL COMPUTING","steam_id":76561199056492130,"connected_time":1664000000000,"state":"active","ping":50},{"user_id":526,"name":"CrackpotHamster","steam_id":76561198058410220,"connected_time":14000000000,"state":"spawning","ping":348},{"user_id":514,"name":"xiPoison","steam_id":76561198064961659,"connected_time":779000000000,"state":"active","ping":69},{"user_id":519,"name":"Keyboard Warrior","steam_id":76561198152587680,"connected_time":291000000000,"state":"active","ping":110},{"user_id":484,"name":"RuinLucky","steam_id":76561199481172481,"connected_time":2815000000000,"state":"active","ping":92}]},{"server_id":14,"name":"Uncletopia | New York City | 2 | All Maps","name_short":"nyc-2","host":"nyc-1.us.uncletopia.com","port":27025,"enabled":true,"region":"us-east","cc":"us","latitude":40.73061,"longitude":-73.93524,"reserved":0,"last_update":"0001-01-01T00:00:00Z","name_a2s":"Uncletopia | New York City | 2 | All Maps","protocol":17,"map":"pl_barnblitz","folder":"tf","game":"Team Fortress","app_id":440,"player_count":24,"max_players":24,"Bots":0,"server_type":"Dedicated","server_os":"Linux","password":true,"vac":true,"version":"7932396","steam_id":85568392924469994,"keywords":["nocrits","nodmgspread","payload","uncletopia"],"game_id":440,"stv_port":27026,"stv_name":"Uncletopia | New York City | 2 | All Maps | STV","players":[{"user_id":321,"name":"Sarumon","steam_id":76561198078652494,"connected_time":96000000000,"state":"active","ping":70},{"user_id":282,"name":"***FoRgIvEn ***","steam_id":76561199216222247,"connected_time":4663000000000,"state":"active","ping":85},{"user_id":318,"name":"BiggFoot","steam_id":76561197998605599,"connected_time":1046000000000,"state":"active","ping":71},{"user_id":300,"name":"dnaak","steam_id":76561197960489193,"connected_time":2963000000000,"state":"active","ping":66},{"user_id":275,"name":"HaveADay","steam_id":76561198001086219,"connected_time":4902000000000,"state":"active","ping":59},{"user_id":322,"name":"WATERWATERWATERWATERWATER","steam_id":76561198100799021,"connected_time":92000000000,"state":"active","ping":58},{"user_id":269,"name":"DoctorPinguins","steam_id":76561198302657083,"connected_time":5056000000000,"state":"active","ping":68},{"user_id":294,"name":"0of64","steam_id":76561198376708545,"connected_time":3193000000000,"state":"active","ping":106},{"user_id":312,"name":"XFLover","steam_id":76561198108356181,"connected_time":1206000000000,"state":"active","ping":75},{"user_id":270,"name":"Robo Boss","steam_id":76561199067098696,"connected_time":5053000000000,"state":"active","ping":97},{"user_id":301,"name":"Sprinklze","steam_id":76561198163562681,"connected_time":2431000000000,"state":"active","ping":66},{"user_id":311,"name":"katryna","steam_id":76561198023440304,"connected_time":1393000000000,"state":"active","ping":75},{"user_id":303,"name":"[â˜…] AnarkisT","steam_id":76561198082699361,"connected_time":2136000000000,"state":"active","ping":68},{"user_id":323,"name":"SneakyJayMLP","steam_id":76561198969565685,"connected_time":86000000000,"state":"active","ping":70},{"user_id":315,"name":"kiobu","steam_id":76561198012914428,"connected_time":1068000000000,"state":"active","ping":75},{"user_id":316,"name":"Major_Mooseman","steam_id":76561198126438141,"connected_time":1063000000000,"state":"active","ping":91},{"user_id":324,"name":"Xrath","steam_id":76561198220741860,"connected_time":63000000000,"state":"active","ping":52},{"user_id":258,"name":"10KO!","steam_id":76561199134895220,"connected_time":6017000000000,"state":"active","ping":57},{"user_id":302,"name":"IMM0RTAL","steam_id":76561198013747901,"connected_time":2333000000000,"state":"active","ping":66},{"user_id":291,"name":"Plutia","steam_id":76561197996787193,"connected_time":3391000000000,"state":"active","ping":71},{"user_id":319,"name":"phonedirectory","steam_id":76561198102360911,"connected_time":885000000000,"state":"active","ping":76},{"user_id":320,"name":"Rock Lee in a Bikini","steam_id":76561198011204478,"connected_time":493000000000,"state":"active","ping":64},{"user_id":263,"name":"âˆ‡TEARS","steam_id":76561198740347952,"connected_time":5918000000000,"state":"active","ping":67},{"user_id":284,"name":"Penis but it rhymes with Venice","steam_id":76561197986420836,"connected_time":4467000000000,"state":"active","ping":52}]},{"server_id":15,"name":"Uncletopia | New York City | 3 | Stopwatch Beta","name_short":"nyc-3","host":"nyc-1.us.uncletopia.com","port":27035,"enabled":true,"region":"us-east","cc":"us","latitude":40.73061,"longitude":-73.93524,"reserved":0,"last_update":"0001-01-01T00:00:00Z","name_a2s":"Uncletopia | New York City | 3 | Stopwatch Beta","protocol":17,"map":"workshop/pl_barnblitz_pro7.ugc582280235","folder":"tf","game":"Team Fortress","app_id":440,"player_count":0,"max_players":24,"Bots":0,"server_type":"Dedicated","server_os":"Linux","password":true,"vac":true,"version":"7932396","steam_id":85568392924742820,"keywords":["nocrits","nodmgspread","payload","uncletopia"],"game_id":440,"stv_port":27036,"stv_name":"Uncletopia | New York City | 3 | Stopwatch Beta | STV","players":null},{"server_id":16,"name":"Uncletopia | New York City | 4 | Community","name_short":"nyc-4","host":"nyc-1.us.uncletopia.com","port":27045,"enabled":true,"region":"us-east","cc":"us","latitude":40.73061,"longitude":-73.93524,"reserved":0,"last_update":"0001-01-01T00:00:00Z","name_a2s":"Uncletopia | New York City | 4 | Community","protocol":17,"map":"workshop/koth_ashville_final.ugc2130459942","folder":"tf","game":"Team Fortress","app_id":440,"player_count":24,"max_players":24,"Bots":0,"server_type":"Dedicated","server_os":"Linux","password":true,"vac":true,"version":"7932396","steam_id":85568392924742821,"keywords":["cp","nocrits","nodmgspread","uncletopia"],"game_id":440,"stv_port":27046,"stv_name":"Uncletopia | New York City | 4 | Community | STV","players":[{"user_id":6,"name":"totally nuts","steam_id":76561198072856511,"connected_time":2845000000000,"state":"active","ping":66},{"user_id":7,"name":"big idea","steam_id":76561198799740059,"connected_time":2678000000000,"state":"active","ping":53},{"user_id":34,"name":"_cza","steam_id":76561198079793576,"connected_time":454000000000,"state":"active","ping":115},{"user_id":10,"name":"IronicallyMe","steam_id":76561198882111337,"connected_time":2585000000000,"state":"active","ping":76},{"user_id":18,"name":"Bat Georgi","steam_id":76561198361144342,"connected_time":1142000000000,"state":"active","ping":169},{"user_id":15,"name":"Snazzy_","steam_id":76561198014803098,"connected_time":1513000000000,"state":"active","ping":53},{"user_id":16,"name":"ShaqtusHD(She/Her)","steam_id":76561199138286233,"connected_time":1439000000000,"state":"active","ping":68},{"user_id":19,"name":"queefasaurus rex","steam_id":76561198143230388,"connected_time":1122000000000,"state":"active","ping":44},{"user_id":20,"name":"artichoke","steam_id":76561198980994364,"connected_time":1093000000000,"state":"active","ping":87},{"user_id":21,"name":"Mr. Call You Back","steam_id":76561198025172811,"connected_time":1072000000000,"state":"active","ping":45},{"user_id":25,"name":"Lyoen","steam_id":76561198277130371,"connected_time":856000000000,"state":"active","ping":81},{"user_id":23,"name":"Profile","steam_id":76561198966737485,"connected_time":962000000000,"state":"active","ping":151},{"user_id":39,"name":"sirmcmango","steam_id":76561199228880344,"connected_time":350000000000,"state":"active","ping":46},{"user_id":26,"name":"dr worm","steam_id":76561198105515914,"connected_time":837000000000,"state":"active","ping":90},{"user_id":29,"name":"River Î˜Î”","steam_id":76561198053228998,"connected_time":663000000000,"state":"active","ping":108},{"user_id":31,"name":"Aldinach","steam_id":76561198079912615,"connected_time":542000000000,"state":"active","ping":61},{"user_id":32,"name":"Duk","steam_id":76561198450692568,"connected_time":533000000000,"state":"active","ping":48},{"user_id":35,"name":"Skuz","steam_id":76561199039810812,"connected_time":440000000000,"state":"active","ping":76},{"user_id":36,"name":"Bheem","steam_id":76561198170453459,"connected_time":390000000000,"state":"active","ping":105},{"user_id":37,"name":"a Tyrannosaurus rex","steam_id":76561198111403595,"connected_time":368000000000,"state":"active","ping":77},{"user_id":38,"name":"-{2 wycked}- â˜…$_$â˜…","steam_id":76561198074678273,"connected_time":361000000000,"state":"active","ping":30},{"user_id":40,"name":"vermin","steam_id":76561199051975650,"connected_time":328000000000,"state":"active","ping":67},{"user_id":41,"name":"demoknight tf2","steam_id":76561198070393998,"connected_time":327000000000,"state":"active","ping":78},{"user_id":43,"name":"Halibard","steam_id":76561198011239659,"connected_time":57000000000,"state":"active","ping":99}]},{"server_id":142,"name":"Uncletopia | SÃ£o Paulo | 1 | All Maps","name_short":"sao-1","host":"sao-1.br.uncletopia.com","port":27015,"enabled":true,"region":"sa","cc":"br","latitude":-23.533773,"longitude":-46.62529,"reserved":0,"last_update":"0001-01-01T00:00:00Z","name_a2s":"Uncletopia | SÃ£o Paulo | 1 | All Maps","protocol":17,"map":"cp_dustbowl","folder":"tf","game":"Team Fortress","app_id":440,"player_count":0,"max_players":24,"Bots":0,"server_type":"Dedicated","server_os":"Linux","password":true,"vac":true,"version":"7932396","steam_id":85568392924469996,"keywords":["cp","nocrits","nodmgspread","uncletopia"],"game_id":440,"stv_port":27016,"stv_name":"Uncletopia | SÃ£o Paulo | 1 | All Maps | STV","players":null},{"server_id":143,"name":"Uncletopia | SÃ£o Paulo | 2 | All Maps","name_short":"sao-2","host":"sao-2.br.uncletopia.com","port":27015,"enabled":true,"region":"sa","cc":"br","latitude":-23.533773,"longitude":-46.62529,"reserved":0,"last_update":"0001-01-01T00:00:00Z","name_a2s":"Uncletopia | SÃ£o Paulo | 2 | All Maps","protocol":17,"map":"pl_upward","folder":"tf","game":"Team Fortress","app_id":440,"player_count":4,"max_players":24,"Bots":0,"server_type":"Dedicated","server_os":"Linux","password":true,"vac":true,"version":"7932396","steam_id":85568392924485349,"keywords":["nocrits","nodmgspread","payload","uncletopia"],"game_id":440,"stv_port":27016,"stv_name":"Uncletopia | SÃ£o Paulo | 2 | All Maps | STV","players":[{"user_id":182,"name":"Atem 286","steam_id":76561199006539437,"connected_time":2423000000000,"state":"active","ping":52},{"user_id":184,"name":"mg11a3","steam_id":76561198872798175,"connected_time":530000000000,"state":"spawning","ping":49},{"user_id":177,"name":"Imageki","steam_id":76561198057888827,"connected_time":3863000000000,"state":"active","ping":71},{"user_id":186,"name":"Evaldo","steam_id":76561198127614670,"connected_time":114000000000,"state":"active","ping":32}]},{"server_id":7,"name":"Uncletopia | Seattle | 1 | All Maps","name_short":"sea-1","host":"sea-1.us.uncletopia.com","port":27015,"enabled":true,"region":"us-west","cc":"us","latitude":47.608013,"longitude":-122.33517,"reserved":0,"last_update":"0001-01-01T00:00:00Z","name_a2s":"Uncletopia | Seattle | 1 | All Maps","protocol":17,"map":"cp_dustbowl","folder":"tf","game":"Team Fortress","app_id":440,"player_count":24,"max_players":24,"Bots":0,"server_type":"Dedicated","server_os":"Linux","password":true,"vac":true,"version":"7932396","steam_id":85568392924469997,"keywords":["cp","nocrits","nodmgspread","uncletopia"],"game_id":440,"stv_port":27016,"stv_name":"Uncletopia | Seattle | 1 | All Maps | STV","players":[{"user_id":817,"name":"Mr. DeLarge","steam_id":76561198336820066,"connected_time":4154000000000,"state":"active","ping":60},{"user_id":841,"name":"dougrocks421","steam_id":76561198165063918,"connected_time":2187000000000,"state":"active","ping":42},{"user_id":870,"name":"Jimbo","steam_id":76561198082238388,"connected_time":714000000000,"state":"active","ping":68},{"user_id":871,"name":"CookieMeister","steam_id":76561198112646899,"connected_time":713000000000,"state":"active","ping":65},{"user_id":872,"name":"CAR BATTERY","steam_id":76561199122915452,"connected_time":695000000000,"state":"active","ping":57},{"user_id":835,"name":"ChingaTuMadre.com","steam_id":76561199003163608,"connected_time":2838000000000,"state":"active","ping":117},{"user_id":877,"name":"jimmy","steam_id":76561198022650899,"connected_time":599000000000,"state":"active","ping":105},{"user_id":859,"name":"Abe","steam_id":76561199122232082,"connected_time":1330000000000,"state":"active","ping":122},{"user_id":873,"name":"laarman","steam_id":76561198273493449,"connected_time":679000000000,"state":"active","ping":129},{"user_id":850,"name":"VerminKing","steam_id":76561198060887391,"connected_time":1855000000000,"state":"active","ping":56},{"user_id":822,"name":"Weiner Cleaner","steam_id":76561198147514577,"connected_time":3797000000000,"state":"active","ping":72},{"user_id":878,"name":"iphone 7 plus","steam_id":76561198335836405,"connected_time":569000000000,"state":"active","ping":75},{"user_id":874,"name":"sammy \"dbd goat\" dablevins","steam_id":76561198824838078,"connected_time":674000000000,"state":"active","ping":141},{"user_id":851,"name":"The Quickster","steam_id":76561198087463787,"connected_time":1840000000000,"state":"active","ping":57},{"user_id":879,"name":"maiesiophile","steam_id":76561198889501613,"connected_time":535000000000,"state":"active","ping":44},{"user_id":855,"name":"Piggy","steam_id":76561198000399862,"connected_time":1607000000000,"state":"active","ping":93},{"user_id":867,"name":"Tommy Provolone","steam_id":76561198170062377,"connected_time":1020000000000,"state":"active","ping":77},{"user_id":858,"name":"Peppy","steam_id":76561198866629645,"connected_time":1468000000000,"state":"active","ping":62},{"user_id":833,"name":"Sqilliam Afton","steam_id":76561198326052355,"connected_time":2987000000000,"state":"active","ping":100},{"user_id":876,"name":"SluiceMoose","steam_id":76561198054375897,"connected_time":660000000000,"state":"active","ping":120},{"user_id":880,"name":"SKELETONTV","steam_id":76561198070606313,"connected_time":524000000000,"state":"active","ping":75},{"user_id":881,"name":"Random Person","steam_id":76561198990531385,"connected_time":508000000000,"state":"active","ping":69},{"user_id":883,"name":"Luca","steam_id":76561198125087140,"connected_time":419000000000,"state":"active","ping":57},{"user_id":866,"name":"team foolery 2","steam_id":76561199118049168,"connected_time":1098000000000,"state":"active","ping":80}]},{"server_id":119,"name":"Uncletopia | Seattle | 2 | All Maps","name_short":"sea-2","host":"sea-1.us.uncletopia.com","port":27025,"enabled":true,"region":"us-west","cc":"us","latitude":47.608013,"longitude":-122.33517,"reserved":0,"last_update":"0001-01-01T00:00:00Z","name_a2s":"Uncletopia | Seattle | 2 | All Maps","protocol":17,"map":"pl_snowycoast","folder":"tf","game":"Team Fortress","app_id":440,"player_count":24,"max_players":24,"Bots":0,"server_type":"Dedicated","server_os":"Linux","password":true,"vac":true,"version":"7932396","steam_id":85568392924469998,"keywords":["nocrits","nodmgspread","payload","uncletopia"],"game_id":440,"stv_port":27026,"stv_name":"Uncletopia | Seattle | 2 | All Maps | STV","players":[{"user_id":235,"name":"Anti swag corporation","steam_id":76561199015453645,"connected_time":2734000000000,"state":"active","ping":120},{"user_id":240,"name":"meat lewd","steam_id":76561198859028692,"connected_time":2636000000000,"state":"active","ping":39},{"user_id":267,"name":"The Super Mario Bros. Movie","steam_id":76561198871692156,"connected_time":636000000000,"state":"active","ping":51},{"user_id":268,"name":"Juan M. Maldacena","steam_id":76561198066883814,"connected_time":620000000000,"state":"active","ping":81},{"user_id":246,"name":"Right Twix","steam_id":76561198995129622,"connected_time":1974000000000,"state":"active","ping":45},{"user_id":266,"name":"imng","steam_id":76561198014988031,"connected_time":682000000000,"state":"active","ping":114},{"user_id":175,"name":"â™¦Benjiâ™¦","steam_id":76561198313529973,"connected_time":6970000000000,"state":"active","ping":47},{"user_id":272,"name":"Meet The Kazoo","steam_id":76561199229748300,"connected_time":336000000000,"state":"active","ping":84},{"user_id":265,"name":"Squashead","steam_id":76561198813564287,"connected_time":745000000000,"state":"active","ping":86},{"user_id":257,"name":"Hans","steam_id":76561199024079388,"connected_time":1253000000000,"state":"active","ping":46},{"user_id":263,"name":"rosable â˜†","steam_id":76561199164371592,"connected_time":961000000000,"state":"active","ping":122},{"user_id":253,"name":"Mocha Josie","steam_id":76561198066452726,"connected_time":1738000000000,"state":"active","ping":84},{"user_id":226,"name":"Bostonstapler","steam_id":76561197996334971,"connected_time":3620000000000,"state":"active","ping":75},{"user_id":247,"name":"The Horselords and Animal Gods","steam_id":76561197975094050,"connected_time":1964000000000,"state":"active","ping":84},{"user_id":256,"name":"Feathercake \u0026","steam_id":76561198027321950,"connected_time":1377000000000,"state":"active","ping":76},{"user_id":252,"name":"â™¥ Milo Stefferson â™¥ (Soupca","steam_id":76561198056269538,"connected_time":1851000000000,"state":"active","ping":61},{"user_id":262,"name":"Carrion","steam_id":76561198134054821,"connected_time":1015000000000,"state":"active","ping":105},{"user_id":273,"name":"SaltyFlump","steam_id":76561199379601288,"connected_time":99000000000,"state":"active","ping":63},{"user_id":227,"name":"CashGordon","steam_id":76561197975594096,"connected_time":3609000000000,"state":"active","ping":40},{"user_id":260,"name":"SecurityCamera","steam_id":76561198117266792,"connected_time":1116000000000,"state":"active","ping":91},{"user_id":254,"name":"TÌµÌ’Ì²HÌ¶ÌÌªEÌ´Í‚ÌŠÍ‰MÌ¶Ì¾Í†\ufffd","steam_id":76561198091875604,"connected_time":1688000000000,"state":"active","ping":85},{"user_id":229,"name":"Little Linguine","steam_id":76561198816986370,"connected_time":3488000000000,"state":"active","ping":70},{"user_id":184,"name":"Funbearable Ê• â€¢á´¥â€¢Ê”","steam_id":76561197968272094,"connected_time":6803000000000,"state":"active","ping":47},{"user_id":270,"name":"StarPlayz","steam_id":76561199017220262,"connected_time":552000000000,"state":"active","ping":101}]},{"server_id":406,"name":"Uncletopia | Seattle | 3 | Stopwatch Beta","name_short":"sea-3","host":"sea-1.us.uncletopia.com","port":27035,"enabled":true,"region":"us-west","cc":"us","latitude":47.608013,"longitude":-122.33517,"reserved":0,"last_update":"0001-01-01T00:00:00Z","name_a2s":"Uncletopia | Seattle | 3 | Stopwatch Beta","protocol":17,"map":"koth_highpass","folder":"tf","game":"Team Fortress","app_id":440,"player_count":0,"max_players":24,"Bots":0,"server_type":"Dedicated","server_os":"Linux","password":true,"vac":true,"version":"7932396","steam_id":85568392924515217,"keywords":["cp","nocrits","nodmgspread","uncletopia"],"game_id":440,"stv_port":27036,"stv_name":"Uncletopia | Seattle | 3 | Stopwatch Beta | STV","players":null},{"server_id":17,"name":"Uncletopia | San Francisco | 1 | All Maps","name_short":"sfo-1","host":"sfo-1.us.uncletopia.com","port":27015,"enabled":true,"region":"us-west","cc":"us","latitude":37.77397,"longitude":-122.4313,"reserved":0,"last_update":"0001-01-01T00:00:00Z","name_a2s":"Uncletopia | San Francisco | 1 | All Maps","protocol":17,"map":"pl_borneo","folder":"tf","game":"Team Fortress","app_id":440,"player_count":12,"max_players":24,"Bots":0,"server_type":"Dedicated","server_os":"Linux","password":true,"vac":true,"version":"7932396","steam_id":85568392924469999,"keywords":["nocrits","nodmgspread","payload","uncletopia"],"game_id":440,"stv_port":27016,"stv_name":"Uncletopia | San Francisco | 1 | All Maps | STV","players":[{"user_id":299,"name":"Aspa","steam_id":76561199048815630,"connected_time":5443000000000,"state":"active","ping":102},{"user_id":355,"name":"Doloramen","steam_id":76561198864103577,"connected_time":518000000000,"state":"active","ping":72},{"user_id":358,"name":"Overmeme","steam_id":76561199455124144,"connected_time":227000000000,"state":"active","ping":77},{"user_id":357,"name":"Krustytoepaste","steam_id":76561198320265524,"connected_time":333000000000,"state":"active","ping":71},{"user_id":350,"name":"Doomeister","steam_id":76561198070277587,"connected_time":863000000000,"state":"active","ping":70},{"user_id":359,"name":"Buswolley","steam_id":76561197995205571,"connected_time":219000000000,"state":"active","ping":54},{"user_id":360,"name":"VixianUwU","steam_id":76561198948815060,"connected_time":120000000000,"state":"active","ping":76},{"user_id":361,"name":"Dog","steam_id":76561198450992953,"connected_time":82000000000,"state":"active","ping":67},{"user_id":362,"name":"Kewlbeyblader","steam_id":76561199102005597,"connected_time":75000000000,"state":"active","ping":74},{"user_id":363,"name":"d'oh i missed","steam_id":76561198145320480,"connected_time":75000000000,"state":"active","ping":122},{"user_id":364,"name":"American freedom bird","steam_id":76561198366142388,"connected_time":17000000000,"state":"spawning","ping":59},{"user_id":348,"name":"Kurama_Wolf","steam_id":76561198211474724,"connected_time":943000000000,"state":"active","ping":56}]},{"server_id":18,"name":"Uncletopia | San Francisco | 2 | All Maps","name_short":"sfo-2","host":"sfo-1.us.uncletopia.com","port":27025,"enabled":true,"region":"us-west","cc":"us","latitude":37.77397,"longitude":-122.4313,"reserved":0,"last_update":"0001-01-01T00:00:00Z","name_a2s":"Uncletopia | San Francisco | 2 | All Maps","protocol":17,"map":"pl_borneo","folder":"tf","game":"Team Fortress","app_id":440,"player_count":19,"max_players":24,"Bots":0,"server_type":"Dedicated","server_os":"Linux","password":true,"vac":true,"version":"7932396","steam_id":85568392924470000,"keywords":["nocrits","nodmgspread","payload","uncletopia"],"game_id":440,"stv_port":27026,"stv_name":"Uncletopia | San Francisco | 2 | All Maps | STV","players":[{"user_id":200,"name":"ì‹¬ì¦ˆ4í”„ë¡œê²Œì´ë¨¸ì§€ë§ìƒ","steam_id":76561198301887399,"connected_time":834000000000,"state":"active","ping":180},{"user_id":195,"name":"gummygeek","steam_id":76561198244543486,"connected_time":1026000000000,"state":"active","ping":78},{"user_id":187,"name":"REDACTED_banana_887","steam_id":76561199224406093,"connected_time":1569000000000,"state":"active","ping":133},{"user_id":144,"name":"Keyboardbreaker","steam_id":76561198372836132,"connected_time":4948000000000,"state":"active","ping":63},{"user_id":193,"name":"frostedflakes99","steam_id":76561199049292578,"connected_time":1342000000000,"state":"active","ping":54},{"user_id":206,"name":"Limp Pumpo Discography Fan Club","steam_id":76561198145748479,"connected_time":10000000000,"state":"spawning","ping":74},{"user_id":158,"name":"Lychee","steam_id":76561198403878342,"connected_time":3712000000000,"state":"active","ping":39},{"user_id":184,"name":"reject drugs and embrace God","steam_id":76561198452519031,"connected_time":1926000000000,"state":"active","ping":61},{"user_id":197,"name":"Mico (Mico)","steam_id":76561198125462953,"connected_time":880000000000,"state":"active","ping":61},{"user_id":116,"name":"lili","steam_id":76561199391478575,"connected_time":6817000000000,"state":"active","ping":78},{"user_id":162,"name":"HiggsBoson","steam_id":76561198356538323,"connected_time":3591000000000,"state":"active","ping":60},{"user_id":194,"name":"HawkBlaze","steam_id":76561199000152914,"connected_time":1305000000000,"state":"active","ping":58},{"user_id":181,"name":"LeoAvocado","steam_id":76561198990298263,"connected_time":2167000000000,"state":"active","ping":129},{"user_id":204,"name":"TheEggMann","steam_id":76561197996691606,"connected_time":450000000000,"state":"active","ping":65},{"user_id":186,"name":"banan team fortes","steam_id":76561199073621650,"connected_time":1601000000000,"state":"active","ping":59},{"user_id":190,"name":"sock_vendor","steam_id":76561198059103865,"connected_time":1557000000000,"state":"active","ping":109},{"user_id":155,"name":"squart guy","steam_id":76561199411560141,"connected_time":3999000000000,"state":"active","ping":57},{"user_id":156,"name":"alset333","steam_id":76561198405345260,"connected_time":3917000000000,"state":"active","ping":106},{"user_id":164,"name":"omnislime","steam_id":76561199382475668,"connected_time":3512000000000,"state":"active","ping":100}]},{"server_id":19,"name":"Uncletopia | San Francisco | 3 | Stopwatch Beta","name_short":"sfo-3","host":"sfo-1.us.uncletopia.com","port":27035,"enabled":true,"region":"us-west","cc":"us","latitude":37.77397,"longitude":-122.4313,"reserved":0,"last_update":"0001-01-01T00:00:00Z","name_a2s":"Uncletopia | San Francisco | 3 | Stopwatch Beta","protocol":17,"map":"workshop/koth_product_final.ugc454272353","folder":"tf","game":"Team Fortress","app_id":440,"player_count":0,"max_players":24,"Bots":0,"server_type":"Dedicated","server_os":"Linux","password":true,"vac":true,"version":"7932396","steam_id":85568392924742824,"keywords":["cp","nocrits","nodmgspread","uncletopia"],"game_id":440,"stv_port":27036,"stv_name":"Uncletopia | San Francisco | 3 | Stopwatch Beta | STV","players":null},{"server_id":20,"name":"Uncletopia | San Francisco | 4 | Community","name_short":"sfo-4","host":"sfo-1.us.uncletopia.com","port":27045,"enabled":true,"region":"us-west","cc":"us","latitude":37.77397,"longitude":-122.4313,"reserved":0,"last_update":"0001-01-01T00:00:00Z","name_a2s":"Uncletopia | San Francisco | 4 | Community","protocol":17,"map":"workshop/pl_corrode_rc2.ugc546577989","folder":"tf","game":"Team Fortress","app_id":440,"player_count":0,"max_players":24,"Bots":0,"server_type":"Dedicated","server_os":"Linux","password":true,"vac":true,"version":"7932396","steam_id":85568392924742826,"keywords":["nocrits","nodmgspread","payload","uncletopia"],"game_id":440,"stv_port":27046,"stv_name":"Uncletopia | San Francisco | 4 | Community | STV","players":null},{"server_id":141,"name":"Uncletopia | Sydney | 1 | All Maps","name_short":"syd-1","host":"syd-1.au.uncletopia.com","port":27015,"enabled":true,"region":"au","cc":"au","latitude":-33.865143,"longitude":151.2099,"reserved":0,"last_update":"0001-01-01T00:00:00Z","name_a2s":"Uncletopia | Sydney | 1 | All Maps","protocol":17,"map":"cp_mountainlab","folder":"tf","game":"Team Fortress","app_id":440,"player_count":0,"max_players":24,"Bots":0,"server_type":"Dedicated","server_os":"Linux","password":true,"vac":true,"version":"7932396","steam_id":85568392924470001,"keywords":["cp","nocrits","nodmgspread","uncletopia"],"game_id":440,"stv_port":27016,"stv_name":"Uncletopia | Sydney | 1 | All Maps | STV","players":null},{"server_id":123,"name":"Uncletopia | Sydney | 2 | All Maps","name_short":"syd-2","host":"syd-1.au.uncletopia.com","port":27025,"enabled":true,"region":"au","cc":"au","latitude":-33.865143,"longitude":151.2099,"reserved":0,"last_update":"0001-01-01T00:00:00Z","name_a2s":"Uncletopia | Sydney | 2 | All Maps","protocol":17,"map":"koth_lakeside_final","folder":"tf","game":"Team Fortress","app_id":440,"player_count":0,"max_players":24,"Bots":0,"server_type":"Dedicated","server_os":"Linux","password":true,"vac":true,"version":"7932396","steam_id":85568392924470002,"keywords":["cp","nocrits","nodmgspread","uncletopia"],"game_id":440,"stv_port":27026,"stv_name":"Uncletopia | Sydney | 2 | All Maps | STV","players":null},{"server_id":395,"name":"Uncletopia | Sydney | 3 | All Maps","name_short":"syd-3","host":"syd-1.au.uncletopia.com","port":27035,"enabled":true,"region":"au","cc":"au","latitude":-33.865143,"longitude":151.2099,"reserved":0,"last_update":"0001-01-01T00:00:00Z","name_a2s":"Uncletopia | Sydney | 3 | All Maps","protocol":17,"map":"pl_barnblitz","folder":"tf","game":"Team Fortress","app_id":440,"player_count":0,"max_players":24,"Bots":0,"server_type":"Dedicated","server_os":"Linux","password":true,"vac":true,"version":"7932396","steam_id":85568392925194467,"keywords":["nocrits","nodmgspread","payload","uncletopia"],"game_id":440,"stv_port":27036,"stv_name":"Uncletopia | Sydney | 3 | All Maps | STV","players":null},{"server_id":396,"name":"Uncletopia | Sydney | 4 | All Maps","name_short":"syd-4","host":"syd-1.au.uncletopia.com","port":27045,"enabled":true,"region":"au","cc":"au","latitude":-33.865143,"longitude":151.2099,"reserved":0,"last_update":"0001-01-01T00:00:00Z","name_a2s":"Uncletopia | Sydney | 4 | All Maps","protocol":17,"map":"pl_pier","folder":"tf","game":"Team Fortress","app_id":440,"player_count":0,"max_players":24,"Bots":0,"server_type":"Dedicated","server_os":"Linux","password":true,"vac":true,"version":"7932396","steam_id":85568392925397958,"keywords":["nocrits","nodmgspread","payload","uncletopia"],"game_id":440,"stv_port":27046,"stv_name":"Uncletopia | Sydney | 4 | All Maps | STV","players":null},{"server_id":58,"name":"Uncletopia | Sydney | 5 | Stopwatch Beta","name_short":"syd-5","host":"syd-1.au.uncletopia.com","port":27055,"enabled":true,"region":"au","cc":"au","latitude":-33.865143,"longitude":151.2099,"reserved":0,"last_update":"0001-01-01T00:00:00Z","name_a2s":"Uncletopia | Sydney | 5 | Stopwatch Beta","protocol":17,"map":"pl_borneo","folder":"tf","game":"Team Fortress","app_id":440,"player_count":0,"max_players":24,"Bots":0,"server_type":"Dedicated","server_os":"Linux","password":true,"vac":true,"version":"7932396","steam_id":85568392925397959,"keywords":["nocrits","nodmgspread","payload","uncletopia"],"game_id":440,"stv_port":27056,"stv_name":"Uncletopia | Sydney | 5 | Stopwatch Beta | STV","players":null},{"server_id":59,"name":"Uncletopia | Sydney | 6 | Community","name_short":"syd-6","host":"syd-1.au.uncletopia.com","port":27065,"enabled":true,"region":"au","cc":"au","latitude":-33.865143,"longitude":151.2099,"reserved":0,"last_update":"0001-01-01T00:00:00Z","name_a2s":"Uncletopia | Sydney | 6 | Community","protocol":17,"map":"pl_badwater","folder":"tf","game":"Team Fortress","app_id":440,"player_count":0,"max_players":24,"Bots":0,"server_type":"Dedicated","server_os":"Linux","password":true,"vac":true,"version":"7932396","steam_id":85568392925397960,"keywords":["nocrits","nodmgspread","payload","uncletopia"],"game_id":440,"stv_port":27066,"stv_name":"Uncletopia | Sydney | 6 | Community | STV","players":null},{"server_id":49,"name":"Uncletopia | Warsaw | 1 | All Maps","name_short":"waw-1","host":"waw-1.pl.uncletopia.com","port":27015,"enabled":true,"region":"eu","cc":"pl","latitude":52.2297,"longitude":21.017532,"reserved":0,"last_update":"0001-01-01T00:00:00Z","name_a2s":"","protocol":0,"map":"","folder":"","game":"","app_id":0,"player_count":0,"max_players":0,"Bots":0,"server_type":"","server_os":"","password":false,"vac":false,"version":"","steam_id":0,"keywords":null,"game_id":0,"stv_port":0,"stv_name":"","players":null},{"server_id":50,"name":"Uncletopia | Warsaw | 2 | All Maps","name_short":"waw-2","host":"waw-1.pl.uncletopia.com","port":27025,"enabled":true,"region":"eu","cc":"pl","latitude":52.2297,"longitude":21.017532,"reserved":0,"last_update":"0001-01-01T00:00:00Z","name_a2s":"Uncletopia | Warsaw | 2 | All Maps","protocol":17,"map":"koth_lakeside_final","folder":"tf","game":"Team Fortress","app_id":440,"player_count":0,"max_players":24,"Bots":0,"server_type":"Dedicated","server_os":"Linux","password":true,"vac":true,"version":"7932396","steam_id":85568392925397851,"keywords":["cp","nocrits","nodmgspread","uncletopia"],"game_id":440,"stv_port":27026,"stv_name":"Uncletopia | Warsaw | 2 | All Maps | STV","players":null},{"server_id":51,"name":"Uncletopia | Warsaw | 3 | All Maps","name_short":"waw-3","host":"waw-1.pl.uncletopia.com","port":27035,"enabled":true,"region":"eu","cc":"pl","latitude":52.2297,"longitude":21.017532,"reserved":0,"last_update":"0001-01-01T00:00:00Z","name_a2s":"Uncletopia | Warsaw | 3 | All Maps","protocol":17,"map":"koth_viaduct","folder":"tf","game":"Team Fortress","app_id":440,"player_count":0,"max_players":24,"Bots":0,"server_type":"Dedicated","server_os":"Linux","password":true,"vac":true,"version":"7932396","steam_id":85568392925397852,"keywords":["cp","nocrits","nodmgspread","uncletopia"],"game_id":440,"stv_port":27036,"stv_name":"Uncletopia | Warsaw | 3 | All Maps | STV","players":null},{"server_id":52,"name":"Uncletopia | Warsaw | 4 | All Maps","name_short":"waw-4","host":"waw-1.pl.uncletopia.com","port":27045,"enabled":true,"region":"eu","cc":"pl","latitude":52.2297,"longitude":21.017532,"reserved":0,"last_update":"0001-01-01T00:00:00Z","name_a2s":"Uncletopia | Warsaw | 4 | All Maps","protocol":17,"map":"cp_sunshine","folder":"tf","game":"Team Fortress","app_id":440,"player_count":0,"max_players":24,"Bots":0,"server_type":"Dedicated","server_os":"Linux","password":true,"vac":true,"version":"7932396","steam_id":85568392925397853,"keywords":["cp","nocrits","nodmgspread","uncletopia"],"game_id":440,"stv_port":27046,"stv_name":"Uncletopia | Warsaw | 4 | All Maps | STV","players":null},{"server_id":53,"name":"Uncletopia | Warsaw | 5 | Stopwatch Beta","name_short":"waw-5","host":"waw-1.pl.uncletopia.com","port":27055,"enabled":true,"region":"eu","cc":"pl","latitude":52.2297,"longitude":21.017532,"reserved":0,"last_update":"0001-01-01T00:00:00Z","name_a2s":"Uncletopia | Warsaw | 5 | Stopwatch Beta","protocol":17,"map":"workshop/koth_bagel_rc6.ugc2514036946","folder":"tf","game":"Team Fortress","app_id":440,"player_count":0,"max_players":24,"Bots":0,"server_type":"Dedicated","server_os":"Linux","password":true,"vac":true,"version":"7932396","steam_id":85568392925397854,"keywords":["cp","nocrits","nodmgspread","uncletopia"],"game_id":440,"stv_port":27056,"stv_name":"Uncletopia | Warsaw | 5 | Stopwatch Beta | STV","players":null},{"server_id":54,"name":"Uncletopia | Warsaw | 6 | Community","name_short":"waw-6","host":"waw-1.pl.uncletopia.com","port":27065,"enabled":true,"region":"eu","cc":"pl","latitude":52.2297,"longitude":21.017532,"reserved":0,"last_update":"0001-01-01T00:00:00Z","name_a2s":"Uncletopia | Warsaw | 6 | Community","protocol":17,"map":"workshop/pl_shoreleave_rc2.ugc1238849347","folder":"tf","game":"Team Fortress","app_id":440,"player_count":0,"max_players":24,"Bots":0,"server_type":"Dedicated","server_os":"Linux","password":true,"vac":true,"version":"7932396","steam_id":85568392925397856,"keywords":["nocrits","nodmgspread","payload","uncletopia"],"game_id":440,"stv_port":27066,"stv_name":"Uncletopia | Warsaw | 6 | Community | STV","players":null}]}