{"status":true,"message":"","result":[{"server_id":9,"name":"Uncletopia | Atlanta | 1 | All Maps","name_short":"atl-1","host":"atl-1.us.uncletopia.com","port":27015,"enabled":true,"region":"us-east","cc":"us","latitude":33.753746,"longitude":-84.38633,"reserved":0,"last_update":"0001-01-01T00:00:00Z","name_a2s":"Uncletopia | Atlanta | 1 | All Maps","protocol":17,"map":"cp_process_final","folder":"tf","game":"Team Fortress","app_id":440,"player_count":24,"max_players":24,"Bots":0,"server_type":"Dedicated","server_os":"Linux","password":true,"vac":true,"version":"7961495","steam_id":85568392924469982,"keywords":["cp","nocrits","nodmgspread","uncletopia"],"game_id":440,"stv_port":27016,"stv_name":"Uncletopia | Atlanta | 1 | All Maps | STV","players":[{"user_id":771,"name":"Nyle","steam_id":76561198045652639,"connected_time":1058000000000,"state":"active","ping":119},{"user_id":757,"name":"RollingCow","steam_id":76561198067114237,"connected_time":2078000000000,"state":"active","ping":62},{"user_id":777,"name":"Communist Killing Candy Cactus\ufffd","steam_id":76561198074980635,"connected_time":389000000000,"state":"active","ping":106},{"user_id":503,"name":"Shmoopy","steam_id":76561198030459152,"connected_time":11063000000000,"state":"active","ping":65},{"user_id":774,"name":"The_Stomach_Stone_Surgeon","steam_id":76561198044643725,"connected_time":539000000000,"state":"active","ping":37},{"user_id":778,"name":"THIRDPIERCE","steam_id":76561198405366314,"connected_time":366000000000,"state":"active","ping":87},{"user_id":782,"name":"substance","steam_id":76561198050103868,"connected_time":64000000000,"state":"active","ping":154},{"user_id":765,"name":"JayTheNoob247_","steam_id":76561199348803437,"connected_time":1673000000000,"state":"active","ping":68},{"user_id":532,"name":"ATL1 | cola","steam_id":76561198374390458,"connected_time":8933000000000,"state":"active","ping":61},{"user_id":753,"name":"Captain Hotshot","steam_id":76561199214141646,"connected_time":2322000000000,"state":"active","ping":100},{"user_id":750,"name":"lurid","steam_id":76561199134999203,"connected_time":2650000000000,"state":"active","ping":59},{"user_id":538,"name":"Heathcliff","steam_id":76561198044288534,"connected_time":8359000000000,"state":"active","ping":65},{"user_id":495,"name":"joe","steam_id":76561198045781320,"connected_time":11608000000000,"state":"active","ping":62},{"user_id":767,"name":"An Engineer","steam_id":76561198110381643,"connected_time":1343000000000,"state":"active","ping":60},{"user_id":769,"name":"boo boo keys","steam_id":76561197999318398,"connected_time":1112000000000,"state":"active","ping":116},{"user_id":764,"name":"blah","steam_id":76561198046948758,"connected_time":1695000000000,"state":"active","ping":64},{"user_id":779,"name":"totally not a pile of beans","steam_id":76561198119851931,"connected_time":339000000000,"state":"active","ping":67},{"user_id":729,"name":"Yummy Kabobz","steam_id":76561198067661705,"connected_time":4169000000000,"state":"active","ping":63},{"user_id":772,"name":"Marshy","steam_id":76561198421784454,"connected_time":1028000000000,"state":"active","ping":104},{"user_id":780,"name":"P E P S I","steam_id":76561198115035038,"connected_time":326000000000,"state":"active","ping":85},{"user_id":748,"name":"Bunt","steam_id":76561198124477567,"connected_time":2862000000000,"state":"active","ping":47},{"user_id":755,"name":"Underscorn","steam_id":76561198374209415,"connected_time":2281000000000,"state":"active","ping":79},{"user_id":781,"name":"Caesar","steam_id":76561198113096772,"connected_time":220000000000,"state":"active","ping":109},{"user_id":543,"name":"logitchy","steam_id":76561199062753505,"connected_time":8322000000000,"state":"active","ping":73}]},{"server_id":104,"name":"Uncletopia | Atlanta | 2 | All Maps","name_short":"atl-2","host":"atl-1.us.uncletopia.com","port":27025,"enabled":true,"region":"us-east","cc":"us","latitude":33.753746,"longitude":-84.38633,"reserved":0,"last_update":"0001-01-01T00:00:00Z","name_a2s":"Uncletopia | Atlanta | 2 | All Maps","protocol":17,"map":"cp_egypt_final","folder":"tf","game":"Team Fortress","app_id":440,"player_count":3,"max_players":24,"Bots":0,"server_type":"Dedicated","server_os":"Linux","password":true,"vac":true,"version":"7961495","steam_id":85568392924469983,"keywords":["cp","nocrits","nodmgspread","uncletopia"],"game_id":440,"stv_port":27026,"stv_name":"Uncletopia | Atlanta | 2 | All Maps | STV","players":[{"user_id":568,"name":"HentaiHaven","steam_id":76561198453168933,"connected_time":6604000000000,"state":"active","ping":60},{"user_id":620,"name":"opamojab","steam_id":76561198284988954,"connected_time":1517000000000,"state":"active","ping":66},{"user_id":487,"name":"CDBeans","steam_id":76561198046990367,"connected_time":11098000000000,"state":"active","ping":78}]},{"server_id":400,"name":"Uncletopia | Atlanta | 3 | Stopwatch","name_short":"atl-3","host":"atl-1.us.uncletopia.com","port":27035,"enabled":true,"region":"us-east","cc":"us","latitude":33.753746,"longitude":-84.38633,"reserved":0,"last_update":"0001-01-01T00:00:00Z","name_a2s":"Uncletopia | Atlanta | 3 | Stopwatch","protocol":17,"map":"workshop/koth_clearcut_b15.ugc2107050255","folder":"tf","game":"Team Fortress","app_id":440,"player_count":0,"max_players":24,"Bots":0,"server_type":"Dedicated","server_os":"Linux","password":true,"vac":true,"version":"7961495","steam_id":85568392924515187,"keywords":["cp","nocrits","nodmgspread","uncletopia"],"game_id":440,"stv_port":27036,"stv_name":"Uncletopia | Atlanta | 3 | Stopwatch | STV","players":null},{"server_id":401,"name":"Uncletopia | Atlanta | 4 | Community","name_short":"atl-4","host":"atl-1.us.uncletopia.com","port":27045,"enabled":true,"region":"us-east","cc":"us","latitude":33.753746,"longitude":-84.38633,"reserved":0,"last_update":"0001-01-01T00:00:00Z","name_a2s":"Uncletopia | Atlanta | 4 | Community","protocol":17,"map":"workshop/cp_caldera_rc3.ugc2834196889","folder":"tf","game":"Team Fortress","app_id":440,"player_count":0,"max_players":24,"Bots":0,"server_type":"Dedicated","server_os":"Linux","password":true,"vac":true,"version":"7961495","steam_id":85568392924515188,"keywords":["cp","nocrits","nodmgspread","uncletopia"],"game_id":440,"stv_port":27046,"stv_name":"Uncletopia | Atlanta | 4 | Community | STV","players":null},{"server_id":2,"name":"Uncletopia | Chicago | 1 | All Maps","name_short":"chi-1","host":"chi-1.us.uncletopia.com","port":27015,"enabled":true,"region":"us-central","cc":"us","latitude":41.881832,"longitude":-87.62318,"reserved":0,"last_update":"0001-01-01T00:00:00Z","name_a2s":"Uncletopia | Chicago | 1 | All Maps","protocol":17,"map":"pl_borneo","folder":"tf","game":"Team Fortress","app_id":440,"player_count":24,"max_players":24,"Bots":0,"server_type":"Dedicated","server_os":"Linux","password":true,"vac":true,"version":"7961495","steam_id":85568392924469984,"keywords":["nocrits","nodmgspread","payload","uncletopia"],"game_id":440,"stv_port":27016,"stv_name":"Uncletopia | Chicago | 1 | All Maps | STV","players":[{"user_id":703,"name":"Traceback","steam_id":76561197993212340,"connected_time":3055000000000,"state":"active","ping":62},{"user_id":689,"name":"Scum Knight | T.I.D.K.","steam_id":76561198282444763,"connected_time":4629000000000,"state":"active","ping":59},{"user_id":732,"name":"chris","steam_id":76561198209248312,"connected_time":1513000000000,"state":"active","ping":59},{"user_id":735,"name":"PIPPIN","steam_id":76561199013202758,"connected_time":855000000000,"state":"active","ping":76},{"user_id":736,"name":"LazySushi","steam_id":76561198043802202,"connected_time":840000000000,"state":"active","ping":67},{"user_id":695,"name":"OH BOY","steam_id":76561199052273428,"connected_time":3898000000000,"state":"active","ping":47},{"user_id":649,"name":"NukaTheRabbit {Fur}","steam_id":76561198058692928,"connected_time":7850000000000,"state":"active","ping":106},{"user_id":711,"name":"SPIRE_FAN","steam_id":76561198001486573,"connected_time":2628000000000,"state":"active","ping":55},{"user_id":728,"name":"thecal","steam_id":76561198307893384,"connected_time":1714000000000,"state":"active","ping":50},{"user_id":700,"name":"triangleman","steam_id":76561198972733542,"connected_time":3240000000000,"state":"active","ping":58},{"user_id":682,"name":"Rosemaryüåô ÂπΩÈúä [ 1 9 9 8 ","steam_id":76561198807726226,"connected_time":5208000000000,"state":"active","ping":75},{"user_id":737,"name":"marlow","steam_id":76561198094408360,"connected_time":837000000000,"state":"active","ping":74},{"user_id":733,"name":"franky","steam_id":76561198070903328,"connected_time":1446000000000,"state":"active","ping":66},{"user_id":714,"name":"Dude","steam_id":76561199058616824,"connected_time":2272000000000,"state":"active","ping":76},{"user_id":719,"name":"sam","steam_id":76561198241487886,"connected_time":2017000000000,"state":"active","ping":99},{"user_id":681,"name":"BurrtioCream","steam_id":76561198852267722,"connected_time":5574000000000,"state":"active","ping":108},{"user_id":669,"name":"Mr. Tickle","steam_id":76561198126684647,"connected_time":6385000000000,"state":"active","ping":60},{"user_id":721,"name":"inshallah","steam_id":76561198165212575,"connected_time":1895000000000,"state":"active","ping":70},{"user_id":671,"name":"frank","steam_id":76561198137777483,"connected_time":6345000000000,"state":"active","ping":67},{"user_id":730,"name":"The Great Bearer of Wealth","steam_id":76561198352687317,"connected_time":1592000000000,"state":"active","ping":76},{"user_id":722,"name":"YOU WHAT?!","steam_id":76561198418679471,"connected_time":1868000000000,"state":"active","ping":64},{"user_id":739,"name":"whats going on choom??","steam_id":76561198270926835,"connected_time":369000000000,"state":"active","ping":101},{"user_id":731,"name":"Spider13649","steam_id":76561198408436344,"connected_time":1569000000000,"state":"active","ping":105},{"user_id":734,"name":"DrCinnnamon","steam_id":76561199123142319,"connected_time":1236000000000,"state":"active","ping":69}]},{"server_id":106,"name":"Uncletopia | Chicago | 2 | All Maps","name_short":"chi-2","host":"chi-1.us.uncletopia.com","port":27025,"enabled":true,"region":"us-central","cc":"us","latitude":41.881832,"longitude":-87.62318,"reserved":0,"last_update":"0001-01-01T00:00:00Z","name_a2s":"Uncletopia | Chicago | 2 | All Maps","protocol":17,"map":"pl_pier","folder":"tf","game":"Team Fortress","app_id":440,"player_count":2,"max_players":24,"Bots":0,"server_type":"Dedicated","server_os":"Linux","password":true,"vac":true,"version":"7961495","steam_id":85568392924469985,"keywords":["nocrits","nodmgspread","payload","uncletopia"],"game_id":440,"stv_port":27026,"stv_name":"Uncletopia | Chicago | 2 | All Maps | STV","players":[{"user_id":860,"name":"GoGo is Getting Drunk","steam_id":76561198023080645,"connected_time":7062000000000,"state":"active","ping":65},{"user_id":887,"name":"Six Piece Chicken McNobody","steam_id":76561198129848222,"connected_time":4444000000000,"state":"active","ping":57}]},{"server_id":402,"name":"Uncletopia | Chicago | 3 | All Maps","name_short":"chi-3","host":"chi-1.us.uncletopia.com","port":27035,"enabled":true,"region":"us-central","cc":"us","latitude":41.881832,"longitude":-87.62318,"reserved":0,"last_update":"0001-01-01T00:00:00Z","name_a2s":"Uncletopia | Chicago | 3 | All Maps","protocol":17,"map":"pl_borneo","folder":"tf","game":"Team Fortress","app_id":440,"player_count":20,"max_players":24,"Bots":0,"server_type":"Dedicated","server_os":"Linux","password":true,"vac":true,"version":"7961495","steam_id":85568392924515191,"keywords":["nocrits","nodmgspread","payload","uncletopia"],"game_id":440,"stv_port":27036,"stv_name":"Uncletopia | Chicago | 3 | All Maps | STV","players":[{"user_id":543,"name":"Peepster","steam_id":76561198297854733,"connected_time":3430000000000,"state":"active","ping":58},{"user_id":560,"name":"Phoenix","steam_id":76561198068722818,"connected_time":2606000000000,"state":"active","ping":46},{"user_id":552,"name":"Microsoft Word","steam_id":76561198797633439,"connected_time":2975000000000,"state":"active","ping":94},{"user_id":561,"name":"Vlad","steam_id":76561198150626637,"connected_time":2556000000000,"state":"active","ping":75},{"user_id":580,"name":"SCROWEN","steam_id":76561198150382695,"connected_time":143000000000,"state":"active","ping":76},{"user_id":570,"name":"poopybutt420","steam_id":76561199000805315,"connected_time":875000000000,"state":"active","ping":78},{"user_id":572,"name":"squirt","steam_id":76561199169486012,"connected_time":840000000000,"state":"active","ping":60},{"user_id":565,"name":"Claybae","steam_id":76561198064290179,"connected_time":2467000000000,"state":"active","ping":70},{"user_id":579,"name":"The Rumble Fish","steam_id":76561198074493665,"connected_time":167000000000,"state":"active","ping":47},{"user_id":577,"name":"jordanfer111","steam_id":76561198044993097,"connected_time":604000000000,"state":"active","ping":106},{"user_id":571,"name":"Always Here for You","steam_id":76561198219252313,"connected_time":874000000000,"state":"active","ping":67},{"user_id":524,"name":"Deep Peepus","steam_id":76561198205395757,"connected_time":4925000000000,"state":"active","ping":71},{"user_id":581,"name":"TheSecondRun","steam_id":76561198402756814,"connected_time":139000000000,"state":"active","ping":70},{"user_id":555,"name":"corntent","steam_id":76561198824847948,"connected_time":2695000000000,"state":"active","ping":59},{"user_id":584,"name":"p1zza","steam_id":76561197967631939,"connected_time":40000000000,"state":"active","ping":54},{"user_id":575,"name":"MCdipshit","steam_id":76561198861659031,"connected_time":777000000000,"state":"active","ping":64},{"user_id":583,"name":"Pistol Engie Monday","steam_id":76561198409907417,"connected_time":124000000000,"state":"active","ping":102},{"user_id":564,"name":"Nebe0","steam_id":76561199133770186,"connected_time":2493000000000,"state":"active","ping":62},{"user_id":558,"name":"‚ô° pepsi ‚ô°","steam_id":76561198114655857,"connected_time":2618000000000,"state":"active","ping":98},{"user_id":576,"name":"shept","steam_id":76561199445495734,"connected_time":750000000000,"state":"active","ping":78}]},{"server_id":403,"name":"Uncletopia | Chicago | 4 | All Maps","name_short":"chi-4","host":"chi-1.us.uncletopia.com","port":27045,"enabled":true,"region":"us-central","cc":"us","latitude":41.881832,"longitude":-87.62318,"reserved":0,"last_update":"0001-01-01T00:00:00Z","name_a2s":"Uncletopia | Chicago | 4 | All Maps","protocol":17,"map":"cp_dustbowl","folder":"tf","game":"Team Fortress","app_id":440,"player_count":21,"max_players":24,"Bots":0,"server_type":"Dedicated","server_os":"Linux","password":true,"vac":true,"version":"7961495","steam_id":85568392924515193,"keywords":["cp","nocrits","nodmgspread","uncletopia"],"game_id":440,"stv_port":27046,"stv_name":"Uncletopia | Chicago | 4 | All Maps | STV","players":[{"user_id":805,"name":"Am I Good At The Video Game?","steam_id":76561198046053281,"connected_time":1632000000000,"state":"active","ping":67},{"user_id":718,"name":"Û†Ä°Û†Ä°","steam_id":76561198348035053,"connected_time":6368000000000,"state":"active","ping":113},{"user_id":801,"name":"Constipated Barry","steam_id":76561198004482269,"connected_time":2050000000000,"state":"active","ping":91},{"user_id":798,"name":"`o2","steam_id":76561197992030936,"connected_time":2226000000000,"state":"active","ping":63},{"user_id":822,"name":"sonic","steam_id":76561199041594200,"connected_time":1000000000000,"state":"active","ping":81},{"user_id":787,"name":"Scoops M'Gooch","steam_id":76561198048423812,"connected_time":2599000000000,"state":"active","ping":107},{"user_id":823,"name":"ghosts n stuff","steam_id":76561199093876203,"connected_time":999000000000,"state":"active","ping":70},{"user_id":829,"name":"mxgic","steam_id":76561198354656195,"connected_time":7000000000,"state":"spawning","ping":120},{"user_id":764,"name":"Ace Chromatica","steam_id":76561198042211131,"connected_time":4219000000000,"state":"active","ping":61},{"user_id":826,"name":"fnewland","steam_id":76561197986051713,"connected_time":794000000000,"state":"active","ping":58},{"user_id":802,"name":"-_-","steam_id":76561198005773253,"connected_time":2047000000000,"state":"active","ping":51},{"user_id":824,"name":"SoySlops","steam_id":76561198860443143,"connected_time":991000000000,"state":"active","ping":58},{"user_id":828,"name":"Lemon Soda","steam_id":76561198140208761,"connected_time":147000000000,"state":"active","ping":53},{"user_id":825,"name":"CerealLover8","steam_id":76561199127196546,"connected_time":985000000000,"state":"active","ping":87},{"user_id":812,"name":"Digresser","steam_id":76561198016426367,"connected_time":1533000000000,"state":"active","ping":55},{"user_id":815,"name":"bad spy player","steam_id":76561198873699671,"connected_time":1441000000000,"state":"active","ping":91},{"user_id":773,"name":"violetberry","steam_id":76561198248461754,"connected_time":4008000000000,"state":"active","ping":101},{"user_id":827,"name":"A Mysterious Gift","steam_id":76561198077838946,"connected_time":279000000000,"state":"active","ping":56},{"user_id":792,"name":"Tas","steam_id":76561198034586968,"connected_time":2495000000000,"state":"active","ping":58},{"user_id":793,"name":"feed lips","steam_id":76561197971152439,"connected_time":2475000000000,"state":"active","ping":61},{"user_id":775,"name":"-natalexei ‚ô• -iaic-","steam_id":76561198100477765,"connected_time":4003000000000,"state":"active","ping":89}]},{"server_id":36,"name":"Uncletopia | Chicago | 5 | All Maps","name_short":"chi-5","host":"chi-2.us.uncletopia.com","port":27015,"enabled":true,"region":"us-central","cc":"us","latitude":41.881832,"longitude":-87.62318,"reserved":0,"last_update":"0001-01-01T00:00:00Z","name_a2s":"Uncletopia | Chicago | 5 | All Maps","protocol":17,"map":"ctf_turbine","folder":"tf","game":"Team Fortress","app_id":440,"player_count":0,"max_players":24,"Bots":0,"server_type":"Dedicated","server_os":"Linux","password":true,"vac":true,"version":"7961495","steam_id":85568392924866362,"keywords":["ctf","nocrits","nodmgspread","uncletopia"],"game_id":440,"stv_port":27016,"stv_name":"Uncletopia | Chicago | 5 | All Maps | STV","players":null},{"server_id":37,"name":"Uncletopia | Chicago | 6 | All Maps","name_short":"chi-6","host":"chi-2.us.uncletopia.com","port":27025,"enabled":true,"region":"us-central","cc":"us","latitude":41.881832,"longitude":-87.62318,"reserved":0,"last_update":"0001-01-01T00:00:00Z","name_a2s":"Uncletopia | Chicago | 6 | All Maps","protocol":17,"map":"pl_badwater","folder":"tf","game":"Team Fortress","app_id":440,"player_count":24,"max_players":24,"Bots":0,"server_type":"Dedicated","server_os":"Linux","password":true,"vac":true,"version":"7961495","steam_id":85568392924866363,"keywords":["nocrits","nodmgspread","payload","uncletopia"],"game_id":440,"stv_port":27026,"stv_name":"Uncletopia | Chicago | 6 | All Maps | STV","players":[{"user_id":529,"name":"Xyverle","steam_id":76561198799726415,"connected_time":1765000000000,"state":"active","ping":61},{"user_id":477,"name":"MEATBALL","steam_id":76561198028499312,"connected_time":5306000000000,"state":"active","ping":58},{"user_id":512,"name":"Dowo","steam_id":76561199368651649,"connected_time":2334000000000,"state":"active","ping":102},{"user_id":517,"name":"LavenderSys","steam_id":76561198289106015,"connected_time":2191000000000,"state":"active","ping":88},{"user_id":538,"name":"Pablo Sr.","steam_id":76561199139116062,"connected_time":1243000000000,"state":"active","ping":104},{"user_id":515,"name":"oppenheimer style","steam_id":76561198026664629,"connected_time":2287000000000,"state":"active","ping":54},{"user_id":546,"name":"Solan iler","steam_id":76561198809720926,"connected_time":625000000000,"state":"active","ping":81},{"user_id":552,"name":"KATSURB","steam_id":76561199172118456,"connected_time":14000000000,"state":"active","ping":73},{"user_id":540,"name":":)","steam_id":76561198868774248,"connected_time":1216000000000,"state":"active","ping":87},{"user_id":545,"name":"Satan's Salad","steam_id":76561198043965827,"connected_time":937000000000,"state":"active","ping":60},{"user_id":507,"name":"Lish","steam_id":76561198447356180,"connected_time":3552000000000,"state":"active","ping":70},{"user_id":547,"name":"stupid ape","steam_id":76561198350027075,"connected_time":611000000000,"state":"active","ping":56},{"user_id":504,"name":"Budcraft","steam_id":76561198143929691,"connected_time":3612000000000,"state":"active","ping":54},{"user_id":523,"name":"Goredude","steam_id":76561198041048764,"connected_time":1974000000000,"state":"active","ping":65},{"user_id":484,"name":"Chloe","steam_id":76561199009068757,"connected_time":4734000000000,"state":"active","ping":75},{"user_id":532,"name":"777","steam_id":76561198277163301,"connected_time":1610000000000,"state":"active","ping":67},{"user_id":537,"name":"ATLS1 | Strange Festive","steam_id":76561198050385093,"connected_time":1303000000000,"state":"active","ping":75},{"user_id":481,"name":"Chuina","steam_id":76561198056871257,"connected_time":5222000000000,"state":"active","ping":72},{"user_id":550,"name":"C Papi","steam_id":76561198027779564,"connected_time":133000000000,"state":"active","ping":61},{"user_id":483,"name":"D UCK","steam_id":76561198075844142,"connected_time":5081000000000,"state":"active","ping":62},{"user_id":549,"name":"Team Fortress 3","steam_id":76561198075562180,"connected_time":235000000000,"state":"active","ping":73},{"user_id":548,"name":"Fresnel","steam_id":76561198266960876,"connected_time":523000000000,"state":"active","ping":80},{"user_id":543,"name":"Battzii","steam_id":76561197972263732,"connected_time":1177000000000,"state":"active","ping":59},{"user_id":508,"name":"Jousty","steam_id":76561199162677853,"connected_time":3507000000000,"state":"active","ping":117}]},{"server_id":38,"name":"Uncletopia | Chicago | 7 | Stopwatch","name_short":"chi-7","host":"chi-2.us.uncletopia.com","port":27035,"enabled":true,"region":"us-central","cc":"us","latitude":41.881832,"longitude":-87.62318,"reserved":0,"last_update":"0001-01-01T00:00:00Z","name_a2s":"Uncletopia | Chicago | 7 | Stopwatch","protocol":17,"map":"koth_lakeside_final","folder":"tf","game":"Team Fortress","app_id":440,"player_count":0,"max_players":24,"Bots":0,"server_type":"Dedicated","server_os":"Linux","password":true,"vac":true,"version":"7961495","steam_id":85568392924866364,"keywords":["cp","nocrits","nodmgspread","uncletopia"],"game_id":440,"stv_port":27036,"stv_name":"Uncletopia | Chicago | 7 | Stopwatch | STV","players":null},{"server_id":39,"name":"Uncletopia | Chicago | 8 | Community","name_short":"chi-8","host":"chi-2.us.uncletopia.com","port":27045,"enabled":true,"region":"us-central","cc":"us","latitude":41.881832,"longitude":-87.62318,"reserved":0,"last_update":"0001-01-01T00:00:00Z","name_a2s":"Uncletopia | Chicago | 8 | Community","protocol":17,"map":"workshop/koth_slaughter_rc1.ugc1712845210","folder":"tf","game":"Team Fortress","app_id":440,"player_count":0,"max_players":24,"Bots":0,"server_type":"Dedicated","server_os":"Linux","password":true,"vac":true,"version":"7961495","steam_id":85568392924866365,"keywords":["cp","nocrits","nodmgspread","uncletopia"],"game_id":440,"stv_port":27046,"stv_name":"Uncletopia | Chicago | 8 | Community | STV","players":null},{"server_id":8,"name":"Uncletopia | Dallas | 1 | All Maps","name_short":"dal-1","host":"dal-1.us.uncletopia.com","port":27015,"enabled":true,"region":"us-central","cc":"us","latitude":32.779167,"longitude":-96.80889,"reserved":0,"last_update":"0001-01-01T00:00:00Z","name_a2s":"Uncletopia | Dallas | 1 | All Maps","protocol":17,"map":"pl_snowycoast","folder":"tf","game":"Team Fortress","app_id":440,"player_count":19,"max_players":24,"Bots":0,"server_type":"Dedicated","server_os":"Linux","password":true,"vac":true,"version":"7961495","steam_id":85568392924469986,"keywords":["nocrits","nodmgspread","payload","uncletopia"],"game_id":440,"stv_port":27016,"stv_name":"Uncletopia | Dallas | 1 | All Maps | STV","players":[{"user_id":522,"name":"Echo","steam_id":76561199165491231,"connected_time":1462000000000,"state":"active","ping":59},{"user_id":524,"name":"Asanez3","steam_id":76561198037381436,"connected_time":974000000000,"state":"active","ping":79},{"user_id":526,"name":"Willy V.","steam_id":76561198255586623,"connected_time":792000000000,"state":"active","ping":67},{"user_id":512,"name":"Fizzle","steam_id":76561199466859396,"connected_time":2311000000000,"state":"active","ping":45},{"user_id":527,"name":"DeckofDragons","steam_id":76561198057398213,"connected_time":686000000000,"state":"active","ping":56},{"user_id":528,"name":"Imrgrim","steam_id":76561198135866481,"connected_time":606000000000,"state":"active","ping":60},{"user_id":540,"name":"backshot overlord","steam_id":76561198984612489,"connected_time":86000000000,"state":"active","ping":75},{"user_id":530,"name":"8o8","steam_id":76561198996923332,"connected_time":362000000000,"state":"active","ping":78},{"user_id":542,"name":"0","steam_id":76561198046065237,"connected_time":35000000000,"state":"active","ping":79},{"user_id":485,"name":"Lucy Lou!","steam_id":76561198078209088,"connected_time":4523000000000,"state":"active","ping":63},{"user_id":533,"name":"john trevolta","steam_id":76561197998867160,"connected_time":252000000000,"state":"active","ping":96},{"user_id":534,"name":"trackball triops","steam_id":76561198059041027,"connected_time":252000000000,"state":"active","ping":91},{"user_id":486,"name":"Bottom Trans Cowgirl","steam_id":76561198304239680,"connected_time":4513000000000,"state":"active","ping":72},{"user_id":501,"name":"DysfunctionJunction","steam_id":76561198051815183,"connected_time":3509000000000,"state":"active","ping":75},{"user_id":535,"name":"Muselk, but mexican","steam_id":76561199289676387,"connected_time":170000000000,"state":"active","ping":65},{"user_id":536,"name":"H.","steam_id":76561198074951179,"connected_time":157000000000,"state":"active","ping":67},{"user_id":538,"name":"guts' theme (Cut \u0026 Looped)","steam_id":76561198012829728,"connected_time":114000000000,"state":"active","ping":54},{"user_id":541,"name":"tsz","steam_id":76561199246231090,"connected_time":85000000000,"state":"active","ping":64},{"user_id":487,"name":"Dragorf2010","steam_id":76561199238402270,"connected_time":4475000000000,"state":"active","ping":85}]},{"server_id":108,"name":"Uncletopia | Dallas | 2 | All Maps","name_short":"dal-2","host":"dal-1.us.uncletopia.com","port":27025,"enabled":true,"region":"us-central","cc":"us","latitude":32.779167,"longitude":-96.80889,"reserved":0,"last_update":"0001-01-01T00:00:00Z","name_a2s":"Uncletopia | Dallas | 2 | All Maps","protocol":17,"map":"koth_cascade","folder":"tf","game":"Team Fortress","app_id":440,"player_count":24,"max_players":24,"Bots":0,"server_type":"Dedicated","server_os":"Linux","password":true,"vac":true,"version":"7961495","steam_id":85568392924469988,"keywords":["cp","nocrits","nodmgspread","uncletopia"],"game_id":440,"stv_port":27026,"stv_name":"Uncletopia | Dallas | 2 | All Maps | STV","players":[{"user_id":511,"name":"Punished Shitster","steam_id":76561198150452857,"connected_time":6818000000000,"state":"active","ping":48},{"user_id":607,"name":"*chu*","steam_id":76561198116115189,"connected_time":584000000000,"state":"active","ping":75},{"user_id":582,"name":"Cookie_Crab","steam_id":76561198088116479,"connected_time":2215000000000,"state":"active","ping":57},{"user_id":587,"name":"Sprig Plantar","steam_id":76561198047404989,"connected_time":1729000000000,"state":"active","ping":59},{"user_id":557,"name":"Furious George","steam_id":76561198405111646,"connected_time":3407000000000,"state":"active","ping":75},{"user_id":593,"name":"Skeleton Guts‚Ñ¢","steam_id":76561198042212602,"connected_time":1171000000000,"state":"active","ping":59},{"user_id":584,"name":"S H ‚óé K A","steam_id":76561198068084541,"connected_time":2161000000000,"state":"active","ping":55},{"user_id":610,"name":"mm","steam_id":76561198841559088,"connected_time":436000000000,"state":"active","ping":78},{"user_id":594,"name":"AssSniffer","steam_id":76561198306370494,"connected_time":1167000000000,"state":"active","ping":154},{"user_id":614,"name":"warrior","steam_id":76561199044742609,"connected_time":234000000000,"state":"active","ping":53},{"user_id":570,"name":"WatsHappening","steam_id":76561198799245830,"connected_time":2879000000000,"state":"active","ping":59},{"user_id":595,"name":"SuperEvilPasta","steam_id":76561198078258907,"connected_time":1163000000000,"state":"active","ping":75},{"user_id":589,"name":"Scremz (Jeffery Dommer)","steam_id":76561198090314229,"connected_time":1571000000000,"state":"active","ping":65},{"user_id":564,"name":"8BitWyatt","steam_id":76561198453336518,"connected_time":3035000000000,"state":"active","ping":69},{"user_id":590,"name":"wattzupgaming","steam_id":76561198217662063,"connected_time":1522000000000,"state":"active","ping":83},{"user_id":609,"name":"Antifa Supersoldier","steam_id":76561198141816516,"connected_time":502000000000,"state":"active","ping":45},{"user_id":572,"name":"Observer","steam_id":76561198326814067,"connected_time":2782000000000,"state":"active","ping":77},{"user_id":606,"name":"Leper!","steam_id":76561198846972277,"connected_time":664000000000,"state":"active","ping":76},{"user_id":592,"name":"Trapilicious","steam_id":76561198061430457,"connected_time":1462000000000,"state":"active","ping":51},{"user_id":601,"name":"Xeryeon","steam_id":76561198326228385,"connected_time":913000000000,"state":"active","ping":80},{"user_id":611,"name":"uncletopia dallas 2 player","steam_id":76561198412786186,"connected_time":267000000000,"state":"active","ping":49},{"user_id":515,"name":"Burny Sanders","steam_id":76561197961879048,"connected_time":6788000000000,"state":"active","ping":44},{"user_id":602,"name":"MementoMaritime*:ÔΩ•Ôæü‚úß‚ù§","steam_id":76561198123079995,"connected_time":908000000000,"state":"active","ping":54},{"user_id":604,"name":"chrischrischris3018@yahoo.com","steam_id":76561198137316053,"connected_time":860000000000,"state":"active","ping":69}]},{"server_id":404,"name":"Uncletopia | Dallas | 3 | All Maps","name_short":"dal-3","host":"dal-1.us.uncletopia.com","port":27035,"enabled":true,"region":"us-central","cc":"us","latitude":32.779167,"longitude":-96.80889,"reserved":0,"last_update":"0001-01-01T00:00:00Z","name_a2s":"Uncletopia | Dallas | 3 | All Maps","protocol":17,"map":"pl_badwater","folder":"tf","game":"Team Fortress","app_id":440,"player_count":0,"max_players":24,"Bots":0,"server_type":"Dedicated","server_os":"Linux","password":true,"vac":true,"version":"7961495","steam_id":85568392924515219,"keywords":["nocrits","nodmgspread","payload","uncletopia"],"game_id":440,"stv_port":27036,"stv_name":"Uncletopia | Dallas | 3 | All Maps | STV","players":null},{"server_id":405,"name":"Uncletopia | Dallas | 4 | Community","name_short":"dal-4","host":"dal-1.us.uncletopia.com","port":27045,"enabled":true,"region":"us-central","cc":"us","latitude":32.779167,"longitude":-96.80889,"reserved":0,"last_update":"0001-01-01T00:00:00Z","name_a2s":"Uncletopia | Dallas | 4 | Community","protocol":17,"map":"workshop/cp_fulgur_rc2a.ugc2068252300","folder":"tf","game":"Team Fortress","app_id":440,"player_count":0,"max_players":24,"Bots":0,"server_type":"Dedicated","server_os":"Linux","password":true,"vac":true,"version":"7961495","steam_id":85568392924515220,"keywords":["cp","nocrits","nodmgspread","uncletopia"],"game_id":440,"stv_port":27046,"stv_name":"Uncletopia | Dallas | 4 | Community | STV","players":null},{"server_id":5,"name":"Uncletopia | Frankfurt | 1 | All Maps","name_short":"frk-1","host":"frk-1.de.uncletopia.com","port":27015,"enabled":true,"region":"eu","cc":"de","latitude":50.110924,"longitude":8.682127,"reserved":0,"last_update":"0001-01-01T00:00:00Z","name_a2s":"Uncletopia | Frankfurt | 1 | All Maps","protocol":17,"map":"cp_snakewater_final1","folder":"tf","game":"Team Fortress","app_id":440,"player_count":0,"max_players":24,"Bots":0,"server_type":"Dedicated","server_os":"Linux","password":true,"vac":true,"version":"7961495","steam_id":85568392924469989,"keywords":["cp","nocrits","nodmgspread","uncletopia"],"game_id":440,"stv_port":27016,"stv_name":"Uncletopia | Frankfurt | 1 | All Maps | STV","players":null},{"server_id":110,"name":"Uncletopia | Frankfurt | 2 | All Maps","name_short":"frk-2","host":"frk-1.de.uncletopia.com","port":27025,"enabled":true,"region":"eu","cc":"de","latitude":50.110924,"longitude":8.682127,"reserved":0,"last_update":"0001-01-01T00:00:00Z","name_a2s":"Uncletopia | Frankfurt | 2 | All Maps","protocol":17,"map":"plr_hightower","folder":"tf","game":"Team Fortress","app_id":440,"player_count":0,"max_players":24,"Bots":0,"server_type":"Dedicated","server_os":"Linux","password":true,"vac":true,"version":"7961495","steam_id":85568392924469990,"keywords":["nocrits","nodmgspread","payload","uncletopia"],"game_id":440,"stv_port":27026,"stv_name":"Uncletopia | Frankfurt | 2 | All Maps | STV","players":null},{"server_id":308,"name":"Uncletopia | Frankfurt | 3 | All Maps","name_short":"frk-3","host":"frk-1.de.uncletopia.com","port":27035,"enabled":true,"region":"eu","cc":"de","latitude":50.110924,"longitude":8.682127,"reserved":0,"last_update":"0001-01-01T00:00:00Z","name_a2s":"Uncletopia | Frankfurt | 3 | All Maps","protocol":17,"map":"cp_metalworks","folder":"tf","game":"Team Fortress","app_id":440,"player_count":0,"max_players":24,"Bots":0,"server_type":"Dedicated","server_os":"Linux","password":true,"vac":true,"version":"7961495","steam_id":85568392924504274,"keywords":["cp","nocrits","nodmgspread","uncletopia"],"game_id":440,"stv_port":27036,"stv_name":"Uncletopia | Frankfurt | 3 | All Maps | STV","players":null},{"server_id":309,"name":"Uncletopia | Frankfurt | 4 | All Maps","name_short":"frk-4","host":"frk-1.de.uncletopia.com","port":27045,"enabled":true,"region":"eu","cc":"de","latitude":50.110924,"longitude":8.682127,"reserved":0,"last_update":"0001-01-01T00:00:00Z","name_a2s":"Uncletopia | Frankfurt | 4 | All Maps","protocol":17,"map":"cp_gorge","folder":"tf","game":"Team Fortress","app_id":440,"player_count":0,"max_players":24,"Bots":0,"server_type":"Dedicated","server_os":"Linux","password":true,"vac":true,"version":"7961495","steam_id":85568392924504275,"keywords":["cp","nocrits","nodmgspread","uncletopia"],"game_id":440,"stv_port":27046,"stv_name":"Uncletopia | Frankfurt | 4 | All Maps | STV","players":null},{"server_id":310,"name":"Uncletopia | Frankfurt | 5 | All Maps","name_short":"frk-5","host":"frk-1.de.uncletopia.com","port":27055,"enabled":true,"region":"eu","cc":"de","latitude":50.110924,"longitude":8.682127,"reserved":0,"last_update":"0001-01-01T00:00:00Z","name_a2s":"Uncletopia | Frankfurt | 5 | All Maps","protocol":17,"map":"cp_mountainlab","folder":"tf","game":"Team Fortress","app_id":440,"player_count":0,"max_players":24,"Bots":0,"server_type":"Dedicated","server_os":"Linux","password":true,"vac":true,"version":"7961495","steam_id":85568392924504277,"keywords":["cp","nocrits","nodmgspread","uncletopia"],"game_id":440,"stv_port":27056,"stv_name":"Uncletopia | Frankfurt | 5 | All Maps | STV","players":null},{"server_id":311,"name":"Uncletopia | Frankfurt | 6 | All Maps","name_short":"frk-6","host":"frk-1.de.uncletopia.com","port":27065,"enabled":true,"region":"eu","cc":"de","latitude":50.110924,"longitude":8.682127,"reserved":0,"last_update":"0001-01-01T00:00:00Z","name_a2s":"Uncletopia | Frankfurt | 6 | All Maps","protocol":17,"map":"cp_coldfront","folder":"tf","game":"Team Fortress","app_id":440,"player_count":0,"max_players":24,"Bots":0,"server_type":"Dedicated","server_os":"Linux","password":true,"vac":true,"version":"7961495","steam_id":85568392924504278,"keywords":["cp","nocrits","nodmgspread","uncletopia"],"game_id":440,"stv_port":27066,"stv_name":"Uncletopia | Frankfurt | 6 | All Maps | STV","players":null},{"server_id":23,"name":"Uncletopia | Frankfurt | 7 | Stopwatch","name_short":"frk-7","host":"frk-1.de.uncletopia.com","port":27075,"enabled":true,"region":"eu","cc":"de","latitude":50.110924,"longitude":8.682127,"reserved":0,"last_update":"0001-01-01T00:00:00Z","name_a2s":"Uncletopia | Frankfurt | 7 | Stopwatch","protocol":17,"map":"cp_sunshine","folder":"tf","game":"Team Fortress","app_id":440,"player_count":0,"max_players":24,"Bots":0,"server_type":"Dedicated","server_os":"Linux","password":true,"vac":true,"version":"7961495","steam_id":85568392924742827,"keywords":["cp","nocrits","nodmgspread","uncletopia"],"game_id":440,"stv_port":27076,"stv_name":"Uncletopia | Frankfurt | 7 | Stopwatch | STV","players":null},{"server_id":24,"name":"Uncletopia | Frankfurt | 8 | Community","name_short":"frk-8","host":"frk-1.de.uncletopia.com","port":27085,"enabled":true,"region":"eu","cc":"de","latitude":50.110924,"longitude":8.682127,"reserved":0,"last_update":"0001-01-01T00:00:00Z","name_a2s":"Uncletopia | Frankfurt | 8 | Community","protocol":17,"map":"workshop/pl_boundary_final1.ugc456799153","folder":"tf","game":"Team Fortress","app_id":440,"player_count":0,"max_players":24,"Bots":0,"server_type":"Dedicated","server_os":"Linux","password":true,"vac":true,"version":"7961495","steam_id":85568392924742828,"keywords":["nocrits","nodmgspread","payload","uncletopia"],"game_id":440,"stv_port":27086,"stv_name":"Uncletopia | Frankfurt | 8 | Community | STV","players":null},{"server_id":202,"name":"Uncletopia | Hong Kong | 1 | All Maps","name_short":"hgk-1","host":"hgk-1.hk.uncletopia.com","port":27015,"enabled":true,"region":"asia","cc":"hk","latitude":22.302711,"longitude":114.177216,"reserved":0,"last_update":"0001-01-01T00:00:00Z","name_a2s":"Uncletopia | Hong Kong | 1 | All Maps","protocol":17,"map":"pl_badwater","folder":"tf","game":"Team Fortress","app_id":440,"player_count":24,"max_players":24,"Bots":0,"server_type":"Dedicated","server_os":"Linux","password":true,"vac":true,"version":"7961495","steam_id":85568392924494504,"keywords":["nocrits","nodmgspread","payload","uncletopia"],"game_id":440,"stv_port":27016,"stv_name":"Uncletopia | Hong Kong | 1 | All Maps | STV","players":[{"user_id":75,"name":"·É¶Jun.","steam_id":76561198275846469,"connected_time":181000000000,"state":"active","ping":90},{"user_id":29,"name":"Alka","steam_id":76561198268872312,"connected_time":3615000000000,"state":"active","ping":64},{"user_id":30,"name":"Dr. Fritz Ludwig","steam_id":76561199137872034,"connected_time":3453000000000,"state":"active","ping":66},{"user_id":31,"name":"Crit-A-Cola Fan","steam_id":76561198836956034,"connected_time":3430000000000,"state":"active","ping":117},{"user_id":32,"name":"yveth","steam_id":76561198320532821,"connected_time":3220000000000,"state":"active","ping":67},{"user_id":33,"name":"fred","steam_id":76561199496222946,"connected_time":3133000000000,"state":"active","ping":81},{"user_id":72,"name":"TACO.phox - Negev Edition","steam_id":76561198298500294,"connected_time":522000000000,"state":"active","ping":75},{"user_id":54,"name":"Conductor","steam_id":76561199230196794,"connected_time":1911000000000,"state":"active","ping":110},{"user_id":71,"name":"tiden2000","steam_id":76561198092969425,"connected_time":565000000000,"state":"active","ping":105},{"user_id":37,"name":"ElectronX","steam_id":76561198116034988,"connected_time":2750000000000,"state":"active","ping":123},{"user_id":38,"name":"Mac09","steam_id":76561198934873063,"connected_time":2726000000000,"state":"active","ping":73},{"user_id":74,"name":"Fourth8","steam_id":76561198079927520,"connected_time":414000000000,"state":"active","ping":33},{"user_id":68,"name":"Lunacia","steam_id":76561198429887240,"connected_time":1324000000000,"state":"active","ping":78},{"user_id":55,"name":"Jun-char","steam_id":76561198126774704,"connected_time":1880000000000,"state":"active","ping":83},{"user_id":56,"name":"a windy musian","steam_id":76561198152588681,"connected_time":1848000000000,"state":"active","ping":78},{"user_id":70,"name":"[oops]","steam_id":76561199474092971,"connected_time":668000000000,"state":"active","ping":98},{"user_id":53,"name":"ÍπÄÍ¥ëÎßå","steam_id":76561198295279503,"connected_time":1933000000000,"state":"active","ping":104},{"user_id":58,"name":"to the top","steam_id":76561199443938682,"connected_time":1774000000000,"state":"active","ping":89},{"user_id":59,"name":"ricky","steam_id":76561199030081320,"connected_time":1746000000000,"state":"active","ping":101},{"user_id":62,"name":"swordsmachine","steam_id":76561198965473654,"connected_time":1537000000000,"state":"active","ping":74},{"user_id":63,"name":"Dude Time","steam_id":76561198092991160,"connected_time":1536000000000,"state":"active","ping":139},{"user_id":73,"name":"Grilled cheese","steam_id":76561199466885962,"connected_time":511000000000,"state":"active","ping":77},{"user_id":65,"name":"Professor 'Iggins","steam_id":76561198064448905,"connected_time":1514000000000,"state":"active","ping":32},{"user_id":67,"name":"coakDeLera","steam_id":76561199262817512,"connected_time":1443000000000,"state":"active","ping":61}]},{"server_id":1,"name":"Uncletopia | Los Angeles | 1 | All Maps","name_short":"lax-1","host":"lax-1.us.uncletopia.com","port":27015,"enabled":true,"region":"us-west","cc":"us","latitude":33.94279,"longitude":-118.41004,"reserved":0,"last_update":"0001-01-01T00:00:00Z","name_a2s":"Uncletopia | Los Angeles | 1 | All Maps","protocol":17,"map":"koth_cascade","folder":"tf","game":"Team Fortress","app_id":440,"player_count":8,"max_players":24,"Bots":0,"server_type":"Dedicated","server_os":"Linux","password":true,"vac":true,"version":"7961495","steam_id":85568392924469991,"keywords":["cp","nocrits","nodmgspread","uncletopia"],"game_id":440,"stv_port":27016,"stv_name":"Uncletopia | Los Angeles | 1 | All Maps | STV","players":[{"user_id":282,"name":"1000 Ping","steam_id":76561198098330939,"connected_time":155000000000,"state":"active","ping":62},{"user_id":278,"name":"‚ú™ Y V E S","steam_id":76561198299479796,"connected_time":631000000000,"state":"active","ping":36},{"user_id":279,"name":"Thequirka","steam_id":76561198968058652,"connected_time":514000000000,"state":"active","ping":71},{"user_id":283,"name":"Harry Spotter","steam_id":76561198115714484,"connected_time":67000000000,"state":"active","ping":76},{"user_id":280,"name":"Spybusters","steam_id":76561198951505681,"connected_time":500000000000,"state":"active","ping":58},{"user_id":273,"name":"Madman","steam_id":76561198452780465,"connected_time":1453000000000,"state":"active","ping":127},{"user_id":276,"name":"mcdonald's cashier","steam_id":76561198064631164,"connected_time":855000000000,"state":"active","ping":34},{"user_id":156,"name":"rat","steam_id":76561198130412963,"connected_time":12408000000000,"state":"active","ping":75}]},{"server_id":112,"name":"Uncletopia | Los Angeles | 2 | All Maps","name_short":"lax-2","host":"lax-1.us.uncletopia.com","port":27025,"enabled":true,"region":"us-west","cc":"us","latitude":33.94279,"longitude":-118.41004,"reserved":0,"last_update":"0001-01-01T00:00:00Z","name_a2s":"Uncletopia | Los Angeles | 2 | All Maps","protocol":17,"map":"cp_dustbowl","folder":"tf","game":"Team Fortress","app_id":440,"player_count":24,"max_players":24,"Bots":0,"server_type":"Dedicated","server_os":"Linux","password":true,"vac":true,"version":"7961495","steam_id":85568392924469992,"keywords":["cp","nocrits","nodmgspread","uncletopia"],"game_id":440,"stv_port":27026,"stv_name":"Uncletopia | Los Angeles | 2 | All Maps | STV","players":[{"user_id":97,"name":"Mr. Enforce","steam_id":76561198362168020,"connected_time":2283000000000,"state":"active","ping":99},{"user_id":114,"name":"heck","steam_id":76561198315694520,"connected_time":1190000000000,"state":"active","ping":45},{"user_id":132,"name":"Hexalellogram","steam_id":76561198075217568,"connected_time":549000000000,"state":"active","ping":45},{"user_id":115,"name":"Quigi","steam_id":76561198144645874,"connected_time":1187000000000,"state":"active","ping":60},{"user_id":93,"name":"HAT-WEARING‚Ñ¢ Maggot Gamer Cat","steam_id":76561197973992705,"connected_time":2765000000000,"state":"active","ping":55},{"user_id":116,"name":"T√ºCold","steam_id":76561198111278197,"connected_time":1174000000000,"state":"active","ping":60},{"user_id":78,"name":"Master Of Whales","steam_id":76561198349104889,"connected_time":3803000000000,"state":"active","ping":43},{"user_id":133,"name":"Soda","steam_id":76561198219209367,"connected_time":547000000000,"state":"active","ping":64},{"user_id":25,"name":"lol","steam_id":76561198026491738,"connected_time":5493000000000,"state":"active","ping":70},{"user_id":99,"name":"jamassExD","steam_id":76561198454033607,"connected_time":2002000000000,"state":"active","ping":46},{"user_id":27,"name":"Humble Learner","steam_id":76561198066091050,"connected_time":5477000000000,"state":"active","ping":78},{"user_id":108,"name":"Rustys_Revenge","steam_id":76561198269414024,"connected_time":1476000000000,"state":"active","ping":52},{"user_id":125,"name":"okay sized language model","steam_id":76561198071110753,"connected_time":807000000000,"state":"active","ping":42},{"user_id":102,"name":"Mom","steam_id":76561198207936000,"connected_time":1877000000000,"state":"active","ping":46},{"user_id":118,"name":"short bus enthusiast","steam_id":76561198069380992,"connected_time":1139000000000,"state":"active","ping":76},{"user_id":131,"name":"An00bis","steam_id":76561198044084508,"connected_time":615000000000,"state":"active","ping":53},{"user_id":34,"name":"meph","steam_id":76561198149683030,"connected_time":5222000000000,"state":"active","ping":71},{"user_id":119,"name":"Kershaw","steam_id":76561198000244778,"connected_time":1015000000000,"state":"active","ping":75},{"user_id":120,"name":"Red Physical","steam_id":76561198151864382,"connected_time":991000000000,"state":"active","ping":90},{"user_id":107,"name":"solitaire","steam_id":76561198964025682,"connected_time":1600000000000,"state":"active","ping":39},{"user_id":110,"name":"Herdez Hot Salsa","steam_id":76561197991740906,"connected_time":1411000000000,"state":"active","ping":106},{"user_id":122,"name":"Ralph Kramden (Slim Charles)","steam_id":76561197981687895,"connected_time":979000000000,"state":"active","ping":51},{"user_id":112,"name":"Uncle Dale","steam_id":76561199144302768,"connected_time":1390000000000,"state":"active","ping":102},{"user_id":128,"name":"Gay Loogi Gang","steam_id":76561198097031529,"connected_time":751000000000,"state":"active","ping":85}]},{"server_id":324,"name":"Uncletopia | Los Angeles | 3 | All Maps","name_short":"lax-3","host":"lax-1.us.uncletopia.com","port":27035,"enabled":true,"region":"us-west","cc":"us","latitude":33.94279,"longitude":-118.41004,"reserved":0,"last_update":"0001-01-01T00:00:00Z","name_a2s":"Uncletopia | Los Angeles | 3 | All Maps","protocol":17,"map":"koth_viaduct","folder":"tf","game":"Team Fortress","app_id":440,"player_count":0,"max_players":24,"Bots":0,"server_type":"Dedicated","server_os":"Linux","password":true,"vac":true,"version":"7961495","steam_id":85568392924510198,"keywords":["cp","nocrits","nodmgspread","uncletopia"],"game_id":440,"stv_port":27036,"stv_name":"Uncletopia | Los Angeles | 3 | All Maps | STV","players":null},{"server_id":25,"name":"Uncletopia | Los Angeles | 4 | Stopwatch","name_short":"lax-4","host":"lax-1.us.uncletopia.com","port":27045,"enabled":true,"region":"us-west","cc":"us","latitude":33.94279,"longitude":-118.41004,"reserved":0,"last_update":"0001-01-01T00:00:00Z","name_a2s":"Uncletopia | Los Angeles | 4 | Stopwatch","protocol":17,"map":"koth_lakeside_final","folder":"tf","game":"Team Fortress","app_id":440,"player_count":0,"max_players":24,"Bots":0,"server_type":"Dedicated","server_os":"Linux","password":true,"vac":true,"version":"7961495","steam_id":85568392924510199,"keywords":["cp","nocrits","nodmgspread","uncletopia"],"game_id":440,"stv_port":27046,"stv_name":"Uncletopia | Los Angeles | 4 | Stopwatch | STV","players":null},{"server_id":11,"name":"Uncletopia | London | 1 | All Maps","name_short":"lon-1","host":"lon-1.uk.uncletopia.com","port":27015,"enabled":true,"region":"eu","cc":"gb","latitude":51.509865,"longitude":-0.118092,"reserved":0,"last_update":"0001-01-01T00:00:00Z","name_a2s":"Uncletopia | London | 1 | All Maps","protocol":17,"map":"koth_viaduct","folder":"tf","game":"Team Fortress","app_id":440,"player_count":0,"max_players":24,"Bots":0,"server_type":"Dedicated","server_os":"Linux","password":true,"vac":true,"version":"7961495","steam_id":85568392924367362,"keywords":["cp","nocrits","nodmgspread","uncletopia"],"game_id":440,"stv_port":27016,"stv_name":"Uncletopia | London | 1 | All Maps | STV","players":null},{"server_id":114,"name":"Uncletopia | London | 2 | All Maps","name_short":"lon-2","host":"lon-1.uk.uncletopia.com","port":27025,"enabled":true,"region":"eu","cc":"gb","latitude":51.509865,"longitude":-0.118092,"reserved":0,"last_update":"0001-01-01T00:00:00Z","name_a2s":"Uncletopia | London | 2 | All Maps","protocol":17,"map":"pl_snowycoast","folder":"tf","game":"Team Fortress","app_id":440,"player_count":0,"max_players":24,"Bots":0,"server_type":"Dedicated","server_os":"Linux","password":true,"vac":true,"version":"7961495","steam_id":85568392924470941,"keywords":["nocrits","nodmgspread","payload","uncletopia"],"game_id":440,"stv_port":27026,"stv_name":"Uncletopia | London | 2 | All Maps | STV","players":null},{"server_id":320,"name":"Uncletopia | London | 3 | All Maps","name_short":"lon-3","host":"lon-1.uk.uncletopia.com","port":27035,"enabled":true,"region":"eu","cc":"gb","latitude":51.509865,"longitude":-0.118092,"reserved":0,"last_update":"0001-01-01T00:00:00Z","name_a2s":"Uncletopia | London | 3 | All Maps","protocol":17,"map":"koth_lakeside_final","folder":"tf","game":"Team Fortress","app_id":440,"player_count":0,"max_players":24,"Bots":0,"server_type":"Dedicated","server_os":"Linux","password":true,"vac":true,"version":"7961495","steam_id":85568392924510192,"keywords":["cp","nocrits","nodmgspread","uncletopia"],"game_id":440,"stv_port":27036,"stv_name":"Uncletopia | London | 3 | All Maps | STV","players":null},{"server_id":321,"name":"Uncletopia | London | 4 | All Maps","name_short":"lon-4","host":"lon-1.uk.uncletopia.com","port":27045,"enabled":true,"region":"eu","cc":"gb","latitude":51.509865,"longitude":-0.118092,"reserved":0,"last_update":"0001-01-01T00:00:00Z","name_a2s":"Uncletopia | London | 4 | All Maps","protocol":17,"map":"pl_badwater","folder":"tf","game":"Team Fortress","app_id":440,"player_count":0,"max_players":24,"Bots":0,"server_type":"Dedicated","server_os":"Linux","password":true,"vac":true,"version":"7961495","steam_id":85568392924510193,"keywords":["nocrits","nodmgspread","payload","uncletopia"],"game_id":440,"stv_port":27046,"stv_name":"Uncletopia | London | 4 | All Maps | STV","players":null},{"server_id":21,"name":"Uncletopia | London | 5 | All Maps","name_short":"lon-5","host":"lon-1.uk.uncletopia.com","port":27055,"enabled":true,"region":"eu","cc":"gb","latitude":51.509865,"longitude":-0.118092,"reserved":0,"last_update":"0001-01-01T00:00:00Z","name_a2s":"Uncletopia | London | 5 | All Maps","protocol":17,"map":"koth_lazarus","folder":"tf","game":"Team Fortress","app_id":440,"player_count":0,"max_players":24,"Bots":0,"server_type":"Dedicated","server_os":"Linux","password":true,"vac":true,"version":"7961495","steam_id":85568392924742829,"keywords":["cp","nocrits","nodmgspread","uncletopia"],"game_id":440,"stv_port":27056,"stv_name":"Uncletopia | London | 5 | All Maps | STV","players":null},{"server_id":22,"name":"Uncletopia | London | 6 | All Maps","name_short":"lon-6","host":"lon-1.uk.uncletopia.com","port":27065,"enabled":true,"region":"eu","cc":"gb","latitude":51.509865,"longitude":-0.118092,"reserved":0,"last_update":"0001-01-01T00:00:00Z","name_a2s":"Uncletopia | London | 6 | All Maps","protocol":17,"map":"cp_snakewater_final1","folder":"tf","game":"Team Fortress","app_id":440,"player_count":0,"max_players":24,"Bots":0,"server_type":"Dedicated","server_os":"Linux","password":true,"vac":true,"version":"7961495","steam_id":85568392924742830,"keywords":["cp","nocrits","nodmgspread","uncletopia"],"game_id":440,"stv_port":27066,"stv_name":"Uncletopia | London | 6 | All Maps | STV","players":null},{"server_id":40,"name":"Uncletopia | London | 7 | Stopwatch","name_short":"lon-7","host":"lon-1.uk.uncletopia.com","port":27075,"enabled":true,"region":"eu","cc":"gb","latitude":51.509865,"longitude":-0.118092,"reserved":0,"last_update":"0001-01-01T00:00:00Z","name_a2s":"Uncletopia | London | 7 | Stopwatch","protocol":17,"map":"workshop/pl_badwater_pro_v12.ugc2142942074","folder":"tf","game":"Team Fortress","app_id":440,"player_count":0,"max_players":24,"Bots":0,"server_type":"Dedicated","server_os":"Linux","password":true,"vac":true,"version":"7961495","steam_id":85568392924964314,"keywords":["nocrits","nodmgspread","payload","uncletopia"],"game_id":440,"stv_port":27076,"stv_name":"Uncletopia | London | 7 | Stopwatch | STV","players":null},{"server_id":41,"name":"Uncletopia | London | 8 | Community","name_short":"lon-8","host":"lon-1.uk.uncletopia.com","port":27085,"enabled":true,"region":"eu","cc":"gb","latitude":51.509865,"longitude":-0.118092,"reserved":0,"last_update":"0001-01-01T00:00:00Z","name_a2s":"Uncletopia | London | 8 | Community","protocol":17,"map":"workshop/cp_villa_b19.ugc2113052569","folder":"tf","game":"Team Fortress","app_id":440,"player_count":0,"max_players":24,"Bots":0,"server_type":"Dedicated","server_os":"Linux","password":true,"vac":true,"version":"7961495","steam_id":85568392924964315,"keywords":["cp","nocrits","nodmgspread","uncletopia"],"game_id":440,"stv_port":27086,"stv_name":"Uncletopia | London | 8 | Community | STV","players":null},{"server_id":300,"name":"Uncletopia | Montr√©al | 1 | One Thousand Uncles","name_short":"mtl-1","host":"mtl-1.ca.uncletopia.com","port":27015,"enabled":true,"region":"us-east","cc":"ca","latitude":45.50889,"longitude":-73.56167,"reserved":0,"last_update":"0001-01-01T00:00:00Z","name_a2s":"Uncletopia | Montr√©al | 1 | One Thousand Uncles","protocol":17,"map":"pl_chilly","folder":"tf","game":"Team Fortress","app_id":440,"player_count":18,"max_players":32,"Bots":16,"server_type":"Dedicated","server_os":"Linux","password":true,"vac":true,"version":"7961495","steam_id":85568392924500087,"keywords":["alltalk","bots","danepve","increased_maxplayers","norespawntime","payload","uncletopia"],"game_id":440,"stv_port":0,"stv_name":"","players":[{"user_id":128,"name":"Grand Wizard","steam_id":76561199382783363,"connected_time":1074000000000,"state":"active","ping":82},{"user_id":145,"name":"Kronk","steam_id":76561198063092125,"connected_time":263000000000,"state":"active","ping":75}]},{"server_id":301,"name":"Uncletopia | Montr√©al | 2 | One Thousand Uncles","name_short":"mtl-2","host":"mtl-1.ca.uncletopia.com","port":27025,"enabled":true,"region":"us-east","cc":"ca","latitude":45.50889,"longitude":-73.56167,"reserved":0,"last_update":"0001-01-01T00:00:00Z","name_a2s":"Uncletopia | Montr√©al | 2 | One Thousand Uncles","protocol":17,"map":"pl_chilly","folder":"tf","game":"Team Fortress","app_id":440,"player_count":0,"max_players":32,"Bots":0,"server_type":"Dedicated","server_os":"Linux","password":true,"vac":true,"version":"7961495","steam_id":85568392924500088,"keywords":["alltalk","danepve","increased_maxplayers","norespawntime","payload","uncletopia"],"game_id":440,"stv_port":0,"stv_name":"","players":null},{"server_id":302,"name":"Uncletopia | Montr√©al | 3 | One Thousand Uncles","name_short":"mtl-3","host":"mtl-1.ca.uncletopia.com","port":27035,"enabled":true,"region":"us-east","cc":"ca","latitude":45.50889,"longitude":-73.56167,"reserved":0,"last_update":"0001-01-01T00:00:00Z","name_a2s":"Uncletopia | Montr√©al | 3 | One Thousand Uncles","protocol":17,"map":"pl_goldrush","folder":"tf","game":"Team Fortress","app_id":440,"player_count":24,"max_players":32,"Bots":16,"server_type":"Dedicated","server_os":"Linux","password":true,"vac":true,"version":"7961495","steam_id":85568392924500089,"keywords":["alltalk","bots","danepve","increased_maxplayers","norespawntime","payload","uncletopia"],"game_id":440,"stv_port":0,"stv_name":"","players":[{"user_id":323,"name":"HyperPan_wow","steam_id":76561199146562090,"connected_time":2976000000000,"state":"active","ping":151},{"user_id":341,"name":"vioxynteris","steam_id":76561198161428666,"connected_time":2468000000000,"state":"active","ping":99},{"user_id":342,"name":"milk then cereal","steam_id":76561198047168548,"connected_time":2291000000000,"state":"active","ping":107},{"user_id":343,"name":"only a spoonful","steam_id":76561198113180616,"connected_time":1669000000000,"state":"active","ping":48},{"user_id":345,"name":"Zero-Xyfer","steam_id":76561198351621003,"connected_time":1518000000000,"state":"active","ping":78},{"user_id":346,"name":"xbox record that","steam_id":76561198150117455,"connected_time":680000000000,"state":"active","ping":126},{"user_id":347,"name":"EliteSpartan","steam_id":76561198174023582,"connected_time":489000000000,"state":"active","ping":62},{"user_id":349,"name":"Erebus","steam_id":76561199061956673,"connected_time":369000000000,"state":"active","ping":43}]},{"server_id":13,"name":"Uncletopia | New York City | 1 | All Maps","name_short":"nyc-1","host":"nyc-1.us.uncletopia.com","port":27015,"enabled":true,"region":"us-east","cc":"us","latitude":40.73061,"longitude":-73.93524,"reserved":0,"last_update":"0001-01-01T00:00:00Z","name_a2s":"Uncletopia | New York City | 1 | All Maps","protocol":17,"map":"pl_upward","folder":"tf","game":"Team Fortress","app_id":440,"player_count":24,"max_players":24,"Bots":0,"server_type":"Dedicated","server_os":"Linux","password":true,"vac":true,"version":"7961495","steam_id":85568392924469993,"keywords":["nocrits","nodmgspread","payload","uncletopia"],"game_id":440,"stv_port":27016,"stv_name":"Uncletopia | New York City | 1 | All Maps | STV","players":[{"user_id":917,"name":"xxDeadRose93","steam_id":76561198112341457,"connected_time":1270000000000,"state":"active","ping":52},{"user_id":925,"name":"awak","steam_id":76561198092135570,"connected_time":929000000000,"state":"active","ping":75},{"user_id":935,"name":"Terra Mater","steam_id":76561198069735882,"connected_time":510000000000,"state":"active","ping":76},{"user_id":891,"name":"gamer girl lover","steam_id":76561198313148513,"connected_time":2695000000000,"state":"active","ping":54},{"user_id":929,"name":"N00SE","steam_id":76561198211473307,"connected_time":824000000000,"state":"active","ping":85},{"user_id":907,"name":"Tangeebee","steam_id":76561198043762011,"connected_time":1606000000000,"state":"active","ping":122},{"user_id":903,"name":"Evie","steam_id":76561198967313085,"connected_time":2044000000000,"state":"active","ping":115},{"user_id":937,"name":"All Tomorrow's Parties","steam_id":76561197995936212,"connected_time":87000000000,"state":"active","ping":74},{"user_id":927,"name":"Iso","steam_id":76561198036273512,"connected_time":868000000000,"state":"active","ping":57},{"user_id":934,"name":"Model CHP-3Y","steam_id":76561198107806145,"connected_time":565000000000,"state":"active","ping":55},{"user_id":896,"name":"ArmyGuyIan","steam_id":76561198120926552,"connected_time":2384000000000,"state":"active","ping":63},{"user_id":884,"name":"Sire Salty","steam_id":76561198079639072,"connected_time":3169000000000,"state":"active","ping":56},{"user_id":930,"name":"Trash Man","steam_id":76561198130036002,"connected_time":813000000000,"state":"active","ping":48},{"user_id":915,"name":"olf","steam_id":76561198095487438,"connected_time":1345000000000,"state":"active","ping":135},{"user_id":876,"name":"MoomyBoomy","steam_id":76561198150787961,"connected_time":3347000000000,"state":"active","ping":87},{"user_id":909,"name":"dekemori","steam_id":76561198373889573,"connected_time":1473000000000,"state":"active","ping":94},{"user_id":910,"name":"Veridian","steam_id":76561198096334078,"connected_time":1420000000000,"state":"active","ping":60},{"user_id":911,"name":"Snoogs","steam_id":76561198444880931,"connected_time":1397000000000,"state":"active","ping":51},{"user_id":912,"name":"bimbo lips eve","steam_id":76561198092267263,"connected_time":1382000000000,"state":"active","ping":84},{"user_id":936,"name":"beyond puck","steam_id":76561198121260981,"connected_time":286000000000,"state":"active","ping":108},{"user_id":932,"name":"Scarecrow","steam_id":76561198045870511,"connected_time":757000000000,"state":"active","ping":71},{"user_id":923,"name":"Jkrep","steam_id":76561198439442146,"connected_time":1092000000000,"state":"active","ping":46},{"user_id":921,"name":"Cabbage","steam_id":76561198405573530,"connected_time":1145000000000,"state":"active","ping":43},{"user_id":924,"name":"Alpha","steam_id":76561199482290132,"connected_time":1032000000000,"state":"active","ping":47}]},{"server_id":14,"name":"Uncletopia | New York City | 2 | All Maps","name_short":"nyc-2","host":"nyc-1.us.uncletopia.com","port":27025,"enabled":true,"region":"us-east","cc":"us","latitude":40.73061,"longitude":-73.93524,"reserved":0,"last_update":"0001-01-01T00:00:00Z","name_a2s":"Uncletopia | New York City | 2 | All Maps","protocol":17,"map":"pl_snowycoast","folder":"tf","game":"Team Fortress","app_id":440,"player_count":2,"max_players":24,"Bots":0,"server_type":"Dedicated","server_os":"Linux","password":true,"vac":true,"version":"7961495","steam_id":85568392924469994,"keywords":["nocrits","nodmgspread","payload","uncletopia"],"game_id":440,"stv_port":27026,"stv_name":"Uncletopia | New York City | 2 | All Maps | STV","players":[{"user_id":582,"name":"Jermaphobe","steam_id":76561198121831789,"connected_time":7497000000000,"state":"active","ping":44},{"user_id":634,"name":"hunterzar","steam_id":76561198347666725,"connected_time":4256000000000,"state":"active","ping":31}]},{"server_id":15,"name":"Uncletopia | New York City | 3 | Stopwatch","name_short":"nyc-3","host":"nyc-1.us.uncletopia.com","port":27035,"enabled":true,"region":"us-east","cc":"us","latitude":40.73061,"longitude":-73.93524,"reserved":0,"last_update":"0001-01-01T00:00:00Z","name_a2s":"Uncletopia | New York City | 3 | Stopwatch","protocol":17,"map":"workshop/koth_bagel_rc6.ugc2514036946","folder":"tf","game":"Team Fortress","app_id":440,"player_count":0,"max_players":24,"Bots":0,"server_type":"Dedicated","server_os":"Linux","password":true,"vac":true,"version":"7961495","steam_id":85568392924742820,"keywords":["cp","nocrits","nodmgspread","uncletopia"],"game_id":440,"stv_port":27036,"stv_name":"Uncletopia | New York City | 3 | Stopwatch | STV","players":null},{"server_id":16,"name":"Uncletopia | New York City | 4 | Community","name_short":"nyc-4","host":"nyc-1.us.uncletopia.com","port":27045,"enabled":true,"region":"us-east","cc":"us","latitude":40.73061,"longitude":-73.93524,"reserved":0,"last_update":"0001-01-01T00:00:00Z","name_a2s":"Uncletopia | New York City | 4 | Community","protocol":17,"map":"workshop/cp_villa_b19.ugc2113052569","folder":"tf","game":"Team Fortress","app_id":440,"player_count":0,"max_players":24,"Bots":0,"server_type":"Dedicated","server_os":"Linux","password":true,"vac":true,"version":"7961495","steam_id":85568392924742821,"keywords":["cp","nocrits","nodmgspread","uncletopia"],"game_id":440,"stv_port":27046,"stv_name":"Uncletopia | New York City | 4 | Community | STV","players":null},{"server_id":142,"name":"Uncletopia | S√£o Paulo | 1 | All Maps","name_short":"sao-1","host":"sao-1.br.uncletopia.com","port":27015,"enabled":true,"region":"sa","cc":"br","latitude":-23.533773,"longitude":-46.62529,"reserved":0,"last_update":"0001-01-01T00:00:00Z","name_a2s":"Uncletopia | S√£o Paulo | 1 | All Maps","protocol":17,"map":"koth_lakeside_final","folder":"tf","game":"Team Fortress","app_id":440,"player_count":0,"max_players":24,"Bots":0,"server_type":"Dedicated","server_os":"Linux","password":true,"vac":true,"version":"7961495","steam_id":85568392924469996,"keywords":["cp","nocrits","nodmgspread","uncletopia"],"game_id":440,"stv_port":27016,"stv_name":"Uncletopia | S√£o Paulo | 1 | All Maps | STV","players":null},{"server_id":143,"name":"Uncletopia | S√£o Paulo | 2 | Community","name_short":"sao-2","host":"sao-2.br.uncletopia.com","port":27015,"enabled":true,"region":"sa","cc":"br","latitude":-23.533773,"longitude":-46.62529,"reserved":0,"last_update":"0001-01-01T00:00:00Z","name_a2s":"Uncletopia | S√£o Paulo | 2 | Community","protocol":17,"map":"workshop/koth_synthetic_rc6a.ugc1549817316","folder":"tf","game":"Team Fortress","app_id":440,"player_count":0,"max_players":24,"Bots":0,"server_type":"Dedicated","server_os":"Linux","password":true,"vac":true,"version":"7961495","steam_id":85568392924485349,"keywords":["cp","nocrits","nodmgspread","uncletopia"],"game_id":440,"stv_port":27016,"stv_name":"Uncletopia | S√£o Paulo | 2 | Community | STV","players":null},{"server_id":7,"name":"Uncletopia | Seattle | 1 | All Maps","name_short":"sea-1","host":"sea-1.us.uncletopia.com","port":27015,"enabled":true,"region":"us-west","cc":"us","latitude":47.608013,"longitude":-122.33517,"reserved":0,"last_update":"0001-01-01T00:00:00Z","name_a2s":"Uncletopia | Seattle | 1 | All Maps","protocol":17,"map":"ctf_2fort","folder":"tf","game":"Team Fortress","app_id":440,"player_count":24,"max_players":24,"Bots":0,"server_type":"Dedicated","server_os":"Linux","password":true,"vac":true,"version":"7961495","steam_id":85568392924469997,"keywords":["ctf","nocrits","nodmgspread","uncletopia"],"game_id":440,"stv_port":27016,"stv_name":"Uncletopia | Seattle | 1 | All Maps | STV","players":[{"user_id":628,"name":"Pootis","steam_id":76561199067766868,"connected_time":1310000000000,"state":"active","ping":50},{"user_id":624,"name":"Arsonist Goose","steam_id":76561198147441830,"connected_time":2252000000000,"state":"active","ping":70},{"user_id":592,"name":"roody","steam_id":76561198066260405,"connected_time":6324000000000,"state":"active","ping":60},{"user_id":642,"name":"Torr","steam_id":76561198004668309,"connected_time":127000000000,"state":"active","ping":47},{"user_id":605,"name":"WaffleWithNoToppings","steam_id":76561199088280111,"connected_time":3979000000000,"state":"active","ping":45},{"user_id":637,"name":"Ayayayayayayayayayayayayahuasca","steam_id":76561199002906056,"connected_time":860000000000,"state":"active","ping":63},{"user_id":593,"name":"tmm (theManMan)","steam_id":76561199488457138,"connected_time":5908000000000,"state":"active","ping":53},{"user_id":632,"name":"NOT FRIENDLY","steam_id":76561198041327231,"connected_time":1145000000000,"state":"active","ping":45},{"user_id":574,"name":"soup","steam_id":76561198043209046,"connected_time":7706000000000,"state":"active","ping":66},{"user_id":555,"name":"Attrition","steam_id":76561197969881916,"connected_time":8054000000000,"state":"active","ping":58},{"user_id":598,"name":"Hazel (Boy kisser)","steam_id":76561199247095754,"connected_time":4934000000000,"state":"active","ping":59},{"user_id":640,"name":"Idiot Wearing a Gibbus","steam_id":76561198880641840,"connected_time":521000000000,"state":"active","ping":93},{"user_id":641,"name":"Defeat","steam_id":76561198065203818,"connected_time":509000000000,"state":"active","ping":45},{"user_id":619,"name":"Pann","steam_id":76561198086683667,"connected_time":2645000000000,"state":"active","ping":74},{"user_id":612,"name":"spenca","steam_id":76561198025371154,"connected_time":3498000000000,"state":"active","ping":59},{"user_id":633,"name":"Dom","steam_id":76561198156431338,"connected_time":1144000000000,"state":"active","ping":95},{"user_id":620,"name":"dust | it/she","steam_id":76561198045218909,"connected_time":2569000000000,"state":"active","ping":39},{"user_id":621,"name":"GalaxyDoug32","steam_id":76561197997126305,"connected_time":2269000000000,"state":"active","ping":61},{"user_id":597,"name":"duddlee","steam_id":76561198030052564,"connected_time":5067000000000,"state":"active","ping":58},{"user_id":629,"name":"Jeramosa","steam_id":76561198811000094,"connected_time":1309000000000,"state":"active","ping":82},{"user_id":551,"name":"rat gets the cheese","steam_id":76561198031234032,"connected_time":8101000000000,"state":"active","ping":103},{"user_id":635,"name":"Toaster (Hamilton Beach)","steam_id":76561198039891934,"connected_time":1046000000000,"state":"active","ping":62},{"user_id":636,"name":"MayaBon","steam_id":76561198797968261,"connected_time":1024000000000,"state":"active","ping":58},{"user_id":630,"name":"I_Want_A_Soft_Taco","steam_id":76561198225561352,"connected_time":1182000000000,"state":"active","ping":89}]},{"server_id":119,"name":"Uncletopia | Seattle | 2 | All Maps","name_short":"sea-2","host":"sea-1.us.uncletopia.com","port":27025,"enabled":true,"region":"us-west","cc":"us","latitude":47.608013,"longitude":-122.33517,"reserved":0,"last_update":"0001-01-01T00:00:00Z","name_a2s":"Uncletopia | Seattle | 2 | All Maps","protocol":17,"map":"koth_viaduct","folder":"tf","game":"Team Fortress","app_id":440,"player_count":24,"max_players":24,"Bots":0,"server_type":"Dedicated","server_os":"Linux","password":true,"vac":true,"version":"7961495","steam_id":85568392924469998,"keywords":["cp","nocrits","nodmgspread","uncletopia"],"game_id":440,"stv_port":27026,"stv_name":"Uncletopia | Seattle | 2 | All Maps | STV","players":[{"user_id":534,"name":"patpat","steam_id":76561198090556527,"connected_time":1143000000000,"state":"active","ping":60},{"user_id":526,"name":"magus","steam_id":76561197961228140,"connected_time":1261000000000,"state":"active","ping":64},{"user_id":506,"name":"AveragePhil","steam_id":76561199139836802,"connected_time":2704000000000,"state":"active","ping":52},{"user_id":539,"name":"Brathic","steam_id":76561198966232163,"connected_time":837000000000,"state":"active","ping":75},{"user_id":509,"name":"Tech Deck","steam_id":76561199070437675,"connected_time":2541000000000,"state":"active","ping":87},{"user_id":521,"name":"NightRaine","steam_id":76561198050351028,"connected_time":1761000000000,"state":"active","ping":122},{"user_id":523,"name":"R5-D4","steam_id":76561198025196439,"connected_time":1323000000000,"state":"active","ping":51},{"user_id":528,"name":"Patch!","steam_id":76561198435963501,"connected_time":1248000000000,"state":"active","ping":72},{"user_id":483,"name":"Irisu","steam_id":76561198071168123,"connected_time":4952000000000,"state":"active","ping":53},{"user_id":541,"name":"tghalepeno","steam_id":76561198858018027,"connected_time":520000000000,"state":"active","ping":137},{"user_id":535,"name":"Satori Komeiji","steam_id":76561198158211423,"connected_time":1087000000000,"state":"active","ping":63},{"user_id":546,"name":"Chocc-_-","steam_id":76561198068070211,"connected_time":14000000000,"state":"active","ping":106},{"user_id":545,"name":"Odd Life","steam_id":76561198244979998,"connected_time":174000000000,"state":"active","ping":78},{"user_id":538,"name":"mub","steam_id":76561197961943948,"connected_time":941000000000,"state":"active","ping":46},{"user_id":530,"name":"Ting","steam_id":76561198111669760,"connected_time":1235000000000,"state":"active","ping":47},{"user_id":524,"name":"Day Man","steam_id":76561198067154807,"connected_time":1312000000000,"state":"active","ping":45},{"user_id":517,"name":"Adnapeht","steam_id":76561198395949213,"connected_time":2411000000000,"state":"active","ping":68},{"user_id":540,"name":"Greenwood RN","steam_id":76561198088641060,"connected_time":569000000000,"state":"active","ping":44},{"user_id":470,"name":"Sam","steam_id":76561198012364798,"connected_time":5435000000000,"state":"active","ping":80},{"user_id":520,"name":"YO MR. WHITE I'M A W+M1","steam_id":76561198044134323,"connected_time":2170000000000,"state":"active","ping":113},{"user_id":531,"name":"Micc","steam_id":76561199447744486,"connected_time":1219000000000,"state":"active","ping":73},{"user_id":488,"name":"The King of Piss World","steam_id":76561198082806956,"connected_time":4865000000000,"state":"active","ping":122},{"user_id":532,"name":"Revolutionary Girl Misty","steam_id":76561198011442255,"connected_time":1191000000000,"state":"active","ping":76},{"user_id":491,"name":"KROGLIN DA FACE GRINDA","steam_id":76561199222088480,"connected_time":4743000000000,"state":"active","ping":49}]},{"server_id":406,"name":"Uncletopia | Seattle | 3 | Stopwatch","name_short":"sea-3","host":"sea-1.us.uncletopia.com","port":27035,"enabled":true,"region":"us-west","cc":"us","latitude":47.608013,"longitude":-122.33517,"reserved":0,"last_update":"0001-01-01T00:00:00Z","name_a2s":"Uncletopia | Seattle | 3 | Stopwatch","protocol":17,"map":"workshop/koth_clearcut_b15.ugc2107050255","folder":"tf","game":"Team Fortress","app_id":440,"player_count":0,"max_players":24,"Bots":0,"server_type":"Dedicated","server_os":"Linux","password":true,"vac":true,"version":"7961495","steam_id":85568392924515217,"keywords":["cp","nocrits","nodmgspread","uncletopia"],"game_id":440,"stv_port":27036,"stv_name":"Uncletopia | Seattle | 3 | Stopwatch | STV","players":null},{"server_id":17,"name":"Uncletopia | San Francisco | 1 | All Maps","name_short":"sfo-1","host":"sfo-1.us.uncletopia.com","port":27015,"enabled":true,"region":"us-west","cc":"us","latitude":37.77397,"longitude":-122.4313,"reserved":0,"last_update":"0001-01-01T00:00:00Z","name_a2s":"Uncletopia | San Francisco | 1 | All Maps","protocol":17,"map":"pl_swiftwater_final1","folder":"tf","game":"Team Fortress","app_id":440,"player_count":14,"max_players":24,"Bots":0,"server_type":"Dedicated","server_os":"Linux","password":true,"vac":true,"version":"7961495","steam_id":85568392924469999,"keywords":["nocrits","nodmgspread","payload","uncletopia"],"game_id":440,"stv_port":27016,"stv_name":"Uncletopia | San Francisco | 1 | All Maps | STV","players":[{"user_id":572,"name":"Trouser Snivy","steam_id":76561198073788829,"connected_time":969000000000,"state":"active","ping":80},{"user_id":538,"name":"Lickity Split","steam_id":76561198132051047,"connected_time":2453000000000,"state":"active","ping":82},{"user_id":573,"name":"Arrythmia","steam_id":76561198093748123,"connected_time":967000000000,"state":"active","ping":72},{"user_id":575,"name":"Mr. Belcher","steam_id":76561198170679462,"connected_time":632000000000,"state":"active","ping":79},{"user_id":581,"name":"atomic","steam_id":76561198044264201,"connected_time":365000000000,"state":"active","ping":75},{"user_id":563,"name":"Cacophony","steam_id":76561198047474050,"connected_time":1356000000000,"state":"active","ping":48},{"user_id":579,"name":"Pixelated Pussy","steam_id":76561198002511088,"connected_time":394000000000,"state":"active","ping":45},{"user_id":580,"name":"American freedom bird","steam_id":76561198366142388,"connected_time":389000000000,"state":"active","ping":55},{"user_id":583,"name":"BigGoose","steam_id":76561198833281392,"connected_time":240000000000,"state":"active","ping":73},{"user_id":584,"name":"The Comedian","steam_id":76561198037780226,"connected_time":222000000000,"state":"active","ping":59},{"user_id":585,"name":"MonsterAgent","steam_id":76561198272398159,"connected_time":194000000000,"state":"active","ping":52},{"user_id":586,"name":"Sivinus","steam_id":76561198025589541,"connected_time":193000000000,"state":"active","ping":59},{"user_id":531,"name":"HungryHippo","steam_id":76561198047615363,"connected_time":3270000000000,"state":"active","ping":60},{"user_id":548,"name":"Liminality","steam_id":76561198002601402,"connected_time":2322000000000,"state":"active","ping":45}]},{"server_id":18,"name":"Uncletopia | San Francisco | 2 | All Maps","name_short":"sfo-2","host":"sfo-1.us.uncletopia.com","port":27025,"enabled":true,"region":"us-west","cc":"us","latitude":37.77397,"longitude":-122.4313,"reserved":0,"last_update":"0001-01-01T00:00:00Z","name_a2s":"Uncletopia | San Francisco | 2 | All Maps","protocol":17,"map":"cp_altitude","folder":"tf","game":"Team Fortress","app_id":440,"player_count":23,"max_players":24,"Bots":0,"server_type":"Dedicated","server_os":"Linux","password":true,"vac":true,"version":"7961495","steam_id":85568392924470000,"keywords":["cp","nocrits","nodmgspread","uncletopia"],"game_id":440,"stv_port":27026,"stv_name":"Uncletopia | San Francisco | 2 | All Maps | STV","players":[{"user_id":169,"name":"Amateur Glaswegian","steam_id":76561198030851956,"connected_time":2938000000000,"state":"active","ping":72},{"user_id":192,"name":"Lunch Enjoyer","steam_id":76561198037361116,"connected_time":1459000000000,"state":"active","ping":72},{"user_id":193,"name":"Captain Underbelly","steam_id":76561198811270935,"connected_time":1447000000000,"state":"active","ping":84},{"user_id":170,"name":"Koishi","steam_id":76561198054541054,"connected_time":2911000000000,"state":"active","ping":96},{"user_id":171,"name":"femmescout","steam_id":76561198250928638,"connected_time":2907000000000,"state":"active","ping":55},{"user_id":191,"name":"Jazz2T","steam_id":76561198154418867,"connected_time":1623000000000,"state":"active","ping":134},{"user_id":194,"name":"Convenient Strip Mall","steam_id":76561198164678062,"connected_time":1407000000000,"state":"active","ping":75},{"user_id":195,"name":"Scorpianswag","steam_id":76561198260651036,"connected_time":1357000000000,"state":"active","ping":45},{"user_id":198,"name":"Green","steam_id":76561198132116911,"connected_time":1166000000000,"state":"active","ping":53},{"user_id":207,"name":"S√°bado Gigante","steam_id":76561197994685971,"connected_time":526000000000,"state":"active","ping":60},{"user_id":199,"name":"Dylanardo","steam_id":76561198294726950,"connected_time":1068000000000,"state":"active","ping":112},{"user_id":197,"name":"Weegee","steam_id":76561198140095755,"connected_time":1309000000000,"state":"active","ping":66},{"user_id":209,"name":"Claw Finger","steam_id":76561198116408865,"connected_time":30000000000,"state":"active","ping":125},{"user_id":187,"name":"Pepperino","steam_id":76561199139504199,"connected_time":1975000000000,"state":"active","ping":58},{"user_id":188,"name":"dab","steam_id":76561197997990613,"connected_time":1947000000000,"state":"active","ping":75},{"user_id":182,"name":"Petrivus","steam_id":76561198202152453,"connected_time":2074000000000,"state":"active","ping":60},{"user_id":201,"name":"Mexican Elvis","steam_id":76561198165100210,"connected_time":979000000000,"state":"active","ping":62},{"user_id":206,"name":"JimGrimm","steam_id":76561198044573050,"connected_time":542000000000,"state":"active","ping":121},{"user_id":203,"name":"Just a Good Friend","steam_id":76561198140052403,"connected_time":960000000000,"state":"active","ping":44},{"user_id":176,"name":"Katie XXII","steam_id":76561198135534297,"connected_time":2695000000000,"state":"active","ping":67},{"user_id":208,"name":"dash23‚Ñ¢","steam_id":76561198314951185,"connected_time":521000000000,"state":"active","ping":118},{"user_id":205,"name":"Mike Bean Burritos","steam_id":76561198173430607,"connected_time":856000000000,"state":"active","ping":67},{"user_id":157,"name":"Lambchop","steam_id":76561198043900363,"connected_time":4527000000000,"state":"active","ping":66}]},{"server_id":19,"name":"Uncletopia | San Francisco | 3 | Stopwatch","name_short":"sfo-3","host":"sfo-1.us.uncletopia.com","port":27035,"enabled":true,"region":"us-west","cc":"us","latitude":37.77397,"longitude":-122.4313,"reserved":0,"last_update":"0001-01-01T00:00:00Z","name_a2s":"Uncletopia | San Francisco | 3 | Stopwatch","protocol":17,"map":"workshop/koth_jamram_rc1a.ugc2964065613","folder":"tf","game":"Team Fortress","app_id":440,"player_count":0,"max_players":24,"Bots":0,"server_type":"Dedicated","server_os":"Linux","password":true,"vac":true,"version":"7961495","steam_id":85568392924742824,"keywords":["cp","nocrits","nodmgspread","uncletopia"],"game_id":440,"stv_port":27036,"stv_name":"Uncletopia | San Francisco | 3 | Stopwatch | STV","players":null},{"server_id":20,"name":"Uncletopia | San Francisco | 4 | Community","name_short":"sfo-4","host":"sfo-1.us.uncletopia.com","port":27045,"enabled":true,"region":"us-west","cc":"us","latitude":37.77397,"longitude":-122.4313,"reserved":0,"last_update":"0001-01-01T00:00:00Z","name_a2s":"Uncletopia | San Francisco | 4 | Community","protocol":17,"map":"workshop/koth_synthetic_rc6a.ugc1549817316","folder":"tf","game":"Team Fortress","app_id":440,"player_count":0,"max_players":24,"Bots":0,"server_type":"Dedicated","server_os":"Linux","password":true,"vac":true,"version":"7961495","steam_id":85568392924742826,"keywords":["cp","nocrits","nodmgspread","uncletopia"],"game_id":440,"stv_port":27046,"stv_name":"Uncletopia | San Francisco | 4 | Community | STV","players":null},{"server_id":141,"name":"Uncletopia | Sydney | 1 | All Maps","name_short":"syd-1","host":"syd-1.au.uncletopia.com","port":27015,"enabled":true,"region":"au","cc":"au","latitude":-33.865143,"longitude":151.2099,"reserved":0,"last_update":"0001-01-01T00:00:00Z","name_a2s":"Uncletopia | Sydney | 1 | All Maps","protocol":17,"map":"pl_snowycoast","folder":"tf","game":"Team Fortress","app_id":440,"player_count":24,"max_players":24,"Bots":0,"server_type":"Dedicated","server_os":"Linux","password":true,"vac":true,"version":"7961495","steam_id":85568392924470001,"keywords":["nocrits","nodmgspread","payload","uncletopia"],"game_id":440,"stv_port":27016,"stv_name":"Uncletopia | Sydney | 1 | All Maps | STV","players":[{"user_id":123,"name":"t.tv/catherine_x3","steam_id":76561198041907885,"connected_time":8954000000000,"state":"active","ping":60},{"user_id":143,"name":"CoiL","steam_id":76561198053911081,"connected_time":7080000000000,"state":"active","ping":60},{"user_id":212,"name":"Funny Floppa","steam_id":76561199193003527,"connected_time":168000000000,"state":"active","ping":80},{"user_id":183,"name":"soupy","steam_id":76561198073734936,"connected_time":2792000000000,"state":"active","ping":125},{"user_id":204,"name":"Overlold","steam_id":76561197978635495,"connected_time":728000000000,"state":"active","ping":74},{"user_id":103,"name":"Windows 95","steam_id":76561198079335990,"connected_time":10546000000000,"state":"active","ping":58},{"user_id":205,"name":"HOLY MOLY!!!!!","steam_id":76561198182388722,"connected_time":716000000000,"state":"active","ping":46},{"user_id":184,"name":"Tiddy Inspector","steam_id":76561199229794714,"connected_time":2792000000000,"state":"active","ping":56},{"user_id":132,"name":"...","steam_id":76561198309750355,"connected_time":8630000000000,"state":"active","ping":57},{"user_id":130,"name":"Paula","steam_id":76561198010688399,"connected_time":8685000000000,"state":"active","ping":71},{"user_id":202,"name":"Sircrow22","steam_id":76561198211213113,"connected_time":805000000000,"state":"active","ping":83},{"user_id":206,"name":"\u003e:FrozenDragon:\u003c","steam_id":76561198227960928,"connected_time":615000000000,"state":"active","ping":98},{"user_id":201,"name":"Griffin","steam_id":76561198024926514,"connected_time":814000000000,"state":"active","ping":90},{"user_id":210,"name":"DEMACLIO","steam_id":76561198046654525,"connected_time":443000000000,"state":"active","ping":60},{"user_id":209,"name":"Number 1 Racist Furry NZ","steam_id":76561198253080474,"connected_time":461000000000,"state":"active","ping":67},{"user_id":150,"name":"Pompadouraus","steam_id":76561198327530525,"connected_time":6585000000000,"state":"active","ping":75},{"user_id":211,"name":"Sinister80s","steam_id":76561198343540472,"connected_time":316000000000,"state":"active","ping":65},{"user_id":188,"name":"huh","steam_id":76561198025225448,"connected_time":2653000000000,"state":"active","ping":83},{"user_id":208,"name":"Comedy Mode","steam_id":76561198293250088,"connected_time":579000000000,"state":"active","ping":90},{"user_id":151,"name":"Livid","steam_id":76561198060024585,"connected_time":6494000000000,"state":"active","ping":41},{"user_id":171,"name":"Alright","steam_id":76561198075411902,"connected_time":4316000000000,"state":"active","ping":59},{"user_id":200,"name":"Fresh Produce Gaming","steam_id":76561198358483352,"connected_time":979000000000,"state":"active","ping":46},{"user_id":189,"name":"buff_sheep","steam_id":76561199122474585,"connected_time":2332000000000,"state":"active","ping":77},{"user_id":191,"name":"papa","steam_id":76561198163034070,"connected_time":1800000000000,"state":"active","ping":36}]},{"server_id":123,"name":"Uncletopia | Sydney | 2 | All Maps","name_short":"syd-2","host":"syd-1.au.uncletopia.com","port":27025,"enabled":true,"region":"au","cc":"au","latitude":-33.865143,"longitude":151.2099,"reserved":0,"last_update":"0001-01-01T00:00:00Z","name_a2s":"Uncletopia | Sydney | 2 | All Maps","protocol":17,"map":"koth_lakeside_final","folder":"tf","game":"Team Fortress","app_id":440,"player_count":2,"max_players":24,"Bots":0,"server_type":"Dedicated","server_os":"Linux","password":true,"vac":true,"version":"7961495","steam_id":85568392924470002,"keywords":["cp","nocrits","nodmgspread","uncletopia"],"game_id":440,"stv_port":27026,"stv_name":"Uncletopia | Sydney | 2 | All Maps | STV","players":[{"user_id":13,"name":"Very Wealthy Business man Gamin","steam_id":76561199018063750,"connected_time":123000000000,"state":"active","ping":59},{"user_id":10,"name":"Luckycharm","steam_id":76561199073672243,"connected_time":343000000000,"state":"active","ping":82}]},{"server_id":395,"name":"Uncletopia | Sydney | 3 | All Maps","name_short":"syd-3","host":"syd-1.au.uncletopia.com","port":27035,"enabled":true,"region":"au","cc":"au","latitude":-33.865143,"longitude":151.2099,"reserved":0,"last_update":"0001-01-01T00:00:00Z","name_a2s":"Uncletopia | Sydney | 3 | All Maps","protocol":17,"map":"cp_dustbowl","folder":"tf","game":"Team Fortress","app_id":440,"player_count":0,"max_players":24,"Bots":0,"server_type":"Dedicated","server_os":"Linux","password":true,"vac":true,"version":"7961495","steam_id":85568392925194467,"keywords":["cp","nocrits","nodmgspread","uncletopia"],"game_id":440,"stv_port":27036,"stv_name":"Uncletopia | Sydney | 3 | All Maps | STV","players":null},{"server_id":396,"name":"Uncletopia | Sydney | 4 | All Maps","name_short":"syd-4","host":"syd-1.au.uncletopia.com","port":27045,"enabled":true,"region":"au","cc":"au","latitude":-33.865143,"longitude":151.2099,"reserved":0,"last_update":"0001-01-01T00:00:00Z","name_a2s":"Uncletopia | Sydney | 4 | All Maps","protocol":17,"map":"cp_dustbowl","folder":"tf","game":"Team Fortress","app_id":440,"player_count":15,"max_players":24,"Bots":0,"server_type":"Dedicated","server_os":"Linux","password":true,"vac":true,"version":"7961495","steam_id":85568392925397958,"keywords":["cp","nocrits","nodmgspread","uncletopia"],"game_id":440,"stv_port":27046,"stv_name":"Uncletopia | Sydney | 4 | All Maps | STV","players":[{"user_id":58,"name":"gras_ack","steam_id":76561198200131551,"connected_time":930000000000,"state":"active","ping":315},{"user_id":44,"name":"isbl","steam_id":76561198010576179,"connected_time":2875000000000,"state":"active","ping":51},{"user_id":66,"name":"‰Ω†ÂæàÁàõ","steam_id":76561199169553351,"connected_time":309000000000,"state":"active","ping":165},{"user_id":38,"name":"Banana khan (F2P)","steam_id":76561198992414056,"connected_time":3581000000000,"state":"active","ping":217},{"user_id":55,"name":"SUSHIMAN","steam_id":76561199089989428,"connected_time":1079000000000,"state":"active","ping":92},{"user_id":49,"name":"Your slave","steam_id":76561198131217752,"connected_time":2244000000000,"state":"active","ping":237},{"user_id":60,"name":"invert.","steam_id":76561198049619174,"connected_time":866000000000,"state":"active","ping":52},{"user_id":72,"name":"FascismSalad","steam_id":76561198262410973,"connected_time":22000000000,"state":"active","ping":40},{"user_id":51,"name":"tim88435","steam_id":76561198089653987,"connected_time":1862000000000,"state":"active","ping":40},{"user_id":61,"name":"MegatSeams (F2P4Now)","steam_id":76561199447100357,"connected_time":767000000000,"state":"active","ping":169},{"user_id":62,"name":"Bortalis","steam_id":76561199106554602,"connected_time":711000000000,"state":"active","ping":89},{"user_id":57,"name":"Sammy","steam_id":76561199199672451,"connected_time":1046000000000,"state":"active","ping":92},{"user_id":67,"name":"Bin","steam_id":76561199117653318,"connected_time":298000000000,"state":"active","ping":58},{"user_id":68,"name":"Cleisthenes","steam_id":76561198142861283,"connected_time":270000000000,"state":"active","ping":78},{"user_id":71,"name":"JarmainMan27","steam_id":76561198961078929,"connected_time":133000000000,"state":"active","ping":44}]},{"server_id":58,"name":"Uncletopia | Sydney | 5 | Stopwatch","name_short":"syd-5","host":"syd-1.au.uncletopia.com","port":27055,"enabled":true,"region":"au","cc":"au","latitude":-33.865143,"longitude":151.2099,"reserved":0,"last_update":"0001-01-01T00:00:00Z","name_a2s":"Uncletopia | Sydney | 5 | Stopwatch","protocol":17,"map":"workshop/koth_product_final.ugc454272353","folder":"tf","game":"Team Fortress","app_id":440,"player_count":0,"max_players":24,"Bots":0,"server_type":"Dedicated","server_os":"Linux","password":true,"vac":true,"version":"7961495","steam_id":85568392925397959,"keywords":["cp","nocrits","nodmgspread","uncletopia"],"game_id":440,"stv_port":27056,"stv_name":"Uncletopia | Sydney | 5 | Stopwatch | STV","players":null},{"server_id":59,"name":"Uncletopia | Sydney | 6 | Community","name_short":"syd-6","host":"syd-1.au.uncletopia.com","port":27065,"enabled":true,"region":"au","cc":"au","latitude":-33.865143,"longitude":151.2099,"reserved":0,"last_update":"0001-01-01T00:00:00Z","name_a2s":"Uncletopia | Sydney | 6 | Community","protocol":17,"map":"workshop/koth_trenchfoot_ab1.ugc731436616","folder":"tf","game":"Team Fortress","app_id":440,"player_count":0,"max_players":24,"Bots":0,"server_type":"Dedicated","server_os":"Linux","password":true,"vac":true,"version":"7961495","steam_id":85568392925397960,"keywords":["cp","nocrits","nodmgspread","uncletopia"],"game_id":440,"stv_port":27066,"stv_name":"Uncletopia | Sydney | 6 | Community | STV","players":null},{"server_id":49,"name":"Uncletopia | Warsaw | 1 | One Thousand Uncles","name_short":"waw-1","host":"waw-1.pl.uncletopia.com","port":27015,"enabled":true,"region":"eu","cc":"pl","latitude":52.2297,"longitude":21.017532,"reserved":0,"last_update":"0001-01-01T00:00:00Z","name_a2s":"Uncletopia | Warsaw | 1 | One Thousand Uncles","protocol":17,"map":"pl_hoodoo_final","folder":"tf","game":"Team Fortress","app_id":440,"player_count":17,"max_players":32,"Bots":16,"server_type":"Dedicated","server_os":"Linux","password":true,"vac":true,"version":"7961495","steam_id":85568392925397850,"keywords":["alltalk","bots","danepve","increased_maxplayers","norespawntime","payload","uncletopia"],"game_id":440,"stv_port":0,"stv_name":"","players":[{"user_id":38,"name":"Van9","steam_id":76561199078054267,"connected_time":746000000000,"state":"active","ping":42}]},{"server_id":50,"name":"Uncletopia | Warsaw | 2 | One Thousand Uncles","name_short":"waw-2","host":"waw-1.pl.uncletopia.com","port":27025,"enabled":true,"region":"eu","cc":"pl","latitude":52.2297,"longitude":21.017532,"reserved":0,"last_update":"0001-01-01T00:00:00Z","name_a2s":"Uncletopia | Warsaw | 2 | One Thousand Uncles","protocol":17,"map":"cp_egypt_final","folder":"tf","game":"Team Fortress","app_id":440,"player_count":24,"max_players":32,"Bots":16,"server_type":"Dedicated","server_os":"Linux","password":true,"vac":true,"version":"7961495","steam_id":85568392925397851,"keywords":["alltalk","bots","cp","danepve","increased_maxplayers","norespawntime","uncletopia"],"game_id":440,"stv_port":0,"stv_name":"","players":[{"user_id":2,"name":"Nari","steam_id":76561199220038535,"connected_time":6157000000000,"state":"active","ping":167},{"user_id":19,"name":"SalDro","steam_id":76561199218262945,"connected_time":6087000000000,"state":"active","ping":93},{"user_id":21,"name":"Loona my beloved","steam_id":76561198067182918,"connected_time":3495000000000,"state":"active","ping":62},{"user_id":26,"name":"Arkenstein","steam_id":76561199091543520,"connected_time":824000000000,"state":"active","ping":90},{"user_id":23,"name":"vk rat makes me erect","steam_id":76561198355965587,"connected_time":2445000000000,"state":"active","ping":77},{"user_id":25,"name":"xanderomeister","steam_id":76561198882550389,"connected_time":1277000000000,"state":"active","ping":72},{"user_id":27,"name":"Hex fix matchmaking","steam_id":76561198301813883,"connected_time":444000000000,"state":"active","ping":96},{"user_id":29,"name":"trans werewolf","steam_id":76561198107235989,"connected_time":144000000000,"state":"active","ping":31}]},{"server_id":51,"name":"Uncletopia | Warsaw | 3 | All Maps","name_short":"waw-3","host":"waw-1.pl.uncletopia.com","port":27035,"enabled":true,"region":"eu","cc":"pl","latitude":52.2297,"longitude":21.017532,"reserved":0,"last_update":"0001-01-01T00:00:00Z","name_a2s":"Uncletopia | Warsaw | 3 | All Maps","protocol":17,"map":"pl_snowycoast","folder":"tf","game":"Team Fortress","app_id":440,"player_count":0,"max_players":24,"Bots":0,"server_type":"Dedicated","server_os":"Linux","password":true,"vac":true,"version":"7961495","steam_id":85568392925397852,"keywords":["nocrits","nodmgspread","payload","uncletopia"],"game_id":440,"stv_port":27036,"stv_name":"Uncletopia | Warsaw | 3 | All Maps | STV","players":null},{"server_id":52,"name":"Uncletopia | Warsaw | 4 | All Maps","name_short":"waw-4","host":"waw-1.pl.uncletopia.com","port":27045,"enabled":true,"region":"eu","cc":"pl","latitude":52.2297,"longitude":21.017532,"reserved":0,"last_update":"0001-01-01T00:00:00Z","name_a2s":"Uncletopia | Warsaw | 4 | All Maps","protocol":17,"map":"cp_fastlane","folder":"tf","game":"Team Fortress","app_id":440,"player_count":0,"max_players":24,"Bots":0,"server_type":"Dedicated","server_os":"Linux","password":true,"vac":true,"version":"7961495","steam_id":85568392925397853,"keywords":["cp","nocrits","nodmgspread","uncletopia"],"game_id":440,"stv_port":27046,"stv_name":"Uncletopia | Warsaw | 4 | All Maps | STV","players":null},{"server_id":53,"name":"Uncletopia | Warsaw | 5 | Stopwatch","name_short":"waw-5","host":"waw-1.pl.uncletopia.com","port":27055,"enabled":true,"region":"eu","cc":"pl","latitude":52.2297,"longitude":21.017532,"reserved":0,"last_update":"0001-01-01T00:00:00Z","name_a2s":"Uncletopia | Warsaw | 5 | Stopwatch","protocol":17,"map":"cp_gullywash_final1","folder":"tf","game":"Team Fortress","app_id":440,"player_count":0,"max_players":24,"Bots":0,"server_type":"Dedicated","server_os":"Linux","password":true,"vac":true,"version":"7961495","steam_id":85568392925397854,"keywords":["cp","nocrits","nodmgspread","uncletopia"],"game_id":440,"stv_port":27056,"stv_name":"Uncletopia | Warsaw | 5 | Stopwatch | STV","players":null},{"server_id":54,"name":"Uncletopia | Warsaw | 6 | Community","name_short":"waw-6","host":"waw-1.pl.uncletopia.com","port":27065,"enabled":true,"region":"eu","cc":"pl","latitude":52.2297,"longitude":21.017532,"reserved":0,"last_update":"0001-01-01T00:00:00Z","name_a2s":"Uncletopia | Warsaw | 6 | Community","protocol":17,"map":"workshop/cp_fulgur_rc2a.ugc2068252300","folder":"tf","game":"Team Fortress","app_id":440,"player_count":0,"max_players":24,"Bots":0,"server_type":"Dedicated","server_os":"Linux","password":true,"vac":true,"version":"7961495","steam_id":85568392925397856,"keywords":["cp","nocrits","nodmgspread","uncletopia"],"game_id":440,"stv_port":27066,"stv_name":"Uncletopia | Warsaw | 6 | Community | STV","players":null}]}