{"status":true,"message":"","result":[{"server_id":9,"name":"Uncletopia | Atlanta | 1 | All Maps","name_short":"atl-1","host":"atl-1.us.uncletopia.com","port":27015,"enabled":true,"region":"us-east","cc":"us","latitude":33.753746,"longitude":-84.38633,"reserved":0,"last_update":"0001-01-01T00:00:00Z","name_a2s":"Uncletopia | Atlanta | 1 | All Maps","protocol":17,"map":"koth_viaduct","folder":"tf","game":"Team Fortress","app_id":440,"player_count":0,"max_players":24,"Bots":0,"server_type":"Dedicated","server_os":"Linux","password":true,"vac":true,"version":"7961495","steam_id":85568392924469982,"keywords":["cp","nocrits","nodmgspread","uncletopia"],"game_id":440,"stv_port":27016,"stv_name":"Uncletopia | Atlanta | 1 | All Maps | STV","players":null},{"server_id":104,"name":"Uncletopia | Atlanta | 2 | All Maps","name_short":"atl-2","host":"atl-1.us.uncletopia.com","port":27025,"enabled":true,"region":"us-east","cc":"us","latitude":33.753746,"longitude":-84.38633,"reserved":0,"last_update":"0001-01-01T00:00:00Z","name_a2s":"Uncletopia | Atlanta | 2 | All Maps","protocol":17,"map":"pl_pier","folder":"tf","game":"Team Fortress","app_id":440,"player_count":0,"max_players":24,"Bots":0,"server_type":"Dedicated","server_os":"Linux","password":true,"vac":true,"version":"7961495","steam_id":85568392924469983,"keywords":["nocrits","nodmgspread","payload","uncletopia"],"game_id":440,"stv_port":27026,"stv_name":"Uncletopia | Atlanta | 2 | All Maps | STV","players":null},{"server_id":400,"name":"Uncletopia | Atlanta | 3 | All Maps","name_short":"atl-3","host":"atl-1.us.uncletopia.com","port":27035,"enabled":true,"region":"us-east","cc":"us","latitude":33.753746,"longitude":-84.38633,"reserved":0,"last_update":"0001-01-01T00:00:00Z","name_a2s":"Uncletopia | Atlanta | 3 | All Maps","protocol":17,"map":"koth_lakeside_final","folder":"tf","game":"Team Fortress","app_id":440,"player_count":0,"max_players":24,"Bots":0,"server_type":"Dedicated","server_os":"Linux","password":true,"vac":true,"version":"7961495","steam_id":85568392924515187,"keywords":["cp","nocrits","nodmgspread","uncletopia"],"game_id":440,"stv_port":27036,"stv_name":"Uncletopia | Atlanta | 3 | All Maps | STV","players":null},{"server_id":401,"name":"Uncletopia | Atlanta | 4 | Community","name_short":"atl-4","host":"atl-1.us.uncletopia.com","port":27045,"enabled":true,"region":"us-east","cc":"us","latitude":33.753746,"longitude":-84.38633,"reserved":0,"last_update":"0001-01-01T00:00:00Z","name_a2s":"Uncletopia | Atlanta | 4 | Community","protocol":17,"map":"cp_dustbowl","folder":"tf","game":"Team Fortress","app_id":440,"player_count":0,"max_players":24,"Bots":0,"server_type":"Dedicated","server_os":"Linux","password":true,"vac":true,"version":"7961495","steam_id":85568392924515188,"keywords":["cp","nocrits","nodmgspread","uncletopia"],"game_id":440,"stv_port":27046,"stv_name":"Uncletopia | Atlanta | 4 | Community | STV","players":null},{"server_id":2,"name":"Uncletopia | Chicago | 1 | All Maps","name_short":"chi-1","host":"chi-1.us.uncletopia.com","port":27015,"enabled":true,"region":"us-central","cc":"us","latitude":41.881832,"longitude":-87.62318,"reserved":0,"last_update":"0001-01-01T00:00:00Z","name_a2s":"Uncletopia | Chicago | 1 | All Maps","protocol":17,"map":"ctf_doublecross","folder":"tf","game":"Team Fortress","app_id":440,"player_count":6,"max_players":24,"Bots":0,"server_type":"Dedicated","server_os":"Linux","password":true,"vac":true,"version":"7961495","steam_id":85568392924469984,"keywords":["ctf","nocrits","nodmgspread","uncletopia"],"game_id":440,"stv_port":27016,"stv_name":"Uncletopia | Chicago | 1 | All Maps | STV","players":[{"user_id":426,"name":"AntiCapitalist","steam_id":76561198055447355,"connected_time":753000000000,"state":"active","ping":59},{"user_id":424,"name":"Tideflat","steam_id":76561198179850851,"connected_time":1131000000000,"state":"active","ping":89},{"user_id":411,"name":"clue","steam_id":76561198299379768,"connected_time":3317000000000,"state":"active","ping":84},{"user_id":427,"name":"DiamondEye8","steam_id":76561198214831283,"connected_time":627000000000,"state":"active","ping":107},{"user_id":428,"name":"Gul'dan","steam_id":76561198240466940,"connected_time":474000000000,"state":"spawning","ping":151},{"user_id":389,"name":"Captain S. Forrest","steam_id":76561198062463029,"connected_time":6455000000000,"state":"active","ping":59}]},{"server_id":106,"name":"Uncletopia | Chicago | 2 | All Maps","name_short":"chi-2","host":"chi-1.us.uncletopia.com","port":27025,"enabled":true,"region":"us-central","cc":"us","latitude":41.881832,"longitude":-87.62318,"reserved":0,"last_update":"0001-01-01T00:00:00Z","name_a2s":"Uncletopia | Chicago | 2 | All Maps","protocol":17,"map":"cp_snakewater_final1","folder":"tf","game":"Team Fortress","app_id":440,"player_count":0,"max_players":24,"Bots":0,"server_type":"Dedicated","server_os":"Linux","password":true,"vac":true,"version":"7961495","steam_id":85568392924469985,"keywords":["cp","nocrits","nodmgspread","uncletopia"],"game_id":440,"stv_port":27026,"stv_name":"Uncletopia | Chicago | 2 | All Maps | STV","players":null},{"server_id":402,"name":"Uncletopia | Chicago | 3 | All Maps","name_short":"chi-3","host":"chi-1.us.uncletopia.com","port":27035,"enabled":true,"region":"us-central","cc":"us","latitude":41.881832,"longitude":-87.62318,"reserved":0,"last_update":"0001-01-01T00:00:00Z","name_a2s":"Uncletopia | Chicago | 3 | All Maps","protocol":17,"map":"koth_lakeside_final","folder":"tf","game":"Team Fortress","app_id":440,"player_count":0,"max_players":24,"Bots":0,"server_type":"Dedicated","server_os":"Linux","password":true,"vac":true,"version":"7961495","steam_id":85568392924515191,"keywords":["cp","nocrits","nodmgspread","uncletopia"],"game_id":440,"stv_port":27036,"stv_name":"Uncletopia | Chicago | 3 | All Maps | STV","players":null},{"server_id":403,"name":"Uncletopia | Chicago | 4 | All Maps","name_short":"chi-4","host":"chi-1.us.uncletopia.com","port":27045,"enabled":true,"region":"us-central","cc":"us","latitude":41.881832,"longitude":-87.62318,"reserved":0,"last_update":"0001-01-01T00:00:00Z","name_a2s":"Uncletopia | Chicago | 4 | All Maps","protocol":17,"map":"pl_upward","folder":"tf","game":"Team Fortress","app_id":440,"player_count":9,"max_players":24,"Bots":0,"server_type":"Dedicated","server_os":"Linux","password":true,"vac":true,"version":"7961495","steam_id":85568392924515193,"keywords":["nocrits","nodmgspread","payload","uncletopia"],"game_id":440,"stv_port":27046,"stv_name":"Uncletopia | Chicago | 4 | All Maps | STV","players":[{"user_id":479,"name":"martimmanta","steam_id":76561199072684251,"connected_time":2131000000000,"state":"active","ping":145},{"user_id":482,"name":"LeBron James","steam_id":76561198167974713,"connected_time":1552000000000,"state":"active","ping":69},{"user_id":423,"name":"Shopkeeper","steam_id":76561198105888756,"connected_time":9731000000000,"state":"active","ping":99},{"user_id":460,"name":"carsonarson2","steam_id":76561199249416248,"connected_time":6292000000000,"state":"active","ping":152},{"user_id":484,"name":"Me Himself","steam_id":76561198862623007,"connected_time":454000000000,"state":"active","ping":164},{"user_id":486,"name":"God's Drunkest Driver","steam_id":76561199174579733,"connected_time":226000000000,"state":"active","ping":94},{"user_id":487,"name":"bigdadpark","steam_id":76561198288463608,"connected_time":172000000000,"state":"active","ping":69},{"user_id":419,"name":"Vimchi","steam_id":76561198151927029,"connected_time":9909000000000,"state":"active","ping":91},{"user_id":488,"name":"smoke crack","steam_id":76561199494303414,"connected_time":58000000000,"state":"active","ping":65}]},{"server_id":36,"name":"Uncletopia | Chicago | 5 | All Maps","name_short":"chi-5","host":"chi-2.us.uncletopia.com","port":27015,"enabled":true,"region":"us-central","cc":"us","latitude":41.881832,"longitude":-87.62318,"reserved":0,"last_update":"0001-01-01T00:00:00Z","name_a2s":"Uncletopia | Chicago | 5 | All Maps","protocol":17,"map":"pl_pier","folder":"tf","game":"Team Fortress","app_id":440,"player_count":0,"max_players":24,"Bots":0,"server_type":"Dedicated","server_os":"Linux","password":true,"vac":true,"version":"7961495","steam_id":85568392924866362,"keywords":["nocrits","nodmgspread","payload","uncletopia"],"game_id":440,"stv_port":27016,"stv_name":"Uncletopia | Chicago | 5 | All Maps | STV","players":null},{"server_id":37,"name":"Uncletopia | Chicago | 6 | All Maps","name_short":"chi-6","host":"chi-2.us.uncletopia.com","port":27025,"enabled":true,"region":"us-central","cc":"us","latitude":41.881832,"longitude":-87.62318,"reserved":0,"last_update":"0001-01-01T00:00:00Z","name_a2s":"Uncletopia | Chicago | 6 | All Maps","protocol":17,"map":"pl_swiftwater_final1","folder":"tf","game":"Team Fortress","app_id":440,"player_count":24,"max_players":24,"Bots":0,"server_type":"Dedicated","server_os":"Linux","password":true,"vac":true,"version":"7961495","steam_id":85568392924866363,"keywords":["nocrits","nodmgspread","payload","uncletopia"],"game_id":440,"stv_port":27026,"stv_name":"Uncletopia | Chicago | 6 | All Maps | STV","players":[{"user_id":474,"name":"Vynil","steam_id":76561198190004550,"connected_time":1788000000000,"state":"active","ping":51},{"user_id":487,"name":"Bryguy","steam_id":76561198092096120,"connected_time":1413000000000,"state":"active","ping":43},{"user_id":494,"name":"agentdaffy007","steam_id":76561198000283251,"connected_time":707000000000,"state":"active","ping":70},{"user_id":455,"name":"remanedur","steam_id":76561198059459507,"connected_time":4118000000000,"state":"active","ping":84},{"user_id":498,"name":"Xaukra","steam_id":76561198180742229,"connected_time":618000000000,"state":"active","ping":79},{"user_id":459,"name":"sam urai","steam_id":76561198127621267,"connected_time":3664000000000,"state":"active","ping":60},{"user_id":477,"name":"ecto cooler","steam_id":76561198068409067,"connected_time":1703000000000,"state":"active","ping":76},{"user_id":499,"name":"King Julien","steam_id":76561198960808065,"connected_time":604000000000,"state":"active","ping":106},{"user_id":470,"name":"Asshole","steam_id":76561198012157352,"connected_time":2354000000000,"state":"active","ping":111},{"user_id":500,"name":"Plasmoklo","steam_id":76561199071571167,"connected_time":602000000000,"state":"active","ping":75},{"user_id":429,"name":"Trumpetspyman59","steam_id":76561198048989561,"connected_time":4950000000000,"state":"active","ping":65},{"user_id":504,"name":"AntEnchants","steam_id":76561197975744758,"connected_time":444000000000,"state":"active","ping":85},{"user_id":489,"name":"Cakepants","steam_id":76561198032972455,"connected_time":1329000000000,"state":"active","ping":77},{"user_id":484,"name":"alN","steam_id":76561198329171346,"connected_time":1475000000000,"state":"active","ping":48},{"user_id":463,"name":"桃色の猫","steam_id":76561198141406399,"connected_time":3152000000000,"state":"active","ping":62},{"user_id":445,"name":"Driskulls","steam_id":76561198055213549,"connected_time":4478000000000,"state":"active","ping":55},{"user_id":502,"name":"Megatron G","steam_id":76561198168864083,"connected_time":576000000000,"state":"active","ping":103},{"user_id":490,"name":"Cereal","steam_id":76561198128418112,"connected_time":1323000000000,"state":"active","ping":90},{"user_id":505,"name":"corn","steam_id":76561198317434302,"connected_time":327000000000,"state":"active","ping":51},{"user_id":506,"name":"Drachma","steam_id":76561198007310514,"connected_time":65000000000,"state":"active","ping":60},{"user_id":485,"name":"Fray","steam_id":76561198030141282,"connected_time":1464000000000,"state":"active","ping":91},{"user_id":486,"name":"KurdishTigers","steam_id":76561199001848492,"connected_time":1439000000000,"state":"active","ping":109},{"user_id":492,"name":"Kantamoe","steam_id":76561198046661611,"connected_time":1262000000000,"state":"active","ping":85},{"user_id":493,"name":"Rat God","steam_id":76561198066161598,"connected_time":1258000000000,"state":"active","ping":60}]},{"server_id":38,"name":"Uncletopia | Chicago | 7 | Stopwatch Beta","name_short":"chi-7","host":"chi-2.us.uncletopia.com","port":27035,"enabled":true,"region":"us-central","cc":"us","latitude":41.881832,"longitude":-87.62318,"reserved":0,"last_update":"0001-01-01T00:00:00Z","name_a2s":"Uncletopia | Chicago | 7 | Stopwatch Beta","protocol":17,"map":"cp_process_final","folder":"tf","game":"Team Fortress","app_id":440,"player_count":0,"max_players":24,"Bots":0,"server_type":"Dedicated","server_os":"Linux","password":true,"vac":true,"version":"7961495","steam_id":85568392924866364,"keywords":["cp","nocrits","nodmgspread","uncletopia"],"game_id":440,"stv_port":27036,"stv_name":"Uncletopia | Chicago | 7 | Stopwatch Beta | STV","players":null},{"server_id":39,"name":"Uncletopia | Chicago | 8 | Community","name_short":"chi-8","host":"chi-2.us.uncletopia.com","port":27045,"enabled":true,"region":"us-central","cc":"us","latitude":41.881832,"longitude":-87.62318,"reserved":0,"last_update":"0001-01-01T00:00:00Z","name_a2s":"Uncletopia | Chicago | 8 | Community","protocol":17,"map":"workshop/koth_product_final.ugc454272353","folder":"tf","game":"Team Fortress","app_id":440,"player_count":0,"max_players":24,"Bots":0,"server_type":"Dedicated","server_os":"Linux","password":true,"vac":true,"version":"7961495","steam_id":85568392924866365,"keywords":["cp","nocrits","nodmgspread","uncletopia"],"game_id":440,"stv_port":27046,"stv_name":"Uncletopia | Chicago | 8 | Community | STV","players":null},{"server_id":8,"name":"Uncletopia | Dallas | 1 | All Maps","name_short":"dal-1","host":"dal-1.us.uncletopia.com","port":27015,"enabled":true,"region":"us-central","cc":"us","latitude":32.779167,"longitude":-96.80889,"reserved":0,"last_update":"0001-01-01T00:00:00Z","name_a2s":"Uncletopia | Dallas | 1 | All Maps","protocol":17,"map":"pl_swiftwater_final1","folder":"tf","game":"Team Fortress","app_id":440,"player_count":24,"max_players":24,"Bots":0,"server_type":"Dedicated","server_os":"Linux","password":true,"vac":true,"version":"7961495","steam_id":85568392924469986,"keywords":["nocrits","nodmgspread","payload","uncletopia"],"game_id":440,"stv_port":27016,"stv_name":"Uncletopia | Dallas | 1 | All Maps | STV","players":[{"user_id":389,"name":"Knavish","steam_id":76561198073434372,"connected_time":8174000000000,"state":"active","ping":80},{"user_id":432,"name":"fitotutus","steam_id":76561197974993253,"connected_time":3718000000000,"state":"active","ping":127},{"user_id":402,"name":"Matches_","steam_id":76561198048925904,"connected_time":7291000000000,"state":"active","ping":85},{"user_id":407,"name":"Ostriche","steam_id":76561198056293618,"connected_time":6897000000000,"state":"active","ping":85},{"user_id":445,"name":"1000 Ping","steam_id":76561198098330939,"connected_time":826000000000,"state":"active","ping":99},{"user_id":328,"name":"merlin","steam_id":76561198334511480,"connected_time":12410000000000,"state":"active","ping":71},{"user_id":437,"name":"WOKEALOID Hatsugay Miku V4X","steam_id":76561198062263639,"connected_time":2996000000000,"state":"active","ping":54},{"user_id":444,"name":"Hoofuyu","steam_id":76561199022142345,"connected_time":922000000000,"state":"active","ping":85},{"user_id":447,"name":"shoxidizer","steam_id":76561198981983698,"connected_time":673000000000,"state":"active","ping":99},{"user_id":450,"name":"Sup m8","steam_id":76561198081659121,"connected_time":281000000000,"state":"active","ping":45},{"user_id":433,"name":"crookedspinalcord","steam_id":76561198833269144,"connected_time":3689000000000,"state":"active","ping":85},{"user_id":399,"name":"skullface","steam_id":76561198353704776,"connected_time":7412000000000,"state":"active","ping":43},{"user_id":428,"name":"Pitch is a Stick","steam_id":76561198800287853,"connected_time":3867000000000,"state":"active","ping":113},{"user_id":440,"name":"loser","steam_id":76561198259380127,"connected_time":2077000000000,"state":"active","ping":88},{"user_id":442,"name":"Toxic Ron","steam_id":76561198089302972,"connected_time":1231000000000,"state":"active","ping":85},{"user_id":426,"name":"millerbv14","steam_id":76561198453908595,"connected_time":4553000000000,"state":"active","ping":70},{"user_id":381,"name":"the master of cats","steam_id":76561198819255576,"connected_time":8521000000000,"state":"active","ping":110},{"user_id":384,"name":"Literally loot lake from fortni","steam_id":76561198070214668,"connected_time":8385000000000,"state":"active","ping":70},{"user_id":446,"name":"BasedPoweredMan","steam_id":76561198183198382,"connected_time":752000000000,"state":"active","ping":92},{"user_id":421,"name":"Zero","steam_id":76561198033384990,"connected_time":4941000000000,"state":"active","ping":83},{"user_id":448,"name":"SHEEP","steam_id":76561198043813073,"connected_time":640000000000,"state":"active","ping":103},{"user_id":449,"name":"Goldoche","steam_id":76561197995065045,"connected_time":512000000000,"state":"active","ping":107},{"user_id":416,"name":"youhatemedontyou","steam_id":76561198277979851,"connected_time":6492000000000,"state":"active","ping":83},{"user_id":451,"name":"not a good idea","steam_id":76561198032259680,"connected_time":211000000000,"state":"active","ping":91}]},{"server_id":108,"name":"Uncletopia | Dallas | 2 | All Maps","name_short":"dal-2","host":"dal-1.us.uncletopia.com","port":27025,"enabled":true,"region":"us-central","cc":"us","latitude":32.779167,"longitude":-96.80889,"reserved":0,"last_update":"0001-01-01T00:00:00Z","name_a2s":"Uncletopia | Dallas | 2 | All Maps","protocol":17,"map":"pl_barnblitz","folder":"tf","game":"Team Fortress","app_id":440,"player_count":19,"max_players":24,"Bots":0,"server_type":"Dedicated","server_os":"Linux","password":true,"vac":true,"version":"7961495","steam_id":85568392924469988,"keywords":["nocrits","nodmgspread","payload","uncletopia"],"game_id":440,"stv_port":27026,"stv_name":"Uncletopia | Dallas | 2 | All Maps | STV","players":[{"user_id":456,"name":"BK (King Buford)","steam_id":76561198272057200,"connected_time":1391000000000,"state":"active","ping":89},{"user_id":459,"name":"313","steam_id":76561198152773225,"connected_time":1301000000000,"state":"active","ping":82},{"user_id":475,"name":"Alex Narex","steam_id":76561198814364412,"connected_time":32000000000,"state":"active","ping":70},{"user_id":458,"name":"moe","steam_id":76561198929586245,"connected_time":1387000000000,"state":"active","ping":91},{"user_id":463,"name":"Solomon Gumball","steam_id":76561198072070843,"connected_time":1079000000000,"state":"active","ping":75},{"user_id":448,"name":"Faraday","steam_id":76561198089928357,"connected_time":2525000000000,"state":"active","ping":51},{"user_id":464,"name":"harlowng","steam_id":76561198060542928,"connected_time":1057000000000,"state":"active","ping":87},{"user_id":474,"name":"88","steam_id":76561198165212575,"connected_time":137000000000,"state":"active","ping":82},{"user_id":438,"name":"Kaiyote","steam_id":76561198153443910,"connected_time":2814000000000,"state":"active","ping":96},{"user_id":472,"name":"KillPact","steam_id":76561197976319415,"connected_time":477000000000,"state":"active","ping":83},{"user_id":466,"name":"Hindoto","steam_id":76561198876365283,"connected_time":991000000000,"state":"active","ping":69},{"user_id":476,"name":"DarkForce8","steam_id":76561198853892261,"connected_time":0,"state":"connecting","ping":0},{"user_id":395,"name":"AzuriousAlex","steam_id":76561198158026405,"connected_time":7400000000000,"state":"active","ping":80},{"user_id":455,"name":"BlancaLamb","steam_id":76561198025646073,"connected_time":1522000000000,"state":"active","ping":76},{"user_id":469,"name":"Ⓑ⓪⓪ⓣⓨⓒⓐⓚⓔⓢ","steam_id":76561198088776421,"connected_time":859000000000,"state":"active","ping":82},{"user_id":471,"name":"crackwhorexplosion","steam_id":76561199043015477,"connected_time":686000000000,"state":"active","ping":83},{"user_id":386,"name":"A Parliament of Owls","steam_id":76561197996200417,"connected_time":8264000000000,"state":"active","ping":91},{"user_id":470,"name":"Ġ1 ♦ Synth","steam_id":76561198058660228,"connected_time":840000000000,"state":"active","ping":56}]},{"server_id":404,"name":"Uncletopia | Dallas | 3 | All Maps","name_short":"dal-3","host":"dal-1.us.uncletopia.com","port":27035,"enabled":true,"region":"us-central","cc":"us","latitude":32.779167,"longitude":-96.80889,"reserved":0,"last_update":"0001-01-01T00:00:00Z","name_a2s":"Uncletopia | Dallas | 3 | All Maps","protocol":17,"map":"koth_viaduct","folder":"tf","game":"Team Fortress","app_id":440,"player_count":0,"max_players":24,"Bots":0,"server_type":"Dedicated","server_os":"Linux","password":true,"vac":true,"version":"7961495","steam_id":85568392924515219,"keywords":["cp","nocrits","nodmgspread","uncletopia"],"game_id":440,"stv_port":27036,"stv_name":"Uncletopia | Dallas | 3 | All Maps | STV","players":null},{"server_id":405,"name":"Uncletopia | Dallas | 4 | Community","name_short":"dal-4","host":"dal-1.us.uncletopia.com","port":27045,"enabled":true,"region":"us-central","cc":"us","latitude":32.779167,"longitude":-96.80889,"reserved":0,"last_update":"0001-01-01T00:00:00Z","name_a2s":"Uncletopia | Dallas | 4 | Community","protocol":17,"map":"workshop/pl_cashworks_final1.ugc2904065412","folder":"tf","game":"Team Fortress","app_id":440,"player_count":0,"max_players":24,"Bots":0,"server_type":"Dedicated","server_os":"Linux","password":true,"vac":true,"version":"7961495","steam_id":85568392924515220,"keywords":["nocrits","nodmgspread","payload","uncletopia"],"game_id":440,"stv_port":27046,"stv_name":"Uncletopia | Dallas | 4 | Community | STV","players":null},{"server_id":5,"name":"Uncletopia | Frankfurt | 1 | All Maps","name_short":"frk-1","host":"frk-1.de.uncletopia.com","port":27015,"enabled":true,"region":"eu","cc":"de","latitude":50.110924,"longitude":8.682127,"reserved":0,"last_update":"0001-01-01T00:00:00Z","name_a2s":"Uncletopia | Frankfurt | 1 | All Maps","protocol":17,"map":"cp_altitude","folder":"tf","game":"Team Fortress","app_id":440,"player_count":23,"max_players":24,"Bots":0,"server_type":"Dedicated","server_os":"Linux","password":true,"vac":true,"version":"7961495","steam_id":85568392924469989,"keywords":["cp","nocrits","nodmgspread","uncletopia"],"game_id":440,"stv_port":27016,"stv_name":"Uncletopia | Frankfurt | 1 | All Maps | STV","players":[{"user_id":7,"name":"WHUSSKEY","steam_id":76561198137827441,"connected_time":975000000000,"state":"active","ping":60},{"user_id":5,"name":"Morbeus","steam_id":76561198057717808,"connected_time":1540000000000,"state":"active","ping":88},{"user_id":8,"name":"TheFancy","steam_id":76561198967675289,"connected_time":937000000000,"state":"active","ping":134},{"user_id":9,"name":"Flying skyhigh","steam_id":76561198372971096,"connected_time":905000000000,"state":"active","ping":60},{"user_id":10,"name":"Osmo","steam_id":76561199286764992,"connected_time":826000000000,"state":"active","ping":73},{"user_id":11,"name":"GregerUlander","steam_id":76561198152375055,"connected_time":817000000000,"state":"active","ping":79},{"user_id":13,"name":"Na záchodě","steam_id":76561198383952144,"connected_time":641000000000,"state":"active","ping":135},{"user_id":29,"name":"spy among us","steam_id":76561198392537090,"connected_time":170000000000,"state":"active","ping":56},{"user_id":15,"name":"꒰ ˶• ༝ •˶꒱","steam_id":76561198054474684,"connected_time":567000000000,"state":"active","ping":75},{"user_id":16,"name":"hammertime","steam_id":76561199097714393,"connected_time":555000000000,"state":"active","ping":132},{"user_id":24,"name":"lulu","steam_id":76561199147764133,"connected_time":368000000000,"state":"active","ping":63},{"user_id":30,"name":"Rudoss","steam_id":76561198018415787,"connected_time":164000000000,"state":"active","ping":65},{"user_id":19,"name":"Pelaxisツ","steam_id":76561198180030121,"connected_time":491000000000,"state":"active","ping":60},{"user_id":20,"name":"Red-Kite","steam_id":76561199141255034,"connected_time":464000000000,"state":"active","ping":69},{"user_id":21,"name":"cobblestone","steam_id":76561198079123043,"connected_time":412000000000,"state":"active","ping":70},{"user_id":31,"name":"are you dreaming ?","steam_id":76561198272166623,"connected_time":153000000000,"state":"active","ping":57},{"user_id":36,"name":"deloreg (engineer gaming)","steam_id":76561199487318962,"connected_time":7000000000,"state":"spawning","ping":59},{"user_id":27,"name":"ultralow B\u003eKeysw$ppal1.8$","steam_id":76561197982127154,"connected_time":259000000000,"state":"active","ping":45},{"user_id":28,"name":"HOPE YOU ROPE 666","steam_id":76561198194439102,"connected_time":195000000000,"state":"active","ping":89},{"user_id":32,"name":"big rickle pick","steam_id":76561198055710780,"connected_time":151000000000,"state":"active","ping":55},{"user_id":33,"name":"Lunar","steam_id":76561198154068949,"connected_time":139000000000,"state":"active","ping":66},{"user_id":34,"name":"an idiot","steam_id":76561198172542535,"connected_time":134000000000,"state":"active","ping":68},{"user_id":35,"name":"Yayx","steam_id":76561198078780040,"connected_time":120000000000,"state":"active","ping":45}]},{"server_id":110,"name":"Uncletopia | Frankfurt | 2 | All Maps","name_short":"frk-2","host":"frk-1.de.uncletopia.com","port":27025,"enabled":true,"region":"eu","cc":"de","latitude":50.110924,"longitude":8.682127,"reserved":0,"last_update":"0001-01-01T00:00:00Z","name_a2s":"Uncletopia | Frankfurt | 2 | All Maps","protocol":17,"map":"pl_frontier_final","folder":"tf","game":"Team Fortress","app_id":440,"player_count":0,"max_players":24,"Bots":0,"server_type":"Dedicated","server_os":"Linux","password":true,"vac":true,"version":"7961495","steam_id":85568392924469990,"keywords":["nocrits","nodmgspread","payload","uncletopia"],"game_id":440,"stv_port":27026,"stv_name":"Uncletopia | Frankfurt | 2 | All Maps | STV","players":null},{"server_id":308,"name":"Uncletopia | Frankfurt | 3 | All Maps","name_short":"frk-3","host":"frk-1.de.uncletopia.com","port":27035,"enabled":true,"region":"eu","cc":"de","latitude":50.110924,"longitude":8.682127,"reserved":0,"last_update":"0001-01-01T00:00:00Z","name_a2s":"Uncletopia | Frankfurt | 3 | All Maps","protocol":17,"map":"koth_viaduct","folder":"tf","game":"Team Fortress","app_id":440,"player_count":0,"max_players":24,"Bots":0,"server_type":"Dedicated","server_os":"Linux","password":true,"vac":true,"version":"7961495","steam_id":85568392924504274,"keywords":["cp","nocrits","nodmgspread","uncletopia"],"game_id":440,"stv_port":27036,"stv_name":"Uncletopia | Frankfurt | 3 | All Maps | STV","players":null},{"server_id":309,"name":"Uncletopia | Frankfurt | 4 | All Maps","name_short":"frk-4","host":"frk-1.de.uncletopia.com","port":27045,"enabled":true,"region":"eu","cc":"de","latitude":50.110924,"longitude":8.682127,"reserved":0,"last_update":"0001-01-01T00:00:00Z","name_a2s":"Uncletopia | Frankfurt | 4 | All Maps","protocol":17,"map":"pl_frontier_final","folder":"tf","game":"Team Fortress","app_id":440,"player_count":0,"max_players":24,"Bots":0,"server_type":"Dedicated","server_os":"Linux","password":true,"vac":true,"version":"7961495","steam_id":85568392924504275,"keywords":["nocrits","nodmgspread","payload","uncletopia"],"game_id":440,"stv_port":27046,"stv_name":"Uncletopia | Frankfurt | 4 | All Maps | STV","players":null},{"server_id":310,"name":"Uncletopia | Frankfurt | 5 | All Maps","name_short":"frk-5","host":"frk-1.de.uncletopia.com","port":27055,"enabled":true,"region":"eu","cc":"de","latitude":50.110924,"longitude":8.682127,"reserved":0,"last_update":"0001-01-01T00:00:00Z","name_a2s":"Uncletopia | Frankfurt | 5 | All Maps","protocol":17,"map":"pl_swiftwater_final1","folder":"tf","game":"Team Fortress","app_id":440,"player_count":0,"max_players":24,"Bots":0,"server_type":"Dedicated","server_os":"Linux","password":true,"vac":true,"version":"7961495","steam_id":85568392924504277,"keywords":["nocrits","nodmgspread","payload","uncletopia"],"game_id":440,"stv_port":27056,"stv_name":"Uncletopia | Frankfurt | 5 | All Maps | STV","players":null},{"server_id":311,"name":"Uncletopia | Frankfurt | 6 | All Maps","name_short":"frk-6","host":"frk-1.de.uncletopia.com","port":27065,"enabled":true,"region":"eu","cc":"de","latitude":50.110924,"longitude":8.682127,"reserved":0,"last_update":"0001-01-01T00:00:00Z","name_a2s":"Uncletopia | Frankfurt | 6 | All Maps","protocol":17,"map":"cp_mountainlab","folder":"tf","game":"Team Fortress","app_id":440,"player_count":0,"max_players":24,"Bots":0,"server_type":"Dedicated","server_os":"Linux","password":true,"vac":true,"version":"7961495","steam_id":85568392924504278,"keywords":["cp","nocrits","nodmgspread","uncletopia"],"game_id":440,"stv_port":27066,"stv_name":"Uncletopia | Frankfurt | 6 | All Maps | STV","players":null},{"server_id":23,"name":"Uncletopia | Frankfurt | 7 | Stopwatch Beta","name_short":"frk-7","host":"frk-1.de.uncletopia.com","port":27075,"enabled":true,"region":"eu","cc":"de","latitude":50.110924,"longitude":8.682127,"reserved":0,"last_update":"0001-01-01T00:00:00Z","name_a2s":"Uncletopia | Frankfurt | 7 | Stopwatch Beta","protocol":17,"map":"pl_frontier_final","folder":"tf","game":"Team Fortress","app_id":440,"player_count":0,"max_players":24,"Bots":0,"server_type":"Dedicated","server_os":"Linux","password":true,"vac":true,"version":"7961495","steam_id":85568392924742827,"keywords":["nocrits","nodmgspread","payload","uncletopia"],"game_id":440,"stv_port":27076,"stv_name":"Uncletopia | Frankfurt | 7 | Stopwatch Beta | STV","players":null},{"server_id":24,"name":"Uncletopia | Frankfurt | 8 | Community","name_short":"frk-8","host":"frk-1.de.uncletopia.com","port":27085,"enabled":true,"region":"eu","cc":"de","latitude":50.110924,"longitude":8.682127,"reserved":0,"last_update":"0001-01-01T00:00:00Z","name_a2s":"Uncletopia | Frankfurt | 8 | Community","protocol":17,"map":"workshop/pl_corrode_rc2.ugc546577989","folder":"tf","game":"Team Fortress","app_id":440,"player_count":0,"max_players":24,"Bots":0,"server_type":"Dedicated","server_os":"Linux","password":true,"vac":true,"version":"7961495","steam_id":85568392924742828,"keywords":["nocrits","nodmgspread","payload","uncletopia"],"game_id":440,"stv_port":27086,"stv_name":"Uncletopia | Frankfurt | 8 | Community | STV","players":null},{"server_id":202,"name":"Uncletopia | Hong Kong | 1 | All Maps","name_short":"hgk-1","host":"hgk-1.hk.uncletopia.com","port":27015,"enabled":true,"region":"asia","cc":"hk","latitude":22.302711,"longitude":114.177216,"reserved":0,"last_update":"0001-01-01T00:00:00Z","name_a2s":"Uncletopia | Hong Kong | 1 | All Maps","protocol":17,"map":"pl_upward","folder":"tf","game":"Team Fortress","app_id":440,"player_count":19,"max_players":24,"Bots":0,"server_type":"Dedicated","server_os":"Linux","password":true,"vac":true,"version":"7961495","steam_id":85568392924494504,"keywords":["nocrits","nodmgspread","payload","uncletopia"],"game_id":440,"stv_port":27016,"stv_name":"Uncletopia | Hong Kong | 1 | All Maps | STV","players":[{"user_id":186,"name":"oppai","steam_id":76561198008307645,"connected_time":419000000000,"state":"active","ping":138},{"user_id":159,"name":"김광만","steam_id":76561198295279503,"connected_time":2303000000000,"state":"active","ping":87},{"user_id":139,"name":"nyakky","steam_id":76561198927779787,"connected_time":4348000000000,"state":"active","ping":96},{"user_id":187,"name":"ticktick","steam_id":76561198156755977,"connected_time":390000000000,"state":"active","ping":93},{"user_id":123,"name":"ccubes","steam_id":76561198070956426,"connected_time":5442000000000,"state":"active","ping":74},{"user_id":165,"name":"steame17","steam_id":76561199387872784,"connected_time":1643000000000,"state":"active","ping":113},{"user_id":193,"name":"jole","steam_id":76561198037292232,"connected_time":19000000000,"state":"active","ping":100},{"user_id":178,"name":"yw","steam_id":76561199382726488,"connected_time":845000000000,"state":"active","ping":52},{"user_id":154,"name":"Telekhine","steam_id":76561198387120618,"connected_time":2723000000000,"state":"active","ping":62},{"user_id":188,"name":"Kennny Rodgers","steam_id":76561199494089128,"connected_time":291000000000,"state":"active","ping":72},{"user_id":167,"name":"Saggle","steam_id":76561198056075147,"connected_time":1519000000000,"state":"active","ping":143},{"user_id":179,"name":"WhyIsMyName6?","steam_id":76561199218434830,"connected_time":845000000000,"state":"active","ping":94},{"user_id":132,"name":"blobeye","steam_id":76561198420018387,"connected_time":4763000000000,"state":"active","ping":40},{"user_id":138,"name":"A Gap Hag","steam_id":76561198409766998,"connected_time":4404000000000,"state":"active","ping":60},{"user_id":189,"name":"FPGA","steam_id":76561198178904166,"connected_time":267000000000,"state":"active","ping":108},{"user_id":176,"name":"F0rk_B3nd3r","steam_id":76561199068325466,"connected_time":970000000000,"state":"active","ping":71},{"user_id":125,"name":"Taylor, The Manufacturer","steam_id":76561198074339034,"connected_time":5370000000000,"state":"active","ping":84},{"user_id":190,"name":"justwantfun04","steam_id":76561198879833903,"connected_time":239000000000,"state":"active","ping":110},{"user_id":191,"name":"AmaiToxic","steam_id":76561199122491157,"connected_time":150000000000,"state":"active","ping":177}]},{"server_id":1,"name":"Uncletopia | Los Angeles | 1 | All Maps","name_short":"lax-1","host":"lax-1.us.uncletopia.com","port":27015,"enabled":true,"region":"us-west","cc":"us","latitude":33.94279,"longitude":-118.41004,"reserved":0,"last_update":"0001-01-01T00:00:00Z","name_a2s":"Uncletopia | Los Angeles | 1 | All Maps","protocol":17,"map":"cp_snakewater_final1","folder":"tf","game":"Team Fortress","app_id":440,"player_count":24,"max_players":24,"Bots":0,"server_type":"Dedicated","server_os":"Linux","password":true,"vac":true,"version":"7961495","steam_id":85568392924469991,"keywords":["cp","nocrits","nodmgspread","uncletopia"],"game_id":440,"stv_port":27016,"stv_name":"Uncletopia | Los Angeles | 1 | All Maps | STV","players":[{"user_id":428,"name":"Greasy Whore","steam_id":76561198201199643,"connected_time":2362000000000,"state":"active","ping":84},{"user_id":425,"name":"LtK","steam_id":76561197993180943,"connected_time":2497000000000,"state":"active","ping":60},{"user_id":422,"name":"Bodhisattva","steam_id":76561198085228896,"connected_time":2781000000000,"state":"active","ping":47},{"user_id":427,"name":"De MonkE","steam_id":76561198140626221,"connected_time":2408000000000,"state":"active","ping":62},{"user_id":451,"name":"NB","steam_id":76561198096037903,"connected_time":1128000000000,"state":"active","ping":171},{"user_id":441,"name":"Blazorazor","steam_id":76561198032392742,"connected_time":1957000000000,"state":"active","ping":49},{"user_id":415,"name":"Hakurei Reimu","steam_id":76561198045388290,"connected_time":2985000000000,"state":"active","ping":55},{"user_id":447,"name":"SneekiCheekiQbone","steam_id":76561198045077980,"connected_time":1344000000000,"state":"active","ping":43},{"user_id":456,"name":"ImaCactus","steam_id":76561198036131290,"connected_time":113000000000,"state":"active","ping":116},{"user_id":455,"name":"Lotusberry","steam_id":76561198058506867,"connected_time":533000000000,"state":"active","ping":88},{"user_id":419,"name":"yellow ᗜˬᗜ","steam_id":76561198366474647,"connected_time":2869000000000,"state":"active","ping":44},{"user_id":448,"name":"Mr. Carfox","steam_id":76561198041664428,"connected_time":1330000000000,"state":"active","ping":49},{"user_id":434,"name":"Yustin","steam_id":76561198123246835,"connected_time":2243000000000,"state":"active","ping":98},{"user_id":449,"name":"Benji","steam_id":76561198158187293,"connected_time":1148000000000,"state":"active","ping":176},{"user_id":333,"name":"shitass (Reaping and Sowing)","steam_id":76561198210572481,"connected_time":9516000000000,"state":"active","ping":48},{"user_id":432,"name":"Fossil","steam_id":76561198205545368,"connected_time":2287000000000,"state":"active","ping":84},{"user_id":454,"name":"Metal Mouse","steam_id":76561198271975696,"connected_time":1021000000000,"state":"active","ping":46},{"user_id":379,"name":"werolat","steam_id":76561197960544784,"connected_time":6084000000000,"state":"active","ping":62},{"user_id":417,"name":"Culprit Shy","steam_id":76561198206506481,"connected_time":2972000000000,"state":"active","ping":57},{"user_id":433,"name":"Doony","steam_id":76561198073472571,"connected_time":2280000000000,"state":"active","ping":74},{"user_id":390,"name":"[ØWQJØ]chubacaalatake","steam_id":76561198136201697,"connected_time":5583000000000,"state":"active","ping":89},{"user_id":439,"name":"john.","steam_id":76561198982939658,"connected_time":2001000000000,"state":"active","ping":59},{"user_id":450,"name":"BBQ Pig","steam_id":76561198102392020,"connected_time":1147000000000,"state":"active","ping":62},{"user_id":452,"name":"Not Giga Chad","steam_id":76561198059785363,"connected_time":1118000000000,"state":"active","ping":87}]},{"server_id":112,"name":"Uncletopia | Los Angeles | 2 | All Maps","name_short":"lax-2","host":"lax-1.us.uncletopia.com","port":27025,"enabled":true,"region":"us-west","cc":"us","latitude":33.94279,"longitude":-118.41004,"reserved":0,"last_update":"0001-01-01T00:00:00Z","name_a2s":"Uncletopia | Los Angeles | 2 | All Maps","protocol":17,"map":"koth_highpass","folder":"tf","game":"Team Fortress","app_id":440,"player_count":0,"max_players":24,"Bots":0,"server_type":"Dedicated","server_os":"Linux","password":true,"vac":true,"version":"7961495","steam_id":85568392924469992,"keywords":["cp","nocrits","nodmgspread","uncletopia"],"game_id":440,"stv_port":27026,"stv_name":"Uncletopia | Los Angeles | 2 | All Maps | STV","players":null},{"server_id":324,"name":"Uncletopia | Los Angeles | 3 | All Maps","name_short":"lax-3","host":"lax-1.us.uncletopia.com","port":27035,"enabled":true,"region":"us-west","cc":"us","latitude":33.94279,"longitude":-118.41004,"reserved":0,"last_update":"0001-01-01T00:00:00Z","name_a2s":"Uncletopia | Los Angeles | 3 | All Maps","protocol":17,"map":"koth_viaduct","folder":"tf","game":"Team Fortress","app_id":440,"player_count":0,"max_players":24,"Bots":0,"server_type":"Dedicated","server_os":"Linux","password":true,"vac":true,"version":"7961495","steam_id":85568392924510198,"keywords":["cp","nocrits","nodmgspread","uncletopia"],"game_id":440,"stv_port":27036,"stv_name":"Uncletopia | Los Angeles | 3 | All Maps | STV","players":null},{"server_id":25,"name":"Uncletopia | Los Angeles | 4 | Stopwatch","name_short":"lax-4","host":"lax-1.us.uncletopia.com","port":27045,"enabled":true,"region":"us-west","cc":"us","latitude":33.94279,"longitude":-118.41004,"reserved":0,"last_update":"0001-01-01T00:00:00Z","name_a2s":"Uncletopia | Los Angeles | 4 | Stopwatch","protocol":17,"map":"workshop/pl_barnblitz_pro7.ugc582280235","folder":"tf","game":"Team Fortress","app_id":440,"player_count":0,"max_players":24,"Bots":0,"server_type":"Dedicated","server_os":"Linux","password":true,"vac":true,"version":"7961495","steam_id":85568392924510199,"keywords":["nocrits","nodmgspread","payload","uncletopia"],"game_id":440,"stv_port":27046,"stv_name":"Uncletopia | Los Angeles | 4 | Stopwatch | STV","players":null},{"server_id":11,"name":"Uncletopia | London | 1 | All Maps","name_short":"lon-1","host":"lon-1.uk.uncletopia.com","port":27015,"enabled":true,"region":"eu","cc":"gb","latitude":51.509865,"longitude":-0.118092,"reserved":0,"last_update":"0001-01-01T00:00:00Z","name_a2s":"Uncletopia | London | 1 | All Maps","protocol":17,"map":"pl_snowycoast","folder":"tf","game":"Team Fortress","app_id":440,"player_count":0,"max_players":24,"Bots":0,"server_type":"Dedicated","server_os":"Linux","password":true,"vac":true,"version":"7961495","steam_id":85568392924367362,"keywords":["nocrits","nodmgspread","payload","uncletopia"],"game_id":440,"stv_port":27016,"stv_name":"Uncletopia | London | 1 | All Maps | STV","players":null},{"server_id":114,"name":"Uncletopia | London | 2 | All Maps","name_short":"lon-2","host":"lon-1.uk.uncletopia.com","port":27025,"enabled":true,"region":"eu","cc":"gb","latitude":51.509865,"longitude":-0.118092,"reserved":0,"last_update":"0001-01-01T00:00:00Z","name_a2s":"Uncletopia | London | 2 | All Maps","protocol":17,"map":"koth_lakeside_final","folder":"tf","game":"Team Fortress","app_id":440,"player_count":0,"max_players":24,"Bots":0,"server_type":"Dedicated","server_os":"Linux","password":true,"vac":true,"version":"7961495","steam_id":85568392924470941,"keywords":["cp","nocrits","nodmgspread","uncletopia"],"game_id":440,"stv_port":27026,"stv_name":"Uncletopia | London | 2 | All Maps | STV","players":null},{"server_id":320,"name":"Uncletopia | London | 3 | All Maps","name_short":"lon-3","host":"lon-1.uk.uncletopia.com","port":27035,"enabled":true,"region":"eu","cc":"gb","latitude":51.509865,"longitude":-0.118092,"reserved":0,"last_update":"0001-01-01T00:00:00Z","name_a2s":"Uncletopia | London | 3 | All Maps","protocol":17,"map":"cp_sunshine","folder":"tf","game":"Team Fortress","app_id":440,"player_count":0,"max_players":24,"Bots":0,"server_type":"Dedicated","server_os":"Linux","password":true,"vac":true,"version":"7961495","steam_id":85568392924510192,"keywords":["cp","nocrits","nodmgspread","uncletopia"],"game_id":440,"stv_port":27036,"stv_name":"Uncletopia | London | 3 | All Maps | STV","players":null},{"server_id":321,"name":"Uncletopia | London | 4 | All Maps","name_short":"lon-4","host":"lon-1.uk.uncletopia.com","port":27045,"enabled":true,"region":"eu","cc":"gb","latitude":51.509865,"longitude":-0.118092,"reserved":0,"last_update":"0001-01-01T00:00:00Z","name_a2s":"Uncletopia | London | 4 | All Maps","protocol":17,"map":"pl_upward","folder":"tf","game":"Team Fortress","app_id":440,"player_count":24,"max_players":24,"Bots":0,"server_type":"Dedicated","server_os":"Linux","password":true,"vac":true,"version":"7961495","steam_id":85568392924510193,"keywords":["nocrits","nodmgspread","payload","uncletopia"],"game_id":440,"stv_port":27046,"stv_name":"Uncletopia | London | 4 | All Maps | STV","players":[{"user_id":112,"name":"clunk","steam_id":76561198836460767,"connected_time":3483000000000,"state":"active","ping":61},{"user_id":152,"name":"LOKKI","steam_id":76561198259022887,"connected_time":230000000000,"state":"active","ping":74},{"user_id":119,"name":"spxcy","steam_id":76561198080296853,"connected_time":2541000000000,"state":"active","ping":87},{"user_id":139,"name":"The Jolly Hunting Man","steam_id":76561198343521899,"connected_time":1353000000000,"state":"active","ping":131},{"user_id":110,"name":"DoomerDodie","steam_id":76561198177853490,"connected_time":3662000000000,"state":"active","ping":59},{"user_id":140,"name":"Cookies and Bakies","steam_id":76561198017442928,"connected_time":1263000000000,"state":"active","ping":53},{"user_id":131,"name":"Shallaska","steam_id":76561198019030896,"connected_time":1968000000000,"state":"active","ping":44},{"user_id":126,"name":"Narvhalø","steam_id":76561198147495474,"connected_time":2516000000000,"state":"active","ping":42},{"user_id":58,"name":"Sasha watches.","steam_id":76561198404802175,"connected_time":7625000000000,"state":"active","ping":161},{"user_id":101,"name":"Selmu (She/Her)","steam_id":76561198119496209,"connected_time":4412000000000,"state":"active","ping":38},{"user_id":150,"name":"njits23","steam_id":76561198031194977,"connected_time":380000000000,"state":"active","ping":59},{"user_id":128,"name":"Maks","steam_id":76561198315278876,"connected_time":2372000000000,"state":"active","ping":56},{"user_id":136,"name":"Uselss Joe","steam_id":76561198275853629,"connected_time":1786000000000,"state":"active","ping":58},{"user_id":149,"name":"dove","steam_id":76561198026037217,"connected_time":385000000000,"state":"active","ping":78},{"user_id":121,"name":"bigmazi","steam_id":76561198133276643,"connected_time":2538000000000,"state":"active","ping":90},{"user_id":141,"name":"CamodronV2","steam_id":76561198353415237,"connected_time":1238000000000,"state":"active","ping":61},{"user_id":148,"name":"Luckane","steam_id":76561198009695107,"connected_time":388000000000,"state":"active","ping":47},{"user_id":129,"name":"q47tx","steam_id":76561199181333933,"connected_time":2262000000000,"state":"active","ping":88},{"user_id":130,"name":"็McTK","steam_id":76561199384193338,"connected_time":2037000000000,"state":"active","ping":67},{"user_id":85,"name":"Toaster1337","steam_id":76561198103706881,"connected_time":5638000000000,"state":"active","ping":71},{"user_id":145,"name":"MaccyF","steam_id":76561198039214805,"connected_time":657000000000,"state":"active","ping":44},{"user_id":67,"name":"heallixa","steam_id":76561198167986712,"connected_time":7347000000000,"state":"active","ping":119},{"user_id":143,"name":"Raph","steam_id":76561198154800858,"connected_time":1153000000000,"state":"active","ping":74},{"user_id":91,"name":"reke","steam_id":76561199149307190,"connected_time":4792000000000,"state":"active","ping":86}]},{"server_id":21,"name":"Uncletopia | London | 5 | All Maps","name_short":"lon-5","host":"lon-1.uk.uncletopia.com","port":27055,"enabled":true,"region":"eu","cc":"gb","latitude":51.509865,"longitude":-0.118092,"reserved":0,"last_update":"0001-01-01T00:00:00Z","name_a2s":"Uncletopia | London | 5 | All Maps","protocol":17,"map":"pl_upward","folder":"tf","game":"Team Fortress","app_id":440,"player_count":0,"max_players":24,"Bots":0,"server_type":"Dedicated","server_os":"Linux","password":true,"vac":true,"version":"7961495","steam_id":85568392924742829,"keywords":["nocrits","nodmgspread","payload","uncletopia"],"game_id":440,"stv_port":27056,"stv_name":"Uncletopia | London | 5 | All Maps | STV","players":null},{"server_id":22,"name":"Uncletopia | London | 6 | All Maps","name_short":"lon-6","host":"lon-1.uk.uncletopia.com","port":27065,"enabled":true,"region":"eu","cc":"gb","latitude":51.509865,"longitude":-0.118092,"reserved":0,"last_update":"0001-01-01T00:00:00Z","name_a2s":"Uncletopia | London | 6 | All Maps","protocol":17,"map":"koth_lakeside_final","folder":"tf","game":"Team Fortress","app_id":440,"player_count":0,"max_players":24,"Bots":0,"server_type":"Dedicated","server_os":"Linux","password":true,"vac":true,"version":"7961495","steam_id":85568392924742830,"keywords":["cp","nocrits","nodmgspread","uncletopia"],"game_id":440,"stv_port":27066,"stv_name":"Uncletopia | London | 6 | All Maps | STV","players":null},{"server_id":40,"name":"Uncletopia | London | 7 | No Payload","name_short":"lon-7","host":"lon-1.uk.uncletopia.com","port":27075,"enabled":true,"region":"eu","cc":"gb","latitude":51.509865,"longitude":-0.118092,"reserved":0,"last_update":"0001-01-01T00:00:00Z","name_a2s":"Uncletopia | London | 7 | No Payload","protocol":17,"map":"cp_altitude","folder":"tf","game":"Team Fortress","app_id":440,"player_count":0,"max_players":24,"Bots":0,"server_type":"Dedicated","server_os":"Linux","password":true,"vac":true,"version":"7961495","steam_id":85568392924964314,"keywords":["cp","nocrits","nodmgspread","uncletopia"],"game_id":440,"stv_port":27076,"stv_name":"Uncletopia | London | 7 | No Payload | STV","players":null},{"server_id":41,"name":"Uncletopia | London | 8 | Community","name_short":"lon-8","host":"lon-1.uk.uncletopia.com","port":27085,"enabled":true,"region":"eu","cc":"gb","latitude":51.509865,"longitude":-0.118092,"reserved":0,"last_update":"0001-01-01T00:00:00Z","name_a2s":"Uncletopia | London | 8 | Community","protocol":17,"map":"pl_borneo","folder":"tf","game":"Team Fortress","app_id":440,"player_count":0,"max_players":24,"Bots":0,"server_type":"Dedicated","server_os":"Linux","password":true,"vac":true,"version":"7961495","steam_id":85568392924964315,"keywords":["nocrits","nodmgspread","payload","uncletopia"],"game_id":440,"stv_port":27086,"stv_name":"Uncletopia | London | 8 | Community | STV","players":null},{"server_id":300,"name":"Uncletopia | Montréal | 1 | All Maps","name_short":"mtl-1","host":"mtl-1.ca.uncletopia.com","port":27015,"enabled":true,"region":"us-east","cc":"ca","latitude":45.50889,"longitude":-73.56167,"reserved":0,"last_update":"0001-01-01T00:00:00Z","name_a2s":"","protocol":0,"map":"","folder":"","game":"","app_id":0,"player_count":0,"max_players":0,"Bots":0,"server_type":"","server_os":"","password":false,"vac":false,"version":"","steam_id":0,"keywords":null,"game_id":0,"stv_port":0,"stv_name":"","players":null},{"server_id":301,"name":"Uncletopia | Montréal | 2 | All Maps","name_short":"mtl-2","host":"mtl-1.ca.uncletopia.com","port":27025,"enabled":true,"region":"us-east","cc":"ca","latitude":45.50889,"longitude":-73.56167,"reserved":0,"last_update":"0001-01-01T00:00:00Z","name_a2s":"","protocol":0,"map":"","folder":"","game":"","app_id":0,"player_count":0,"max_players":0,"Bots":0,"server_type":"","server_os":"","password":false,"vac":false,"version":"","steam_id":0,"keywords":null,"game_id":0,"stv_port":0,"stv_name":"","players":null},{"server_id":302,"name":"Uncletopia | Montréal | 3 | All Maps","name_short":"mtl-3","host":"mtl-1.ca.uncletopia.com","port":27035,"enabled":true,"region":"us-east","cc":"ca","latitude":45.50889,"longitude":-73.56167,"reserved":0,"last_update":"0001-01-01T00:00:00Z","name_a2s":"","protocol":0,"map":"","folder":"","game":"","app_id":0,"player_count":0,"max_players":0,"Bots":0,"server_type":"","server_os":"","password":false,"vac":false,"version":"","steam_id":0,"keywords":null,"game_id":0,"stv_port":0,"stv_name":"","players":null},{"server_id":303,"name":"Uncletopia | Montréal | 4 | No Payload","name_short":"mtl-4","host":"mtl-1.ca.uncletopia.com","port":27045,"enabled":true,"region":"us-east","cc":"ca","latitude":45.50889,"longitude":-73.56167,"reserved":0,"last_update":"0001-01-01T00:00:00Z","name_a2s":"","protocol":0,"map":"","folder":"","game":"","app_id":0,"player_count":0,"max_players":0,"Bots":0,"server_type":"","server_os":"","password":false,"vac":false,"version":"","steam_id":0,"keywords":null,"game_id":0,"stv_port":0,"stv_name":"","players":null},{"server_id":13,"name":"Uncletopia | New York City | 1 | All Maps","name_short":"nyc-1","host":"nyc-1.us.uncletopia.com","port":27015,"enabled":true,"region":"us-east","cc":"us","latitude":40.73061,"longitude":-73.93524,"reserved":0,"last_update":"0001-01-01T00:00:00Z","name_a2s":"Uncletopia | New York City | 1 | All Maps","protocol":17,"map":"koth_cascade","folder":"tf","game":"Team Fortress","app_id":440,"player_count":0,"max_players":24,"Bots":0,"server_type":"Dedicated","server_os":"Linux","password":true,"vac":true,"version":"7961495","steam_id":85568392924469993,"keywords":["cp","nocrits","nodmgspread","uncletopia"],"game_id":440,"stv_port":27016,"stv_name":"Uncletopia | New York City | 1 | All Maps | STV","players":null},{"server_id":14,"name":"Uncletopia | New York City | 2 | All Maps","name_short":"nyc-2","host":"nyc-1.us.uncletopia.com","port":27025,"enabled":true,"region":"us-east","cc":"us","latitude":40.73061,"longitude":-73.93524,"reserved":0,"last_update":"0001-01-01T00:00:00Z","name_a2s":"Uncletopia | New York City | 2 | All Maps","protocol":17,"map":"cp_dustbowl","folder":"tf","game":"Team Fortress","app_id":440,"player_count":24,"max_players":24,"Bots":0,"server_type":"Dedicated","server_os":"Linux","password":true,"vac":true,"version":"7961495","steam_id":85568392924469994,"keywords":["cp","nocrits","nodmgspread","uncletopia"],"game_id":440,"stv_port":27026,"stv_name":"Uncletopia | New York City | 2 | All Maps | STV","players":[{"user_id":477,"name":"TheFirstGlueBender","steam_id":76561199387319886,"connected_time":653000000000,"state":"active","ping":109},{"user_id":478,"name":"jeegory1","steam_id":76561198185955921,"connected_time":507000000000,"state":"active","ping":119},{"user_id":443,"name":"Wind of Change","steam_id":76561198274462772,"connected_time":3035000000000,"state":"active","ping":69},{"user_id":447,"name":"cajun thotsauce","steam_id":76561198101636066,"connected_time":2943000000000,"state":"active","ping":115},{"user_id":487,"name":"Discourse","steam_id":76561198984286678,"connected_time":170000000000,"state":"active","ping":73},{"user_id":401,"name":"DaBaptist","steam_id":76561198316260548,"connected_time":5063000000000,"state":"active","ping":68},{"user_id":368,"name":"Feces","steam_id":76561198380219187,"connected_time":7477000000000,"state":"active","ping":69},{"user_id":468,"name":"HAT-WEARING™ Maggot Gamer Cat","steam_id":76561197973992705,"connected_time":1452000000000,"state":"active","ping":120},{"user_id":488,"name":"MINIFIE MAN19","steam_id":76561198259509461,"connected_time":146000000000,"state":"active","ping":72},{"user_id":476,"name":"Walmart Employee","steam_id":76561198840373909,"connected_time":829000000000,"state":"active","ping":97},{"user_id":431,"name":"CheesyPoofs","steam_id":76561197998650617,"connected_time":4032000000000,"state":"active","ping":130},{"user_id":455,"name":"PackingPeanutt :]","steam_id":76561199053229413,"connected_time":2068000000000,"state":"active","ping":88},{"user_id":435,"name":"SoundKitKiller","steam_id":76561198053535873,"connected_time":3720000000000,"state":"active","ping":65},{"user_id":467,"name":"zinqi","steam_id":76561198376838848,"connected_time":1463000000000,"state":"active","ping":95},{"user_id":490,"name":"Heat","steam_id":76561198089227368,"connected_time":22000000000,"state":"active","ping":283},{"user_id":422,"name":"xXx_Eg0_d3aTh_419_xXx (ironic)","steam_id":76561198077551754,"connected_time":4426000000000,"state":"active","ping":68},{"user_id":418,"name":"Handsome Pete","steam_id":76561198003224229,"connected_time":4531000000000,"state":"active","ping":130},{"user_id":453,"name":"chev chelios","steam_id":76561198117914922,"connected_time":2414000000000,"state":"active","ping":60},{"user_id":480,"name":"Gary Sinfeld","steam_id":76561198042274074,"connected_time":471000000000,"state":"active","ping":117},{"user_id":470,"name":"CheeseCake488","steam_id":76561199407617942,"connected_time":1411000000000,"state":"active","ping":184},{"user_id":481,"name":"DS8U","steam_id":76561198151554321,"connected_time":458000000000,"state":"active","ping":77},{"user_id":452,"name":"Bleat","steam_id":76561198138678917,"connected_time":2440000000000,"state":"active","ping":133},{"user_id":450,"name":"Antipixel","steam_id":76561198134214307,"connected_time":2785000000000,"state":"active","ping":60},{"user_id":463,"name":"Mr. Enjoy da money","steam_id":76561198152681460,"connected_time":1680000000000,"state":"active","ping":134}]},{"server_id":15,"name":"Uncletopia | New York City | 3 | Stopwatch Beta","name_short":"nyc-3","host":"nyc-1.us.uncletopia.com","port":27035,"enabled":true,"region":"us-east","cc":"us","latitude":40.73061,"longitude":-73.93524,"reserved":0,"last_update":"0001-01-01T00:00:00Z","name_a2s":"Uncletopia | New York City | 3 | Stopwatch Beta","protocol":17,"map":"workshop/pl_summercoast_rc8e.ugc1761528829","folder":"tf","game":"Team Fortress","app_id":440,"player_count":0,"max_players":24,"Bots":0,"server_type":"Dedicated","server_os":"Linux","password":true,"vac":true,"version":"7961495","steam_id":85568392924742820,"keywords":["nocrits","nodmgspread","payload","uncletopia"],"game_id":440,"stv_port":27036,"stv_name":"Uncletopia | New York City | 3 | Stopwatch Beta | STV","players":null},{"server_id":16,"name":"Uncletopia | New York City | 4 | Community","name_short":"nyc-4","host":"nyc-1.us.uncletopia.com","port":27045,"enabled":true,"region":"us-east","cc":"us","latitude":40.73061,"longitude":-73.93524,"reserved":0,"last_update":"0001-01-01T00:00:00Z","name_a2s":"Uncletopia | New York City | 4 | Community","protocol":17,"map":"workshop/cp_fulgur_rc2a.ugc2068252300","folder":"tf","game":"Team Fortress","app_id":440,"player_count":0,"max_players":24,"Bots":0,"server_type":"Dedicated","server_os":"Linux","password":true,"vac":true,"version":"7961495","steam_id":85568392924742821,"keywords":["cp","nocrits","nodmgspread","uncletopia"],"game_id":440,"stv_port":27046,"stv_name":"Uncletopia | New York City | 4 | Community | STV","players":null},{"server_id":142,"name":"Uncletopia | São Paulo | 1 | All Maps","name_short":"sao-1","host":"sao-1.br.uncletopia.com","port":27015,"enabled":true,"region":"sa","cc":"br","latitude":-23.533773,"longitude":-46.62529,"reserved":0,"last_update":"0001-01-01T00:00:00Z","name_a2s":"Uncletopia | São Paulo | 1 | All Maps","protocol":17,"map":"koth_highpass","folder":"tf","game":"Team Fortress","app_id":440,"player_count":0,"max_players":24,"Bots":0,"server_type":"Dedicated","server_os":"Linux","password":true,"vac":true,"version":"7961495","steam_id":85568392924469996,"keywords":["cp","nocrits","nodmgspread","uncletopia"],"game_id":440,"stv_port":27016,"stv_name":"Uncletopia | São Paulo | 1 | All Maps | STV","players":null},{"server_id":143,"name":"Uncletopia | São Paulo | 2 | Community","name_short":"sao-2","host":"sao-2.br.uncletopia.com","port":27015,"enabled":true,"region":"sa","cc":"br","latitude":-23.533773,"longitude":-46.62529,"reserved":0,"last_update":"0001-01-01T00:00:00Z","name_a2s":"Uncletopia | São Paulo | 2 | Community","protocol":17,"map":"workshop/cp_bruhstbowl_b6.ugc2878604990","folder":"tf","game":"Team Fortress","app_id":440,"player_count":0,"max_players":24,"Bots":0,"server_type":"Dedicated","server_os":"Linux","password":true,"vac":true,"version":"7961495","steam_id":85568392924485349,"keywords":["cp","nocrits","nodmgspread","uncletopia"],"game_id":440,"stv_port":27016,"stv_name":"Uncletopia | São Paulo | 2 | Community | STV","players":null},{"server_id":7,"name":"Uncletopia | Seattle | 1 | All Maps","name_short":"sea-1","host":"sea-1.us.uncletopia.com","port":27015,"enabled":true,"region":"us-west","cc":"us","latitude":47.608013,"longitude":-122.33517,"reserved":0,"last_update":"0001-01-01T00:00:00Z","name_a2s":"Uncletopia | Seattle | 1 | All Maps","protocol":17,"map":"koth_harvest_final","folder":"tf","game":"Team Fortress","app_id":440,"player_count":24,"max_players":24,"Bots":0,"server_type":"Dedicated","server_os":"Linux","password":true,"vac":true,"version":"7961495","steam_id":85568392924469997,"keywords":["cp","nocrits","nodmgspread","uncletopia"],"game_id":440,"stv_port":27016,"stv_name":"Uncletopia | Seattle | 1 | All Maps | STV","players":[{"user_id":360,"name":"Flyingcat9000","steam_id":76561198179561797,"connected_time":1643000000000,"state":"active","ping":45},{"user_id":359,"name":"gnoblin","steam_id":76561198210322871,"connected_time":1899000000000,"state":"active","ping":85},{"user_id":329,"name":"delight","steam_id":76561197980280272,"connected_time":6259000000000,"state":"active","ping":45},{"user_id":367,"name":"Blackbeard","steam_id":76561198046952265,"connected_time":596000000000,"state":"active","ping":45},{"user_id":348,"name":"Scorpianswag","steam_id":76561198260651036,"connected_time":3217000000000,"state":"active","ping":59},{"user_id":298,"name":"black mold farmer","steam_id":76561198169755734,"connected_time":10941000000000,"state":"active","ping":62},{"user_id":332,"name":"rat gets the cheese","steam_id":76561198031234032,"connected_time":6232000000000,"state":"active","ping":85},{"user_id":280,"name":"Sniff","steam_id":76561198010270922,"connected_time":12561000000000,"state":"active","ping":50},{"user_id":305,"name":"Ayayayayayahuasca","steam_id":76561199002906056,"connected_time":9441000000000,"state":"active","ping":45},{"user_id":270,"name":"NEBULA","steam_id":76561198086878595,"connected_time":14412000000000,"state":"active","ping":72},{"user_id":356,"name":"tr","steam_id":76561198046944222,"connected_time":1989000000000,"state":"active","ping":40},{"user_id":364,"name":"mike","steam_id":76561198163265338,"connected_time":938000000000,"state":"active","ping":49},{"user_id":369,"name":"rivulet","steam_id":76561198165825391,"connected_time":124000000000,"state":"active","ping":61},{"user_id":363,"name":"resh","steam_id":76561198239598834,"connected_time":991000000000,"state":"active","ping":136},{"user_id":365,"name":"doopsies","steam_id":76561198083000867,"connected_time":896000000000,"state":"active","ping":53},{"user_id":321,"name":"smeasly","steam_id":76561198028718812,"connected_time":7574000000000,"state":"active","ping":33},{"user_id":351,"name":"Finkly","steam_id":76561198049828110,"connected_time":3186000000000,"state":"active","ping":42},{"user_id":370,"name":"PS2","steam_id":76561198108799902,"connected_time":103000000000,"state":"active","ping":118},{"user_id":366,"name":"worker","steam_id":76561198039608940,"connected_time":661000000000,"state":"active","ping":59},{"user_id":352,"name":"thunderous prophet","steam_id":76561198131166135,"connected_time":3105000000000,"state":"active","ping":38},{"user_id":309,"name":"Doctor™","steam_id":76561198134309750,"connected_time":8884000000000,"state":"active","ping":135},{"user_id":349,"name":"gorlab","steam_id":76561198025089694,"connected_time":3213000000000,"state":"active","ping":60},{"user_id":347,"name":"fart thief","steam_id":76561198046073848,"connected_time":3608000000000,"state":"active","ping":45},{"user_id":355,"name":"rorywashere /ᐠ - ˕ -マ Ⳋ","steam_id":76561198065825165,"connected_time":3046000000000,"state":"active","ping":102}]},{"server_id":119,"name":"Uncletopia | Seattle | 2 | All Maps","name_short":"sea-2","host":"sea-1.us.uncletopia.com","port":27025,"enabled":true,"region":"us-west","cc":"us","latitude":47.608013,"longitude":-122.33517,"reserved":0,"last_update":"0001-01-01T00:00:00Z","name_a2s":"Uncletopia | Seattle | 2 | All Maps","protocol":17,"map":"pl_swiftwater_final1","folder":"tf","game":"Team Fortress","app_id":440,"player_count":0,"max_players":24,"Bots":0,"server_type":"Dedicated","server_os":"Linux","password":true,"vac":true,"version":"7961495","steam_id":85568392924469998,"keywords":["nocrits","nodmgspread","payload","uncletopia"],"game_id":440,"stv_port":27026,"stv_name":"Uncletopia | Seattle | 2 | All Maps | STV","players":null},{"server_id":406,"name":"Uncletopia | Seattle | 3 | Stopwatch","name_short":"sea-3","host":"sea-1.us.uncletopia.com","port":27035,"enabled":true,"region":"us-west","cc":"us","latitude":47.608013,"longitude":-122.33517,"reserved":0,"last_update":"0001-01-01T00:00:00Z","name_a2s":"Uncletopia | Seattle | 3 | Stopwatch","protocol":17,"map":"workshop/koth_product_final.ugc454272353","folder":"tf","game":"Team Fortress","app_id":440,"player_count":0,"max_players":24,"Bots":0,"server_type":"Dedicated","server_os":"Linux","password":true,"vac":true,"version":"7961495","steam_id":85568392924515217,"keywords":["cp","nocrits","nodmgspread","uncletopia"],"game_id":440,"stv_port":27036,"stv_name":"Uncletopia | Seattle | 3 | Stopwatch | STV","players":null},{"server_id":17,"name":"Uncletopia | San Francisco | 1 | All Maps","name_short":"sfo-1","host":"sfo-1.us.uncletopia.com","port":27015,"enabled":true,"region":"us-west","cc":"us","latitude":37.77397,"longitude":-122.4313,"reserved":0,"last_update":"0001-01-01T00:00:00Z","name_a2s":"Uncletopia | San Francisco | 1 | All Maps","protocol":17,"map":"pl_badwater","folder":"tf","game":"Team Fortress","app_id":440,"player_count":23,"max_players":24,"Bots":0,"server_type":"Dedicated","server_os":"Linux","password":true,"vac":true,"version":"7961495","steam_id":85568392924469999,"keywords":["nocrits","nodmgspread","payload","uncletopia"],"game_id":440,"stv_port":27016,"stv_name":"Uncletopia | San Francisco | 1 | All Maps | STV","players":[{"user_id":497,"name":"vivi","steam_id":76561198881665250,"connected_time":771000000000,"state":"active","ping":62},{"user_id":479,"name":"kwetzal","steam_id":76561198845749671,"connected_time":2307000000000,"state":"active","ping":55},{"user_id":505,"name":"TomosconesYT","steam_id":76561198813586588,"connected_time":112000000000,"state":"active","ping":57},{"user_id":506,"name":"mr.edderkopper","steam_id":76561198152614478,"connected_time":100000000000,"state":"active","ping":92},{"user_id":498,"name":"Barbershop Quartet At Denny's","steam_id":76561198036591882,"connected_time":730000000000,"state":"active","ping":103},{"user_id":484,"name":"NSupremo","steam_id":76561198246121948,"connected_time":1739000000000,"state":"active","ping":103},{"user_id":462,"name":"OzzyAkiro47","steam_id":76561199076449499,"connected_time":3627000000000,"state":"active","ping":64},{"user_id":490,"name":"chocky","steam_id":76561198057491296,"connected_time":1283000000000,"state":"active","ping":64},{"user_id":499,"name":"SuperRPGgamer","steam_id":76561198288017834,"connected_time":704000000000,"state":"active","ping":105},{"user_id":464,"name":"Xexat","steam_id":76561198041668498,"connected_time":3373000000000,"state":"active","ping":69},{"user_id":416,"name":"Daypire","steam_id":76561198088120472,"connected_time":7419000000000,"state":"active","ping":65},{"user_id":500,"name":"Bren20225","steam_id":76561198174421550,"connected_time":698000000000,"state":"active","ping":70},{"user_id":492,"name":"usmnt==chokers","steam_id":76561198043456370,"connected_time":1220000000000,"state":"active","ping":45},{"user_id":501,"name":"BLØRG","steam_id":76561198036126673,"connected_time":693000000000,"state":"active","ping":87},{"user_id":487,"name":"okay sized language model","steam_id":76561198071110753,"connected_time":1589000000000,"state":"active","ping":45},{"user_id":465,"name":"HORSE KEGGO","steam_id":76561198055785246,"connected_time":3344000000000,"state":"active","ping":60},{"user_id":456,"name":"ĐĪʀɘ","steam_id":76561199014715203,"connected_time":4200000000000,"state":"active","ping":65},{"user_id":502,"name":"ChillinSquare","steam_id":76561198023745593,"connected_time":678000000000,"state":"active","ping":59},{"user_id":488,"name":"jovial","steam_id":76561198297130941,"connected_time":1586000000000,"state":"active","ping":53},{"user_id":503,"name":"the cock","steam_id":76561198065153674,"connected_time":669000000000,"state":"active","ping":61},{"user_id":430,"name":"CaiGaming","steam_id":76561198313023508,"connected_time":6304000000000,"state":"active","ping":62},{"user_id":504,"name":"The Collective(Hypnotist)","steam_id":76561198170423483,"connected_time":549000000000,"state":"active","ping":123},{"user_id":495,"name":"MINI CRIT!999","steam_id":76561198027649268,"connected_time":1181000000000,"state":"active","ping":92}]},{"server_id":18,"name":"Uncletopia | San Francisco | 2 | All Maps","name_short":"sfo-2","host":"sfo-1.us.uncletopia.com","port":27025,"enabled":true,"region":"us-west","cc":"us","latitude":37.77397,"longitude":-122.4313,"reserved":0,"last_update":"0001-01-01T00:00:00Z","name_a2s":"Uncletopia | San Francisco | 2 | All Maps","protocol":17,"map":"pl_frontier_final","folder":"tf","game":"Team Fortress","app_id":440,"player_count":24,"max_players":24,"Bots":0,"server_type":"Dedicated","server_os":"Linux","password":true,"vac":true,"version":"7961495","steam_id":85568392924470000,"keywords":["nocrits","nodmgspread","payload","uncletopia"],"game_id":440,"stv_port":27026,"stv_name":"Uncletopia | San Francisco | 2 | All Maps | STV","players":[{"user_id":474,"name":"kain","steam_id":76561198155560670,"connected_time":2343000000000,"state":"active","ping":69},{"user_id":496,"name":"Special Gorilla","steam_id":76561198120705900,"connected_time":353000000000,"state":"active","ping":45},{"user_id":463,"name":"Patrick","steam_id":76561198102493305,"connected_time":2934000000000,"state":"active","ping":115},{"user_id":493,"name":"KYBB","steam_id":76561198141390049,"connected_time":718000000000,"state":"active","ping":74},{"user_id":494,"name":"Team Fartpiss Poo","steam_id":76561199163591880,"connected_time":495000000000,"state":"active","ping":124},{"user_id":495,"name":"Child Devourer","steam_id":76561198218558897,"connected_time":479000000000,"state":"active","ping":102},{"user_id":499,"name":"Wham Mistress","steam_id":76561198115422032,"connected_time":351000000000,"state":"active","ping":45},{"user_id":470,"name":"PulledPork","steam_id":76561198182077258,"connected_time":2455000000000,"state":"active","ping":59},{"user_id":461,"name":"Midna","steam_id":76561198043132251,"connected_time":3090000000000,"state":"active","ping":68},{"user_id":488,"name":"Vruk","steam_id":76561198116930332,"connected_time":1525000000000,"state":"active","ping":69},{"user_id":504,"name":"MoonNasa","steam_id":76561198275962717,"connected_time":42000000000,"state":"spawning","ping":58},{"user_id":473,"name":"Super_Sonic133","steam_id":76561198141384474,"connected_time":2369000000000,"state":"active","ping":46},{"user_id":475,"name":"ars110","steam_id":76561198030492435,"connected_time":2323000000000,"state":"active","ping":85},{"user_id":476,"name":"011sra","steam_id":76561199489542125,"connected_time":2296000000000,"state":"active","ping":72},{"user_id":498,"name":"Antreuse","steam_id":76561198219721132,"connected_time":352000000000,"state":"active","ping":65},{"user_id":500,"name":"Marcy (She/Her)","steam_id":76561198097413073,"connected_time":315000000000,"state":"active","ping":64},{"user_id":505,"name":"SuperDuxy","steam_id":76561198276546585,"connected_time":32000000000,"state":"spawning","ping":196},{"user_id":501,"name":"copper","steam_id":76561198146250533,"connected_time":297000000000,"state":"active","ping":55},{"user_id":480,"name":"ShadowBolt","steam_id":76561198061610985,"connected_time":2196000000000,"state":"active","ping":187},{"user_id":481,"name":"Zyjem","steam_id":76561198071588380,"connected_time":2142000000000,"state":"active","ping":100},{"user_id":502,"name":"blozet","steam_id":76561199120161035,"connected_time":227000000000,"state":"active","ping":91},{"user_id":506,"name":"PetorBoyo","steam_id":76561198176953113,"connected_time":16000000000,"state":"active","ping":83},{"user_id":486,"name":"Quetzalcoatl","steam_id":76561198094826250,"connected_time":2056000000000,"state":"active","ping":60},{"user_id":429,"name":"Nüþ","steam_id":76561198043956703,"connected_time":6323000000000,"state":"active","ping":55}]},{"server_id":19,"name":"Uncletopia | San Francisco | 3 | Stopwatch","name_short":"sfo-3","host":"sfo-1.us.uncletopia.com","port":27035,"enabled":true,"region":"us-west","cc":"us","latitude":37.77397,"longitude":-122.4313,"reserved":0,"last_update":"0001-01-01T00:00:00Z","name_a2s":"Uncletopia | San Francisco | 3 | Stopwatch","protocol":17,"map":"cp_metalworks","folder":"tf","game":"Team Fortress","app_id":440,"player_count":0,"max_players":24,"Bots":0,"server_type":"Dedicated","server_os":"Linux","password":true,"vac":true,"version":"7961495","steam_id":85568392924742824,"keywords":["cp","nocrits","nodmgspread","uncletopia"],"game_id":440,"stv_port":27036,"stv_name":"Uncletopia | San Francisco | 3 | Stopwatch | STV","players":null},{"server_id":20,"name":"Uncletopia | San Francisco | 4 | Community","name_short":"sfo-4","host":"sfo-1.us.uncletopia.com","port":27045,"enabled":true,"region":"us-west","cc":"us","latitude":37.77397,"longitude":-122.4313,"reserved":0,"last_update":"0001-01-01T00:00:00Z","name_a2s":"Uncletopia | San Francisco | 4 | Community","protocol":17,"map":"cp_snakewater_final1","folder":"tf","game":"Team Fortress","app_id":440,"player_count":0,"max_players":24,"Bots":0,"server_type":"Dedicated","server_os":"Linux","password":true,"vac":true,"version":"7961495","steam_id":85568392924742826,"keywords":["cp","nocrits","nodmgspread","uncletopia"],"game_id":440,"stv_port":27046,"stv_name":"Uncletopia | San Francisco | 4 | Community | STV","players":null},{"server_id":141,"name":"Uncletopia | Sydney | 1 | All Maps","name_short":"syd-1","host":"syd-1.au.uncletopia.com","port":27015,"enabled":true,"region":"au","cc":"au","latitude":-33.865143,"longitude":151.2099,"reserved":0,"last_update":"0001-01-01T00:00:00Z","name_a2s":"Uncletopia | Sydney | 1 | All Maps","protocol":17,"map":"koth_harvest_final","folder":"tf","game":"Team Fortress","app_id":440,"player_count":24,"max_players":24,"Bots":0,"server_type":"Dedicated","server_os":"Linux","password":true,"vac":true,"version":"7961495","steam_id":85568392924470001,"keywords":["cp","nocrits","nodmgspread","uncletopia"],"game_id":440,"stv_port":27016,"stv_name":"Uncletopia | Sydney | 1 | All Maps | STV","players":[{"user_id":248,"name":"alex","steam_id":76561198053382248,"connected_time":1965000000000,"state":"active","ping":45},{"user_id":221,"name":"bron","steam_id":76561198076187044,"connected_time":3465000000000,"state":"active","ping":56},{"user_id":263,"name":"Owlenstein™","steam_id":76561198093983826,"connected_time":683000000000,"state":"active","ping":132},{"user_id":266,"name":"4-Star Yelp Review","steam_id":76561197995258180,"connected_time":218000000000,"state":"active","ping":49},{"user_id":260,"name":"ZU TITAN REGIGIGAS ÜN ÜN ÜN","steam_id":76561198067978287,"connected_time":727000000000,"state":"active","ping":90},{"user_id":241,"name":"famous UNDERTALE miniboss Glyde","steam_id":76561198841855657,"connected_time":2311000000000,"state":"active","ping":54},{"user_id":268,"name":"Pompadouraus","steam_id":76561198327530525,"connected_time":119000000000,"state":"active","ping":74},{"user_id":156,"name":"Marzell","steam_id":76561198151276153,"connected_time":8739000000000,"state":"active","ping":94},{"user_id":265,"name":"soupy","steam_id":76561198073734936,"connected_time":458000000000,"state":"active","ping":86},{"user_id":237,"name":"zorgloopy glorfmorpus","steam_id":76561198063481761,"connected_time":2575000000000,"state":"active","ping":38},{"user_id":240,"name":"dr. sne","steam_id":76561198022485319,"connected_time":2383000000000,"state":"active","ping":56},{"user_id":259,"name":"Jiffy360","steam_id":76561198149550772,"connected_time":1055000000000,"state":"active","ping":95},{"user_id":251,"name":"Hippity_Hoppity","steam_id":76561198861050395,"connected_time":1657000000000,"state":"active","ping":68},{"user_id":231,"name":"horrid webbon ᘛ⁐̤ᕐᐷ","steam_id":76561198061998379,"connected_time":2976000000000,"state":"active","ping":46},{"user_id":229,"name":"Finger Bun Fun","steam_id":76561198118383219,"connected_time":3172000000000,"state":"active","ping":51},{"user_id":216,"name":"Iron Man Armored Adventures","steam_id":76561198202555552,"connected_time":4001000000000,"state":"active","ping":39},{"user_id":220,"name":"Noid","steam_id":76561198045934965,"connected_time":3706000000000,"state":"active","ping":85},{"user_id":253,"name":"Chez","steam_id":76561198089925051,"connected_time":1436000000000,"state":"active","ping":97},{"user_id":249,"name":"GNOMEO AND JULLIET","steam_id":76561199257116847,"connected_time":1893000000000,"state":"active","ping":57},{"user_id":244,"name":"Sinister80s","steam_id":76561198343540472,"connected_time":2023000000000,"state":"active","ping":69},{"user_id":245,"name":"Fleetfoot","steam_id":76561198072845816,"connected_time":2009000000000,"state":"active","ping":55},{"user_id":234,"name":"viirv","steam_id":76561198190097862,"connected_time":2827000000000,"state":"active","ping":67},{"user_id":212,"name":"no teles 4 u","steam_id":76561198018478297,"connected_time":4125000000000,"state":"active","ping":72}]},{"server_id":123,"name":"Uncletopia | Sydney | 2 | All Maps","name_short":"syd-2","host":"syd-1.au.uncletopia.com","port":27025,"enabled":true,"region":"au","cc":"au","latitude":-33.865143,"longitude":151.2099,"reserved":0,"last_update":"0001-01-01T00:00:00Z","name_a2s":"Uncletopia | Sydney | 2 | All Maps","protocol":17,"map":"cp_dustbowl","folder":"tf","game":"Team Fortress","app_id":440,"player_count":2,"max_players":24,"Bots":0,"server_type":"Dedicated","server_os":"Linux","password":true,"vac":true,"version":"7961495","steam_id":85568392924470002,"keywords":["cp","nocrits","nodmgspread","uncletopia"],"game_id":440,"stv_port":27026,"stv_name":"Uncletopia | Sydney | 2 | All Maps | STV","players":[{"user_id":68,"name":"JP","steam_id":76561198026221737,"connected_time":675000000000,"state":"active","ping":45},{"user_id":70,"name":"Lobarté","steam_id":76561198090116136,"connected_time":174000000000,"state":"active","ping":60}]},{"server_id":395,"name":"Uncletopia | Sydney | 3 | All Maps","name_short":"syd-3","host":"syd-1.au.uncletopia.com","port":27035,"enabled":true,"region":"au","cc":"au","latitude":-33.865143,"longitude":151.2099,"reserved":0,"last_update":"0001-01-01T00:00:00Z","name_a2s":"Uncletopia | Sydney | 3 | All Maps","protocol":17,"map":"koth_lakeside_final","folder":"tf","game":"Team Fortress","app_id":440,"player_count":0,"max_players":24,"Bots":0,"server_type":"Dedicated","server_os":"Linux","password":true,"vac":true,"version":"7961495","steam_id":85568392925194467,"keywords":["cp","nocrits","nodmgspread","uncletopia"],"game_id":440,"stv_port":27036,"stv_name":"Uncletopia | Sydney | 3 | All Maps | STV","players":null},{"server_id":396,"name":"Uncletopia | Sydney | 4 | All Maps","name_short":"syd-4","host":"syd-1.au.uncletopia.com","port":27045,"enabled":true,"region":"au","cc":"au","latitude":-33.865143,"longitude":151.2099,"reserved":0,"last_update":"0001-01-01T00:00:00Z","name_a2s":"Uncletopia | Sydney | 4 | All Maps","protocol":17,"map":"koth_viaduct","folder":"tf","game":"Team Fortress","app_id":440,"player_count":0,"max_players":24,"Bots":0,"server_type":"Dedicated","server_os":"Linux","password":true,"vac":true,"version":"7961495","steam_id":85568392925397958,"keywords":["cp","nocrits","nodmgspread","uncletopia"],"game_id":440,"stv_port":27046,"stv_name":"Uncletopia | Sydney | 4 | All Maps | STV","players":null},{"server_id":58,"name":"Uncletopia | Sydney | 5 | Stopwatch Beta","name_short":"syd-5","host":"syd-1.au.uncletopia.com","port":27055,"enabled":true,"region":"au","cc":"au","latitude":-33.865143,"longitude":151.2099,"reserved":0,"last_update":"0001-01-01T00:00:00Z","name_a2s":"Uncletopia | Sydney | 5 | Stopwatch Beta","protocol":17,"map":"workshop/koth_ashville_final.ugc2130459942","folder":"tf","game":"Team Fortress","app_id":440,"player_count":0,"max_players":24,"Bots":0,"server_type":"Dedicated","server_os":"Linux","password":true,"vac":true,"version":"7961495","steam_id":85568392925397959,"keywords":["cp","nocrits","nodmgspread","uncletopia"],"game_id":440,"stv_port":27056,"stv_name":"Uncletopia | Sydney | 5 | Stopwatch Beta | STV","players":null},{"server_id":59,"name":"Uncletopia | Sydney | 6 | Community","name_short":"syd-6","host":"syd-1.au.uncletopia.com","port":27065,"enabled":true,"region":"au","cc":"au","latitude":-33.865143,"longitude":151.2099,"reserved":0,"last_update":"0001-01-01T00:00:00Z","name_a2s":"Uncletopia | Sydney | 6 | Community","protocol":17,"map":"workshop/cp_bruhstbowl_b6.ugc2878604990","folder":"tf","game":"Team Fortress","app_id":440,"player_count":0,"max_players":24,"Bots":0,"server_type":"Dedicated","server_os":"Linux","password":true,"vac":true,"version":"7961495","steam_id":85568392925397960,"keywords":["cp","nocrits","nodmgspread","uncletopia"],"game_id":440,"stv_port":27066,"stv_name":"Uncletopia | Sydney | 6 | Community | STV","players":null},{"server_id":49,"name":"Uncletopia | Warsaw | 1 | All Maps","name_short":"waw-1","host":"waw-1.pl.uncletopia.com","port":27015,"enabled":true,"region":"eu","cc":"pl","latitude":52.2297,"longitude":21.017532,"reserved":0,"last_update":"0001-01-01T00:00:00Z","name_a2s":"Uncletopia | Warsaw | 1 | All Maps","protocol":17,"map":"pl_upward","folder":"tf","game":"Team Fortress","app_id":440,"player_count":0,"max_players":24,"Bots":0,"server_type":"Dedicated","server_os":"Linux","password":true,"vac":true,"version":"7961495","steam_id":85568392925397850,"keywords":["nocrits","nodmgspread","payload","uncletopia"],"game_id":440,"stv_port":27016,"stv_name":"Uncletopia | Warsaw | 1 | All Maps | STV","players":null},{"server_id":50,"name":"Uncletopia | Warsaw | 2 | All Maps","name_short":"waw-2","host":"waw-1.pl.uncletopia.com","port":27025,"enabled":true,"region":"eu","cc":"pl","latitude":52.2297,"longitude":21.017532,"reserved":0,"last_update":"0001-01-01T00:00:00Z","name_a2s":"Uncletopia | Warsaw | 2 | All Maps","protocol":17,"map":"pl_badwater","folder":"tf","game":"Team Fortress","app_id":440,"player_count":0,"max_players":24,"Bots":0,"server_type":"Dedicated","server_os":"Linux","password":true,"vac":true,"version":"7961495","steam_id":85568392925397851,"keywords":["nocrits","nodmgspread","payload","uncletopia"],"game_id":440,"stv_port":27026,"stv_name":"Uncletopia | Warsaw | 2 | All Maps | STV","players":null},{"server_id":51,"name":"Uncletopia | Warsaw | 3 | All Maps","name_short":"waw-3","host":"waw-1.pl.uncletopia.com","port":27035,"enabled":true,"region":"eu","cc":"pl","latitude":52.2297,"longitude":21.017532,"reserved":0,"last_update":"0001-01-01T00:00:00Z","name_a2s":"Uncletopia | Warsaw | 3 | All Maps","protocol":17,"map":"cp_process_final","folder":"tf","game":"Team Fortress","app_id":440,"player_count":0,"max_players":24,"Bots":0,"server_type":"Dedicated","server_os":"Linux","password":true,"vac":true,"version":"7961495","steam_id":85568392925397852,"keywords":["cp","nocrits","nodmgspread","uncletopia"],"game_id":440,"stv_port":27036,"stv_name":"Uncletopia | Warsaw | 3 | All Maps | STV","players":null},{"server_id":52,"name":"Uncletopia | Warsaw | 4 | All Maps","name_short":"waw-4","host":"waw-1.pl.uncletopia.com","port":27045,"enabled":true,"region":"eu","cc":"pl","latitude":52.2297,"longitude":21.017532,"reserved":0,"last_update":"0001-01-01T00:00:00Z","name_a2s":"Uncletopia | Warsaw | 4 | All Maps","protocol":17,"map":"pl_badwater","folder":"tf","game":"Team Fortress","app_id":440,"player_count":0,"max_players":24,"Bots":0,"server_type":"Dedicated","server_os":"Linux","password":true,"vac":true,"version":"7961495","steam_id":85568392925397853,"keywords":["nocrits","nodmgspread","payload","uncletopia"],"game_id":440,"stv_port":27046,"stv_name":"Uncletopia | Warsaw | 4 | All Maps | STV","players":null},{"server_id":53,"name":"Uncletopia | Warsaw | 5 | Stopwatch Beta","name_short":"waw-5","host":"waw-1.pl.uncletopia.com","port":27055,"enabled":true,"region":"eu","cc":"pl","latitude":52.2297,"longitude":21.017532,"reserved":0,"last_update":"0001-01-01T00:00:00Z","name_a2s":"Uncletopia | Warsaw | 5 | Stopwatch Beta","protocol":17,"map":"pl_snowycoast","folder":"tf","game":"Team Fortress","app_id":440,"player_count":0,"max_players":24,"Bots":0,"server_type":"Dedicated","server_os":"Linux","password":true,"vac":true,"version":"7961495","steam_id":85568392925397854,"keywords":["nocrits","nodmgspread","payload","uncletopia"],"game_id":440,"stv_port":27056,"stv_name":"Uncletopia | Warsaw | 5 | Stopwatch Beta | STV","players":null},{"server_id":54,"name":"Uncletopia | Warsaw | 6 | Community","name_short":"waw-6","host":"waw-1.pl.uncletopia.com","port":27065,"enabled":true,"region":"eu","cc":"pl","latitude":52.2297,"longitude":21.017532,"reserved":0,"last_update":"0001-01-01T00:00:00Z","name_a2s":"Uncletopia | Warsaw | 6 | Community","protocol":17,"map":"pl_borneo","folder":"tf","game":"Team Fortress","app_id":440,"player_count":0,"max_players":24,"Bots":0,"server_type":"Dedicated","server_os":"Linux","password":true,"vac":true,"version":"7961495","steam_id":85568392925397856,"keywords":["nocrits","nodmgspread","payload","uncletopia"],"game_id":440,"stv_port":27066,"stv_name":"Uncletopia | Warsaw | 6 | Community | STV","players":null}]}