{"status":true,"message":"","result":[{"server_id":9,"name":"Uncletopia | Atlanta | 1 | All Maps","name_short":"atl-1","host":"atl-1.us.uncletopia.com","port":27015,"enabled":true,"region":"us-east","cc":"us","latitude":33.753746,"longitude":-84.38633,"reserved":0,"last_update":"0001-01-01T00:00:00Z","name_a2s":"Uncletopia | Atlanta | 1 | All Maps","protocol":17,"map":"pl_snowycoast","folder":"tf","game":"Team Fortress","app_id":440,"player_count":0,"max_players":24,"Bots":0,"server_type":"Dedicated","server_os":"Linux","password":true,"vac":true,"version":"7742253","steam_id":85568392924469982,"keywords":["nocrits","nodmgspread","payload","uncletopia"],"game_id":440,"stv_port":27016,"stv_name":"Uncletopia | Atlanta | 1 | All Maps | STV","players":null},{"server_id":400,"name":"Uncletopia | Atlanta | 3 | Stopwatch Beta","name_short":"atl-3","host":"atl-1.us.uncletopia.com","port":27035,"enabled":true,"region":"us-east","cc":"us","latitude":33.753746,"longitude":-84.38633,"reserved":0,"last_update":"0001-01-01T00:00:00Z","name_a2s":"Uncletopia | Atlanta | 3 | Stopwatch Beta","protocol":17,"map":"pl_pier","folder":"tf","game":"Team Fortress","app_id":440,"player_count":0,"max_players":24,"Bots":0,"server_type":"Dedicated","server_os":"Linux","password":true,"vac":true,"version":"7742253","steam_id":85568392924515187,"keywords":["nocrits","nodmgspread","payload","uncletopia"],"game_id":440,"stv_port":27036,"stv_name":"Uncletopia | Atlanta | 3 | Stopwatch Beta | STV","players":null},{"server_id":401,"name":"Uncletopia | Atlanta | 4 | No Payload","name_short":"atl-4","host":"atl-1.us.uncletopia.com","port":27045,"enabled":true,"region":"us-east","cc":"us","latitude":33.753746,"longitude":-84.38633,"reserved":0,"last_update":"0001-01-01T00:00:00Z","name_a2s":"Uncletopia | Atlanta | 4 | No Payload","protocol":17,"map":"pl_pier","folder":"tf","game":"Team Fortress","app_id":440,"player_count":0,"max_players":24,"Bots":0,"server_type":"Dedicated","server_os":"Linux","password":true,"vac":true,"version":"7723704","steam_id":85568392924515188,"keywords":["nocrits","nodmgspread","payload","uncletopia"],"game_id":440,"stv_port":27046,"stv_name":"Uncletopia | Atlanta | 4 | No Payload | STV","players":null},{"server_id":2,"name":"Uncletopia | Chicago | 1 | All Maps","name_short":"chi-1","host":"chi-1.us.uncletopia.com","port":27015,"enabled":true,"region":"us-central","cc":"us","latitude":41.881832,"longitude":-87.62318,"reserved":0,"last_update":"0001-01-01T00:00:00Z","name_a2s":"Uncletopia | Chicago | 1 | All Maps","protocol":17,"map":"koth_viaduct","folder":"tf","game":"Team Fortress","app_id":440,"player_count":0,"max_players":24,"Bots":0,"server_type":"Dedicated","server_os":"Linux","password":true,"vac":true,"version":"7742253","steam_id":85568392924469984,"keywords":["cp","nocrits","nodmgspread","uncletopia"],"game_id":440,"stv_port":27016,"stv_name":"Uncletopia | Chicago | 1 | All Maps | STV","players":null},{"server_id":106,"name":"Uncletopia | Chicago | 2 | All Maps","name_short":"chi-2","host":"chi-1.us.uncletopia.com","port":27025,"enabled":true,"region":"us-central","cc":"us","latitude":41.881832,"longitude":-87.62318,"reserved":0,"last_update":"0001-01-01T00:00:00Z","name_a2s":"Uncletopia | Chicago | 2 | All Maps","protocol":17,"map":"pl_snowycoast","folder":"tf","game":"Team Fortress","app_id":440,"player_count":0,"max_players":24,"Bots":0,"server_type":"Dedicated","server_os":"Linux","password":true,"vac":true,"version":"7742253","steam_id":85568392924469985,"keywords":["nocrits","nodmgspread","payload","uncletopia"],"game_id":440,"stv_port":27026,"stv_name":"Uncletopia | Chicago | 2 | All Maps | STV","players":null},{"server_id":402,"name":"Uncletopia | Chicago | 3 | All Maps","name_short":"chi-3","host":"chi-1.us.uncletopia.com","port":27035,"enabled":true,"region":"us-central","cc":"us","latitude":41.881832,"longitude":-87.62318,"reserved":0,"last_update":"0001-01-01T00:00:00Z","name_a2s":"Uncletopia | Chicago | 3 | All Maps","protocol":17,"map":"koth_viaduct","folder":"tf","game":"Team Fortress","app_id":440,"player_count":0,"max_players":24,"Bots":0,"server_type":"Dedicated","server_os":"Linux","password":true,"vac":true,"version":"7742253","steam_id":85568392924515191,"keywords":["cp","nocrits","nodmgspread","uncletopia"],"game_id":440,"stv_port":27036,"stv_name":"Uncletopia | Chicago | 3 | All Maps | STV","players":null},{"server_id":403,"name":"Uncletopia | Chicago | 4 | All Maps","name_short":"chi-4","host":"chi-1.us.uncletopia.com","port":27045,"enabled":true,"region":"us-central","cc":"us","latitude":41.881832,"longitude":-87.62318,"reserved":0,"last_update":"0001-01-01T00:00:00Z","name_a2s":"Uncletopia | Chicago | 4 | All Maps","protocol":17,"map":"koth_lakeside_final","folder":"tf","game":"Team Fortress","app_id":440,"player_count":0,"max_players":24,"Bots":0,"server_type":"Dedicated","server_os":"Linux","password":true,"vac":true,"version":"7742253","steam_id":85568392924515193,"keywords":["cp","nocrits","nodmgspread","uncletopia"],"game_id":440,"stv_port":27046,"stv_name":"Uncletopia | Chicago | 4 | All Maps | STV","players":null},{"server_id":36,"name":"Uncletopia | Chicago | 5 | All Maps","name_short":"chi-5","host":"chi-2.us.uncletopia.com","port":27015,"enabled":true,"region":"us-central","cc":"us","latitude":41.881832,"longitude":-87.62318,"reserved":0,"last_update":"0001-01-01T00:00:00Z","name_a2s":"Uncletopia | Chicago | 5 | All Maps","protocol":17,"map":"pl_barnblitz","folder":"tf","game":"Team Fortress","app_id":440,"player_count":24,"max_players":24,"Bots":0,"server_type":"Dedicated","server_os":"Linux","password":true,"vac":true,"version":"7742253","steam_id":85568392924866362,"keywords":["nocrits","nodmgspread","payload","uncletopia"],"game_id":440,"stv_port":27016,"stv_name":"Uncletopia | Chicago | 5 | All Maps | STV","players":[{"user_id":98,"name":"forklift circumcised","steam_id":76561198278756087,"connected_time":672000000000,"state":"active","ping":83},{"user_id":99,"name":"limegrass619","steam_id":76561198167789909,"connected_time":656000000000,"state":"active","ping":108},{"user_id":46,"name":"technoninja395","steam_id":76561199368978007,"connected_time":4304000000000,"state":"active","ping":60},{"user_id":110,"name":"aamalg","steam_id":76561199264235866,"connected_time":165000000000,"state":"active","ping":229},{"user_id":86,"name":"richard clock","steam_id":76561198048455671,"connected_time":1396000000000,"state":"active","ping":61},{"user_id":14,"name":"Casual Costanza","steam_id":76561198024409325,"connected_time":8756000000000,"state":"active","ping":63},{"user_id":73,"name":"kametro4","steam_id":76561198835430429,"connected_time":2155000000000,"state":"active","ping":86},{"user_id":74,"name":"Fuegan Ra","steam_id":76561198287923849,"connected_time":2144000000000,"state":"active","ping":50},{"user_id":106,"name":"Scent Tree","steam_id":76561198444371121,"connected_time":505000000000,"state":"active","ping":87},{"user_id":105,"name":"oopsboom24","steam_id":76561199105248648,"connected_time":528000000000,"state":"active","ping":93},{"user_id":16,"name":"StŒürm","steam_id":76561198140983063,"connected_time":8490000000000,"state":"active","ping":64},{"user_id":84,"name":"SkyLark","steam_id":76561198303618132,"connected_time":1495000000000,"state":"active","ping":92},{"user_id":108,"name":"Vec","steam_id":76561198044505262,"connected_time":433000000000,"state":"active","ping":81},{"user_id":103,"name":"slimer9k","steam_id":76561198807591759,"connected_time":545000000000,"state":"active","ping":40},{"user_id":96,"name":"lostos","steam_id":76561197983869145,"connected_time":833000000000,"state":"active","ping":116},{"user_id":100,"name":"Typical Gentleman","steam_id":76561199229771413,"connected_time":614000000000,"state":"active","ping":82},{"user_id":102,"name":"Mikael_01","steam_id":76561199080253129,"connected_time":602000000000,"state":"active","ping":182},{"user_id":80,"name":"Totally Original Name","steam_id":76561199376462977,"connected_time":1971000000000,"state":"active","ping":114},{"user_id":70,"name":"Do Moose go Moo?","steam_id":76561198073550620,"connected_time":2480000000000,"state":"active","ping":48},{"user_id":104,"name":"floppy muppet","steam_id":76561198003076261,"connected_time":541000000000,"state":"active","ping":90},{"user_id":107,"name":"lebron gaming","steam_id":76561198837433485,"connected_time":483000000000,"state":"active","ping":60},{"user_id":90,"name":"munki„ÉÑ","steam_id":76561198841270249,"connected_time":1290000000000,"state":"active","ping":60},{"user_id":62,"name":"Jawbone17","steam_id":76561198043939302,"connected_time":3716000000000,"state":"active","ping":118},{"user_id":94,"name":"S M E L T","steam_id":76561199118696847,"connected_time":871000000000,"state":"active","ping":69}]},{"server_id":37,"name":"Uncletopia | Chicago | 6 | All Maps","name_short":"chi-6","host":"chi-2.us.uncletopia.com","port":27025,"enabled":true,"region":"us-central","cc":"us","latitude":41.881832,"longitude":-87.62318,"reserved":0,"last_update":"0001-01-01T00:00:00Z","name_a2s":"Uncletopia | Chicago | 6 | All Maps","protocol":17,"map":"cp_sunshine","folder":"tf","game":"Team Fortress","app_id":440,"player_count":0,"max_players":24,"Bots":0,"server_type":"Dedicated","server_os":"Linux","password":true,"vac":true,"version":"7742253","steam_id":85568392924866363,"keywords":["cp","nocrits","nodmgspread","uncletopia"],"game_id":440,"stv_port":27026,"stv_name":"Uncletopia | Chicago | 6 | All Maps | STV","players":null},{"server_id":38,"name":"Uncletopia | Chicago | 7 | Stopwatch Beta","name_short":"chi-7","host":"chi-2.us.uncletopia.com","port":27035,"enabled":true,"region":"us-central","cc":"us","latitude":41.881832,"longitude":-87.62318,"reserved":0,"last_update":"0001-01-01T00:00:00Z","name_a2s":"Uncletopia | Chicago | 7 | Stopwatch Beta","protocol":17,"map":"koth_lakeside_final","folder":"tf","game":"Team Fortress","app_id":440,"player_count":0,"max_players":24,"Bots":0,"server_type":"Dedicated","server_os":"Linux","password":true,"vac":true,"version":"7742253","steam_id":85568392924866364,"keywords":["cp","nocrits","nodmgspread","uncletopia"],"game_id":440,"stv_port":27036,"stv_name":"Uncletopia | Chicago | 7 | Stopwatch Beta | STV","players":null},{"server_id":39,"name":"Uncletopia | Chicago | 8 | Community","name_short":"chi-8","host":"chi-2.us.uncletopia.com","port":27045,"enabled":true,"region":"us-central","cc":"us","latitude":41.881832,"longitude":-87.62318,"reserved":0,"last_update":"0001-01-01T00:00:00Z","name_a2s":"Uncletopia | Chicago | 8 | Community","protocol":17,"map":"koth_lakeside_final","folder":"tf","game":"Team Fortress","app_id":440,"player_count":0,"max_players":24,"Bots":0,"server_type":"Dedicated","server_os":"Linux","password":true,"vac":true,"version":"7742253","steam_id":85568392924866365,"keywords":["cp","nocrits","nodmgspread","uncletopia"],"game_id":440,"stv_port":27046,"stv_name":"Uncletopia | Chicago | 8 | Community | STV","players":null},{"server_id":8,"name":"Uncletopia | Dallas | 1 | All Maps","name_short":"dal-1","host":"dal-1.us.uncletopia.com","port":27015,"enabled":true,"region":"us-central","cc":"us","latitude":32.779167,"longitude":-96.80889,"reserved":0,"last_update":"0001-01-01T00:00:00Z","name_a2s":"Uncletopia | Dallas | 1 | All Maps","protocol":17,"map":"pl_borneo","folder":"tf","game":"Team Fortress","app_id":440,"player_count":24,"max_players":24,"Bots":0,"server_type":"Dedicated","server_os":"Linux","password":true,"vac":true,"version":"7742253","steam_id":85568392924469986,"keywords":["nocrits","nodmgspread","payload","uncletopia"],"game_id":440,"stv_port":27016,"stv_name":"Uncletopia | Dallas | 1 | All Maps | STV","players":[{"user_id":112,"name":"1000 Ping","steam_id":76561198098330939,"connected_time":433000000000,"state":"active","ping":93},{"user_id":74,"name":"bsrob","steam_id":76561197972148002,"connected_time":2856000000000,"state":"active","ping":85},{"user_id":5,"name":"That70sDog","steam_id":76561198119396142,"connected_time":8886000000000,"state":"active","ping":67},{"user_id":75,"name":"bdkaine1","steam_id":76561198133545467,"connected_time":2847000000000,"state":"active","ping":73},{"user_id":113,"name":"Mr. Pink","steam_id":76561198065858172,"connected_time":412000000000,"state":"active","ping":87},{"user_id":114,"name":"Marauding Morty","steam_id":76561198013159528,"connected_time":403000000000,"state":"active","ping":80},{"user_id":117,"name":"m_grimson_p","steam_id":76561199137589785,"connected_time":154000000000,"state":"active","ping":174},{"user_id":64,"name":"hola","steam_id":76561198873043242,"connected_time":3470000000000,"state":"active","ping":126},{"user_id":100,"name":"SCP-076-2","steam_id":76561198100942212,"connected_time":1213000000000,"state":"active","ping":77},{"user_id":47,"name":"microwaving a cinnamon roll","steam_id":76561198328109873,"connected_time":5462000000000,"state":"active","ping":92},{"user_id":110,"name":"Ballista","steam_id":76561197983182562,"connected_time":571000000000,"state":"active","ping":56},{"user_id":101,"name":"Zeenobae","steam_id":76561198042537808,"connected_time":1211000000000,"state":"active","ping":83},{"user_id":72,"name":"ColonelKermit","steam_id":76561198318215660,"connected_time":2899000000000,"state":"active","ping":75},{"user_id":66,"name":"dosimeter","steam_id":76561198039608940,"connected_time":3446000000000,"state":"active","ping":109},{"user_id":95,"name":"KORF","steam_id":76561197981904410,"connected_time":1436000000000,"state":"active","ping":80},{"user_id":106,"name":"Diatomaceous","steam_id":76561198333556852,"connected_time":1068000000000,"state":"active","ping":133},{"user_id":86,"name":"demolondon the thrice","steam_id":76561198936116083,"connected_time":2294000000000,"state":"active","ping":141},{"user_id":103,"name":"Quakedad","steam_id":76561198055811307,"connected_time":1193000000000,"state":"active","ping":142},{"user_id":54,"name":"who ate the cheese","steam_id":76561198275408467,"connected_time":4795000000000,"state":"active","ping":51},{"user_id":115,"name":"General French","steam_id":76561198321617148,"connected_time":338000000000,"state":"active","ping":78},{"user_id":56,"name":"twitch.tv/fembotomy","steam_id":76561198102681457,"connected_time":4638000000000,"state":"active","ping":76},{"user_id":116,"name":"Paco","steam_id":76561198023504958,"connected_time":275000000000,"state":"active","ping":68},{"user_id":111,"name":"K!¬£¬£  @  B¬§N3R","steam_id":76561198173601422,"connected_time":554000000000,"state":"active","ping":167},{"user_id":105,"name":"Octobella Enthusiast","steam_id":76561198199266047,"connected_time":1177000000000,"state":"active","ping":75}]},{"server_id":108,"name":"Uncletopia | Dallas | 2 | All Maps","name_short":"dal-2","host":"dal-1.us.uncletopia.com","port":27025,"enabled":true,"region":"us-central","cc":"us","latitude":32.779167,"longitude":-96.80889,"reserved":0,"last_update":"0001-01-01T00:00:00Z","name_a2s":"Uncletopia | Dallas | 2 | All Maps","protocol":17,"map":"cp_process_final","folder":"tf","game":"Team Fortress","app_id":440,"player_count":0,"max_players":24,"Bots":0,"server_type":"Dedicated","server_os":"Linux","password":true,"vac":true,"version":"7742253","steam_id":85568392924469988,"keywords":["cp","nocrits","nodmgspread","uncletopia"],"game_id":440,"stv_port":27026,"stv_name":"Uncletopia | Dallas | 2 | All Maps | STV","players":null},{"server_id":5,"name":"Uncletopia | Frankfurt | 1 | All Maps","name_short":"frk-1","host":"frk-1.de.uncletopia.com","port":27015,"enabled":true,"region":"eu","cc":"de","latitude":50.110924,"longitude":8.682127,"reserved":0,"last_update":"0001-01-01T00:00:00Z","name_a2s":"Uncletopia | Frankfurt | 1 | All Maps","protocol":17,"map":"pl_badwater","folder":"tf","game":"Team Fortress","app_id":440,"player_count":24,"max_players":24,"Bots":0,"server_type":"Dedicated","server_os":"Linux","password":true,"vac":true,"version":"7742253","steam_id":85568392924469989,"keywords":["nocrits","nodmgspread","payload","uncletopia"],"game_id":440,"stv_port":27016,"stv_name":"Uncletopia | Frankfurt | 1 | All Maps | STV","players":[{"user_id":308,"name":"Zateske","steam_id":76561198047446276,"connected_time":757000000000,"state":"active","ping":81},{"user_id":293,"name":"≈Ωgr√¶√êek113","steam_id":76561198306883632,"connected_time":1222000000000,"state":"active","ping":63},{"user_id":298,"name":"dubysa","steam_id":76561198079774530,"connected_time":1178000000000,"state":"active","ping":64},{"user_id":294,"name":"KGiorgios_Bully","steam_id":76561198825392728,"connected_time":1219000000000,"state":"active","ping":119},{"user_id":300,"name":"default","steam_id":76561198186182298,"connected_time":1052000000000,"state":"active","ping":49},{"user_id":233,"name":"Chilchang Billing","steam_id":76561197993300020,"connected_time":7028000000000,"state":"active","ping":63},{"user_id":209,"name":"yuh","steam_id":76561199005555839,"connected_time":8669000000000,"state":"active","ping":72},{"user_id":302,"name":"guarda-chuva","steam_id":76561198078694330,"connected_time":960000000000,"state":"active","ping":55},{"user_id":263,"name":"F2P gameing","steam_id":76561198834713682,"connected_time":3910000000000,"state":"active","ping":75},{"user_id":311,"name":"Luca Nervi","steam_id":76561198015871883,"connected_time":189000000000,"state":"active","ping":71},{"user_id":305,"name":"Making Coffee","steam_id":76561198138281039,"connected_time":794000000000,"state":"active","ping":52},{"user_id":315,"name":"spy","steam_id":76561199053898447,"connected_time":11000000000,"state":"active","ping":88},{"user_id":301,"name":"Pyromana","steam_id":76561198088421655,"connected_time":996000000000,"state":"active","ping":54},{"user_id":254,"name":"Teamtrevien","steam_id":76561198085513932,"connected_time":5210000000000,"state":"active","ping":63},{"user_id":278,"name":"SugipuLaur","steam_id":76561199138556623,"connected_time":2408000000000,"state":"active","ping":67},{"user_id":281,"name":"Alin","steam_id":76561198059679991,"connected_time":2033000000000,"state":"active","ping":83},{"user_id":314,"name":"kubasirus","steam_id":76561198216313280,"connected_time":14000000000,"state":"active","ping":66},{"user_id":307,"name":"Shirogame","steam_id":76561198126154697,"connected_time":786000000000,"state":"active","ping":69},{"user_id":297,"name":"Stoyach","steam_id":76561198042517412,"connected_time":1206000000000,"state":"active","ping":50},{"user_id":317,"name":"Jin","steam_id":76561198248878364,"connected_time":6000000000,"state":"spawning","ping":72},{"user_id":284,"name":"Andreus","steam_id":76561199403926001,"connected_time":1787000000000,"state":"active","ping":65},{"user_id":316,"name":"true","steam_id":76561198031145243,"connected_time":9000000000,"state":"spawning","ping":91},{"user_id":286,"name":"sharting","steam_id":76561198133782205,"connected_time":1759000000000,"state":"active","ping":127},{"user_id":289,"name":"sweeterthy","steam_id":76561198356325792,"connected_time":1574000000000,"state":"active","ping":104}]},{"server_id":110,"name":"Uncletopia | Frankfurt | 2 | All Maps","name_short":"frk-2","host":"frk-1.de.uncletopia.com","port":27025,"enabled":true,"region":"eu","cc":"de","latitude":50.110924,"longitude":8.682127,"reserved":0,"last_update":"0001-01-01T00:00:00Z","name_a2s":"Uncletopia | Frankfurt | 2 | All Maps","protocol":17,"map":"pl_swiftwater_final1","folder":"tf","game":"Team Fortress","app_id":440,"player_count":2,"max_players":24,"Bots":0,"server_type":"Dedicated","server_os":"Linux","password":true,"vac":true,"version":"7742253","steam_id":85568392924469990,"keywords":["nocrits","nodmgspread","payload","uncletopia"],"game_id":440,"stv_port":27026,"stv_name":"Uncletopia | Frankfurt | 2 | All Maps | STV","players":[{"user_id":11,"name":"Mythical6","steam_id":76561199222224046,"connected_time":100000000000,"state":"active","ping":131},{"user_id":12,"name":"SeL-Fish","steam_id":76561198331709006,"connected_time":5000000000,"state":"spawning","ping":89}]},{"server_id":308,"name":"Uncletopia | Frankfurt | 3 | All Maps","name_short":"frk-3","host":"frk-1.de.uncletopia.com","port":27035,"enabled":true,"region":"eu","cc":"de","latitude":50.110924,"longitude":8.682127,"reserved":0,"last_update":"0001-01-01T00:00:00Z","name_a2s":"Uncletopia | Frankfurt | 3 | All Maps","protocol":17,"map":"pl_frontier_final","folder":"tf","game":"Team Fortress","app_id":440,"player_count":0,"max_players":24,"Bots":0,"server_type":"Dedicated","server_os":"Linux","password":true,"vac":true,"version":"7742253","steam_id":85568392924504274,"keywords":["nocrits","nodmgspread","payload","uncletopia"],"game_id":440,"stv_port":27036,"stv_name":"Uncletopia | Frankfurt | 3 | All Maps | STV","players":null},{"server_id":309,"name":"Uncletopia | Frankfurt | 4 | All Maps","name_short":"frk-4","host":"frk-1.de.uncletopia.com","port":27045,"enabled":true,"region":"eu","cc":"de","latitude":50.110924,"longitude":8.682127,"reserved":0,"last_update":"0001-01-01T00:00:00Z","name_a2s":"Uncletopia | Frankfurt | 4 | All Maps","protocol":17,"map":"pl_borneo","folder":"tf","game":"Team Fortress","app_id":440,"player_count":24,"max_players":24,"Bots":0,"server_type":"Dedicated","server_os":"Linux","password":true,"vac":true,"version":"7742253","steam_id":85568392924504275,"keywords":["nocrits","nodmgspread","payload","uncletopia"],"game_id":440,"stv_port":27046,"stv_name":"Uncletopia | Frankfurt | 4 | All Maps | STV","players":[{"user_id":71,"name":"Yony","steam_id":76561199070569941,"connected_time":1040000000000,"state":"active","ping":59},{"user_id":54,"name":"kwasny","steam_id":76561199033981024,"connected_time":3454000000000,"state":"active","ping":73},{"user_id":66,"name":"anairat","steam_id":76561198863788240,"connected_time":1466000000000,"state":"active","ping":76},{"user_id":78,"name":".::[SerafeTTiN]::.","steam_id":76561198009471724,"connected_time":913000000000,"state":"active","ping":85},{"user_id":80,"name":"nonchalant","steam_id":76561199117720299,"connected_time":628000000000,"state":"active","ping":59},{"user_id":67,"name":"skai (forced to try 4:3 again)","steam_id":76561198184881255,"connected_time":1250000000000,"state":"active","ping":72},{"user_id":51,"name":"Tobi Kunn","steam_id":76561198361013020,"connected_time":3507000000000,"state":"active","ping":75},{"user_id":15,"name":"svepitos","steam_id":76561198287351235,"connected_time":4780000000000,"state":"active","ping":59},{"user_id":18,"name":"Graf von Scyth","steam_id":76561198198497733,"connected_time":4718000000000,"state":"active","ping":55},{"user_id":29,"name":"a gangsta","steam_id":76561198086709652,"connected_time":4386000000000,"state":"active","ping":60},{"user_id":83,"name":"LasagnaLarry22","steam_id":76561198089478290,"connected_time":338000000000,"state":"active","ping":55},{"user_id":68,"name":"Dolcelatte","steam_id":76561198038501770,"connected_time":1145000000000,"state":"active","ping":56},{"user_id":77,"name":"TruckITFN","steam_id":76561198025078797,"connected_time":949000000000,"state":"active","ping":79},{"user_id":82,"name":"–°–ê–ù–Ø –í–û–î–Ü–õ–ê","steam_id":76561198343380238,"connected_time":370000000000,"state":"active","ping":63},{"user_id":26,"name":"Avoonix","steam_id":76561198186954897,"connected_time":4500000000000,"state":"active","ping":60},{"user_id":84,"name":"Ezio Auditore","steam_id":76561198453527850,"connected_time":322000000000,"state":"active","ping":118},{"user_id":31,"name":"kaT","steam_id":76561198879664338,"connected_time":4374000000000,"state":"active","ping":51},{"user_id":61,"name":"25CmOfDick!","steam_id":76561199233979726,"connected_time":2945000000000,"state":"active","ping":76},{"user_id":34,"name":"Cuthbert","steam_id":76561198204649481,"connected_time":4313000000000,"state":"active","ping":93},{"user_id":62,"name":"Clamor_","steam_id":76561198104368295,"connected_time":2938000000000,"state":"active","ping":78},{"user_id":81,"name":"Zoran Snajper","steam_id":76561198312564061,"connected_time":463000000000,"state":"active","ping":64},{"user_id":85,"name":"Super Noob","steam_id":76561199179611350,"connected_time":34000000000,"state":"spawning","ping":193},{"user_id":75,"name":"Bob_Tostas","steam_id":76561198249006560,"connected_time":1019000000000,"state":"active","ping":90},{"user_id":44,"name":"El`Capitano Flex","steam_id":76561198061813730,"connected_time":3998000000000,"state":"active","ping":68}]},{"server_id":310,"name":"Uncletopia | Frankfurt | 5 | All Maps","name_short":"frk-5","host":"frk-1.de.uncletopia.com","port":27055,"enabled":true,"region":"eu","cc":"de","latitude":50.110924,"longitude":8.682127,"reserved":0,"last_update":"0001-01-01T00:00:00Z","name_a2s":"Uncletopia | Frankfurt | 5 | All Maps","protocol":17,"map":"koth_highpass","folder":"tf","game":"Team Fortress","app_id":440,"player_count":0,"max_players":24,"Bots":0,"server_type":"Dedicated","server_os":"Linux","password":true,"vac":true,"version":"7742253","steam_id":85568392924504277,"keywords":["cp","nocrits","nodmgspread","uncletopia"],"game_id":440,"stv_port":27056,"stv_name":"Uncletopia | Frankfurt | 5 | All Maps | STV","players":null},{"server_id":311,"name":"Uncletopia | Frankfurt | 6 | All Maps","name_short":"frk-6","host":"frk-1.de.uncletopia.com","port":27065,"enabled":true,"region":"eu","cc":"de","latitude":50.110924,"longitude":8.682127,"reserved":0,"last_update":"0001-01-01T00:00:00Z","name_a2s":"Uncletopia | Frankfurt | 6 | All Maps","protocol":17,"map":"cp_mossrock","folder":"tf","game":"Team Fortress","app_id":440,"player_count":24,"max_players":24,"Bots":0,"server_type":"Dedicated","server_os":"Linux","password":true,"vac":true,"version":"7742253","steam_id":85568392924504278,"keywords":["cp","nocrits","nodmgspread","uncletopia"],"game_id":440,"stv_port":27066,"stv_name":"Uncletopia | Frankfurt | 6 | All Maps | STV","players":[{"user_id":238,"name":"banana peel","steam_id":76561198129704959,"connected_time":731000000000,"state":"active","ping":110},{"user_id":232,"name":"BoPoe","steam_id":76561198093333882,"connected_time":863000000000,"state":"active","ping":127},{"user_id":214,"name":"nhstefanov","steam_id":76561198811811405,"connected_time":2316000000000,"state":"active","ping":73},{"user_id":243,"name":"Volmari","steam_id":76561198054253542,"connected_time":612000000000,"state":"active","ping":76},{"user_id":234,"name":"man builds a sandcastle (rare)","steam_id":76561199012566222,"connected_time":822000000000,"state":"active","ping":55},{"user_id":240,"name":"AwterSix","steam_id":76561198042561678,"connected_time":685000000000,"state":"active","ping":51},{"user_id":237,"name":"real human bean","steam_id":76561198059535856,"connected_time":760000000000,"state":"active","ping":171},{"user_id":252,"name":"üèàmumzumüèà","steam_id":76561198117131899,"connected_time":47000000000,"state":"active","ping":65},{"user_id":245,"name":"Mr. Luck | SFM","steam_id":76561198088255641,"connected_time":509000000000,"state":"active","ping":104},{"user_id":246,"name":"TobyIn3D","steam_id":76561198799334595,"connected_time":501000000000,"state":"active","ping":162},{"user_id":224,"name":"linkinparkfan123","steam_id":76561199033782005,"connected_time":1731000000000,"state":"active","ping":84},{"user_id":244,"name":"Lateguy","steam_id":76561198069446079,"connected_time":588000000000,"state":"active","ping":96},{"user_id":247,"name":"citronous","steam_id":76561198093290934,"connected_time":495000000000,"state":"active","ping":59},{"user_id":184,"name":"alko_bone","steam_id":76561198557773514,"connected_time":3431000000000,"state":"active","ping":111},{"user_id":218,"name":"ZOGG FearLand","steam_id":76561198352683491,"connected_time":2103000000000,"state":"active","ping":54},{"user_id":225,"name":"fairnetegames","steam_id":76561199029506069,"connected_time":1602000000000,"state":"active","ping":68},{"user_id":248,"name":"1 month Big Earner challenge","steam_id":76561198799097492,"connected_time":464000000000,"state":"active","ping":47},{"user_id":222,"name":"KFC Enjoyer","steam_id":76561198840259819,"connected_time":1826000000000,"state":"active","ping":50},{"user_id":207,"name":"KuhlerKarl","steam_id":76561198411211564,"connected_time":2407000000000,"state":"active","ping":66},{"user_id":146,"name":"Toasty5050","steam_id":76561198073540881,"connected_time":6168000000000,"state":"active","ping":45},{"user_id":249,"name":"Der_Milchmann","steam_id":76561198001417748,"connected_time":452000000000,"state":"active","ping":55},{"user_id":251,"name":"Glue Scent Enjoyer","steam_id":76561198120949216,"connected_time":255000000000,"state":"active","ping":62},{"user_id":147,"name":"Rimx","steam_id":76561198053034840,"connected_time":6155000000000,"state":"active","ping":94},{"user_id":202,"name":"PabloGamerPro5000","steam_id":76561198358173553,"connected_time":2908000000000,"state":"active","ping":79}]},{"server_id":23,"name":"Uncletopia | Frankfurt | 7 | Stopwatch Beta","name_short":"frk-7","host":"frk-1.de.uncletopia.com","port":27075,"enabled":true,"region":"eu","cc":"de","latitude":50.110924,"longitude":8.682127,"reserved":0,"last_update":"0001-01-01T00:00:00Z","name_a2s":"Uncletopia | Frankfurt | 7 | Stopwatch Beta","protocol":17,"map":"pl_upward","folder":"tf","game":"Team Fortress","app_id":440,"player_count":1,"max_players":24,"Bots":0,"server_type":"Dedicated","server_os":"Linux","password":true,"vac":true,"version":"7742253","steam_id":85568392924742827,"keywords":["nocrits","nodmgspread","payload","uncletopia"],"game_id":440,"stv_port":27076,"stv_name":"Uncletopia | Frankfurt | 7 | Stopwatch Beta | STV","players":[{"user_id":14,"name":"Denialman (Muted)","steam_id":76561198309182092,"connected_time":896000000000,"state":"active","ping":59}]},{"server_id":24,"name":"Uncletopia | Frankfurt | 8 | Community","name_short":"frk-8","host":"frk-1.de.uncletopia.com","port":27085,"enabled":true,"region":"eu","cc":"de","latitude":50.110924,"longitude":8.682127,"reserved":0,"last_update":"0001-01-01T00:00:00Z","name_a2s":"Uncletopia | Frankfurt | 8 | Community","protocol":17,"map":"workshop/koth_ramjam_rc1.ugc459778887","folder":"tf","game":"Team Fortress","app_id":440,"player_count":5,"max_players":24,"Bots":0,"server_type":"Dedicated","server_os":"Linux","password":true,"vac":true,"version":"7742253","steam_id":85568392924742828,"keywords":["cp","nocrits","nodmgspread","uncletopia"],"game_id":440,"stv_port":27086,"stv_name":"Uncletopia | Frankfurt | 8 | Community | STV","players":[{"user_id":6,"name":"LackOfHeadshots","steam_id":76561198963700249,"connected_time":868000000000,"state":"active","ping":52},{"user_id":7,"name":"Fat Pigeon","steam_id":76561198817940142,"connected_time":817000000000,"state":"active","ping":47},{"user_id":8,"name":"thylos78","steam_id":76561199093896046,"connected_time":814000000000,"state":"active","ping":59},{"user_id":9,"name":"DT Nokoman","steam_id":76561199090446228,"connected_time":803000000000,"state":"active","ping":40},{"user_id":12,"name":"tealoverr.190","steam_id":76561199028497703,"connected_time":156000000000,"state":"active","ping":86}]},{"server_id":202,"name":"Uncletopia | Hong Kong | 1 | All Maps","name_short":"hgk-1","host":"hgk-1.hk.uncletopia.com","port":27015,"enabled":true,"region":"asia","cc":"hk","latitude":22.302711,"longitude":114.177216,"reserved":0,"last_update":"0001-01-01T00:00:00Z","name_a2s":"Uncletopia | Hong Kong | 1 | All Maps","protocol":17,"map":"pl_upward","folder":"tf","game":"Team Fortress","app_id":440,"player_count":24,"max_players":24,"Bots":0,"server_type":"Dedicated","server_os":"Linux","password":true,"vac":true,"version":"7742253","steam_id":85568392924494504,"keywords":["nocrits","nodmgspread","payload","uncletopia"],"game_id":440,"stv_port":27016,"stv_name":"Uncletopia | Hong Kong | 1 | All Maps | STV","players":[{"user_id":928,"name":"lettuce at 58p","steam_id":76561199401283123,"connected_time":2356000000000,"state":"active","ping":89},{"user_id":892,"name":":)","steam_id":76561198437941450,"connected_time":2611000000000,"state":"active","ping":77},{"user_id":929,"name":"MAGNUS","steam_id":76561198208990721,"connected_time":2347000000000,"state":"active","ping":75},{"user_id":893,"name":"Doormann","steam_id":76561199219230108,"connected_time":2595000000000,"state":"active","ping":81},{"user_id":1140,"name":"Recrless","steam_id":76561198056610112,"connected_time":484000000000,"state":"active","ping":81},{"user_id":1010,"name":"old chunk of coal","steam_id":76561197990537324,"connected_time":1777000000000,"state":"active","ping":146},{"user_id":991,"name":"JayJ","steam_id":76561198324008555,"connected_time":1929000000000,"state":"active","ping":68},{"user_id":599,"name":"I love air conditioning","steam_id":76561198811532659,"connected_time":7312000000000,"state":"active","ping":82},{"user_id":1013,"name":"spy from the team fortress 2","steam_id":76561199146847474,"connected_time":1750000000000,"state":"active","ping":66},{"user_id":601,"name":"r/leroy","steam_id":76561199137927625,"connected_time":6971000000000,"state":"active","ping":98},{"user_id":1127,"name":"qb","steam_id":76561198412329672,"connected_time":730000000000,"state":"active","ping":82},{"user_id":1170,"name":"IRA car dealership","steam_id":76561199224577498,"connected_time":3000000000,"state":"spawning","ping":85},{"user_id":1171,"name":"r4ge","steam_id":76561199136632652,"connected_time":2000000000,"state":"connecting","ping":0},{"user_id":926,"name":"Banana Milk","steam_id":76561198005156257,"connected_time":2364000000000,"state":"active","ping":123},{"user_id":1108,"name":"Aibadenshi","steam_id":76561198347554551,"connected_time":967000000000,"state":"active","ping":141},{"user_id":504,"name":"Bertengkar","steam_id":76561198213031155,"connected_time":14564000000000,"state":"active","ping":96},{"user_id":1128,"name":"ÊØç„ÅÆËÇâÂõ£Â≠ê","steam_id":76561198069561896,"connected_time":682000000000,"state":"active","ping":41},{"user_id":579,"name":"tybrl","steam_id":76561198055553140,"connected_time":8565000000000,"state":"active","ping":138},{"user_id":1099,"name":"cellum95","steam_id":76561198172146871,"connected_time":1136000000000,"state":"active","ping":60},{"user_id":469,"name":"Zacy","steam_id":76561198114841670,"connected_time":18219000000000,"state":"active","ping":128},{"user_id":603,"name":"Ïø†ÌÇ§","steam_id":76561197997220367,"connected_time":6932000000000,"state":"active","ping":43},{"user_id":1168,"name":"Username","steam_id":76561198285831999,"connected_time":22000000000,"state":"active","ping":187},{"user_id":623,"name":"Milk‚ù§ (currently banned in ut","steam_id":76561198163911560,"connected_time":5584000000000,"state":"active","ping":115},{"user_id":622,"name":"BuchiRyu","steam_id":76561198137607311,"connected_time":5584000000000,"state":"active","ping":104}]},{"server_id":1,"name":"Uncletopia | Los Angeles | 1 | All Maps","name_short":"lax-1","host":"lax-1.us.uncletopia.com","port":27015,"enabled":true,"region":"us-west","cc":"us","latitude":33.94279,"longitude":-118.41004,"reserved":0,"last_update":"0001-01-01T00:00:00Z","name_a2s":"Uncletopia | Los Angeles | 1 | All Maps","protocol":17,"map":"cp_dustbowl","folder":"tf","game":"Team Fortress","app_id":440,"player_count":0,"max_players":24,"Bots":0,"server_type":"Dedicated","server_os":"Linux","password":true,"vac":true,"version":"7742253","steam_id":85568392924469991,"keywords":["cp","nocrits","nodmgspread","uncletopia"],"game_id":440,"stv_port":27016,"stv_name":"Uncletopia | Los Angeles | 1 | All Maps | STV","players":null},{"server_id":112,"name":"Uncletopia | Los Angeles | 2 | All Maps","name_short":"lax-2","host":"lax-1.us.uncletopia.com","port":27025,"enabled":true,"region":"us-west","cc":"us","latitude":33.94279,"longitude":-118.41004,"reserved":0,"last_update":"0001-01-01T00:00:00Z","name_a2s":"Uncletopia | Los Angeles | 2 | All Maps","protocol":17,"map":"pl_frontier_final","folder":"tf","game":"Team Fortress","app_id":440,"player_count":0,"max_players":24,"Bots":0,"server_type":"Dedicated","server_os":"Linux","password":true,"vac":true,"version":"7742253","steam_id":85568392924469992,"keywords":["nocrits","nodmgspread","payload","uncletopia"],"game_id":440,"stv_port":27026,"stv_name":"Uncletopia | Los Angeles | 2 | All Maps | STV","players":null},{"server_id":324,"name":"Uncletopia | Los Angeles | 3 | All Maps","name_short":"lax-3","host":"lax-1.us.uncletopia.com","port":27035,"enabled":true,"region":"us-west","cc":"us","latitude":33.94279,"longitude":-118.41004,"reserved":0,"last_update":"0001-01-01T00:00:00Z","name_a2s":"Uncletopia | Los Angeles | 3 | All Maps","protocol":17,"map":"cp_snakewater_final1","folder":"tf","game":"Team Fortress","app_id":440,"player_count":0,"max_players":24,"Bots":0,"server_type":"Dedicated","server_os":"Linux","password":true,"vac":true,"version":"7742253","steam_id":85568392924510198,"keywords":["cp","nocrits","nodmgspread","uncletopia"],"game_id":440,"stv_port":27036,"stv_name":"Uncletopia | Los Angeles | 3 | All Maps | STV","players":null},{"server_id":25,"name":"Uncletopia | Los Angeles | 4 | Stopwatch Beta","name_short":"lax-4","host":"lax-1.us.uncletopia.com","port":27045,"enabled":true,"region":"us-west","cc":"us","latitude":33.94279,"longitude":-118.41004,"reserved":0,"last_update":"0001-01-01T00:00:00Z","name_a2s":"Uncletopia | Los Angeles | 4 | Stopwatch Beta","protocol":17,"map":"cp_snakewater_final1","folder":"tf","game":"Team Fortress","app_id":440,"player_count":0,"max_players":24,"Bots":0,"server_type":"Dedicated","server_os":"Linux","password":true,"vac":true,"version":"7742253","steam_id":85568392924510199,"keywords":["cp","nocrits","nodmgspread","uncletopia"],"game_id":440,"stv_port":27046,"stv_name":"Uncletopia | Los Angeles | 4 | Stopwatch Beta | STV","players":null},{"server_id":11,"name":"Uncletopia | London | 1 | All Maps","name_short":"lon-1","host":"lon-1.uk.uncletopia.com","port":27015,"enabled":true,"region":"eu","cc":"gb","latitude":51.509865,"longitude":-0.118092,"reserved":0,"last_update":"0001-01-01T00:00:00Z","name_a2s":"Uncletopia | London | 1 | All Maps","protocol":17,"map":"pl_snowycoast","folder":"tf","game":"Team Fortress","app_id":440,"player_count":24,"max_players":24,"Bots":0,"server_type":"Dedicated","server_os":"Linux","password":true,"vac":true,"version":"7742253","steam_id":85568392924367362,"keywords":["nocrits","nodmgspread","payload","uncletopia"],"game_id":440,"stv_port":27016,"stv_name":"Uncletopia | London | 1 | All Maps | STV","players":[{"user_id":137,"name":"‚ô£–ë—Ä–µ–¥–æ–≤—ã–π –ú–µ—Å—è—Ü","steam_id":76561198796404149,"connected_time":3688000000000,"state":"active","ping":98},{"user_id":129,"name":"redder","steam_id":76561198168231617,"connected_time":4749000000000,"state":"active","ping":50},{"user_id":132,"name":"Doggo","steam_id":76561198091909701,"connected_time":4084000000000,"state":"active","ping":67},{"user_id":150,"name":"Oak","steam_id":76561198248567360,"connected_time":2665000000000,"state":"active","ping":32},{"user_id":138,"name":"poliakov.noam","steam_id":76561199259322961,"connected_time":3608000000000,"state":"active","ping":98},{"user_id":155,"name":"Wyvern786","steam_id":76561199137770636,"connected_time":1244000000000,"state":"active","ping":48},{"user_id":149,"name":"kreeekz","steam_id":76561198014431602,"connected_time":2792000000000,"state":"active","ping":84},{"user_id":30,"name":"FUKTARD2005","steam_id":76561198839121591,"connected_time":10970000000000,"state":"active","ping":61},{"user_id":84,"name":"BarrackOmaha","steam_id":76561198027922724,"connected_time":8649000000000,"state":"active","ping":69},{"user_id":139,"name":"lore","steam_id":76561198120984188,"connected_time":3484000000000,"state":"active","ping":75},{"user_id":160,"name":"Dominus.","steam_id":76561199065917088,"connected_time":916000000000,"state":"active","ping":65},{"user_id":153,"name":"Wuffington","steam_id":76561198033762881,"connected_time":1861000000000,"state":"active","ping":51},{"user_id":140,"name":"nudjura","steam_id":76561198281986139,"connected_time":3336000000000,"state":"active","ping":45},{"user_id":131,"name":"[Mg] Z√© P√©qu√©no","steam_id":76561198000927489,"connected_time":4362000000000,"state":"active","ping":64},{"user_id":159,"name":"SIUUUUUUU","steam_id":76561198364121077,"connected_time":937000000000,"state":"active","ping":89},{"user_id":165,"name":"–ú–∏—Å—å–µ. –õ–æ—à–∞–¥–∫–∞","steam_id":76561198063246279,"connected_time":314000000000,"state":"active","ping":118},{"user_id":162,"name":"You will never be a real woman","steam_id":76561197995194628,"connected_time":891000000000,"state":"active","ping":72},{"user_id":148,"name":"Green","steam_id":76561198183580019,"connected_time":2871000000000,"state":"active","ping":75},{"user_id":133,"name":"random_player691","steam_id":76561199209946306,"connected_time":4022000000000,"state":"active","ping":64},{"user_id":167,"name":"most sane mentalist","steam_id":76561198310095220,"connected_time":293000000000,"state":"active","ping":31},{"user_id":151,"name":"fayaman","steam_id":76561198111807532,"connected_time":2556000000000,"state":"active","ping":54},{"user_id":163,"name":"LSKi","steam_id":76561198215470228,"connected_time":629000000000,"state":"active","ping":64},{"user_id":135,"name":"Pvt. Grichmann","steam_id":76561197977589522,"connected_time":3788000000000,"state":"active","ping":90},{"user_id":158,"name":"Grim the lemon","steam_id":76561199083433988,"connected_time":956000000000,"state":"active","ping":50}]},{"server_id":114,"name":"Uncletopia | London | 2 | All Maps","name_short":"lon-2","host":"lon-1.uk.uncletopia.com","port":27025,"enabled":true,"region":"eu","cc":"gb","latitude":51.509865,"longitude":-0.118092,"reserved":0,"last_update":"0001-01-01T00:00:00Z","name_a2s":"Uncletopia | London | 2 | All Maps","protocol":17,"map":"pl_upward","folder":"tf","game":"Team Fortress","app_id":440,"player_count":24,"max_players":24,"Bots":0,"server_type":"Dedicated","server_os":"Linux","password":true,"vac":true,"version":"7742253","steam_id":85568392924470941,"keywords":["nocrits","nodmgspread","payload","uncletopia"],"game_id":440,"stv_port":27026,"stv_name":"Uncletopia | London | 2 | All Maps | STV","players":[{"user_id":8,"name":"Mr Xbow","steam_id":76561198862864460,"connected_time":8052000000000,"state":"active","ping":51},{"user_id":85,"name":"maqbara","steam_id":76561199057953617,"connected_time":1493000000000,"state":"active","ping":62},{"user_id":12,"name":"VK2124 :D","steam_id":76561198111130688,"connected_time":6743000000000,"state":"active","ping":57},{"user_id":82,"name":"Flare","steam_id":76561198039098320,"connected_time":1766000000000,"state":"active","ping":46},{"user_id":87,"name":"Accident","steam_id":76561198115160396,"connected_time":1234000000000,"state":"active","ping":79},{"user_id":77,"name":"ShoobyDooby","steam_id":76561198118473910,"connected_time":2436000000000,"state":"active","ping":50},{"user_id":102,"name":"tactical783","steam_id":76561199051688560,"connected_time":164000000000,"state":"active","ping":72},{"user_id":98,"name":"stun","steam_id":76561198276681691,"connected_time":606000000000,"state":"active","ping":45},{"user_id":86,"name":"Ender w","steam_id":76561198160747515,"connected_time":1269000000000,"state":"active","ping":88},{"user_id":101,"name":"–ì–¥–µ –º–æ—Ä–µ?","steam_id":76561197979625544,"connected_time":174000000000,"state":"active","ping":93},{"user_id":71,"name":"Honey_Darlin","steam_id":76561199437522058,"connected_time":2953000000000,"state":"active","ping":163},{"user_id":90,"name":"Alice can't hit pipes","steam_id":76561198052410860,"connected_time":1219000000000,"state":"active","ping":147},{"user_id":100,"name":"chgivan","steam_id":76561198060010064,"connected_time":514000000000,"state":"active","ping":85},{"user_id":84,"name":"Inforsitec","steam_id":76561198216770168,"connected_time":1606000000000,"state":"active","ping":50},{"user_id":79,"name":"average ultiduo medic","steam_id":76561198103285012,"connected_time":2120000000000,"state":"active","ping":60},{"user_id":96,"name":"Dark Lord","steam_id":76561198047359132,"connected_time":628000000000,"state":"active","ping":75},{"user_id":66,"name":"big heavy is heavy heavy","steam_id":76561198300059652,"connected_time":3181000000000,"state":"active","ping":57},{"user_id":74,"name":"Super_Shlepa","steam_id":76561199384098212,"connected_time":2611000000000,"state":"active","ping":100},{"user_id":95,"name":"fiyahstorm","steam_id":76561197992574261,"connected_time":832000000000,"state":"active","ping":44},{"user_id":51,"name":"nachtraaf","steam_id":76561197960473205,"connected_time":3919000000000,"state":"active","ping":58},{"user_id":99,"name":"Toofy","steam_id":76561197989727907,"connected_time":571000000000,"state":"active","ping":38},{"user_id":50,"name":"Akirus","steam_id":76561198369831090,"connected_time":3953000000000,"state":"active","ping":108},{"user_id":89,"name":"Sneaky boi","steam_id":76561199195985387,"connected_time":1229000000000,"state":"active","ping":98},{"user_id":94,"name":"bkktrans","steam_id":76561198264393359,"connected_time":958000000000,"state":"active","ping":41}]},{"server_id":320,"name":"Uncletopia | London | 3 | All Maps","name_short":"lon-3","host":"lon-1.uk.uncletopia.com","port":27035,"enabled":true,"region":"eu","cc":"gb","latitude":51.509865,"longitude":-0.118092,"reserved":0,"last_update":"0001-01-01T00:00:00Z","name_a2s":"Uncletopia | London | 3 | All Maps","protocol":17,"map":"pl_upward","folder":"tf","game":"Team Fortress","app_id":440,"player_count":0,"max_players":24,"Bots":0,"server_type":"Dedicated","server_os":"Linux","password":true,"vac":true,"version":"7742253","steam_id":85568392924510192,"keywords":["nocrits","nodmgspread","payload","uncletopia"],"game_id":440,"stv_port":27036,"stv_name":"Uncletopia | London | 3 | All Maps | STV","players":null},{"server_id":321,"name":"Uncletopia | London | 4 | All Maps","name_short":"lon-4","host":"lon-1.uk.uncletopia.com","port":27045,"enabled":true,"region":"eu","cc":"gb","latitude":51.509865,"longitude":-0.118092,"reserved":0,"last_update":"0001-01-01T00:00:00Z","name_a2s":"Uncletopia | London | 4 | All Maps","protocol":17,"map":"pl_upward","folder":"tf","game":"Team Fortress","app_id":440,"player_count":24,"max_players":24,"Bots":0,"server_type":"Dedicated","server_os":"Linux","password":true,"vac":true,"version":"7742253","steam_id":85568392924510193,"keywords":["nocrits","nodmgspread","payload","uncletopia"],"game_id":440,"stv_port":27046,"stv_name":"Uncletopia | London | 4 | All Maps | STV","players":[{"user_id":441,"name":"–ò–Ω—Å–ø–µ–∫—Ç–æ—Ä –ê—Ç–∞—Å","steam_id":76561199175688390,"connected_time":213000000000,"state":"active","ping":89},{"user_id":433,"name":"Nedge","steam_id":76561197963549701,"connected_time":484000000000,"state":"active","ping":54},{"user_id":420,"name":"üíñYoshiiüíñ","steam_id":76561198174049277,"connected_time":1698000000000,"state":"active","ping":57},{"user_id":439,"name":"arm","steam_id":76561198289650669,"connected_time":318000000000,"state":"active","ping":55},{"user_id":434,"name":"Twentyseven„Ç≤„Éº„É†","steam_id":76561199436238409,"connected_time":481000000000,"state":"active","ping":91},{"user_id":407,"name":"Nin","steam_id":76561198227246584,"connected_time":3076000000000,"state":"active","ping":71},{"user_id":372,"name":"LAMC","steam_id":76561199066888917,"connected_time":4788000000000,"state":"active","ping":72},{"user_id":427,"name":"UNO, The Ubisoft Original","steam_id":76561198846784757,"connected_time":1621000000000,"state":"active","ping":55},{"user_id":436,"name":"Hedgehogdude‚Ö¢","steam_id":76561198305290568,"connected_time":440000000000,"state":"active","ping":97},{"user_id":399,"name":"Iru","steam_id":76561198077602040,"connected_time":3355000000000,"state":"active","ping":60},{"user_id":353,"name":"Penis Contortionist","steam_id":76561198073663784,"connected_time":5650000000000,"state":"active","ping":38},{"user_id":334,"name":"SoupER","steam_id":76561198063056668,"connected_time":7267000000000,"state":"active","ping":34},{"user_id":325,"name":"Koli","steam_id":76561197992428783,"connected_time":7658000000000,"state":"active","ping":60},{"user_id":432,"name":"majora's boostio","steam_id":76561198392628642,"connected_time":506000000000,"state":"active","ping":50},{"user_id":442,"name":"SHOPPINGCART?","steam_id":76561199387464732,"connected_time":198000000000,"state":"active","ping":197},{"user_id":421,"name":"ne malediction","steam_id":76561199042453638,"connected_time":1698000000000,"state":"active","ping":83},{"user_id":405,"name":"Johnny Rabbit","steam_id":76561198038742215,"connected_time":3110000000000,"state":"active","ping":111},{"user_id":435,"name":"glyph","steam_id":76561197980736364,"connected_time":479000000000,"state":"active","ping":78},{"user_id":408,"name":"Fran","steam_id":76561198339019518,"connected_time":2985000000000,"state":"active","ping":71},{"user_id":416,"name":"kramer","steam_id":76561198117761965,"connected_time":2392000000000,"state":"active","ping":121},{"user_id":328,"name":"Jonas Destark","steam_id":76561198030327441,"connected_time":7586000000000,"state":"active","ping":61},{"user_id":378,"name":"snake9544","steam_id":76561198083076205,"connected_time":4322000000000,"state":"active","ping":83},{"user_id":440,"name":"Lessoz","steam_id":76561199211572036,"connected_time":316000000000,"state":"active","ping":90},{"user_id":386,"name":"Kurage","steam_id":76561198021221288,"connected_time":3728000000000,"state":"active","ping":70}]},{"server_id":21,"name":"Uncletopia | London | 5 | All Maps","name_short":"lon-5","host":"lon-1.uk.uncletopia.com","port":27055,"enabled":true,"region":"eu","cc":"gb","latitude":51.509865,"longitude":-0.118092,"reserved":0,"last_update":"0001-01-01T00:00:00Z","name_a2s":"Uncletopia | London | 5 | All Maps","protocol":17,"map":"pl_frontier_final","folder":"tf","game":"Team Fortress","app_id":440,"player_count":0,"max_players":24,"Bots":0,"server_type":"Dedicated","server_os":"Linux","password":true,"vac":true,"version":"7742253","steam_id":85568392924742829,"keywords":["nocrits","nodmgspread","payload","uncletopia"],"game_id":440,"stv_port":27056,"stv_name":"Uncletopia | London | 5 | All Maps | STV","players":null},{"server_id":22,"name":"Uncletopia | London | 6 | All Maps","name_short":"lon-6","host":"lon-1.uk.uncletopia.com","port":27065,"enabled":true,"region":"eu","cc":"gb","latitude":51.509865,"longitude":-0.118092,"reserved":0,"last_update":"0001-01-01T00:00:00Z","name_a2s":"Uncletopia | London | 6 | All Maps","protocol":17,"map":"cp_altitude","folder":"tf","game":"Team Fortress","app_id":440,"player_count":24,"max_players":24,"Bots":0,"server_type":"Dedicated","server_os":"Linux","password":true,"vac":true,"version":"7742253","steam_id":85568392924742830,"keywords":["cp","nocrits","nodmgspread","uncletopia"],"game_id":440,"stv_port":27066,"stv_name":"Uncletopia | London | 6 | All Maps | STV","players":[{"user_id":29,"name":"soar","steam_id":76561198010662796,"connected_time":675000000000,"state":"active","ping":41},{"user_id":6,"name":"still the best 1973 #savetf2","steam_id":76561199221139822,"connected_time":2214000000000,"state":"active","ping":99},{"user_id":10,"name":"Bagel","steam_id":76561198167747447,"connected_time":1462000000000,"state":"active","ping":117},{"user_id":36,"name":"St_dark","steam_id":76561199101198710,"connected_time":567000000000,"state":"active","ping":64},{"user_id":39,"name":"Polish Finger Trap","steam_id":76561198133901720,"connected_time":470000000000,"state":"active","ping":66},{"user_id":14,"name":"Doc Braun","steam_id":76561198003964474,"connected_time":1101000000000,"state":"active","ping":47},{"user_id":15,"name":"Munibe","steam_id":76561198107967904,"connected_time":1098000000000,"state":"active","ping":62},{"user_id":37,"name":"FishNachoz","steam_id":76561198026519426,"connected_time":559000000000,"state":"active","ping":49},{"user_id":17,"name":"sussy kong","steam_id":76561199116882319,"connected_time":1038000000000,"state":"active","ping":82},{"user_id":18,"name":"Barbatruc","steam_id":76561198119019916,"connected_time":1038000000000,"state":"active","ping":61},{"user_id":19,"name":"Romultra","steam_id":76561198354105082,"connected_time":926000000000,"state":"active","ping":50},{"user_id":20,"name":"Bromoneto","steam_id":76561198876695014,"connected_time":921000000000,"state":"active","ping":90},{"user_id":21,"name":"TheBeardedM1G","steam_id":76561198040208946,"connected_time":875000000000,"state":"active","ping":47},{"user_id":28,"name":"pumba","steam_id":76561198033024111,"connected_time":693000000000,"state":"active","ping":59},{"user_id":23,"name":"Pauler le one","steam_id":76561198398152855,"connected_time":783000000000,"state":"active","ping":98},{"user_id":24,"name":"Maxativo","steam_id":76561198363606509,"connected_time":780000000000,"state":"active","ping":53},{"user_id":25,"name":"haha yes","steam_id":76561198296675511,"connected_time":756000000000,"state":"active","ping":73},{"user_id":26,"name":"htraB","steam_id":76561198043122677,"connected_time":741000000000,"state":"active","ping":69},{"user_id":27,"name":"M√•rten","steam_id":76561198115734618,"connected_time":737000000000,"state":"active","ping":94},{"user_id":31,"name":"suna militisto","steam_id":76561198352926998,"connected_time":668000000000,"state":"active","ping":104},{"user_id":40,"name":"ibm","steam_id":76561198275615610,"connected_time":332000000000,"state":"active","ping":75},{"user_id":33,"name":"Kahvi","steam_id":76561198723244199,"connected_time":618000000000,"state":"active","ping":76},{"user_id":38,"name":"liberty leonard","steam_id":76561198046873337,"connected_time":521000000000,"state":"active","ping":57},{"user_id":41,"name":"I'm using Tilt Controls.","steam_id":76561198077864552,"connected_time":220000000000,"state":"active","ping":49}]},{"server_id":40,"name":"Uncletopia | London | 7 | No Payload","name_short":"lon-7","host":"lon-1.uk.uncletopia.com","port":27075,"enabled":true,"region":"eu","cc":"gb","latitude":51.509865,"longitude":-0.118092,"reserved":0,"last_update":"0001-01-01T00:00:00Z","name_a2s":"Uncletopia | London | 7 | No Payload","protocol":17,"map":"koth_viaduct","folder":"tf","game":"Team Fortress","app_id":440,"player_count":0,"max_players":24,"Bots":0,"server_type":"Dedicated","server_os":"Linux","password":true,"vac":true,"version":"7742253","steam_id":85568392924964314,"keywords":["cp","nocrits","nodmgspread","uncletopia"],"game_id":440,"stv_port":27076,"stv_name":"Uncletopia | London | 7 | No Payload | STV","players":null},{"server_id":41,"name":"Uncletopia | London | 8 | Community","name_short":"lon-8","host":"lon-1.uk.uncletopia.com","port":27085,"enabled":true,"region":"eu","cc":"gb","latitude":51.509865,"longitude":-0.118092,"reserved":0,"last_update":"0001-01-01T00:00:00Z","name_a2s":"Uncletopia | London | 8 | Community","protocol":17,"map":"workshop/koth_ashville_final.ugc2130459942","folder":"tf","game":"Team Fortress","app_id":440,"player_count":0,"max_players":24,"Bots":0,"server_type":"Dedicated","server_os":"Linux","password":true,"vac":true,"version":"7742253","steam_id":85568392924964315,"keywords":["cp","nocrits","nodmgspread","uncletopia"],"game_id":440,"stv_port":27086,"stv_name":"Uncletopia | London | 8 | Community | STV","players":null},{"server_id":300,"name":"Uncletopia | Montr√©al | 1 | All Maps","name_short":"mtl-1","host":"mtl-1.ca.uncletopia.com","port":27015,"enabled":true,"region":"us-east","cc":"ca","latitude":45.50889,"longitude":-73.56167,"reserved":0,"last_update":"0001-01-01T00:00:00Z","name_a2s":"Uncletopia | Montr√©al | 1 | All Maps","protocol":17,"map":"cp_snakewater_final1","folder":"tf","game":"Team Fortress","app_id":440,"player_count":0,"max_players":24,"Bots":0,"server_type":"Dedicated","server_os":"Linux","password":true,"vac":true,"version":"7742253","steam_id":85568392924500087,"keywords":["cp","nocrits","nodmgspread","uncletopia"],"game_id":440,"stv_port":27016,"stv_name":"Uncletopia | Montr√©al | 1 | All Maps | STV","players":null},{"server_id":301,"name":"Uncletopia | Montr√©al | 2 | All Maps","name_short":"mtl-2","host":"mtl-1.ca.uncletopia.com","port":27025,"enabled":true,"region":"us-east","cc":"ca","latitude":45.50889,"longitude":-73.56167,"reserved":0,"last_update":"0001-01-01T00:00:00Z","name_a2s":"Uncletopia | Montr√©al | 2 | All Maps","protocol":17,"map":"koth_highpass","folder":"tf","game":"Team Fortress","app_id":440,"player_count":0,"max_players":24,"Bots":0,"server_type":"Dedicated","server_os":"Linux","password":true,"vac":true,"version":"7742253","steam_id":85568392924500088,"keywords":["cp","nocrits","nodmgspread","uncletopia"],"game_id":440,"stv_port":27026,"stv_name":"Uncletopia | Montr√©al | 2 | All Maps | STV","players":null},{"server_id":302,"name":"Uncletopia | Montr√©al | 3 | All Maps","name_short":"mtl-3","host":"mtl-1.ca.uncletopia.com","port":27035,"enabled":true,"region":"us-east","cc":"ca","latitude":45.50889,"longitude":-73.56167,"reserved":0,"last_update":"0001-01-01T00:00:00Z","name_a2s":"Uncletopia | Montr√©al | 3 | All Maps","protocol":17,"map":"cp_mountainlab","folder":"tf","game":"Team Fortress","app_id":440,"player_count":0,"max_players":24,"Bots":0,"server_type":"Dedicated","server_os":"Linux","password":true,"vac":true,"version":"7742253","steam_id":85568392924500089,"keywords":["cp","nocrits","nodmgspread","uncletopia"],"game_id":440,"stv_port":27036,"stv_name":"Uncletopia | Montr√©al | 3 | All Maps | STV","players":null},{"server_id":303,"name":"Uncletopia | Montr√©al | 4 | No Payload","name_short":"mtl-4","host":"mtl-1.ca.uncletopia.com","port":27045,"enabled":true,"region":"us-east","cc":"ca","latitude":45.50889,"longitude":-73.56167,"reserved":0,"last_update":"0001-01-01T00:00:00Z","name_a2s":"Uncletopia | Montr√©al | 4 | No Payload","protocol":17,"map":"cp_snakewater_final1","folder":"tf","game":"Team Fortress","app_id":440,"player_count":0,"max_players":24,"Bots":0,"server_type":"Dedicated","server_os":"Linux","password":true,"vac":true,"version":"7742253","steam_id":85568392924500090,"keywords":["cp","nocrits","nodmgspread","uncletopia"],"game_id":440,"stv_port":27046,"stv_name":"Uncletopia | Montr√©al | 4 | No Payload | STV","players":null},{"server_id":13,"name":"Uncletopia | New York City | 1 | All Maps","name_short":"nyc-1","host":"nyc-1.us.uncletopia.com","port":27015,"enabled":true,"region":"us-east","cc":"us","latitude":40.73061,"longitude":-73.93524,"reserved":0,"last_update":"0001-01-01T00:00:00Z","name_a2s":"Uncletopia | New York City | 1 | All Maps","protocol":17,"map":"cp_mountainlab","folder":"tf","game":"Team Fortress","app_id":440,"player_count":0,"max_players":24,"Bots":0,"server_type":"Dedicated","server_os":"Linux","password":true,"vac":true,"version":"7742253","steam_id":85568392924469993,"keywords":["cp","nocrits","nodmgspread","uncletopia"],"game_id":440,"stv_port":27016,"stv_name":"Uncletopia | New York City | 1 | All Maps | STV","players":null},{"server_id":14,"name":"Uncletopia | New York City | 2 | All Maps","name_short":"nyc-2","host":"nyc-1.us.uncletopia.com","port":27025,"enabled":true,"region":"us-east","cc":"us","latitude":40.73061,"longitude":-73.93524,"reserved":0,"last_update":"0001-01-01T00:00:00Z","name_a2s":"Uncletopia | New York City | 2 | All Maps","protocol":17,"map":"cp_altitude","folder":"tf","game":"Team Fortress","app_id":440,"player_count":0,"max_players":24,"Bots":0,"server_type":"Dedicated","server_os":"Linux","password":true,"vac":true,"version":"7742253","steam_id":85568392924469994,"keywords":["cp","nocrits","nodmgspread","uncletopia"],"game_id":440,"stv_port":27026,"stv_name":"Uncletopia | New York City | 2 | All Maps | STV","players":null},{"server_id":15,"name":"Uncletopia | New York City | 3 | Stopwatch Beta","name_short":"nyc-3","host":"nyc-1.us.uncletopia.com","port":27035,"enabled":true,"region":"us-east","cc":"us","latitude":40.73061,"longitude":-73.93524,"reserved":0,"last_update":"0001-01-01T00:00:00Z","name_a2s":"Uncletopia | New York City | 3 | Stopwatch Beta","protocol":17,"map":"pl_pier","folder":"tf","game":"Team Fortress","app_id":440,"player_count":0,"max_players":24,"Bots":0,"server_type":"Dedicated","server_os":"Linux","password":true,"vac":true,"version":"7742253","steam_id":85568392924742820,"keywords":["nocrits","nodmgspread","payload","uncletopia"],"game_id":440,"stv_port":27036,"stv_name":"Uncletopia | New York City | 3 | Stopwatch Beta | STV","players":null},{"server_id":16,"name":"Uncletopia | New York City | 4 | Community","name_short":"nyc-4","host":"nyc-1.us.uncletopia.com","port":27045,"enabled":true,"region":"us-east","cc":"us","latitude":40.73061,"longitude":-73.93524,"reserved":0,"last_update":"0001-01-01T00:00:00Z","name_a2s":"Uncletopia | New York City | 4 | Community","protocol":17,"map":"koth_viaduct","folder":"tf","game":"Team Fortress","app_id":440,"player_count":0,"max_players":24,"Bots":0,"server_type":"Dedicated","server_os":"Linux","password":true,"vac":true,"version":"7742253","steam_id":85568392924742821,"keywords":["cp","nocrits","nodmgspread","uncletopia"],"game_id":440,"stv_port":27046,"stv_name":"Uncletopia | New York City | 4 | Community | STV","players":null},{"server_id":142,"name":"Uncletopia | S√£o Paulo | 1 | All Maps","name_short":"sao-1","host":"sao-1.br.uncletopia.com","port":27015,"enabled":true,"region":"sa","cc":"br","latitude":-23.533773,"longitude":-46.62529,"reserved":0,"last_update":"0001-01-01T00:00:00Z","name_a2s":"Uncletopia | S√£o Paulo | 1 | All Maps","protocol":17,"map":"koth_viaduct","folder":"tf","game":"Team Fortress","app_id":440,"player_count":0,"max_players":24,"Bots":0,"server_type":"Dedicated","server_os":"Linux","password":true,"vac":true,"version":"7742253","steam_id":85568392924469996,"keywords":["cp","nocrits","nodmgspread","uncletopia"],"game_id":440,"stv_port":27016,"stv_name":"Uncletopia | S√£o Paulo | 1 | All Maps | STV","players":null},{"server_id":143,"name":"Uncletopia | S√£o Paulo | 2 | All Maps","name_short":"sao-2","host":"sao-2.br.uncletopia.com","port":27015,"enabled":true,"region":"sa","cc":"br","latitude":-23.533773,"longitude":-46.62529,"reserved":0,"last_update":"0001-01-01T00:00:00Z","name_a2s":"Uncletopia | S√£o Paulo | 2 | All Maps","protocol":17,"map":"koth_viaduct","folder":"tf","game":"Team Fortress","app_id":440,"player_count":0,"max_players":24,"Bots":0,"server_type":"Dedicated","server_os":"Linux","password":true,"vac":true,"version":"7742253","steam_id":85568392924485349,"keywords":["cp","nocrits","nodmgspread","uncletopia"],"game_id":440,"stv_port":27016,"stv_name":"Uncletopia | S√£o Paulo | 2 | All Maps | STV","players":null},{"server_id":7,"name":"Uncletopia | Seattle | 1 | All Maps","name_short":"sea-1","host":"sea-1.us.uncletopia.com","port":27015,"enabled":true,"region":"us-west","cc":"us","latitude":47.608013,"longitude":-122.33517,"reserved":0,"last_update":"0001-01-01T00:00:00Z","name_a2s":"Uncletopia | Seattle | 1 | All Maps","protocol":17,"map":"pl_frontier_final","folder":"tf","game":"Team Fortress","app_id":440,"player_count":0,"max_players":24,"Bots":0,"server_type":"Dedicated","server_os":"Linux","password":true,"vac":true,"version":"7742253","steam_id":85568392924469997,"keywords":["nocrits","nodmgspread","payload","uncletopia"],"game_id":440,"stv_port":27016,"stv_name":"Uncletopia | Seattle | 1 | All Maps | STV","players":null},{"server_id":119,"name":"Uncletopia | Seattle | 2 | All Maps","name_short":"sea-2","host":"sea-1.us.uncletopia.com","port":27025,"enabled":true,"region":"us-west","cc":"us","latitude":47.608013,"longitude":-122.33517,"reserved":0,"last_update":"0001-01-01T00:00:00Z","name_a2s":"Uncletopia | Seattle | 2 | All Maps","protocol":17,"map":"cp_sunshine","folder":"tf","game":"Team Fortress","app_id":440,"player_count":0,"max_players":24,"Bots":0,"server_type":"Dedicated","server_os":"Linux","password":true,"vac":true,"version":"7742253","steam_id":85568392924469998,"keywords":["cp","nocrits","nodmgspread","uncletopia"],"game_id":440,"stv_port":27026,"stv_name":"Uncletopia | Seattle | 2 | All Maps | STV","players":null},{"server_id":406,"name":"Uncletopia | Seattle | 3 | Stopwatch Beta","name_short":"sea-3","host":"sea-1.us.uncletopia.com","port":27035,"enabled":true,"region":"us-west","cc":"us","latitude":47.608013,"longitude":-122.33517,"reserved":0,"last_update":"0001-01-01T00:00:00Z","name_a2s":"Uncletopia | Seattle | 3 | Stopwatch Beta","protocol":17,"map":"cp_altitude","folder":"tf","game":"Team Fortress","app_id":440,"player_count":0,"max_players":24,"Bots":0,"server_type":"Dedicated","server_os":"Linux","password":true,"vac":true,"version":"7742253","steam_id":85568392924515217,"keywords":["cp","nocrits","nodmgspread","uncletopia"],"game_id":440,"stv_port":27036,"stv_name":"Uncletopia | Seattle | 3 | Stopwatch Beta | STV","players":null},{"server_id":17,"name":"Uncletopia | San Francisco | 1 | All Maps","name_short":"sfo-1","host":"sfo-1.us.uncletopia.com","port":27015,"enabled":true,"region":"us-west","cc":"us","latitude":37.77397,"longitude":-122.4313,"reserved":0,"last_update":"0001-01-01T00:00:00Z","name_a2s":"Uncletopia | San Francisco | 1 | All Maps","protocol":17,"map":"pl_snowycoast","folder":"tf","game":"Team Fortress","app_id":440,"player_count":0,"max_players":24,"Bots":0,"server_type":"Dedicated","server_os":"Linux","password":true,"vac":true,"version":"7742253","steam_id":85568392924469999,"keywords":["nocrits","nodmgspread","payload","uncletopia"],"game_id":440,"stv_port":27016,"stv_name":"Uncletopia | San Francisco | 1 | All Maps | STV","players":null},{"server_id":18,"name":"Uncletopia | San Francisco | 2 | All Maps","name_short":"sfo-2","host":"sfo-1.us.uncletopia.com","port":27025,"enabled":true,"region":"us-west","cc":"us","latitude":37.77397,"longitude":-122.4313,"reserved":0,"last_update":"0001-01-01T00:00:00Z","name_a2s":"Uncletopia | San Francisco | 2 | All Maps","protocol":17,"map":"cp_altitude","folder":"tf","game":"Team Fortress","app_id":440,"player_count":0,"max_players":24,"Bots":0,"server_type":"Dedicated","server_os":"Linux","password":true,"vac":true,"version":"7742253","steam_id":85568392924470000,"keywords":["cp","nocrits","nodmgspread","uncletopia"],"game_id":440,"stv_port":27026,"stv_name":"Uncletopia | San Francisco | 2 | All Maps | STV","players":null},{"server_id":19,"name":"Uncletopia | San Francisco | 3 | Stopwatch Beta","name_short":"sfo-3","host":"sfo-1.us.uncletopia.com","port":27035,"enabled":true,"region":"us-west","cc":"us","latitude":37.77397,"longitude":-122.4313,"reserved":0,"last_update":"0001-01-01T00:00:00Z","name_a2s":"Uncletopia | San Francisco | 3 | Stopwatch Beta","protocol":17,"map":"cp_snakewater_final1","folder":"tf","game":"Team Fortress","app_id":440,"player_count":0,"max_players":24,"Bots":0,"server_type":"Dedicated","server_os":"Linux","password":true,"vac":true,"version":"7742253","steam_id":85568392924742824,"keywords":["cp","nocrits","nodmgspread","uncletopia"],"game_id":440,"stv_port":27036,"stv_name":"Uncletopia | San Francisco | 3 | Stopwatch Beta | STV","players":null},{"server_id":20,"name":"Uncletopia | San Francisco | 4 | Community","name_short":"sfo-4","host":"sfo-1.us.uncletopia.com","port":27045,"enabled":true,"region":"us-west","cc":"us","latitude":37.77397,"longitude":-122.4313,"reserved":0,"last_update":"0001-01-01T00:00:00Z","name_a2s":"Uncletopia | San Francisco | 4 | Community","protocol":17,"map":"cp_dustbowl","folder":"tf","game":"Team Fortress","app_id":440,"player_count":0,"max_players":24,"Bots":0,"server_type":"Dedicated","server_os":"Linux","password":true,"vac":true,"version":"7742253","steam_id":85568392924742826,"keywords":["cp","nocrits","nodmgspread","uncletopia"],"game_id":440,"stv_port":27046,"stv_name":"Uncletopia | San Francisco | 4 | Community | STV","players":null},{"server_id":141,"name":"Uncletopia | Sydney | 1 | All Maps","name_short":"syd-1","host":"syd-1.au.uncletopia.com","port":27015,"enabled":true,"region":"au","cc":"au","latitude":-33.865143,"longitude":151.2099,"reserved":0,"last_update":"0001-01-01T00:00:00Z","name_a2s":"Uncletopia | Sydney | 1 | All Maps","protocol":17,"map":"pl_badwater","folder":"tf","game":"Team Fortress","app_id":440,"player_count":0,"max_players":24,"Bots":0,"server_type":"Dedicated","server_os":"Linux","password":true,"vac":true,"version":"7742253","steam_id":85568392924470001,"keywords":["nocrits","nodmgspread","payload","uncletopia"],"game_id":440,"stv_port":27016,"stv_name":"Uncletopia | Sydney | 1 | All Maps | STV","players":null},{"server_id":123,"name":"Uncletopia | Sydney | 2 | All Maps","name_short":"syd-2","host":"syd-1.au.uncletopia.com","port":27025,"enabled":true,"region":"au","cc":"au","latitude":-33.865143,"longitude":151.2099,"reserved":0,"last_update":"0001-01-01T00:00:00Z","name_a2s":"Uncletopia | Sydney | 2 | All Maps","protocol":17,"map":"koth_highpass","folder":"tf","game":"Team Fortress","app_id":440,"player_count":10,"max_players":24,"Bots":0,"server_type":"Dedicated","server_os":"Linux","password":true,"vac":true,"version":"7742253","steam_id":85568392924470002,"keywords":["cp","nocrits","nodmgspread","uncletopia"],"game_id":440,"stv_port":27026,"stv_name":"Uncletopia | Sydney | 2 | All Maps | STV","players":[{"user_id":369,"name":"oldboy is a good movie","steam_id":76561199057568663,"connected_time":2350000000000,"state":"active","ping":55},{"user_id":390,"name":"MR BEAST NUMBER 1 FAN","steam_id":76561198846610729,"connected_time":406000000000,"state":"active","ping":217},{"user_id":371,"name":"KillerBlow","steam_id":76561198930232832,"connected_time":2168000000000,"state":"active","ping":108},{"user_id":372,"name":"Pongo","steam_id":76561197972265004,"connected_time":2080000000000,"state":"active","ping":30},{"user_id":393,"name":"Crackhead","steam_id":76561198883918047,"connected_time":158000000000,"state":"active","ping":253},{"user_id":233,"name":"Alex","steam_id":76561198020099643,"connected_time":11097000000000,"state":"active","ping":59},{"user_id":373,"name":"LightningBlock","steam_id":76561198289997742,"connected_time":2010000000000,"state":"active","ping":30},{"user_id":377,"name":"Branko","steam_id":76561199262196710,"connected_time":1805000000000,"state":"active","ping":44},{"user_id":380,"name":"the squeakquel","steam_id":76561199464909853,"connected_time":1494000000000,"state":"active","ping":62},{"user_id":335,"name":"xfol","steam_id":76561197973048879,"connected_time":4713000000000,"state":"active","ping":59}]},{"server_id":395,"name":"Uncletopia | Sydney | 3 | All Maps","name_short":"syd-3","host":"syd-1.au.uncletopia.com","port":27035,"enabled":true,"region":"au","cc":"au","latitude":-33.865143,"longitude":151.2099,"reserved":0,"last_update":"0001-01-01T00:00:00Z","name_a2s":"Uncletopia | Sydney | 3 | All Maps","protocol":17,"map":"cp_process_final","folder":"tf","game":"Team Fortress","app_id":440,"player_count":0,"max_players":24,"Bots":0,"server_type":"Dedicated","server_os":"Linux","password":true,"vac":true,"version":"7742253","steam_id":85568392925194467,"keywords":["cp","nocrits","nodmgspread","uncletopia"],"game_id":440,"stv_port":27036,"stv_name":"Uncletopia | Sydney | 3 | All Maps | STV","players":null},{"server_id":396,"name":"Uncletopia | Sydney | 4 | All Maps","name_short":"syd-4","host":"syd-1.au.uncletopia.com","port":27045,"enabled":true,"region":"au","cc":"au","latitude":-33.865143,"longitude":151.2099,"reserved":0,"last_update":"0001-01-01T00:00:00Z","name_a2s":"Uncletopia | Sydney | 4 | All Maps","protocol":17,"map":"ctf_2fort","folder":"tf","game":"Team Fortress","app_id":440,"player_count":0,"max_players":24,"Bots":0,"server_type":"Dedicated","server_os":"Linux","password":true,"vac":true,"version":"7742253","steam_id":85568392925397958,"keywords":["ctf","nocrits","nodmgspread","uncletopia"],"game_id":440,"stv_port":27046,"stv_name":"Uncletopia | Sydney | 4 | All Maps | STV","players":null},{"server_id":58,"name":"Uncletopia | Sydney | 5 | Stopwatch Beta","name_short":"syd-5","host":"syd-1.au.uncletopia.com","port":27055,"enabled":true,"region":"au","cc":"au","latitude":-33.865143,"longitude":151.2099,"reserved":0,"last_update":"0001-01-01T00:00:00Z","name_a2s":"Uncletopia | Sydney | 5 | Stopwatch Beta","protocol":17,"map":"workshop/koth_bagel_rc5.ugc2514036946","folder":"tf","game":"Team Fortress","app_id":440,"player_count":0,"max_players":24,"Bots":0,"server_type":"Dedicated","server_os":"Linux","password":true,"vac":true,"version":"7742253","steam_id":85568392925397959,"keywords":["cp","nocrits","nodmgspread","uncletopia"],"game_id":440,"stv_port":27056,"stv_name":"Uncletopia | Sydney | 5 | Stopwatch Beta | STV","players":null},{"server_id":59,"name":"Uncletopia | Sydney | 6 | Community","name_short":"syd-6","host":"syd-1.au.uncletopia.com","port":27065,"enabled":true,"region":"au","cc":"au","latitude":-33.865143,"longitude":151.2099,"reserved":0,"last_update":"0001-01-01T00:00:00Z","name_a2s":"Uncletopia | Sydney | 6 | Community","protocol":17,"map":"workshop/pl_cactuscanyon_redux_rc4b.ugc2579644293","folder":"tf","game":"Team Fortress","app_id":440,"player_count":0,"max_players":24,"Bots":0,"server_type":"Dedicated","server_os":"Linux","password":true,"vac":true,"version":"7742253","steam_id":85568392925397960,"keywords":["nocrits","nodmgspread","payload","uncletopia"],"game_id":440,"stv_port":27066,"stv_name":"Uncletopia | Sydney | 6 | Community | STV","players":null},{"server_id":49,"name":"Uncletopia | Warsaw | 1 | All Maps","name_short":"waw-1","host":"waw-1.pl.uncletopia.com","port":27015,"enabled":true,"region":"eu","cc":"pl","latitude":52.2297,"longitude":21.017532,"reserved":0,"last_update":"0001-01-01T00:00:00Z","name_a2s":"","protocol":0,"map":"","folder":"","game":"","app_id":0,"player_count":0,"max_players":0,"Bots":0,"server_type":"","server_os":"","password":false,"vac":false,"version":"","steam_id":0,"keywords":null,"game_id":0,"stv_port":0,"stv_name":"","players":null},{"server_id":50,"name":"Uncletopia | Warsaw | 2 | All Maps","name_short":"waw-2","host":"waw-1.pl.uncletopia.com","port":27025,"enabled":true,"region":"eu","cc":"pl","latitude":52.2297,"longitude":21.017532,"reserved":0,"last_update":"0001-01-01T00:00:00Z","name_a2s":"Uncletopia | Warsaw | 2 | All Maps","protocol":17,"map":"koth_lakeside_final","folder":"tf","game":"Team Fortress","app_id":440,"player_count":0,"max_players":24,"Bots":0,"server_type":"Dedicated","server_os":"Linux","password":true,"vac":true,"version":"7742253","steam_id":85568392925397851,"keywords":["cp","nocrits","nodmgspread","uncletopia"],"game_id":440,"stv_port":27026,"stv_name":"Uncletopia | Warsaw | 2 | All Maps | STV","players":null},{"server_id":51,"name":"Uncletopia | Warsaw | 3 | All Maps","name_short":"waw-3","host":"waw-1.pl.uncletopia.com","port":27035,"enabled":true,"region":"eu","cc":"pl","latitude":52.2297,"longitude":21.017532,"reserved":0,"last_update":"0001-01-01T00:00:00Z","name_a2s":"Uncletopia | Warsaw | 3 | All Maps","protocol":17,"map":"pl_borneo","folder":"tf","game":"Team Fortress","app_id":440,"player_count":0,"max_players":24,"Bots":0,"server_type":"Dedicated","server_os":"Linux","password":true,"vac":true,"version":"7742253","steam_id":85568392925397852,"keywords":["nocrits","nodmgspread","payload","uncletopia"],"game_id":440,"stv_port":27036,"stv_name":"Uncletopia | Warsaw | 3 | All Maps | STV","players":null},{"server_id":52,"name":"Uncletopia | Warsaw | 4 | All Maps","name_short":"waw-4","host":"waw-1.pl.uncletopia.com","port":27045,"enabled":true,"region":"eu","cc":"pl","latitude":52.2297,"longitude":21.017532,"reserved":0,"last_update":"0001-01-01T00:00:00Z","name_a2s":"Uncletopia | Warsaw | 4 | All Maps","protocol":17,"map":"pl_swiftwater_final1","folder":"tf","game":"Team Fortress","app_id":440,"player_count":0,"max_players":24,"Bots":0,"server_type":"Dedicated","server_os":"Linux","password":true,"vac":true,"version":"7742253","steam_id":85568392925397853,"keywords":["nocrits","nodmgspread","payload","uncletopia"],"game_id":440,"stv_port":27046,"stv_name":"Uncletopia | Warsaw | 4 | All Maps | STV","players":null},{"server_id":53,"name":"Uncletopia | Warsaw | 5 | Stopwatch Beta","name_short":"waw-5","host":"waw-1.pl.uncletopia.com","port":27055,"enabled":true,"region":"eu","cc":"pl","latitude":52.2297,"longitude":21.017532,"reserved":0,"last_update":"0001-01-01T00:00:00Z","name_a2s":"Uncletopia | Warsaw | 5 | Stopwatch Beta","protocol":17,"map":"pl_swiftwater_final1","folder":"tf","game":"Team Fortress","app_id":440,"player_count":0,"max_players":24,"Bots":0,"server_type":"Dedicated","server_os":"Linux","password":true,"vac":true,"version":"7742253","steam_id":85568392925397854,"keywords":["nocrits","nodmgspread","payload","uncletopia"],"game_id":440,"stv_port":27056,"stv_name":"Uncletopia | Warsaw | 5 | Stopwatch Beta | STV","players":null},{"server_id":54,"name":"Uncletopia | Warsaw | 6 | Community","name_short":"waw-6","host":"waw-1.pl.uncletopia.com","port":27065,"enabled":true,"region":"eu","cc":"pl","latitude":52.2297,"longitude":21.017532,"reserved":0,"last_update":"0001-01-01T00:00:00Z","name_a2s":"Uncletopia | Warsaw | 6 | Community","protocol":17,"map":"koth_highpass","folder":"tf","game":"Team Fortress","app_id":440,"player_count":0,"max_players":24,"Bots":0,"server_type":"Dedicated","server_os":"Linux","password":true,"vac":true,"version":"7742253","steam_id":85568392925397856,"keywords":["cp","nocrits","nodmgspread","uncletopia"],"game_id":440,"stv_port":27066,"stv_name":"Uncletopia | Warsaw | 6 | Community | STV","players":null}]}