{"status":true,"message":"","result":[{"server_id":9,"name":"Uncletopia | Atlanta | 1 | All Maps","name_short":"atl-1","host":"atl-1.us.uncletopia.com","port":27015,"enabled":true,"region":"us-east","cc":"us","latitude":33.753746,"longitude":-84.38633,"reserved":0,"last_update":"0001-01-01T00:00:00Z","name_a2s":"Uncletopia | Atlanta | 1 | All Maps","protocol":17,"map":"pl_borneo","folder":"tf","game":"Team Fortress","app_id":440,"player_count":21,"max_players":24,"Bots":0,"server_type":"Dedicated","server_os":"Linux","password":true,"vac":true,"version":"7757534","steam_id":85568392924469982,"keywords":["nocrits","nodmgspread","payload","uncletopia"],"game_id":440,"stv_port":27016,"stv_name":"Uncletopia | Atlanta | 1 | All Maps | STV","players":[{"user_id":683,"name":"name420","steam_id":76561198129374525,"connected_time":28000000000,"state":"active","ping":47},{"user_id":660,"name":"Mage","steam_id":76561198285026879,"connected_time":3337000000000,"state":"active","ping":76},{"user_id":671,"name":"JazzMuted","steam_id":76561197974184265,"connected_time":1530000000000,"state":"active","ping":63},{"user_id":678,"name":"Chillin Turt","steam_id":76561198025796849,"connected_time":203000000000,"state":"active","ping":46},{"user_id":679,"name":"ATL1 | Psionic Box","steam_id":76561198151019322,"connected_time":155000000000,"state":"active","ping":60},{"user_id":680,"name":"Witti","steam_id":76561198015737831,"connected_time":154000000000,"state":"active","ping":60},{"user_id":681,"name":"Witch Doctor Waka","steam_id":76561198028507980,"connected_time":129000000000,"state":"active","ping":72},{"user_id":657,"name":"RED1 | Mug","steam_id":76561199282207802,"connected_time":3588000000000,"state":"active","ping":76},{"user_id":662,"name":"Nephs","steam_id":76561198136763403,"connected_time":2924000000000,"state":"active","ping":71},{"user_id":682,"name":"ash","steam_id":76561198127890645,"connected_time":110000000000,"state":"active","ping":60},{"user_id":606,"name":"Brown_Dream","steam_id":76561198975766145,"connected_time":7211000000000,"state":"active","ping":70},{"user_id":684,"name":"lil hog","steam_id":76561199230929836,"connected_time":9000000000,"state":"spawning","ping":90},{"user_id":685,"name":"ATL1 | Bandi","steam_id":76561198432036026,"connected_time":5000000000,"state":"spawning","ping":74},{"user_id":674,"name":"Galactamarx","steam_id":76561198028065755,"connected_time":924000000000,"state":"active","ping":97},{"user_id":642,"name":"com lag","steam_id":76561198019019392,"connected_time":5932000000000,"state":"active","ping":61},{"user_id":649,"name":"ATLS1 | p4ka","steam_id":76561198315291317,"connected_time":4941000000000,"state":"active","ping":64},{"user_id":616,"name":"BLU1| Inky (Coolest)","steam_id":76561198968337022,"connected_time":6965000000000,"state":"active","ping":50},{"user_id":661,"name":"Scalie with Soup","steam_id":76561198126745958,"connected_time":3059000000000,"state":"active","ping":99},{"user_id":675,"name":"ATLS1 | SparkStorm","steam_id":76561198095817025,"connected_time":588000000000,"state":"active","ping":35},{"user_id":652,"name":"Decolour","steam_id":76561199045608372,"connected_time":3951000000000,"state":"active","ping":75},{"user_id":637,"name":"ATL1 | Avo","steam_id":76561197993340494,"connected_time":6218000000000,"state":"active","ping":59}]},{"server_id":400,"name":"Uncletopia | Atlanta | 3 | Community","name_short":"atl-3","host":"atl-1.us.uncletopia.com","port":27035,"enabled":true,"region":"us-east","cc":"us","latitude":33.753746,"longitude":-84.38633,"reserved":0,"last_update":"0001-01-01T00:00:00Z","name_a2s":"Uncletopia | Atlanta | 3 | Community","protocol":17,"map":"workshop/pl_vigil_rc9.ugc1266210012","folder":"tf","game":"Team Fortress","app_id":440,"player_count":0,"max_players":32,"Bots":0,"server_type":"Dedicated","server_os":"Linux","password":true,"vac":true,"version":"7757534","steam_id":85568392924515187,"keywords":["increased_maxplayers","nocrits","nodmgspread","payload","uncletopia"],"game_id":440,"stv_port":27036,"stv_name":"Uncletopia | Atlanta | 3 | Community | STV","players":null},{"server_id":401,"name":"Uncletopia | Atlanta | 4 | No Payload","name_short":"atl-4","host":"atl-1.us.uncletopia.com","port":27045,"enabled":true,"region":"us-east","cc":"us","latitude":33.753746,"longitude":-84.38633,"reserved":0,"last_update":"0001-01-01T00:00:00Z","name_a2s":"","protocol":0,"map":"","folder":"","game":"","app_id":0,"player_count":0,"max_players":0,"Bots":0,"server_type":"","server_os":"","password":false,"vac":false,"version":"","steam_id":0,"keywords":null,"game_id":0,"stv_port":0,"stv_name":"","players":null},{"server_id":2,"name":"Uncletopia | Chicago | 1 | All Maps","name_short":"chi-1","host":"chi-1.us.uncletopia.com","port":27015,"enabled":true,"region":"us-central","cc":"us","latitude":41.881832,"longitude":-87.62318,"reserved":0,"last_update":"0001-01-01T00:00:00Z","name_a2s":"Uncletopia | Chicago | 1 | All Maps","protocol":17,"map":"pl_upward","folder":"tf","game":"Team Fortress","app_id":440,"player_count":24,"max_players":24,"Bots":0,"server_type":"Dedicated","server_os":"Linux","password":true,"vac":true,"version":"7757534","steam_id":85568392924469984,"keywords":["nocrits","nodmgspread","payload","uncletopia"],"game_id":440,"stv_port":27016,"stv_name":"Uncletopia | Chicago | 1 | All Maps | STV","players":[{"user_id":980,"name":"MadCusImBad","steam_id":76561199388283650,"connected_time":615000000000,"state":"active","ping":64},{"user_id":992,"name":"Chris Pratt's pocket spaghetti","steam_id":76561198138347045,"connected_time":156000000000,"state":"active","ping":84},{"user_id":973,"name":"exx","steam_id":76561198041421969,"connected_time":1036000000000,"state":"active","ping":95},{"user_id":871,"name":"Suspect3","steam_id":76561198063178963,"connected_time":6509000000000,"state":"active","ping":97},{"user_id":981,"name":"BackToSchoolAds","steam_id":76561198870281128,"connected_time":603000000000,"state":"active","ping":80},{"user_id":982,"name":"B/S/SuperBoofOG","steam_id":76561197992030936,"connected_time":506000000000,"state":"active","ping":63},{"user_id":983,"name":"PapaCheungus","steam_id":76561198052262520,"connected_time":498000000000,"state":"active","ping":82},{"user_id":942,"name":"theancientnut","steam_id":76561199396708880,"connected_time":3348000000000,"state":"active","ping":55},{"user_id":961,"name":"Sandvich Vender","steam_id":76561199190685448,"connected_time":2024000000000,"state":"active","ping":55},{"user_id":962,"name":"tree","steam_id":76561198116885731,"connected_time":2017000000000,"state":"active","ping":47},{"user_id":985,"name":"Jazz2T","steam_id":76561198154418867,"connected_time":453000000000,"state":"active","ping":103},{"user_id":979,"name":"shadowjango","steam_id":76561198001475833,"connected_time":668000000000,"state":"active","ping":60},{"user_id":965,"name":"Wso1123","steam_id":76561198048040111,"connected_time":1843000000000,"state":"active","ping":60},{"user_id":946,"name":"Teh Constable","steam_id":76561198017652242,"connected_time":2710000000000,"state":"active","ping":58},{"user_id":988,"name":"lyra","steam_id":76561198200002859,"connected_time":336000000000,"state":"active","ping":60},{"user_id":989,"name":"sleepy","steam_id":76561198193621693,"connected_time":335000000000,"state":"active","ping":99},{"user_id":948,"name":"Little Nemo","steam_id":76561197974638517,"connected_time":2692000000000,"state":"active","ping":61},{"user_id":975,"name":"Mupu Mupu","steam_id":76561198808795775,"connected_time":952000000000,"state":"active","ping":103},{"user_id":944,"name":"TheConchinator","steam_id":76561199388149092,"connected_time":3233000000000,"state":"active","ping":66},{"user_id":947,"name":"Jeong Jeong","steam_id":76561198125063586,"connected_time":2710000000000,"state":"active","ping":45},{"user_id":990,"name":"Nave","steam_id":76561198152862549,"connected_time":306000000000,"state":"active","ping":46},{"user_id":952,"name":"Mitchu The Bidness Man","steam_id":76561198102494381,"connected_time":2496000000000,"state":"active","ping":72},{"user_id":931,"name":"Tophu","steam_id":76561198380229671,"connected_time":3484000000000,"state":"active","ping":65},{"user_id":991,"name":"Sexy Julian","steam_id":76561198024596083,"connected_time":226000000000,"state":"active","ping":105}]},{"server_id":106,"name":"Uncletopia | Chicago | 2 | All Maps","name_short":"chi-2","host":"chi-1.us.uncletopia.com","port":27025,"enabled":true,"region":"us-central","cc":"us","latitude":41.881832,"longitude":-87.62318,"reserved":0,"last_update":"0001-01-01T00:00:00Z","name_a2s":"Uncletopia | Chicago | 2 | All Maps","protocol":17,"map":"pl_pier","folder":"tf","game":"Team Fortress","app_id":440,"player_count":24,"max_players":24,"Bots":0,"server_type":"Dedicated","server_os":"Linux","password":true,"vac":true,"version":"7757534","steam_id":85568392924469985,"keywords":["nocrits","nodmgspread","payload","uncletopia"],"game_id":440,"stv_port":27026,"stv_name":"Uncletopia | Chicago | 2 | All Maps | STV","players":[{"user_id":399,"name":"Berd The Bard ùÖòùÖ•ùÖÆ","steam_id":76561198067340391,"connected_time":5185000000000,"state":"active","ping":85},{"user_id":442,"name":"T√ñZI","steam_id":76561198045268695,"connected_time":1079000000000,"state":"active","ping":61},{"user_id":426,"name":"daemon","steam_id":76561198001541433,"connected_time":3023000000000,"state":"active","ping":60},{"user_id":432,"name":"Cool Axolotl Facts","steam_id":76561198401495362,"connected_time":1864000000000,"state":"active","ping":64},{"user_id":443,"name":"dawg","steam_id":76561198019444443,"connected_time":1044000000000,"state":"active","ping":81},{"user_id":440,"name":"Ansem","steam_id":76561198165199912,"connected_time":1607000000000,"state":"active","ping":68},{"user_id":417,"name":"Doylin","steam_id":76561198113413927,"connected_time":3424000000000,"state":"active","ping":116},{"user_id":441,"name":"god approaches","steam_id":76561198081617990,"connected_time":1328000000000,"state":"active","ping":100},{"user_id":434,"name":"YUNG QUIMBIS","steam_id":76561198882485028,"connected_time":1808000000000,"state":"active","ping":59},{"user_id":444,"name":"Glass Joe","steam_id":76561198317365741,"connected_time":967000000000,"state":"active","ping":65},{"user_id":435,"name":"MosBlunted","steam_id":76561198259380127,"connected_time":1802000000000,"state":"active","ping":70},{"user_id":453,"name":"Smittywerbenjager-manjenson","steam_id":76561198067060742,"connected_time":235000000000,"state":"active","ping":66},{"user_id":448,"name":"Superman123389","steam_id":76561198267472539,"connected_time":603000000000,"state":"active","ping":87},{"user_id":411,"name":"S O L I D","steam_id":76561198086095072,"connected_time":4217000000000,"state":"active","ping":85},{"user_id":429,"name":"Bliztank | RGL.gg","steam_id":76561198019252798,"connected_time":2033000000000,"state":"active","ping":58},{"user_id":427,"name":"--_Cook_--","steam_id":76561198080855748,"connected_time":2265000000000,"state":"active","ping":46},{"user_id":447,"name":"ShadowDragon0125","steam_id":76561198343849022,"connected_time":792000000000,"state":"active","ping":84},{"user_id":452,"name":"Tingus Pingus","steam_id":76561198155412348,"connected_time":471000000000,"state":"active","ping":67},{"user_id":450,"name":"Big Cock Brock","steam_id":76561198093244204,"connected_time":548000000000,"state":"active","ping":75},{"user_id":412,"name":"trappy (showered)","steam_id":76561198402801140,"connected_time":4205000000000,"state":"active","ping":65},{"user_id":446,"name":"prolific","steam_id":76561198062054335,"connected_time":876000000000,"state":"active","ping":99},{"user_id":451,"name":"Maxxycat","steam_id":76561198194062681,"connected_time":543000000000,"state":"active","ping":59},{"user_id":428,"name":"‡∂û Papi","steam_id":76561198027779564,"connected_time":2088000000000,"state":"active","ping":57},{"user_id":407,"name":"CanadianManBacon","steam_id":76561198804070086,"connected_time":4915000000000,"state":"active","ping":89}]},{"server_id":402,"name":"Uncletopia | Chicago | 3 | All Maps","name_short":"chi-3","host":"chi-1.us.uncletopia.com","port":27035,"enabled":true,"region":"us-central","cc":"us","latitude":41.881832,"longitude":-87.62318,"reserved":0,"last_update":"0001-01-01T00:00:00Z","name_a2s":"Uncletopia | Chicago | 3 | All Maps","protocol":17,"map":"cp_steel","folder":"tf","game":"Team Fortress","app_id":440,"player_count":12,"max_players":24,"Bots":0,"server_type":"Dedicated","server_os":"Linux","password":true,"vac":true,"version":"7757534","steam_id":85568392924515191,"keywords":["cp","nocrits","nodmgspread","uncletopia"],"game_id":440,"stv_port":27036,"stv_name":"Uncletopia | Chicago | 3 | All Maps | STV","players":[{"user_id":483,"name":"DO NOT call me BART SIMPSON!!","steam_id":76561198069113375,"connected_time":1679000000000,"state":"active","ping":70},{"user_id":479,"name":"DuckKey","steam_id":76561198904477889,"connected_time":2250000000000,"state":"active","ping":55},{"user_id":466,"name":"bad spy player","steam_id":76561198873699671,"connected_time":3799000000000,"state":"active","ping":102},{"user_id":485,"name":"Hairy Pear","steam_id":76561198087397457,"connected_time":1605000000000,"state":"active","ping":70},{"user_id":495,"name":"MoonWolf","steam_id":76561198095735033,"connected_time":953000000000,"state":"active","ping":72},{"user_id":455,"name":"Irate Gamer Official","steam_id":76561198162688146,"connected_time":4176000000000,"state":"active","ping":101},{"user_id":490,"name":"matkaster","steam_id":76561197998546486,"connected_time":1125000000000,"state":"active","ping":58},{"user_id":394,"name":"Filthy Acts at Reasonable Price","steam_id":76561198354615890,"connected_time":8497000000000,"state":"active","ping":54},{"user_id":480,"name":"lost in spaaaaace","steam_id":76561199085974120,"connected_time":2221000000000,"state":"active","ping":66},{"user_id":443,"name":"Chestnnut","steam_id":76561198077782729,"connected_time":4950000000000,"state":"active","ping":69},{"user_id":497,"name":"SoupDelivery","steam_id":76561198064906818,"connected_time":830000000000,"state":"active","ping":133},{"user_id":382,"name":"Lucon","steam_id":76561198067147724,"connected_time":10394000000000,"state":"active","ping":55}]},{"server_id":403,"name":"Uncletopia | Chicago | 4 | All Maps","name_short":"chi-4","host":"chi-1.us.uncletopia.com","port":27045,"enabled":true,"region":"us-central","cc":"us","latitude":41.881832,"longitude":-87.62318,"reserved":0,"last_update":"0001-01-01T00:00:00Z","name_a2s":"Uncletopia | Chicago | 4 | All Maps","protocol":17,"map":"pl_barnblitz","folder":"tf","game":"Team Fortress","app_id":440,"player_count":8,"max_players":24,"Bots":0,"server_type":"Dedicated","server_os":"Linux","password":true,"vac":true,"version":"7757534","steam_id":85568392924515193,"keywords":["nocrits","nodmgspread","payload","uncletopia"],"game_id":440,"stv_port":27046,"stv_name":"Uncletopia | Chicago | 4 | All Maps | STV","players":[{"user_id":417,"name":"Rukks","steam_id":76561197993918954,"connected_time":2050000000000,"state":"active","ping":84},{"user_id":419,"name":"Lore","steam_id":76561198098407538,"connected_time":1879000000000,"state":"active","ping":45},{"user_id":422,"name":"Gustavo Fring","steam_id":76561198132807405,"connected_time":1835000000000,"state":"active","ping":82},{"user_id":424,"name":"Kaluka","steam_id":76561198036861445,"connected_time":1790000000000,"state":"active","ping":73},{"user_id":434,"name":"Shadovillia","steam_id":76561198167411287,"connected_time":1017000000000,"state":"active","ping":62},{"user_id":432,"name":"∆ê’å—¥∆≥","steam_id":76561198099470277,"connected_time":1254000000000,"state":"active","ping":80},{"user_id":404,"name":"Bullwinkle J. Moose","steam_id":76561198075977196,"connected_time":4238000000000,"state":"active","ping":76},{"user_id":429,"name":"thecal","steam_id":76561198307893384,"connected_time":1619000000000,"state":"active","ping":54}]},{"server_id":36,"name":"Uncletopia | Chicago | 5 | All Maps","name_short":"chi-5","host":"chi-2.us.uncletopia.com","port":27015,"enabled":true,"region":"us-central","cc":"us","latitude":41.881832,"longitude":-87.62318,"reserved":0,"last_update":"0001-01-01T00:00:00Z","name_a2s":"Uncletopia | Chicago | 5 | All Maps","protocol":17,"map":"koth_viaduct","folder":"tf","game":"Team Fortress","app_id":440,"player_count":2,"max_players":24,"Bots":0,"server_type":"Dedicated","server_os":"Linux","password":true,"vac":true,"version":"7757534","steam_id":85568392924866362,"keywords":["cp","nocrits","nodmgspread","uncletopia"],"game_id":440,"stv_port":27016,"stv_name":"Uncletopia | Chicago | 5 | All Maps | STV","players":[{"user_id":502,"name":"smef","steam_id":76561198321385895,"connected_time":1217000000000,"state":"active","ping":155},{"user_id":503,"name":"kai","steam_id":76561198258789116,"connected_time":1214000000000,"state":"active","ping":45}]},{"server_id":37,"name":"Uncletopia | Chicago | 6 | All Maps","name_short":"chi-6","host":"chi-2.us.uncletopia.com","port":27025,"enabled":true,"region":"us-central","cc":"us","latitude":41.881832,"longitude":-87.62318,"reserved":0,"last_update":"0001-01-01T00:00:00Z","name_a2s":"Uncletopia | Chicago | 6 | All Maps","protocol":17,"map":"pl_barnblitz","folder":"tf","game":"Team Fortress","app_id":440,"player_count":17,"max_players":24,"Bots":0,"server_type":"Dedicated","server_os":"Linux","password":true,"vac":true,"version":"7757534","steam_id":85568392924866363,"keywords":["nocrits","nodmgspread","payload","uncletopia"],"game_id":440,"stv_port":27026,"stv_name":"Uncletopia | Chicago | 6 | All Maps | STV","players":[{"user_id":347,"name":"feathers mcgraw","steam_id":76561198056971063,"connected_time":6184000000000,"state":"active","ping":49},{"user_id":404,"name":"Howoriginal","steam_id":76561197993701184,"connected_time":1657000000000,"state":"active","ping":53},{"user_id":424,"name":"Ducky[WADZ]üê§","steam_id":76561198060341245,"connected_time":939000000000,"state":"active","ping":160},{"user_id":363,"name":"GC.JitKilla","steam_id":76561198053967778,"connected_time":4046000000000,"state":"active","ping":56},{"user_id":405,"name":"The Demented Dr. Pussy","steam_id":76561198047557533,"connected_time":1650000000000,"state":"active","ping":79},{"user_id":395,"name":"KANYE_EAST","steam_id":76561198103508487,"connected_time":2461000000000,"state":"active","ping":46},{"user_id":408,"name":"The Muffin Man","steam_id":76561199088286427,"connected_time":1586000000000,"state":"active","ping":104},{"user_id":409,"name":"loot","steam_id":76561198044466211,"connected_time":1532000000000,"state":"active","ping":74},{"user_id":429,"name":"bb.rrr","steam_id":76561198339644583,"connected_time":656000000000,"state":"active","ping":57},{"user_id":413,"name":"m","steam_id":76561198003593070,"connected_time":1376000000000,"state":"active","ping":53},{"user_id":422,"name":"Nayru","steam_id":76561199088789298,"connected_time":975000000000,"state":"active","ping":82},{"user_id":417,"name":"OpenDown","steam_id":76561198064132688,"connected_time":1244000000000,"state":"active","ping":100},{"user_id":379,"name":"‡∂û_‡∂û","steam_id":76561198146255593,"connected_time":3550000000000,"state":"active","ping":72},{"user_id":359,"name":"Nodin","steam_id":76561198135757376,"connected_time":4908000000000,"state":"active","ping":53},{"user_id":431,"name":"mtn.dewdrinker1999","steam_id":76561198021308963,"connected_time":609000000000,"state":"active","ping":66},{"user_id":432,"name":"Dr. FlimFlam","steam_id":76561198049212986,"connected_time":572000000000,"state":"active","ping":87},{"user_id":420,"name":"Birdhorse Of Course","steam_id":76561198038997485,"connected_time":1151000000000,"state":"active","ping":69}]},{"server_id":38,"name":"Uncletopia | Chicago | 7 | Stopwatch Beta","name_short":"chi-7","host":"chi-2.us.uncletopia.com","port":27035,"enabled":true,"region":"us-central","cc":"us","latitude":41.881832,"longitude":-87.62318,"reserved":0,"last_update":"0001-01-01T00:00:00Z","name_a2s":"Uncletopia | Chicago | 7 | Stopwatch Beta","protocol":17,"map":"pl_upward","folder":"tf","game":"Team Fortress","app_id":440,"player_count":0,"max_players":24,"Bots":0,"server_type":"Dedicated","server_os":"Linux","password":true,"vac":true,"version":"7757534","steam_id":85568392924866364,"keywords":["nocrits","nodmgspread","payload","uncletopia"],"game_id":440,"stv_port":27036,"stv_name":"Uncletopia | Chicago | 7 | Stopwatch Beta | STV","players":null},{"server_id":39,"name":"Uncletopia | Chicago | 8 | Community","name_short":"chi-8","host":"chi-2.us.uncletopia.com","port":27045,"enabled":true,"region":"us-central","cc":"us","latitude":41.881832,"longitude":-87.62318,"reserved":0,"last_update":"0001-01-01T00:00:00Z","name_a2s":"Uncletopia | Chicago | 8 | Community","protocol":17,"map":"workshop/pl_fifthcurve_rc1.ugc648227046","folder":"tf","game":"Team Fortress","app_id":440,"player_count":0,"max_players":24,"Bots":0,"server_type":"Dedicated","server_os":"Linux","password":true,"vac":true,"version":"7757534","steam_id":85568392924866365,"keywords":["nocrits","nodmgspread","payload","uncletopia"],"game_id":440,"stv_port":27046,"stv_name":"Uncletopia | Chicago | 8 | Community | STV","players":null},{"server_id":8,"name":"Uncletopia | Dallas | 1 | All Maps","name_short":"dal-1","host":"dal-1.us.uncletopia.com","port":27015,"enabled":true,"region":"us-central","cc":"us","latitude":32.779167,"longitude":-96.80889,"reserved":0,"last_update":"0001-01-01T00:00:00Z","name_a2s":"Uncletopia | Dallas | 1 | All Maps","protocol":17,"map":"cp_steel","folder":"tf","game":"Team Fortress","app_id":440,"player_count":24,"max_players":24,"Bots":0,"server_type":"Dedicated","server_os":"Linux","password":true,"vac":true,"version":"7757534","steam_id":85568392924469986,"keywords":["cp","nocrits","nodmgspread","uncletopia"],"game_id":440,"stv_port":27016,"stv_name":"Uncletopia | Dallas | 1 | All Maps | STV","players":[{"user_id":613,"name":"Bocchi the Rock","steam_id":76561198025668771,"connected_time":1594000000000,"state":"active","ping":105},{"user_id":599,"name":"GregGaming098","steam_id":76561198882415360,"connected_time":2398000000000,"state":"active","ping":115},{"user_id":604,"name":"Ann Ziegler (No Sound)","steam_id":76561198052249401,"connected_time":1871000000000,"state":"active","ping":65},{"user_id":626,"name":"Spoilt Pudding","steam_id":76561198001195423,"connected_time":934000000000,"state":"active","ping":72},{"user_id":605,"name":"Ryan","steam_id":76561198046600383,"connected_time":1863000000000,"state":"active","ping":72},{"user_id":627,"name":"Kng","steam_id":76561198993248203,"connected_time":897000000000,"state":"active","ping":90},{"user_id":639,"name":"Rudy","steam_id":76561198013456828,"connected_time":146000000000,"state":"active","ping":75},{"user_id":601,"name":"Childhood Obesity","steam_id":76561198061190813,"connected_time":1919000000000,"state":"active","ping":119},{"user_id":587,"name":"Lunacy","steam_id":76561199386273760,"connected_time":3911000000000,"state":"active","ping":89},{"user_id":589,"name":"Dictator Noodle","steam_id":76561198277243768,"connected_time":3903000000000,"state":"active","ping":73},{"user_id":636,"name":"Evil Bocchi(Main soldier in 3 d","steam_id":76561198201593238,"connected_time":450000000000,"state":"active","ping":80},{"user_id":628,"name":"Bones Malone","steam_id":76561199104956310,"connected_time":876000000000,"state":"active","ping":61},{"user_id":621,"name":"bocchi la piedra","steam_id":76561198026458662,"connected_time":1405000000000,"state":"active","ping":73},{"user_id":608,"name":"gasparmx","steam_id":76561197998611994,"connected_time":1785000000000,"state":"active","ping":97},{"user_id":603,"name":"OY!","steam_id":76561198044189319,"connected_time":1909000000000,"state":"active","ping":94},{"user_id":629,"name":"Underaverage","steam_id":76561199057416274,"connected_time":846000000000,"state":"active","ping":158},{"user_id":623,"name":"cardboard muncher","steam_id":76561199115412765,"connected_time":980000000000,"state":"active","ping":61},{"user_id":524,"name":"perfect inCell","steam_id":76561198059182316,"connected_time":8893000000000,"state":"active","ping":86},{"user_id":638,"name":"Alexei Obolensky","steam_id":76561198010339626,"connected_time":352000000000,"state":"active","ping":88},{"user_id":620,"name":"obliviated Gamer ||-iwnl-||","steam_id":76561198044006334,"connected_time":1422000000000,"state":"active","ping":96},{"user_id":637,"name":"DSM-IVCE","steam_id":76561199438515797,"connected_time":363000000000,"state":"active","ping":121},{"user_id":633,"name":"starry cat, up above","steam_id":76561198155486118,"connected_time":710000000000,"state":"active","ping":74},{"user_id":590,"name":"Ojen","steam_id":76561197998414482,"connected_time":3874000000000,"state":"active","ping":94},{"user_id":634,"name":"crankshaft","steam_id":76561197992798282,"connected_time":694000000000,"state":"active","ping":75}]},{"server_id":108,"name":"Uncletopia | Dallas | 2 | All Maps","name_short":"dal-2","host":"dal-1.us.uncletopia.com","port":27025,"enabled":true,"region":"us-central","cc":"us","latitude":32.779167,"longitude":-96.80889,"reserved":0,"last_update":"0001-01-01T00:00:00Z","name_a2s":"Uncletopia | Dallas | 2 | All Maps","protocol":17,"map":"pl_badwater","folder":"tf","game":"Team Fortress","app_id":440,"player_count":24,"max_players":24,"Bots":0,"server_type":"Dedicated","server_os":"Linux","password":true,"vac":true,"version":"7757534","steam_id":85568392924469988,"keywords":["nocrits","nodmgspread","payload","uncletopia"],"game_id":440,"stv_port":27026,"stv_name":"Uncletopia | Dallas | 2 | All Maps | STV","players":[{"user_id":319,"name":"JellyRoll Jerry","steam_id":76561198037149474,"connected_time":3027000000000,"state":"active","ping":97},{"user_id":337,"name":"life","steam_id":76561198142254567,"connected_time":458000000000,"state":"active","ping":75},{"user_id":336,"name":"cup","steam_id":76561198121245586,"connected_time":568000000000,"state":"active","ping":71},{"user_id":313,"name":"GloryToFlygod","steam_id":76561198963236216,"connected_time":3375000000000,"state":"active","ping":84},{"user_id":338,"name":"BIG FLOUNDER LOL","steam_id":76561198073269122,"connected_time":457000000000,"state":"active","ping":90},{"user_id":339,"name":"brobtlcehc","steam_id":76561198043558709,"connected_time":454000000000,"state":"active","ping":104},{"user_id":331,"name":"Faust main","steam_id":76561198971799149,"connected_time":1623000000000,"state":"active","ping":74},{"user_id":323,"name":"deskmedic","steam_id":76561198295640486,"connected_time":2226000000000,"state":"active","ping":72},{"user_id":340,"name":"reaperthatsucksatgames","steam_id":76561199402897576,"connected_time":448000000000,"state":"active","ping":100},{"user_id":341,"name":"Darth Phrogg","steam_id":76561198150844229,"connected_time":405000000000,"state":"active","ping":46},{"user_id":324,"name":"malookimonthepc","steam_id":76561199372920828,"connected_time":2225000000000,"state":"active","ping":101},{"user_id":342,"name":"jorts","steam_id":76561199041179985,"connected_time":401000000000,"state":"active","ping":115},{"user_id":311,"name":"Zambie","steam_id":76561199102385595,"connected_time":3396000000000,"state":"active","ping":96},{"user_id":343,"name":"Brazengul","steam_id":76561198077250355,"connected_time":395000000000,"state":"active","ping":59},{"user_id":325,"name":"ËàπÂ∞æ","steam_id":76561198128764422,"connected_time":2222000000000,"state":"active","ping":86},{"user_id":321,"name":"Feathernights","steam_id":76561198047432615,"connected_time":2632000000000,"state":"active","ping":104},{"user_id":344,"name":"Knower","steam_id":76561198036213722,"connected_time":376000000000,"state":"active","ping":75},{"user_id":333,"name":"Dawn","steam_id":76561198799217130,"connected_time":1551000000000,"state":"active","ping":147},{"user_id":322,"name":"momb","steam_id":76561198142234038,"connected_time":2608000000000,"state":"active","ping":85},{"user_id":345,"name":"Florist","steam_id":76561198009121060,"connected_time":369000000000,"state":"active","ping":100},{"user_id":346,"name":"AlvWhispery","steam_id":76561198850017423,"connected_time":200000000000,"state":"active","ping":109},{"user_id":347,"name":"Schmuck","steam_id":76561198066099519,"connected_time":198000000000,"state":"active","ping":88},{"user_id":278,"name":"AMU","steam_id":76561198092346231,"connected_time":4922000000000,"state":"active","ping":104},{"user_id":287,"name":"Outlander","steam_id":76561197998995746,"connected_time":4280000000000,"state":"active","ping":89}]},{"server_id":5,"name":"Uncletopia | Frankfurt | 1 | All Maps","name_short":"frk-1","host":"frk-1.de.uncletopia.com","port":27015,"enabled":true,"region":"eu","cc":"de","latitude":50.110924,"longitude":8.682127,"reserved":0,"last_update":"0001-01-01T00:00:00Z","name_a2s":"Uncletopia | Frankfurt | 1 | All Maps","protocol":17,"map":"pl_snowycoast","folder":"tf","game":"Team Fortress","app_id":440,"player_count":0,"max_players":24,"Bots":0,"server_type":"Dedicated","server_os":"Linux","password":true,"vac":true,"version":"7757534","steam_id":85568392924469989,"keywords":["nocrits","nodmgspread","payload","uncletopia"],"game_id":440,"stv_port":27016,"stv_name":"Uncletopia | Frankfurt | 1 | All Maps | STV","players":null},{"server_id":110,"name":"Uncletopia | Frankfurt | 2 | All Maps","name_short":"frk-2","host":"frk-1.de.uncletopia.com","port":27025,"enabled":true,"region":"eu","cc":"de","latitude":50.110924,"longitude":8.682127,"reserved":0,"last_update":"0001-01-01T00:00:00Z","name_a2s":"Uncletopia | Frankfurt | 2 | All Maps","protocol":17,"map":"pl_snowycoast","folder":"tf","game":"Team Fortress","app_id":440,"player_count":0,"max_players":24,"Bots":0,"server_type":"Dedicated","server_os":"Linux","password":true,"vac":true,"version":"7757534","steam_id":85568392924469990,"keywords":["nocrits","nodmgspread","payload","uncletopia"],"game_id":440,"stv_port":27026,"stv_name":"Uncletopia | Frankfurt | 2 | All Maps | STV","players":null},{"server_id":308,"name":"Uncletopia | Frankfurt | 3 | All Maps","name_short":"frk-3","host":"frk-1.de.uncletopia.com","port":27035,"enabled":true,"region":"eu","cc":"de","latitude":50.110924,"longitude":8.682127,"reserved":0,"last_update":"0001-01-01T00:00:00Z","name_a2s":"Uncletopia | Frankfurt | 3 | All Maps","protocol":17,"map":"cp_altitude","folder":"tf","game":"Team Fortress","app_id":440,"player_count":0,"max_players":24,"Bots":0,"server_type":"Dedicated","server_os":"Linux","password":true,"vac":true,"version":"7757534","steam_id":85568392924504274,"keywords":["cp","nocrits","nodmgspread","uncletopia"],"game_id":440,"stv_port":27036,"stv_name":"Uncletopia | Frankfurt | 3 | All Maps | STV","players":null},{"server_id":309,"name":"Uncletopia | Frankfurt | 4 | All Maps","name_short":"frk-4","host":"frk-1.de.uncletopia.com","port":27045,"enabled":true,"region":"eu","cc":"de","latitude":50.110924,"longitude":8.682127,"reserved":0,"last_update":"0001-01-01T00:00:00Z","name_a2s":"Uncletopia | Frankfurt | 4 | All Maps","protocol":17,"map":"cp_altitude","folder":"tf","game":"Team Fortress","app_id":440,"player_count":0,"max_players":24,"Bots":0,"server_type":"Dedicated","server_os":"Linux","password":true,"vac":true,"version":"7757534","steam_id":85568392924504275,"keywords":["cp","nocrits","nodmgspread","uncletopia"],"game_id":440,"stv_port":27046,"stv_name":"Uncletopia | Frankfurt | 4 | All Maps | STV","players":null},{"server_id":310,"name":"Uncletopia | Frankfurt | 5 | All Maps","name_short":"frk-5","host":"frk-1.de.uncletopia.com","port":27055,"enabled":true,"region":"eu","cc":"de","latitude":50.110924,"longitude":8.682127,"reserved":0,"last_update":"0001-01-01T00:00:00Z","name_a2s":"Uncletopia | Frankfurt | 5 | All Maps","protocol":17,"map":"cp_altitude","folder":"tf","game":"Team Fortress","app_id":440,"player_count":0,"max_players":24,"Bots":0,"server_type":"Dedicated","server_os":"Linux","password":true,"vac":true,"version":"7757534","steam_id":85568392924504277,"keywords":["cp","nocrits","nodmgspread","uncletopia"],"game_id":440,"stv_port":27056,"stv_name":"Uncletopia | Frankfurt | 5 | All Maps | STV","players":null},{"server_id":311,"name":"Uncletopia | Frankfurt | 6 | All Maps","name_short":"frk-6","host":"frk-1.de.uncletopia.com","port":27065,"enabled":true,"region":"eu","cc":"de","latitude":50.110924,"longitude":8.682127,"reserved":0,"last_update":"0001-01-01T00:00:00Z","name_a2s":"Uncletopia | Frankfurt | 6 | All Maps","protocol":17,"map":"koth_highpass","folder":"tf","game":"Team Fortress","app_id":440,"player_count":0,"max_players":24,"Bots":0,"server_type":"Dedicated","server_os":"Linux","password":true,"vac":true,"version":"7757534","steam_id":85568392924504278,"keywords":["cp","nocrits","nodmgspread","uncletopia"],"game_id":440,"stv_port":27066,"stv_name":"Uncletopia | Frankfurt | 6 | All Maps | STV","players":null},{"server_id":23,"name":"Uncletopia | Frankfurt | 7 | Stopwatch Beta","name_short":"frk-7","host":"frk-1.de.uncletopia.com","port":27075,"enabled":true,"region":"eu","cc":"de","latitude":50.110924,"longitude":8.682127,"reserved":0,"last_update":"0001-01-01T00:00:00Z","name_a2s":"Uncletopia | Frankfurt | 7 | Stopwatch Beta","protocol":17,"map":"pl_frontier_final","folder":"tf","game":"Team Fortress","app_id":440,"player_count":0,"max_players":24,"Bots":0,"server_type":"Dedicated","server_os":"Linux","password":true,"vac":true,"version":"7757534","steam_id":85568392924742827,"keywords":["nocrits","nodmgspread","payload","uncletopia"],"game_id":440,"stv_port":27076,"stv_name":"Uncletopia | Frankfurt | 7 | Stopwatch Beta | STV","players":null},{"server_id":24,"name":"Uncletopia | Frankfurt | 8 | Community","name_short":"frk-8","host":"frk-1.de.uncletopia.com","port":27085,"enabled":true,"region":"eu","cc":"de","latitude":50.110924,"longitude":8.682127,"reserved":0,"last_update":"0001-01-01T00:00:00Z","name_a2s":"Uncletopia | Frankfurt | 8 | Community","protocol":17,"map":"pl_badwater","folder":"tf","game":"Team Fortress","app_id":440,"player_count":0,"max_players":24,"Bots":0,"server_type":"Dedicated","server_os":"Linux","password":true,"vac":true,"version":"7757534","steam_id":85568392924742828,"keywords":["nocrits","nodmgspread","payload","uncletopia"],"game_id":440,"stv_port":27086,"stv_name":"Uncletopia | Frankfurt | 8 | Community | STV","players":null},{"server_id":202,"name":"Uncletopia | Hong Kong | 1 | All Maps","name_short":"hgk-1","host":"hgk-1.hk.uncletopia.com","port":27015,"enabled":true,"region":"asia","cc":"hk","latitude":22.302711,"longitude":114.177216,"reserved":0,"last_update":"0001-01-01T00:00:00Z","name_a2s":"Uncletopia | Hong Kong | 1 | All Maps","protocol":17,"map":"pl_thundermountain","folder":"tf","game":"Team Fortress","app_id":440,"player_count":24,"max_players":24,"Bots":0,"server_type":"Dedicated","server_os":"Linux","password":true,"vac":true,"version":"7757534","steam_id":85568392924494504,"keywords":["nocrits","nodmgspread","payload","uncletopia"],"game_id":440,"stv_port":27016,"stv_name":"Uncletopia | Hong Kong | 1 | All Maps | STV","players":[{"user_id":104,"name":"Â§âÊÖã„ÅÆÁ•û","steam_id":76561199017344476,"connected_time":2200000000000,"state":"active","ping":99},{"user_id":92,"name":"Beef Wellington","steam_id":76561197995635241,"connected_time":3202000000000,"state":"active","ping":120},{"user_id":47,"name":"linne","steam_id":76561198230213828,"connected_time":9511000000000,"state":"active","ping":61},{"user_id":117,"name":"‚úßBaKa BAzooKA‚úß(‚óï‚ñø‚óï )","steam_id":76561198061628689,"connected_time":1024000000000,"state":"active","ping":58},{"user_id":107,"name":"ObscuroLucem","steam_id":76561198875037943,"connected_time":1799000000000,"state":"active","ping":86},{"user_id":100,"name":"Batbob","steam_id":76561198999413123,"connected_time":2503000000000,"state":"active","ping":80},{"user_id":120,"name":"ZeniaPY (Playing on Wacom)","steam_id":76561198404352831,"connected_time":68000000000,"state":"active","ping":64},{"user_id":61,"name":"spinach (old mouse)","steam_id":76561198042539541,"connected_time":7467000000000,"state":"active","ping":88},{"user_id":103,"name":"FighterX9","steam_id":76561198832500806,"connected_time":2473000000000,"state":"active","ping":156},{"user_id":113,"name":"Crabs","steam_id":76561199445694770,"connected_time":1510000000000,"state":"active","ping":139},{"user_id":91,"name":"rtgod","steam_id":76561198125363469,"connected_time":3363000000000,"state":"active","ping":82},{"user_id":98,"name":"Walter White (real)","steam_id":76561199221531190,"connected_time":2566000000000,"state":"active","ping":109},{"user_id":118,"name":"water tastes good","steam_id":76561199375947670,"connected_time":678000000000,"state":"active","ping":85},{"user_id":105,"name":"sterzun","steam_id":76561198300004922,"connected_time":2172000000000,"state":"active","ping":114},{"user_id":109,"name":"Stupid B l #saveTF2","steam_id":76561198131423270,"connected_time":1693000000000,"state":"active","ping":101},{"user_id":93,"name":"qb","steam_id":76561198412329672,"connected_time":3061000000000,"state":"active","ping":101},{"user_id":114,"name":"MsD IV","steam_id":76561198059707655,"connected_time":1412000000000,"state":"active","ping":71},{"user_id":119,"name":"BIG BLACK _____","steam_id":76561199174449723,"connected_time":675000000000,"state":"active","ping":120},{"user_id":57,"name":"im_0ff","steam_id":76561198339346695,"connected_time":8225000000000,"state":"active","ping":130},{"user_id":78,"name":"uptriste","steam_id":76561198158666692,"connected_time":5185000000000,"state":"active","ping":45},{"user_id":94,"name":"let cook","steam_id":76561198055553140,"connected_time":3018000000000,"state":"active","ping":132},{"user_id":102,"name":"Mehcro","steam_id":76561198856864170,"connected_time":2480000000000,"state":"active","ping":82},{"user_id":44,"name":"Urotsuki","steam_id":76561198074339034,"connected_time":9739000000000,"state":"active","ping":77},{"user_id":115,"name":"Dits","steam_id":76561198283833960,"connected_time":1406000000000,"state":"active","ping":38}]},{"server_id":1,"name":"Uncletopia | Los Angeles | 1 | All Maps","name_short":"lax-1","host":"lax-1.us.uncletopia.com","port":27015,"enabled":true,"region":"us-west","cc":"us","latitude":33.94279,"longitude":-118.41004,"reserved":0,"last_update":"0001-01-01T00:00:00Z","name_a2s":"Uncletopia | Los Angeles | 1 | All Maps","protocol":17,"map":"pl_snowycoast","folder":"tf","game":"Team Fortress","app_id":440,"player_count":0,"max_players":24,"Bots":0,"server_type":"Dedicated","server_os":"Linux","password":true,"vac":true,"version":"7757534","steam_id":85568392924469991,"keywords":["nocrits","nodmgspread","payload","uncletopia"],"game_id":440,"stv_port":27016,"stv_name":"Uncletopia | Los Angeles | 1 | All Maps | STV","players":null},{"server_id":112,"name":"Uncletopia | Los Angeles | 2 | All Maps","name_short":"lax-2","host":"lax-1.us.uncletopia.com","port":27025,"enabled":true,"region":"us-west","cc":"us","latitude":33.94279,"longitude":-118.41004,"reserved":0,"last_update":"0001-01-01T00:00:00Z","name_a2s":"Uncletopia | Los Angeles | 2 | All Maps","protocol":17,"map":"koth_highpass","folder":"tf","game":"Team Fortress","app_id":440,"player_count":19,"max_players":24,"Bots":0,"server_type":"Dedicated","server_os":"Linux","password":true,"vac":true,"version":"7757534","steam_id":85568392924469992,"keywords":["cp","nocrits","nodmgspread","uncletopia"],"game_id":440,"stv_port":27026,"stv_name":"Uncletopia | Los Angeles | 2 | All Maps | STV","players":[{"user_id":384,"name":"the","steam_id":76561198202246951,"connected_time":421000000000,"state":"active","ping":64},{"user_id":334,"name":"Nyges","steam_id":76561198139236154,"connected_time":4192000000000,"state":"active","ping":45},{"user_id":393,"name":"asinine escapades","steam_id":76561198025681784,"connected_time":95000000000,"state":"active","ping":94},{"user_id":380,"name":"people","steam_id":76561198167075606,"connected_time":595000000000,"state":"active","ping":105},{"user_id":386,"name":"ShredMaan","steam_id":76561198429982138,"connected_time":280000000000,"state":"active","ping":68},{"user_id":336,"name":"yourmomsbff","steam_id":76561198018237656,"connected_time":4167000000000,"state":"active","ping":45},{"user_id":363,"name":"Pizza Time","steam_id":76561198094090225,"connected_time":2518000000000,"state":"active","ping":70},{"user_id":323,"name":"rock gaming","steam_id":76561199402868311,"connected_time":5276000000000,"state":"active","ping":61},{"user_id":390,"name":"SilentninjaTheUndefenestratable","steam_id":76561198387601885,"connected_time":211000000000,"state":"active","ping":56},{"user_id":375,"name":"owen0829","steam_id":76561198120631388,"connected_time":1377000000000,"state":"active","ping":127},{"user_id":389,"name":"Smelly Potty","steam_id":76561197963434917,"connected_time":222000000000,"state":"active","ping":56},{"user_id":391,"name":"Farseer Ulwithy","steam_id":76561197965179245,"connected_time":191000000000,"state":"active","ping":90},{"user_id":392,"name":"Forged Maiden","steam_id":76561198069823999,"connected_time":120000000000,"state":"active","ping":90},{"user_id":396,"name":"Dr.Bobert","steam_id":76561198072186001,"connected_time":89000000000,"state":"active","ping":79},{"user_id":366,"name":"Zykron","steam_id":76561199056400800,"connected_time":2316000000000,"state":"active","ping":52},{"user_id":395,"name":"Ozzy","steam_id":76561198076098366,"connected_time":95000000000,"state":"active","ping":107},{"user_id":367,"name":"Punished Shitster","steam_id":76561198150452857,"connected_time":2276000000000,"state":"active","ping":78},{"user_id":359,"name":"tie dye die guy","steam_id":76561198049845337,"connected_time":3271000000000,"state":"active","ping":68},{"user_id":329,"name":"pp","steam_id":76561198035969198,"connected_time":5157000000000,"state":"active","ping":30}]},{"server_id":324,"name":"Uncletopia | Los Angeles | 3 | All Maps","name_short":"lax-3","host":"lax-1.us.uncletopia.com","port":27035,"enabled":true,"region":"us-west","cc":"us","latitude":33.94279,"longitude":-118.41004,"reserved":0,"last_update":"0001-01-01T00:00:00Z","name_a2s":"Uncletopia | Los Angeles | 3 | All Maps","protocol":17,"map":"pl_borneo","folder":"tf","game":"Team Fortress","app_id":440,"player_count":24,"max_players":24,"Bots":0,"server_type":"Dedicated","server_os":"Linux","password":true,"vac":true,"version":"7757534","steam_id":85568392924510198,"keywords":["nocrits","nodmgspread","payload","uncletopia"],"game_id":440,"stv_port":27036,"stv_name":"Uncletopia | Los Angeles | 3 | All Maps | STV","players":[{"user_id":217,"name":"Consul0fMoose","steam_id":76561198444034061,"connected_time":2202000000000,"state":"active","ping":64},{"user_id":190,"name":"Clagger","steam_id":76561198066701092,"connected_time":4285000000000,"state":"active","ping":64},{"user_id":226,"name":"kymeira | @ my house lan","steam_id":76561198340743816,"connected_time":1186000000000,"state":"active","ping":50},{"user_id":240,"name":"lytewerk","steam_id":76561198002819791,"connected_time":168000000000,"state":"active","ping":93},{"user_id":227,"name":"Axelonemillion15","steam_id":76561198421342282,"connected_time":1182000000000,"state":"active","ping":73},{"user_id":237,"name":"I need money for my family","steam_id":76561198206922028,"connected_time":553000000000,"state":"active","ping":45},{"user_id":235,"name":"K4le","steam_id":76561198747668363,"connected_time":780000000000,"state":"active","ping":59},{"user_id":213,"name":"Tora","steam_id":76561198133375902,"connected_time":2914000000000,"state":"active","ping":45},{"user_id":209,"name":"cory in the house","steam_id":76561198296933059,"connected_time":3069000000000,"state":"active","ping":67},{"user_id":191,"name":"ChieF BEEF QueeF","steam_id":76561198078294539,"connected_time":4277000000000,"state":"active","ping":59},{"user_id":236,"name":"El Gato Paranoico","steam_id":76561198116567116,"connected_time":614000000000,"state":"active","ping":90},{"user_id":188,"name":"blackwillow73@aol.com","steam_id":76561198035665009,"connected_time":5023000000000,"state":"active","ping":98},{"user_id":230,"name":"‚ô•Doadley‚ô•","steam_id":76561198114356108,"connected_time":975000000000,"state":"active","ping":45},{"user_id":214,"name":"nsfw","steam_id":76561198073629888,"connected_time":2428000000000,"state":"active","ping":64},{"user_id":231,"name":"Starkiller","steam_id":76561198101643120,"connected_time":959000000000,"state":"active","ping":93},{"user_id":241,"name":"Papi Pescado","steam_id":76561198039500575,"connected_time":114000000000,"state":"active","ping":73},{"user_id":218,"name":"valefor","steam_id":76561198074777193,"connected_time":1979000000000,"state":"active","ping":93},{"user_id":239,"name":"oil","steam_id":76561198099980149,"connected_time":521000000000,"state":"active","ping":50},{"user_id":211,"name":"BingBingAZ TV","steam_id":76561198353065343,"connected_time":3049000000000,"state":"active","ping":56},{"user_id":167,"name":"Antonpirulero10","steam_id":76561198253036781,"connected_time":6137000000000,"state":"active","ping":75},{"user_id":232,"name":"pedrix","steam_id":76561198062792699,"connected_time":957000000000,"state":"active","ping":45},{"user_id":233,"name":"ketsu","steam_id":76561197966171554,"connected_time":918000000000,"state":"active","ping":164},{"user_id":184,"name":"bebo","steam_id":76561198385085005,"connected_time":5088000000000,"state":"active","ping":57},{"user_id":234,"name":"Kuchio","steam_id":76561198161218914,"connected_time":898000000000,"state":"active","ping":58}]},{"server_id":25,"name":"Uncletopia | Los Angeles | 4 | Stopwatch Beta","name_short":"lax-4","host":"lax-1.us.uncletopia.com","port":27045,"enabled":true,"region":"us-west","cc":"us","latitude":33.94279,"longitude":-118.41004,"reserved":0,"last_update":"0001-01-01T00:00:00Z","name_a2s":"Uncletopia | Los Angeles | 4 | Stopwatch Beta","protocol":17,"map":"pl_frontier_final","folder":"tf","game":"Team Fortress","app_id":440,"player_count":0,"max_players":24,"Bots":0,"server_type":"Dedicated","server_os":"Linux","password":true,"vac":true,"version":"7757534","steam_id":85568392924510199,"keywords":["nocrits","nodmgspread","payload","uncletopia"],"game_id":440,"stv_port":27046,"stv_name":"Uncletopia | Los Angeles | 4 | Stopwatch Beta | STV","players":null},{"server_id":11,"name":"Uncletopia | London | 1 | All Maps","name_short":"lon-1","host":"lon-1.uk.uncletopia.com","port":27015,"enabled":true,"region":"eu","cc":"gb","latitude":51.509865,"longitude":-0.118092,"reserved":0,"last_update":"0001-01-01T00:00:00Z","name_a2s":"Uncletopia | London | 1 | All Maps","protocol":17,"map":"koth_viaduct","folder":"tf","game":"Team Fortress","app_id":440,"player_count":0,"max_players":24,"Bots":0,"server_type":"Dedicated","server_os":"Linux","password":true,"vac":true,"version":"7757534","steam_id":85568392924367362,"keywords":["cp","nocrits","nodmgspread","uncletopia"],"game_id":440,"stv_port":27016,"stv_name":"Uncletopia | London | 1 | All Maps | STV","players":null},{"server_id":114,"name":"Uncletopia | London | 2 | All Maps","name_short":"lon-2","host":"lon-1.uk.uncletopia.com","port":27025,"enabled":true,"region":"eu","cc":"gb","latitude":51.509865,"longitude":-0.118092,"reserved":0,"last_update":"0001-01-01T00:00:00Z","name_a2s":"Uncletopia | London | 2 | All Maps","protocol":17,"map":"cp_dustbowl","folder":"tf","game":"Team Fortress","app_id":440,"player_count":0,"max_players":24,"Bots":0,"server_type":"Dedicated","server_os":"Linux","password":true,"vac":true,"version":"7757534","steam_id":85568392924470941,"keywords":["cp","nocrits","nodmgspread","uncletopia"],"game_id":440,"stv_port":27026,"stv_name":"Uncletopia | London | 2 | All Maps | STV","players":null},{"server_id":320,"name":"Uncletopia | London | 3 | All Maps","name_short":"lon-3","host":"lon-1.uk.uncletopia.com","port":27035,"enabled":true,"region":"eu","cc":"gb","latitude":51.509865,"longitude":-0.118092,"reserved":0,"last_update":"0001-01-01T00:00:00Z","name_a2s":"Uncletopia | London | 3 | All Maps","protocol":17,"map":"pl_badwater","folder":"tf","game":"Team Fortress","app_id":440,"player_count":0,"max_players":24,"Bots":0,"server_type":"Dedicated","server_os":"Linux","password":true,"vac":true,"version":"7757534","steam_id":85568392924510192,"keywords":["nocrits","nodmgspread","payload","uncletopia"],"game_id":440,"stv_port":27036,"stv_name":"Uncletopia | London | 3 | All Maps | STV","players":null},{"server_id":321,"name":"Uncletopia | London | 4 | All Maps","name_short":"lon-4","host":"lon-1.uk.uncletopia.com","port":27045,"enabled":true,"region":"eu","cc":"gb","latitude":51.509865,"longitude":-0.118092,"reserved":0,"last_update":"0001-01-01T00:00:00Z","name_a2s":"Uncletopia | London | 4 | All Maps","protocol":17,"map":"koth_viaduct","folder":"tf","game":"Team Fortress","app_id":440,"player_count":0,"max_players":24,"Bots":0,"server_type":"Dedicated","server_os":"Linux","password":true,"vac":true,"version":"7757534","steam_id":85568392924510193,"keywords":["cp","nocrits","nodmgspread","uncletopia"],"game_id":440,"stv_port":27046,"stv_name":"Uncletopia | London | 4 | All Maps | STV","players":null},{"server_id":21,"name":"Uncletopia | London | 5 | All Maps","name_short":"lon-5","host":"lon-1.uk.uncletopia.com","port":27055,"enabled":true,"region":"eu","cc":"gb","latitude":51.509865,"longitude":-0.118092,"reserved":0,"last_update":"0001-01-01T00:00:00Z","name_a2s":"Uncletopia | London | 5 | All Maps","protocol":17,"map":"cp_snakewater_final1","folder":"tf","game":"Team Fortress","app_id":440,"player_count":0,"max_players":24,"Bots":0,"server_type":"Dedicated","server_os":"Linux","password":true,"vac":true,"version":"7757534","steam_id":85568392924742829,"keywords":["cp","nocrits","nodmgspread","uncletopia"],"game_id":440,"stv_port":27056,"stv_name":"Uncletopia | London | 5 | All Maps | STV","players":null},{"server_id":22,"name":"Uncletopia | London | 6 | All Maps","name_short":"lon-6","host":"lon-1.uk.uncletopia.com","port":27065,"enabled":true,"region":"eu","cc":"gb","latitude":51.509865,"longitude":-0.118092,"reserved":0,"last_update":"0001-01-01T00:00:00Z","name_a2s":"Uncletopia | London | 6 | All Maps","protocol":17,"map":"koth_cascade","folder":"tf","game":"Team Fortress","app_id":440,"player_count":0,"max_players":24,"Bots":0,"server_type":"Dedicated","server_os":"Linux","password":true,"vac":true,"version":"7757534","steam_id":85568392924742830,"keywords":["cp","nocrits","nodmgspread","uncletopia"],"game_id":440,"stv_port":27066,"stv_name":"Uncletopia | London | 6 | All Maps | STV","players":null},{"server_id":40,"name":"Uncletopia | London | 7 | No Payload","name_short":"lon-7","host":"lon-1.uk.uncletopia.com","port":27075,"enabled":true,"region":"eu","cc":"gb","latitude":51.509865,"longitude":-0.118092,"reserved":0,"last_update":"0001-01-01T00:00:00Z","name_a2s":"Uncletopia | London | 7 | No Payload","protocol":17,"map":"cp_process_final","folder":"tf","game":"Team Fortress","app_id":440,"player_count":0,"max_players":24,"Bots":0,"server_type":"Dedicated","server_os":"Linux","password":true,"vac":true,"version":"7757534","steam_id":85568392924964314,"keywords":["cp","nocrits","nodmgspread","uncletopia"],"game_id":440,"stv_port":27076,"stv_name":"Uncletopia | London | 7 | No Payload | STV","players":null},{"server_id":41,"name":"Uncletopia | London | 8 | Community","name_short":"lon-8","host":"lon-1.uk.uncletopia.com","port":27085,"enabled":true,"region":"eu","cc":"gb","latitude":51.509865,"longitude":-0.118092,"reserved":0,"last_update":"0001-01-01T00:00:00Z","name_a2s":"Uncletopia | London | 8 | Community","protocol":17,"map":"pl_upward","folder":"tf","game":"Team Fortress","app_id":440,"player_count":0,"max_players":24,"Bots":0,"server_type":"Dedicated","server_os":"Linux","password":true,"vac":true,"version":"7757534","steam_id":85568392924964315,"keywords":["nocrits","nodmgspread","payload","uncletopia"],"game_id":440,"stv_port":27086,"stv_name":"Uncletopia | London | 8 | Community | STV","players":null},{"server_id":300,"name":"Uncletopia | Montr√©al | 1 | All Maps","name_short":"mtl-1","host":"mtl-1.ca.uncletopia.com","port":27015,"enabled":true,"region":"us-east","cc":"ca","latitude":45.50889,"longitude":-73.56167,"reserved":0,"last_update":"0001-01-01T00:00:00Z","name_a2s":"Uncletopia | Montr√©al | 1 | All Maps","protocol":17,"map":"pl_barnblitz","folder":"tf","game":"Team Fortress","app_id":440,"player_count":0,"max_players":24,"Bots":0,"server_type":"Dedicated","server_os":"Linux","password":true,"vac":true,"version":"7757534","steam_id":85568392924500087,"keywords":["nocrits","nodmgspread","payload","uncletopia"],"game_id":440,"stv_port":27016,"stv_name":"Uncletopia | Montr√©al | 1 | All Maps | STV","players":null},{"server_id":301,"name":"Uncletopia | Montr√©al | 2 | All Maps","name_short":"mtl-2","host":"mtl-1.ca.uncletopia.com","port":27025,"enabled":true,"region":"us-east","cc":"ca","latitude":45.50889,"longitude":-73.56167,"reserved":0,"last_update":"0001-01-01T00:00:00Z","name_a2s":"Uncletopia | Montr√©al | 2 | All Maps","protocol":17,"map":"koth_lakeside_final","folder":"tf","game":"Team Fortress","app_id":440,"player_count":0,"max_players":24,"Bots":0,"server_type":"Dedicated","server_os":"Linux","password":true,"vac":true,"version":"7757534","steam_id":85568392924500088,"keywords":["cp","nocrits","nodmgspread","uncletopia"],"game_id":440,"stv_port":27026,"stv_name":"Uncletopia | Montr√©al | 2 | All Maps | STV","players":null},{"server_id":302,"name":"Uncletopia | Montr√©al | 3 | All Maps","name_short":"mtl-3","host":"mtl-1.ca.uncletopia.com","port":27035,"enabled":true,"region":"us-east","cc":"ca","latitude":45.50889,"longitude":-73.56167,"reserved":0,"last_update":"0001-01-01T00:00:00Z","name_a2s":"Uncletopia | Montr√©al | 3 | All Maps","protocol":17,"map":"koth_lakeside_final","folder":"tf","game":"Team Fortress","app_id":440,"player_count":0,"max_players":24,"Bots":0,"server_type":"Dedicated","server_os":"Linux","password":true,"vac":true,"version":"7757534","steam_id":85568392924500089,"keywords":["cp","nocrits","nodmgspread","uncletopia"],"game_id":440,"stv_port":27036,"stv_name":"Uncletopia | Montr√©al | 3 | All Maps | STV","players":null},{"server_id":303,"name":"Uncletopia | Montr√©al | 4 | No Payload","name_short":"mtl-4","host":"mtl-1.ca.uncletopia.com","port":27045,"enabled":true,"region":"us-east","cc":"ca","latitude":45.50889,"longitude":-73.56167,"reserved":0,"last_update":"0001-01-01T00:00:00Z","name_a2s":"Uncletopia | Montr√©al | 4 | No Payload","protocol":17,"map":"pl_borneo","folder":"tf","game":"Team Fortress","app_id":440,"player_count":0,"max_players":24,"Bots":0,"server_type":"Dedicated","server_os":"Linux","password":true,"vac":true,"version":"7757534","steam_id":85568392924500090,"keywords":["nocrits","nodmgspread","payload","uncletopia"],"game_id":440,"stv_port":27046,"stv_name":"Uncletopia | Montr√©al | 4 | No Payload | STV","players":null},{"server_id":13,"name":"Uncletopia | New York City | 1 | All Maps","name_short":"nyc-1","host":"nyc-1.us.uncletopia.com","port":27015,"enabled":true,"region":"us-east","cc":"us","latitude":40.73061,"longitude":-73.93524,"reserved":0,"last_update":"0001-01-01T00:00:00Z","name_a2s":"Uncletopia | New York City | 1 | All Maps","protocol":17,"map":"pl_frontier_final","folder":"tf","game":"Team Fortress","app_id":440,"player_count":23,"max_players":24,"Bots":0,"server_type":"Dedicated","server_os":"Linux","password":true,"vac":true,"version":"7757534","steam_id":85568392924469993,"keywords":["nocrits","nodmgspread","payload","uncletopia"],"game_id":440,"stv_port":27016,"stv_name":"Uncletopia | New York City | 1 | All Maps | STV","players":[{"user_id":507,"name":"Subway Fan","steam_id":76561198336372790,"connected_time":1926000000000,"state":"active","ping":30},{"user_id":488,"name":"kametro4","steam_id":76561198835430429,"connected_time":2906000000000,"state":"active","ping":103},{"user_id":508,"name":"Hermit not Kermit","steam_id":76561198106182525,"connected_time":1699000000000,"state":"active","ping":128},{"user_id":416,"name":"I ate those food","steam_id":76561198084614149,"connected_time":7415000000000,"state":"active","ping":44},{"user_id":520,"name":"poptart","steam_id":76561199211345801,"connected_time":769000000000,"state":"active","ping":72},{"user_id":479,"name":"Speedy","steam_id":76561198080761661,"connected_time":3407000000000,"state":"active","ping":64},{"user_id":498,"name":"-W3E- grim10465","steam_id":76561198045698581,"connected_time":2484000000000,"state":"active","ping":31},{"user_id":513,"name":"RandleS9","steam_id":76561198084259072,"connected_time":1279000000000,"state":"active","ping":100},{"user_id":506,"name":"Saristan","steam_id":76561198093346048,"connected_time":2156000000000,"state":"active","ping":40},{"user_id":511,"name":"Plutia","steam_id":76561197996787193,"connected_time":1312000000000,"state":"active","ping":69},{"user_id":466,"name":"waluigi fortnite balls","steam_id":76561198083060760,"connected_time":4672000000000,"state":"active","ping":72},{"user_id":421,"name":"Nopendium","steam_id":76561198087712908,"connected_time":7365000000000,"state":"active","ping":51},{"user_id":524,"name":"Dundramino","steam_id":76561198196976154,"connected_time":507000000000,"state":"active","ping":67},{"user_id":531,"name":"Moses from Beyblade","steam_id":76561198320780561,"connected_time":2000000000,"state":"spawning","ping":91},{"user_id":521,"name":"Hi! I'm Twilight Sparkle! :)","steam_id":76561198982584470,"connected_time":741000000000,"state":"active","ping":89},{"user_id":500,"name":"Toast","steam_id":76561198234616616,"connected_time":2441000000000,"state":"active","ping":82},{"user_id":527,"name":"I HATE SASUKE","steam_id":76561198083975056,"connected_time":222000000000,"state":"active","ping":76},{"user_id":528,"name":"rlty","steam_id":76561198009395055,"connected_time":159000000000,"state":"active","ping":53},{"user_id":483,"name":"MAXIMUS","steam_id":76561198085809453,"connected_time":3130000000000,"state":"active","ping":82},{"user_id":529,"name":"Crylec","steam_id":76561198092755279,"connected_time":137000000000,"state":"active","ping":54},{"user_id":494,"name":"saurhead","steam_id":76561198132937722,"connected_time":2661000000000,"state":"active","ping":45},{"user_id":464,"name":"rudy","steam_id":76561198088712799,"connected_time":5090000000000,"state":"active","ping":81},{"user_id":530,"name":"Transformouse","steam_id":76561198004669368,"connected_time":102000000000,"state":"active","ping":80}]},{"server_id":14,"name":"Uncletopia | New York City | 2 | All Maps","name_short":"nyc-2","host":"nyc-1.us.uncletopia.com","port":27025,"enabled":true,"region":"us-east","cc":"us","latitude":40.73061,"longitude":-73.93524,"reserved":0,"last_update":"0001-01-01T00:00:00Z","name_a2s":"Uncletopia | New York City | 2 | All Maps","protocol":17,"map":"pl_thundermountain","folder":"tf","game":"Team Fortress","app_id":440,"player_count":21,"max_players":24,"Bots":0,"server_type":"Dedicated","server_os":"Linux","password":true,"vac":true,"version":"7757534","steam_id":85568392924469994,"keywords":["nocrits","nodmgspread","payload","uncletopia"],"game_id":440,"stv_port":27026,"stv_name":"Uncletopia | New York City | 2 | All Maps | STV","players":[{"user_id":775,"name":"VX_","steam_id":76561198211529143,"connected_time":1657000000000,"state":"active","ping":62},{"user_id":762,"name":"Monsterjessy","steam_id":76561198035630985,"connected_time":2483000000000,"state":"active","ping":68},{"user_id":774,"name":"GhostCoffee","steam_id":76561198105228900,"connected_time":1661000000000,"state":"active","ping":42},{"user_id":753,"name":"Voodo133","steam_id":76561198042670351,"connected_time":2956000000000,"state":"active","ping":79},{"user_id":776,"name":"Antwan","steam_id":76561198246200638,"connected_time":1626000000000,"state":"active","ping":87},{"user_id":786,"name":"Porsy","steam_id":76561198041850843,"connected_time":613000000000,"state":"active","ping":67},{"user_id":787,"name":"Biosock Infiknit","steam_id":76561198072693794,"connected_time":607000000000,"state":"active","ping":67},{"user_id":731,"name":"J O S H¬≥¬≤","steam_id":76561198122603779,"connected_time":5165000000000,"state":"active","ping":124},{"user_id":788,"name":"hack fraud","steam_id":76561198015036066,"connected_time":495000000000,"state":"active","ping":107},{"user_id":746,"name":"yuki","steam_id":76561198028645098,"connected_time":3806000000000,"state":"active","ping":102},{"user_id":790,"name":"cuckboi","steam_id":76561198343060961,"connected_time":246000000000,"state":"active","ping":137},{"user_id":725,"name":"saucy jack","steam_id":76561198307012859,"connected_time":5315000000000,"state":"active","ping":100},{"user_id":791,"name":"malarkey","steam_id":76561198084544420,"connected_time":147000000000,"state":"active","ping":60},{"user_id":770,"name":"DededeMain | trade.tf","steam_id":76561198310951632,"connected_time":2081000000000,"state":"active","ping":59},{"user_id":739,"name":"Unc4nny","steam_id":76561198131507408,"connected_time":4795000000000,"state":"active","ping":76},{"user_id":726,"name":"robot with human hair","steam_id":76561198018691308,"connected_time":5306000000000,"state":"active","ping":73},{"user_id":782,"name":"Yesterday's Grouse's Son","steam_id":76561198259873083,"connected_time":1450000000000,"state":"active","ping":129},{"user_id":732,"name":"akirajimbo","steam_id":76561197979960008,"connected_time":5150000000000,"state":"active","ping":45},{"user_id":783,"name":"Trusty","steam_id":76561198035444237,"connected_time":1407000000000,"state":"active","ping":47},{"user_id":769,"name":"the keithvinci kode","steam_id":76561198056622157,"connected_time":2168000000000,"state":"active","ping":46}]},{"server_id":15,"name":"Uncletopia | New York City | 3 | Stopwatch Beta","name_short":"nyc-3","host":"nyc-1.us.uncletopia.com","port":27035,"enabled":true,"region":"us-east","cc":"us","latitude":40.73061,"longitude":-73.93524,"reserved":0,"last_update":"0001-01-01T00:00:00Z","name_a2s":"Uncletopia | New York City | 3 | Stopwatch Beta","protocol":17,"map":"workshop/koth_ashville_final.ugc2130459942","folder":"tf","game":"Team Fortress","app_id":440,"player_count":0,"max_players":24,"Bots":0,"server_type":"Dedicated","server_os":"Linux","password":true,"vac":true,"version":"7757534","steam_id":85568392924742820,"keywords":["cp","nocrits","nodmgspread","uncletopia"],"game_id":440,"stv_port":27036,"stv_name":"Uncletopia | New York City | 3 | Stopwatch Beta | STV","players":null},{"server_id":16,"name":"Uncletopia | New York City | 4 | Community","name_short":"nyc-4","host":"nyc-1.us.uncletopia.com","port":27045,"enabled":true,"region":"us-east","cc":"us","latitude":40.73061,"longitude":-73.93524,"reserved":0,"last_update":"0001-01-01T00:00:00Z","name_a2s":"Uncletopia | New York City | 4 | Community","protocol":17,"map":"workshop/koth_bagel_rc6.ugc2514036946","folder":"tf","game":"Team Fortress","app_id":440,"player_count":0,"max_players":24,"Bots":0,"server_type":"Dedicated","server_os":"Linux","password":true,"vac":true,"version":"7757534","steam_id":85568392924742821,"keywords":["cp","nocrits","nodmgspread","uncletopia"],"game_id":440,"stv_port":27046,"stv_name":"Uncletopia | New York City | 4 | Community | STV","players":null},{"server_id":142,"name":"Uncletopia | S√£o Paulo | 1 | All Maps","name_short":"sao-1","host":"sao-1.br.uncletopia.com","port":27015,"enabled":true,"region":"sa","cc":"br","latitude":-23.533773,"longitude":-46.62529,"reserved":0,"last_update":"0001-01-01T00:00:00Z","name_a2s":"Uncletopia | S√£o Paulo | 1 | All Maps","protocol":17,"map":"pl_pier","folder":"tf","game":"Team Fortress","app_id":440,"player_count":0,"max_players":24,"Bots":0,"server_type":"Dedicated","server_os":"Linux","password":true,"vac":true,"version":"7757534","steam_id":85568392924469996,"keywords":["nocrits","nodmgspread","payload","uncletopia"],"game_id":440,"stv_port":27016,"stv_name":"Uncletopia | S√£o Paulo | 1 | All Maps | STV","players":null},{"server_id":143,"name":"Uncletopia | S√£o Paulo | 2 | All Maps","name_short":"sao-2","host":"sao-2.br.uncletopia.com","port":27015,"enabled":true,"region":"sa","cc":"br","latitude":-23.533773,"longitude":-46.62529,"reserved":0,"last_update":"0001-01-01T00:00:00Z","name_a2s":"Uncletopia | S√£o Paulo | 2 | All Maps","protocol":17,"map":"koth_viaduct","folder":"tf","game":"Team Fortress","app_id":440,"player_count":0,"max_players":24,"Bots":0,"server_type":"Dedicated","server_os":"Linux","password":true,"vac":true,"version":"7757534","steam_id":85568392924485349,"keywords":["cp","nocrits","nodmgspread","uncletopia"],"game_id":440,"stv_port":27016,"stv_name":"Uncletopia | S√£o Paulo | 2 | All Maps | STV","players":null},{"server_id":7,"name":"Uncletopia | Seattle | 1 | All Maps","name_short":"sea-1","host":"sea-1.us.uncletopia.com","port":27015,"enabled":true,"region":"us-west","cc":"us","latitude":47.608013,"longitude":-122.33517,"reserved":0,"last_update":"0001-01-01T00:00:00Z","name_a2s":"Uncletopia | Seattle | 1 | All Maps","protocol":17,"map":"cp_steel","folder":"tf","game":"Team Fortress","app_id":440,"player_count":24,"max_players":24,"Bots":0,"server_type":"Dedicated","server_os":"Linux","password":true,"vac":true,"version":"7757534","steam_id":85568392924469997,"keywords":["cp","nocrits","nodmgspread","uncletopia"],"game_id":440,"stv_port":27016,"stv_name":"Uncletopia | Seattle | 1 | All Maps | STV","players":[{"user_id":713,"name":"‚ô• President Shitfart ‚ô•","steam_id":76561198141819053,"connected_time":3612000000000,"state":"active","ping":66},{"user_id":747,"name":"Arsonist Goose","steam_id":76561198147441830,"connected_time":1554000000000,"state":"active","ping":71},{"user_id":764,"name":"D'Ork Android","steam_id":76561198018757779,"connected_time":104000000000,"state":"active","ping":60},{"user_id":748,"name":"pookus","steam_id":76561198114239912,"connected_time":1520000000000,"state":"active","ping":50},{"user_id":685,"name":"Reiidaya","steam_id":76561198325306660,"connected_time":6122000000000,"state":"active","ping":57},{"user_id":711,"name":"GgDionne","steam_id":76561198079684772,"connected_time":3864000000000,"state":"active","ping":54},{"user_id":724,"name":"Sniff","steam_id":76561198010270922,"connected_time":3068000000000,"state":"active","ping":41},{"user_id":750,"name":"Mr8bittripper","steam_id":76561198133894229,"connected_time":1433000000000,"state":"active","ping":45},{"user_id":746,"name":"......","steam_id":76561198067612741,"connected_time":1674000000000,"state":"active","ping":47},{"user_id":722,"name":"professional gaymer","steam_id":76561198063949642,"connected_time":3163000000000,"state":"active","ping":39},{"user_id":723,"name":"O","steam_id":76561198450073779,"connected_time":3155000000000,"state":"active","ping":45},{"user_id":622,"name":"rat gets the cheese","steam_id":76561198031234032,"connected_time":10299000000000,"state":"active","ping":94},{"user_id":761,"name":"Dauntless Duelist","steam_id":76561198025056018,"connected_time":461000000000,"state":"active","ping":54},{"user_id":744,"name":"Rhymloh","steam_id":76561198056788413,"connected_time":2076000000000,"state":"active","ping":59},{"user_id":751,"name":"SilentFootba11","steam_id":76561199006570947,"connected_time":1417000000000,"state":"active","ping":137},{"user_id":676,"name":"Aardappel","steam_id":76561198030894676,"connected_time":7085000000000,"state":"active","ping":74},{"user_id":752,"name":"JTuu","steam_id":76561198030606396,"connected_time":1391000000000,"state":"active","ping":42},{"user_id":760,"name":"Stev the Prurient Oxymoron","steam_id":76561197999442625,"connected_time":520000000000,"state":"active","ping":57},{"user_id":763,"name":"spenca","steam_id":76561198025371154,"connected_time":298000000000,"state":"active","ping":67},{"user_id":755,"name":"Shazzy","steam_id":76561198145460523,"connected_time":1338000000000,"state":"active","ping":44},{"user_id":762,"name":"greens beans","steam_id":76561198153611491,"connected_time":410000000000,"state":"active","ping":42},{"user_id":731,"name":"Robert E.T.","steam_id":76561197986439371,"connected_time":2537000000000,"state":"active","ping":54},{"user_id":733,"name":"Google","steam_id":76561198857237473,"connected_time":2514000000000,"state":"active","ping":54},{"user_id":737,"name":"Dr. Karl, the AUS Science Guy","steam_id":76561198031278747,"connected_time":2258000000000,"state":"active","ping":41}]},{"server_id":119,"name":"Uncletopia | Seattle | 2 | All Maps","name_short":"sea-2","host":"sea-1.us.uncletopia.com","port":27025,"enabled":true,"region":"us-west","cc":"us","latitude":47.608013,"longitude":-122.33517,"reserved":0,"last_update":"0001-01-01T00:00:00Z","name_a2s":"Uncletopia | Seattle | 2 | All Maps","protocol":17,"map":"pl_pier","folder":"tf","game":"Team Fortress","app_id":440,"player_count":24,"max_players":24,"Bots":0,"server_type":"Dedicated","server_os":"Linux","password":true,"vac":true,"version":"7757534","steam_id":85568392924469998,"keywords":["nocrits","nodmgspread","payload","uncletopia"],"game_id":440,"stv_port":27026,"stv_name":"Uncletopia | Seattle | 2 | All Maps | STV","players":[{"user_id":785,"name":"PinguEnjoyer6","steam_id":76561199186723516,"connected_time":2693000000000,"state":"active","ping":68},{"user_id":808,"name":"dirty30","steam_id":76561198021226566,"connected_time":1877000000000,"state":"active","ping":48},{"user_id":763,"name":"Scrumfel Nutz","steam_id":76561198123286409,"connected_time":4026000000000,"state":"active","ping":54},{"user_id":815,"name":"THAT CAT","steam_id":76561198010828625,"connected_time":1358000000000,"state":"active","ping":45},{"user_id":796,"name":"Lz","steam_id":76561198445689515,"connected_time":2285000000000,"state":"active","ping":95},{"user_id":827,"name":"breeze","steam_id":76561198003181343,"connected_time":835000000000,"state":"active","ping":116},{"user_id":819,"name":"S Q U I S H E  T H A T  C A T","steam_id":76561198293865429,"connected_time":1283000000000,"state":"active","ping":40},{"user_id":831,"name":"skelter","steam_id":76561199228915146,"connected_time":655000000000,"state":"active","ping":116},{"user_id":793,"name":"magnellio","steam_id":76561198060296782,"connected_time":2448000000000,"state":"active","ping":73},{"user_id":811,"name":"Cam(era)","steam_id":76561198285054047,"connected_time":1714000000000,"state":"active","ping":83},{"user_id":818,"name":"big car","steam_id":76561198067082350,"connected_time":1296000000000,"state":"active","ping":80},{"user_id":829,"name":"Bandit","steam_id":76561199087543553,"connected_time":727000000000,"state":"active","ping":90},{"user_id":822,"name":"Greskrendtregk","steam_id":76561197969553142,"connected_time":1257000000000,"state":"active","ping":59},{"user_id":800,"name":"lp","steam_id":76561198058469527,"connected_time":2251000000000,"state":"active","ping":123},{"user_id":823,"name":"summerof69","steam_id":76561198069049410,"connected_time":1232000000000,"state":"active","ping":98},{"user_id":825,"name":"The local hobo","steam_id":76561198289650060,"connected_time":1053000000000,"state":"active","ping":78},{"user_id":797,"name":"Jkbh1","steam_id":76561198093449670,"connected_time":2278000000000,"state":"active","ping":76},{"user_id":826,"name":"The Average F2P","steam_id":76561199438622491,"connected_time":959000000000,"state":"active","ping":56},{"user_id":834,"name":"saladfish","steam_id":76561198453203619,"connected_time":303000000000,"state":"active","ping":74},{"user_id":835,"name":"Spanki","steam_id":76561198161659843,"connected_time":172000000000,"state":"active","ping":170},{"user_id":836,"name":"Ts0wl","steam_id":76561199164829066,"connected_time":147000000000,"state":"active","ping":129},{"user_id":809,"name":"SomeBandicoot","steam_id":76561198086977906,"connected_time":1792000000000,"state":"active","ping":92},{"user_id":828,"name":"Amadeus","steam_id":76561198160047173,"connected_time":820000000000,"state":"active","ping":44},{"user_id":806,"name":"vareh","steam_id":76561197993190926,"connected_time":2162000000000,"state":"active","ping":65}]},{"server_id":406,"name":"Uncletopia | Seattle | 3 | Stopwatch Beta","name_short":"sea-3","host":"sea-1.us.uncletopia.com","port":27035,"enabled":true,"region":"us-west","cc":"us","latitude":47.608013,"longitude":-122.33517,"reserved":0,"last_update":"0001-01-01T00:00:00Z","name_a2s":"Uncletopia | Seattle | 3 | Stopwatch Beta","protocol":17,"map":"koth_lakeside_final","folder":"tf","game":"Team Fortress","app_id":440,"player_count":0,"max_players":24,"Bots":0,"server_type":"Dedicated","server_os":"Linux","password":true,"vac":true,"version":"7757534","steam_id":85568392924515217,"keywords":["cp","nocrits","nodmgspread","uncletopia"],"game_id":440,"stv_port":27036,"stv_name":"Uncletopia | Seattle | 3 | Stopwatch Beta | STV","players":null},{"server_id":17,"name":"Uncletopia | San Francisco | 1 | All Maps","name_short":"sfo-1","host":"sfo-1.us.uncletopia.com","port":27015,"enabled":true,"region":"us-west","cc":"us","latitude":37.77397,"longitude":-122.4313,"reserved":0,"last_update":"0001-01-01T00:00:00Z","name_a2s":"Uncletopia | San Francisco | 1 | All Maps","protocol":17,"map":"cp_snakewater_final1","folder":"tf","game":"Team Fortress","app_id":440,"player_count":23,"max_players":24,"Bots":0,"server_type":"Dedicated","server_os":"Linux","password":true,"vac":true,"version":"7757534","steam_id":85568392924469999,"keywords":["cp","nocrits","nodmgspread","uncletopia"],"game_id":440,"stv_port":27016,"stv_name":"Uncletopia | San Francisco | 1 | All Maps | STV","players":[{"user_id":396,"name":"max poop retention","steam_id":76561199050461421,"connected_time":709000000000,"state":"active","ping":78},{"user_id":371,"name":"l√∂t dasgh","steam_id":76561198060193082,"connected_time":2299000000000,"state":"active","ping":43},{"user_id":412,"name":"American Dad Funny Moments #32","steam_id":76561198254874328,"connected_time":53000000000,"state":"active","ping":142},{"user_id":410,"name":"Chucklenuts Mcfucklebutts","steam_id":76561198103382044,"connected_time":90000000000,"state":"active","ping":95},{"user_id":368,"name":"Jolly","steam_id":76561198104802817,"connected_time":2990000000000,"state":"active","ping":45},{"user_id":398,"name":"EatSomeBEES","steam_id":76561198047334307,"connected_time":663000000000,"state":"active","ping":75},{"user_id":387,"name":"zeel107","steam_id":76561198063892990,"connected_time":961000000000,"state":"active","ping":73},{"user_id":271,"name":"postgres","steam_id":76561198011204750,"connected_time":10131000000000,"state":"active","ping":89},{"user_id":405,"name":"kite man","steam_id":76561198156336213,"connected_time":324000000000,"state":"active","ping":54},{"user_id":393,"name":"daniel","steam_id":76561197991289254,"connected_time":836000000000,"state":"active","ping":74},{"user_id":406,"name":"Friggy","steam_id":76561198131467867,"connected_time":267000000000,"state":"active","ping":36},{"user_id":382,"name":"NinjAssassin51","steam_id":76561198081387392,"connected_time":1435000000000,"state":"active","ping":71},{"user_id":384,"name":"Cheetose Intolerant","steam_id":76561198013399809,"connected_time":1202000000000,"state":"active","ping":58},{"user_id":390,"name":"Rick St. Riot","steam_id":76561198058891470,"connected_time":911000000000,"state":"active","ping":48},{"user_id":394,"name":"tN|SpiritofLight","steam_id":76561197967936643,"connected_time":803000000000,"state":"active","ping":56},{"user_id":392,"name":"bbgurl303","steam_id":76561197994814357,"connected_time":875000000000,"state":"active","ping":49},{"user_id":400,"name":"Arthropod Enjoyer","steam_id":76561198980062131,"connected_time":653000000000,"state":"active","ping":120},{"user_id":401,"name":"DoomwyteShroom","steam_id":76561198250419416,"connected_time":621000000000,"state":"active","ping":69},{"user_id":407,"name":"Tockbird","steam_id":76561199437964594,"connected_time":203000000000,"state":"active","ping":69},{"user_id":413,"name":"diymo","steam_id":76561198017600790,"connected_time":44000000000,"state":"active","ping":45},{"user_id":252,"name":"garry","steam_id":76561199091007559,"connected_time":11736000000000,"state":"active","ping":67},{"user_id":409,"name":"Flyingcat9000","steam_id":76561198179561797,"connected_time":165000000000,"state":"active","ping":34},{"user_id":414,"name":"[PSC] ProfessorDoctorHoff","steam_id":76561198072718345,"connected_time":30000000000,"state":"active","ping":111}]},{"server_id":18,"name":"Uncletopia | San Francisco | 2 | All Maps","name_short":"sfo-2","host":"sfo-1.us.uncletopia.com","port":27025,"enabled":true,"region":"us-west","cc":"us","latitude":37.77397,"longitude":-122.4313,"reserved":0,"last_update":"0001-01-01T00:00:00Z","name_a2s":"Uncletopia | San Francisco | 2 | All Maps","protocol":17,"map":"pl_thundermountain","folder":"tf","game":"Team Fortress","app_id":440,"player_count":24,"max_players":24,"Bots":0,"server_type":"Dedicated","server_os":"Linux","password":true,"vac":true,"version":"7757534","steam_id":85568392924470000,"keywords":["nocrits","nodmgspread","payload","uncletopia"],"game_id":440,"stv_port":27026,"stv_name":"Uncletopia | San Francisco | 2 | All Maps | STV","players":[{"user_id":160,"name":"chanoc","steam_id":76561198026734746,"connected_time":2505000000000,"state":"active","ping":44},{"user_id":163,"name":"giura","steam_id":76561197986794525,"connected_time":2118000000000,"state":"active","ping":93},{"user_id":170,"name":"el muchacho","steam_id":76561198282632562,"connected_time":1951000000000,"state":"active","ping":100},{"user_id":130,"name":"Lamy","steam_id":76561198348354629,"connected_time":5832000000000,"state":"active","ping":59},{"user_id":191,"name":"bruxing and boggling","steam_id":76561198204169516,"connected_time":619000000000,"state":"active","ping":92},{"user_id":192,"name":"gamer_hater","steam_id":76561198973306314,"connected_time":510000000000,"state":"active","ping":47},{"user_id":184,"name":"borzier","steam_id":76561198069190432,"connected_time":1372000000000,"state":"active","ping":118},{"user_id":164,"name":"ok","steam_id":76561198843092402,"connected_time":2094000000000,"state":"active","ping":135},{"user_id":188,"name":"Shan","steam_id":76561198043710513,"connected_time":1229000000000,"state":"active","ping":127},{"user_id":183,"name":"Matte :)","steam_id":76561198070631073,"connected_time":1377000000000,"state":"active","ping":38},{"user_id":190,"name":"Master Cannoli","steam_id":76561198272327518,"connected_time":765000000000,"state":"active","ping":72},{"user_id":185,"name":"Twisted Freaking Cyclepath","steam_id":76561198080775161,"connected_time":1357000000000,"state":"active","ping":82},{"user_id":195,"name":"good burger employee","steam_id":76561198190903589,"connected_time":138000000000,"state":"active","ping":63},{"user_id":175,"name":"ULTRACOCK","steam_id":76561198022967929,"connected_time":1909000000000,"state":"active","ping":60},{"user_id":157,"name":"Igrium","steam_id":76561198119549811,"connected_time":2791000000000,"state":"active","ping":56},{"user_id":193,"name":"CheeseCake488","steam_id":76561199407617942,"connected_time":458000000000,"state":"active","ping":138},{"user_id":71,"name":"rmbl","steam_id":76561198150137369,"connected_time":12205000000000,"state":"active","ping":52},{"user_id":156,"name":"PootisLife","steam_id":76561198074400568,"connected_time":3363000000000,"state":"active","ping":57},{"user_id":186,"name":"boy who stinks good","steam_id":76561198149565822,"connected_time":1352000000000,"state":"active","ping":103},{"user_id":178,"name":"fitotutus","steam_id":76561197974993253,"connected_time":1786000000000,"state":"active","ping":133},{"user_id":189,"name":"NuWorld Order","steam_id":76561198041842955,"connected_time":902000000000,"state":"active","ping":130},{"user_id":147,"name":"Ryld","steam_id":76561198010174380,"connected_time":4242000000000,"state":"active","ping":76},{"user_id":98,"name":"The Cube","steam_id":76561199382565628,"connected_time":9737000000000,"state":"active","ping":63},{"user_id":179,"name":"r u guys going trick or treatin","steam_id":76561199074585110,"connected_time":1711000000000,"state":"active","ping":58}]},{"server_id":19,"name":"Uncletopia | San Francisco | 3 | Stopwatch Beta","name_short":"sfo-3","host":"sfo-1.us.uncletopia.com","port":27035,"enabled":true,"region":"us-west","cc":"us","latitude":37.77397,"longitude":-122.4313,"reserved":0,"last_update":"0001-01-01T00:00:00Z","name_a2s":"Uncletopia | San Francisco | 3 | Stopwatch Beta","protocol":17,"map":"pl_borneo","folder":"tf","game":"Team Fortress","app_id":440,"player_count":0,"max_players":24,"Bots":0,"server_type":"Dedicated","server_os":"Linux","password":true,"vac":true,"version":"7757534","steam_id":85568392924742824,"keywords":["nocrits","nodmgspread","payload","uncletopia"],"game_id":440,"stv_port":27036,"stv_name":"Uncletopia | San Francisco | 3 | Stopwatch Beta | STV","players":null},{"server_id":20,"name":"Uncletopia | San Francisco | 4 | Community","name_short":"sfo-4","host":"sfo-1.us.uncletopia.com","port":27045,"enabled":true,"region":"us-west","cc":"us","latitude":37.77397,"longitude":-122.4313,"reserved":0,"last_update":"0001-01-01T00:00:00Z","name_a2s":"Uncletopia | San Francisco | 4 | Community","protocol":17,"map":"koth_highpass","folder":"tf","game":"Team Fortress","app_id":440,"player_count":0,"max_players":24,"Bots":0,"server_type":"Dedicated","server_os":"Linux","password":true,"vac":true,"version":"7757534","steam_id":85568392924742826,"keywords":["cp","nocrits","nodmgspread","uncletopia"],"game_id":440,"stv_port":27046,"stv_name":"Uncletopia | San Francisco | 4 | Community | STV","players":null},{"server_id":141,"name":"Uncletopia | Sydney | 1 | All Maps","name_short":"syd-1","host":"syd-1.au.uncletopia.com","port":27015,"enabled":true,"region":"au","cc":"au","latitude":-33.865143,"longitude":151.2099,"reserved":0,"last_update":"0001-01-01T00:00:00Z","name_a2s":"Uncletopia | Sydney | 1 | All Maps","protocol":17,"map":"cp_steel","folder":"tf","game":"Team Fortress","app_id":440,"player_count":24,"max_players":24,"Bots":0,"server_type":"Dedicated","server_os":"Linux","password":true,"vac":true,"version":"7757534","steam_id":85568392924470001,"keywords":["cp","nocrits","nodmgspread","uncletopia"],"game_id":440,"stv_port":27016,"stv_name":"Uncletopia | Sydney | 1 | All Maps | STV","players":[{"user_id":264,"name":"saudi ambassador messi","steam_id":76561198031293430,"connected_time":690000000000,"state":"active","ping":84},{"user_id":242,"name":"electro599","steam_id":76561198058148858,"connected_time":2318000000000,"state":"active","ping":58},{"user_id":265,"name":"weeyamumbaweh","steam_id":76561198061960926,"connected_time":687000000000,"state":"active","ping":105},{"user_id":266,"name":"Oysenberry","steam_id":76561198125443335,"connected_time":687000000000,"state":"active","ping":41},{"user_id":255,"name":"spycat22","steam_id":76561198955234666,"connected_time":1272000000000,"state":"active","ping":78},{"user_id":233,"name":"Jiffy360","steam_id":76561198149550772,"connected_time":2843000000000,"state":"active","ping":90},{"user_id":254,"name":"Diming","steam_id":76561198325584599,"connected_time":1281000000000,"state":"active","ping":62},{"user_id":206,"name":"Asl:3x","steam_id":76561198972095766,"connected_time":4635000000000,"state":"active","ping":41},{"user_id":267,"name":"Livid","steam_id":76561198060024585,"connected_time":675000000000,"state":"active","ping":43},{"user_id":271,"name":"Fleetfoot","steam_id":76561198072845816,"connected_time":669000000000,"state":"active","ping":46},{"user_id":273,"name":"sauce beef flavor broad beans","steam_id":76561198836830797,"connected_time":429000000000,"state":"active","ping":54},{"user_id":268,"name":"Blazey ‰ºäÈÅî ÊîøÂÆó","steam_id":76561197971082275,"connected_time":674000000000,"state":"active","ping":119},{"user_id":209,"name":"Grantymunk","steam_id":76561198051439179,"connected_time":4558000000000,"state":"active","ping":79},{"user_id":272,"name":"Sherpa","steam_id":76561198018913829,"connected_time":667000000000,"state":"active","ping":52},{"user_id":244,"name":"Spring Yawd Zown","steam_id":76561198340730741,"connected_time":2306000000000,"state":"active","ping":59},{"user_id":256,"name":"blortzoing","steam_id":76561198063481761,"connected_time":1260000000000,"state":"active","ping":45},{"user_id":257,"name":"HYPER","steam_id":76561198302487295,"connected_time":995000000000,"state":"active","ping":38},{"user_id":219,"name":"Wallahi_Legend","steam_id":76561198442691771,"connected_time":4355000000000,"state":"active","ping":81},{"user_id":274,"name":"Bin","steam_id":76561199117653318,"connected_time":421000000000,"state":"active","ping":65},{"user_id":235,"name":"Bottleknight(Adept)","steam_id":76561198816241144,"connected_time":2782000000000,"state":"active","ping":88},{"user_id":275,"name":"Qwertles","steam_id":76561198033779273,"connected_time":388000000000,"state":"active","ping":55},{"user_id":245,"name":"uncle nephew junior","steam_id":76561198930683342,"connected_time":2306000000000,"state":"active","ping":59},{"user_id":277,"name":"TNTfistpump","steam_id":76561198821659675,"connected_time":103000000000,"state":"active","ping":77},{"user_id":250,"name":"Turb Durgler","steam_id":76561198055358448,"connected_time":1841000000000,"state":"active","ping":64}]},{"server_id":123,"name":"Uncletopia | Sydney | 2 | All Maps","name_short":"syd-2","host":"syd-1.au.uncletopia.com","port":27025,"enabled":true,"region":"au","cc":"au","latitude":-33.865143,"longitude":151.2099,"reserved":0,"last_update":"0001-01-01T00:00:00Z","name_a2s":"Uncletopia | Sydney | 2 | All Maps","protocol":17,"map":"koth_highpass","folder":"tf","game":"Team Fortress","app_id":440,"player_count":3,"max_players":24,"Bots":0,"server_type":"Dedicated","server_os":"Linux","password":true,"vac":true,"version":"7757534","steam_id":85568392924470002,"keywords":["cp","nocrits","nodmgspread","uncletopia"],"game_id":440,"stv_port":27026,"stv_name":"Uncletopia | Sydney | 2 | All Maps | STV","players":[{"user_id":84,"name":"YourWishes","steam_id":76561198154414336,"connected_time":1568000000000,"state":"active","ping":188},{"user_id":85,"name":"Shadow Puppeteer","steam_id":76561198151121997,"connected_time":1496000000000,"state":"active","ping":70},{"user_id":86,"name":"Lord Oink","steam_id":76561198125237921,"connected_time":1441000000000,"state":"active","ping":39}]},{"server_id":395,"name":"Uncletopia | Sydney | 3 | All Maps","name_short":"syd-3","host":"syd-1.au.uncletopia.com","port":27035,"enabled":true,"region":"au","cc":"au","latitude":-33.865143,"longitude":151.2099,"reserved":0,"last_update":"0001-01-01T00:00:00Z","name_a2s":"Uncletopia | Sydney | 3 | All Maps","protocol":17,"map":"cp_sunshine","folder":"tf","game":"Team Fortress","app_id":440,"player_count":2,"max_players":24,"Bots":0,"server_type":"Dedicated","server_os":"Linux","password":true,"vac":true,"version":"7757534","steam_id":85568392925194467,"keywords":["cp","nocrits","nodmgspread","uncletopia"],"game_id":440,"stv_port":27036,"stv_name":"Uncletopia | Sydney | 3 | All Maps | STV","players":[{"user_id":29,"name":"Urgay (The Country)","steam_id":76561199400803210,"connected_time":1225000000000,"state":"active","ping":53},{"user_id":30,"name":"micheal cusack (real)","steam_id":76561199087704467,"connected_time":1176000000000,"state":"active","ping":50}]},{"server_id":396,"name":"Uncletopia | Sydney | 4 | All Maps","name_short":"syd-4","host":"syd-1.au.uncletopia.com","port":27045,"enabled":true,"region":"au","cc":"au","latitude":-33.865143,"longitude":151.2099,"reserved":0,"last_update":"0001-01-01T00:00:00Z","name_a2s":"Uncletopia | Sydney | 4 | All Maps","protocol":17,"map":"pl_borneo","folder":"tf","game":"Team Fortress","app_id":440,"player_count":0,"max_players":24,"Bots":0,"server_type":"Dedicated","server_os":"Linux","password":true,"vac":true,"version":"7757534","steam_id":85568392925397958,"keywords":["nocrits","nodmgspread","payload","uncletopia"],"game_id":440,"stv_port":27046,"stv_name":"Uncletopia | Sydney | 4 | All Maps | STV","players":null},{"server_id":58,"name":"Uncletopia | Sydney | 5 | Stopwatch Beta","name_short":"syd-5","host":"syd-1.au.uncletopia.com","port":27055,"enabled":true,"region":"au","cc":"au","latitude":-33.865143,"longitude":151.2099,"reserved":0,"last_update":"0001-01-01T00:00:00Z","name_a2s":"Uncletopia | Sydney | 5 | Stopwatch Beta","protocol":17,"map":"koth_highpass","folder":"tf","game":"Team Fortress","app_id":440,"player_count":0,"max_players":24,"Bots":0,"server_type":"Dedicated","server_os":"Linux","password":true,"vac":true,"version":"7757534","steam_id":85568392925397959,"keywords":["cp","nocrits","nodmgspread","uncletopia"],"game_id":440,"stv_port":27056,"stv_name":"Uncletopia | Sydney | 5 | Stopwatch Beta | STV","players":null},{"server_id":59,"name":"Uncletopia | Sydney | 6 | Community","name_short":"syd-6","host":"syd-1.au.uncletopia.com","port":27065,"enabled":true,"region":"au","cc":"au","latitude":-33.865143,"longitude":151.2099,"reserved":0,"last_update":"0001-01-01T00:00:00Z","name_a2s":"Uncletopia | Sydney | 6 | Community","protocol":17,"map":"workshop/koth_synthetic_rc6a.ugc1549817316","folder":"tf","game":"Team Fortress","app_id":440,"player_count":0,"max_players":24,"Bots":0,"server_type":"Dedicated","server_os":"Linux","password":true,"vac":true,"version":"7757534","steam_id":85568392925397960,"keywords":["cp","nocrits","nodmgspread","uncletopia"],"game_id":440,"stv_port":27066,"stv_name":"Uncletopia | Sydney | 6 | Community | STV","players":null},{"server_id":49,"name":"Uncletopia | Warsaw | 1 | All Maps","name_short":"waw-1","host":"waw-1.pl.uncletopia.com","port":27015,"enabled":true,"region":"eu","cc":"pl","latitude":52.2297,"longitude":21.017532,"reserved":0,"last_update":"0001-01-01T00:00:00Z","name_a2s":"","protocol":0,"map":"","folder":"","game":"","app_id":0,"player_count":0,"max_players":0,"Bots":0,"server_type":"","server_os":"","password":false,"vac":false,"version":"","steam_id":0,"keywords":null,"game_id":0,"stv_port":0,"stv_name":"","players":null},{"server_id":50,"name":"Uncletopia | Warsaw | 2 | All Maps","name_short":"waw-2","host":"waw-1.pl.uncletopia.com","port":27025,"enabled":true,"region":"eu","cc":"pl","latitude":52.2297,"longitude":21.017532,"reserved":0,"last_update":"0001-01-01T00:00:00Z","name_a2s":"Uncletopia | Warsaw | 2 | All Maps","protocol":17,"map":"cp_process_final","folder":"tf","game":"Team Fortress","app_id":440,"player_count":0,"max_players":24,"Bots":0,"server_type":"Dedicated","server_os":"Linux","password":true,"vac":true,"version":"7757534","steam_id":85568392925397851,"keywords":["cp","nocrits","nodmgspread","uncletopia"],"game_id":440,"stv_port":27026,"stv_name":"Uncletopia | Warsaw | 2 | All Maps | STV","players":null},{"server_id":51,"name":"Uncletopia | Warsaw | 3 | All Maps","name_short":"waw-3","host":"waw-1.pl.uncletopia.com","port":27035,"enabled":true,"region":"eu","cc":"pl","latitude":52.2297,"longitude":21.017532,"reserved":0,"last_update":"0001-01-01T00:00:00Z","name_a2s":"Uncletopia | Warsaw | 3 | All Maps","protocol":17,"map":"pl_barnblitz","folder":"tf","game":"Team Fortress","app_id":440,"player_count":0,"max_players":24,"Bots":0,"server_type":"Dedicated","server_os":"Linux","password":true,"vac":true,"version":"7757534","steam_id":85568392925397852,"keywords":["nocrits","nodmgspread","payload","uncletopia"],"game_id":440,"stv_port":27036,"stv_name":"Uncletopia | Warsaw | 3 | All Maps | STV","players":null},{"server_id":52,"name":"Uncletopia | Warsaw | 4 | All Maps","name_short":"waw-4","host":"waw-1.pl.uncletopia.com","port":27045,"enabled":true,"region":"eu","cc":"pl","latitude":52.2297,"longitude":21.017532,"reserved":0,"last_update":"0001-01-01T00:00:00Z","name_a2s":"Uncletopia | Warsaw | 4 | All Maps","protocol":17,"map":"pl_snowycoast","folder":"tf","game":"Team Fortress","app_id":440,"player_count":0,"max_players":24,"Bots":0,"server_type":"Dedicated","server_os":"Linux","password":true,"vac":true,"version":"7757534","steam_id":85568392925397853,"keywords":["nocrits","nodmgspread","payload","uncletopia"],"game_id":440,"stv_port":27046,"stv_name":"Uncletopia | Warsaw | 4 | All Maps | STV","players":null},{"server_id":53,"name":"Uncletopia | Warsaw | 5 | Stopwatch Beta","name_short":"waw-5","host":"waw-1.pl.uncletopia.com","port":27055,"enabled":true,"region":"eu","cc":"pl","latitude":52.2297,"longitude":21.017532,"reserved":0,"last_update":"0001-01-01T00:00:00Z","name_a2s":"Uncletopia | Warsaw | 5 | Stopwatch Beta","protocol":17,"map":"pl_barnblitz","folder":"tf","game":"Team Fortress","app_id":440,"player_count":0,"max_players":24,"Bots":0,"server_type":"Dedicated","server_os":"Linux","password":true,"vac":true,"version":"7757534","steam_id":85568392925397854,"keywords":["nocrits","nodmgspread","payload","uncletopia"],"game_id":440,"stv_port":27056,"stv_name":"Uncletopia | Warsaw | 5 | Stopwatch Beta | STV","players":null},{"server_id":54,"name":"Uncletopia | Warsaw | 6 | Community","name_short":"waw-6","host":"waw-1.pl.uncletopia.com","port":27065,"enabled":true,"region":"eu","cc":"pl","latitude":52.2297,"longitude":21.017532,"reserved":0,"last_update":"0001-01-01T00:00:00Z","name_a2s":"Uncletopia | Warsaw | 6 | Community","protocol":17,"map":"pl_swiftwater_final1","folder":"tf","game":"Team Fortress","app_id":440,"player_count":0,"max_players":24,"Bots":0,"server_type":"Dedicated","server_os":"Linux","password":true,"vac":true,"version":"7757534","steam_id":85568392925397856,"keywords":["nocrits","nodmgspread","payload","uncletopia"],"game_id":440,"stv_port":27066,"stv_name":"Uncletopia | Warsaw | 6 | Community | STV","players":null}]}