{"status":true,"message":"","result":[{"server_id":9,"name":"Uncletopia | Atlanta | 1 | All Maps","name_short":"atl-1","host":"atl-1.us.uncletopia.com","port":27015,"enabled":true,"region":"us-east","cc":"us","latitude":33.753746,"longitude":-84.38633,"reserved":0,"last_update":"0001-01-01T00:00:00Z","name_a2s":"Uncletopia | Atlanta | 1 | All Maps","protocol":17,"map":"pl_borneo","folder":"tf","game":"Team Fortress","app_id":440,"player_count":4,"max_players":24,"Bots":0,"server_type":"Dedicated","server_os":"Linux","password":true,"vac":true,"version":"7742253","steam_id":85568392924469982,"keywords":["nocrits","nodmgspread","payload","uncletopia"],"game_id":440,"stv_port":27016,"stv_name":"Uncletopia | Atlanta | 1 | All Maps | STV","players":[{"user_id":105,"name":"Lichy","steam_id":76561198310682841,"connected_time":485000000000,"state":"active","ping":48},{"user_id":98,"name":"Kiddo0","steam_id":76561198359596849,"connected_time":1816000000000,"state":"active","ping":59},{"user_id":106,"name":"Space bar ©","steam_id":76561199405318831,"connected_time":419000000000,"state":"active","ping":86},{"user_id":109,"name":"basil","steam_id":76561198075758026,"connected_time":58000000000,"state":"active","ping":73}]},{"server_id":400,"name":"Uncletopia | Atlanta | 3 | Stopwatch Beta","name_short":"atl-3","host":"atl-1.us.uncletopia.com","port":27035,"enabled":true,"region":"us-east","cc":"us","latitude":33.753746,"longitude":-84.38633,"reserved":0,"last_update":"0001-01-01T00:00:00Z","name_a2s":"Uncletopia | Atlanta | 3 | Stopwatch Beta","protocol":17,"map":"pl_pier","folder":"tf","game":"Team Fortress","app_id":440,"player_count":0,"max_players":24,"Bots":0,"server_type":"Dedicated","server_os":"Linux","password":true,"vac":true,"version":"7742253","steam_id":85568392924515187,"keywords":["nocrits","nodmgspread","payload","uncletopia"],"game_id":440,"stv_port":27036,"stv_name":"Uncletopia | Atlanta | 3 | Stopwatch Beta | STV","players":null},{"server_id":401,"name":"Uncletopia | Atlanta | 4 | No Payload","name_short":"atl-4","host":"atl-1.us.uncletopia.com","port":27045,"enabled":true,"region":"us-east","cc":"us","latitude":33.753746,"longitude":-84.38633,"reserved":0,"last_update":"0001-01-01T00:00:00Z","name_a2s":"Uncletopia | Atlanta | 4 | No Payload","protocol":17,"map":"pl_pier","folder":"tf","game":"Team Fortress","app_id":440,"player_count":0,"max_players":24,"Bots":0,"server_type":"Dedicated","server_os":"Linux","password":true,"vac":true,"version":"7723704","steam_id":85568392924515188,"keywords":["nocrits","nodmgspread","payload","uncletopia"],"game_id":440,"stv_port":27046,"stv_name":"Uncletopia | Atlanta | 4 | No Payload | STV","players":null},{"server_id":2,"name":"Uncletopia | Chicago | 1 | All Maps","name_short":"chi-1","host":"chi-1.us.uncletopia.com","port":27015,"enabled":true,"region":"us-central","cc":"us","latitude":41.881832,"longitude":-87.62318,"reserved":0,"last_update":"0001-01-01T00:00:00Z","name_a2s":"Uncletopia | Chicago | 1 | All Maps","protocol":17,"map":"pl_frontier_final","folder":"tf","game":"Team Fortress","app_id":440,"player_count":23,"max_players":24,"Bots":0,"server_type":"Dedicated","server_os":"Linux","password":true,"vac":true,"version":"7742253","steam_id":85568392924469984,"keywords":["nocrits","nodmgspread","payload","uncletopia"],"game_id":440,"stv_port":27016,"stv_name":"Uncletopia | Chicago | 1 | All Maps | STV","players":[{"user_id":136,"name":"Room","steam_id":76561199174579733,"connected_time":838000000000,"state":"active","ping":68},{"user_id":97,"name":"Thatoneguybunchanumbers","steam_id":76561198028039160,"connected_time":3878000000000,"state":"active","ping":77},{"user_id":145,"name":"cow","steam_id":76561198117331762,"connected_time":472000000000,"state":"active","ping":49},{"user_id":137,"name":"AJSM","steam_id":76561198036852424,"connected_time":796000000000,"state":"active","ping":50},{"user_id":117,"name":"Amagur","steam_id":76561198966847435,"connected_time":2013000000000,"state":"active","ping":106},{"user_id":156,"name":"kohi","steam_id":76561198319990195,"connected_time":64000000000,"state":"active","ping":76},{"user_id":115,"name":"Captain Duh","steam_id":76561197997536279,"connected_time":2065000000000,"state":"active","ping":109},{"user_id":149,"name":"bill seacaster gaming","steam_id":76561199112194007,"connected_time":324000000000,"state":"active","ping":69},{"user_id":153,"name":"FiveHoursLater...","steam_id":76561198092608339,"connected_time":164000000000,"state":"active","ping":90},{"user_id":148,"name":"The Great Karizma!","steam_id":76561198346191193,"connected_time":379000000000,"state":"active","ping":94},{"user_id":150,"name":"Nnyllazxz","steam_id":76561198247797436,"connected_time":308000000000,"state":"active","ping":75},{"user_id":151,"name":"Logan_Istre","steam_id":76561198137012584,"connected_time":290000000000,"state":"active","ping":74},{"user_id":131,"name":"Amoxacin","steam_id":76561198171121818,"connected_time":1398000000000,"state":"active","ping":59},{"user_id":133,"name":"MayoMateo","steam_id":76561198360809933,"connected_time":1065000000000,"state":"active","ping":110},{"user_id":116,"name":"Carmine","steam_id":76561199405378993,"connected_time":2054000000000,"state":"active","ping":60},{"user_id":127,"name":"outplayed","steam_id":76561198260527412,"connected_time":1720000000000,"state":"active","ping":79},{"user_id":157,"name":"Razz","steam_id":76561198158027533,"connected_time":61000000000,"state":"active","ping":48},{"user_id":158,"name":"IZISOO","steam_id":76561198970380577,"connected_time":17000000000,"state":"active","ping":85},{"user_id":159,"name":"Randy \"the Man\" Johnson","steam_id":76561198039124445,"connected_time":12000000000,"state":"active","ping":73},{"user_id":160,"name":"Adolf Rizzler","steam_id":76561198392407790,"connected_time":6000000000,"state":"spawning","ping":209},{"user_id":161,"name":"Baegel","steam_id":76561198027447051,"connected_time":1000000000,"state":"spawning","ping":73},{"user_id":108,"name":"ham gaming","steam_id":76561198072592880,"connected_time":2743000000000,"state":"active","ping":45},{"user_id":128,"name":"Andar","steam_id":76561197998653404,"connected_time":1643000000000,"state":"active","ping":49}]},{"server_id":106,"name":"Uncletopia | Chicago | 2 | All Maps","name_short":"chi-2","host":"chi-1.us.uncletopia.com","port":27025,"enabled":true,"region":"us-central","cc":"us","latitude":41.881832,"longitude":-87.62318,"reserved":0,"last_update":"0001-01-01T00:00:00Z","name_a2s":"Uncletopia | Chicago | 2 | All Maps","protocol":17,"map":"cp_snakewater_final1","folder":"tf","game":"Team Fortress","app_id":440,"player_count":5,"max_players":24,"Bots":0,"server_type":"Dedicated","server_os":"Linux","password":true,"vac":true,"version":"7742253","steam_id":85568392924469985,"keywords":["cp","nocrits","nodmgspread","uncletopia"],"game_id":440,"stv_port":27026,"stv_name":"Uncletopia | Chicago | 2 | All Maps | STV","players":[{"user_id":72,"name":"QueeQuey","steam_id":76561198117204064,"connected_time":5581000000000,"state":"active","ping":50},{"user_id":93,"name":"scarybroccoli","steam_id":76561198296440084,"connected_time":3675000000000,"state":"active","ping":70},{"user_id":104,"name":"Epic medic GF (Totally a woman)","steam_id":76561199387907037,"connected_time":1261000000000,"state":"active","ping":242},{"user_id":106,"name":"Hunt_er#SaveTf2","steam_id":76561198325350546,"connected_time":755000000000,"state":"active","ping":66},{"user_id":98,"name":"CFDv20","steam_id":76561198450073779,"connected_time":2845000000000,"state":"active","ping":99}]},{"server_id":402,"name":"Uncletopia | Chicago | 3 | All Maps","name_short":"chi-3","host":"chi-1.us.uncletopia.com","port":27035,"enabled":true,"region":"us-central","cc":"us","latitude":41.881832,"longitude":-87.62318,"reserved":0,"last_update":"0001-01-01T00:00:00Z","name_a2s":"Uncletopia | Chicago | 3 | All Maps","protocol":17,"map":"koth_cascade","folder":"tf","game":"Team Fortress","app_id":440,"player_count":0,"max_players":24,"Bots":0,"server_type":"Dedicated","server_os":"Linux","password":true,"vac":true,"version":"7742253","steam_id":85568392924515191,"keywords":["cp","nocrits","nodmgspread","uncletopia"],"game_id":440,"stv_port":27036,"stv_name":"Uncletopia | Chicago | 3 | All Maps | STV","players":null},{"server_id":403,"name":"Uncletopia | Chicago | 4 | All Maps","name_short":"chi-4","host":"chi-1.us.uncletopia.com","port":27045,"enabled":true,"region":"us-central","cc":"us","latitude":41.881832,"longitude":-87.62318,"reserved":0,"last_update":"0001-01-01T00:00:00Z","name_a2s":"Uncletopia | Chicago | 4 | All Maps","protocol":17,"map":"cp_egypt_final","folder":"tf","game":"Team Fortress","app_id":440,"player_count":9,"max_players":24,"Bots":0,"server_type":"Dedicated","server_os":"Linux","password":true,"vac":true,"version":"7742253","steam_id":85568392924515193,"keywords":["cp","nocrits","nodmgspread","uncletopia"],"game_id":440,"stv_port":27046,"stv_name":"Uncletopia | Chicago | 4 | All Maps | STV","players":[{"user_id":111,"name":"Zubats |TAOZ|","steam_id":76561198041819445,"connected_time":2534000000000,"state":"active","ping":48},{"user_id":136,"name":"kopirate","steam_id":76561198170448097,"connected_time":324000000000,"state":"active","ping":88},{"user_id":137,"name":"OrangeShoes","steam_id":76561197971249940,"connected_time":314000000000,"state":"active","ping":52},{"user_id":121,"name":"Huey","steam_id":76561198972816386,"connected_time":1127000000000,"state":"active","ping":75},{"user_id":66,"name":"DocDankDandy","steam_id":76561197999440195,"connected_time":5754000000000,"state":"active","ping":85},{"user_id":126,"name":"D0c Hammer","steam_id":76561198002007932,"connected_time":583000000000,"state":"active","ping":94},{"user_id":127,"name":"The Great Eagle Scourge of 1822","steam_id":76561198325086209,"connected_time":524000000000,"state":"active","ping":104},{"user_id":116,"name":"Professor Peppermint","steam_id":76561198184017082,"connected_time":2139000000000,"state":"active","ping":48},{"user_id":104,"name":"thehornyone","steam_id":76561198265116245,"connected_time":3274000000000,"state":"active","ping":103}]},{"server_id":36,"name":"Uncletopia | Chicago | 5 | All Maps","name_short":"chi-5","host":"chi-2.us.uncletopia.com","port":27015,"enabled":true,"region":"us-central","cc":"us","latitude":41.881832,"longitude":-87.62318,"reserved":0,"last_update":"0001-01-01T00:00:00Z","name_a2s":"Uncletopia | Chicago | 5 | All Maps","protocol":17,"map":"cp_dustbowl","folder":"tf","game":"Team Fortress","app_id":440,"player_count":19,"max_players":24,"Bots":0,"server_type":"Dedicated","server_os":"Linux","password":true,"vac":true,"version":"7742253","steam_id":85568392924866362,"keywords":["cp","nocrits","nodmgspread","uncletopia"],"game_id":440,"stv_port":27016,"stv_name":"Uncletopia | Chicago | 5 | All Maps | STV","players":[{"user_id":10,"name":"supermilk","steam_id":76561197978282744,"connected_time":9933000000000,"state":"active","ping":59},{"user_id":150,"name":"Loki❤","steam_id":76561198280150602,"connected_time":1212000000000,"state":"active","ping":98},{"user_id":151,"name":"Dzhoshua","steam_id":76561198071915251,"connected_time":1189000000000,"state":"active","ping":59},{"user_id":149,"name":"Branos","steam_id":76561198396414319,"connected_time":1445000000000,"state":"active","ping":101},{"user_id":152,"name":"captainspatklz","steam_id":76561198432167270,"connected_time":1168000000000,"state":"active","ping":72},{"user_id":153,"name":"Skeleton Rick","steam_id":76561197988235877,"connected_time":1112000000000,"state":"active","ping":79},{"user_id":154,"name":"Gordon From White Castle (real)","steam_id":76561198364172677,"connected_time":1039000000000,"state":"active","ping":63},{"user_id":116,"name":"Clarence","steam_id":76561198094319173,"connected_time":3480000000000,"state":"active","ping":97},{"user_id":157,"name":"a fist sized river rock","steam_id":76561197991015780,"connected_time":885000000000,"state":"active","ping":66},{"user_id":129,"name":"Frontier Psychiatrist","steam_id":76561198038689088,"connected_time":3035000000000,"state":"active","ping":81},{"user_id":98,"name":"Goury","steam_id":76561198133999959,"connected_time":4619000000000,"state":"active","ping":95},{"user_id":140,"name":"Amogous Supreme","steam_id":76561198025476774,"connected_time":2398000000000,"state":"active","ping":101},{"user_id":100,"name":"John","steam_id":76561198091975252,"connected_time":4604000000000,"state":"active","ping":101},{"user_id":127,"name":"fitotutus","steam_id":76561197974993253,"connected_time":3055000000000,"state":"active","ping":89},{"user_id":141,"name":"scottvar","steam_id":76561198032776766,"connected_time":2255000000000,"state":"active","ping":113},{"user_id":134,"name":"That Guy","steam_id":76561197997444126,"connected_time":2873000000000,"state":"active","ping":89},{"user_id":145,"name":"TYL☁R","steam_id":76561198082995812,"connected_time":2012000000000,"state":"active","ping":67},{"user_id":161,"name":"MinistryOfPeace","steam_id":76561198097173168,"connected_time":554000000000,"state":"active","ping":96},{"user_id":164,"name":"steves gaming","steam_id":76561198069725758,"connected_time":261000000000,"state":"active","ping":69}]},{"server_id":37,"name":"Uncletopia | Chicago | 6 | All Maps","name_short":"chi-6","host":"chi-2.us.uncletopia.com","port":27025,"enabled":true,"region":"us-central","cc":"us","latitude":41.881832,"longitude":-87.62318,"reserved":0,"last_update":"0001-01-01T00:00:00Z","name_a2s":"Uncletopia | Chicago | 6 | All Maps","protocol":17,"map":"cp_dustbowl","folder":"tf","game":"Team Fortress","app_id":440,"player_count":24,"max_players":24,"Bots":0,"server_type":"Dedicated","server_os":"Linux","password":true,"vac":true,"version":"7742253","steam_id":85568392924866363,"keywords":["cp","nocrits","nodmgspread","uncletopia"],"game_id":440,"stv_port":27026,"stv_name":"Uncletopia | Chicago | 6 | All Maps | STV","players":[{"user_id":128,"name":"pencil","steam_id":76561198104658102,"connected_time":91000000000,"state":"active","ping":95},{"user_id":111,"name":"Ap1hw","steam_id":76561199122883466,"connected_time":2590000000000,"state":"active","ping":69},{"user_id":127,"name":"hunterbunney (queer)","steam_id":76561198070672899,"connected_time":277000000000,"state":"active","ping":86},{"user_id":112,"name":"high as balls","steam_id":76561198812086921,"connected_time":2479000000000,"state":"active","ping":64},{"user_id":129,"name":"Antwan","steam_id":76561198246200638,"connected_time":72000000000,"state":"active","ping":64},{"user_id":48,"name":"the222attacker","steam_id":76561198969690191,"connected_time":8710000000000,"state":"active","ping":62},{"user_id":117,"name":"fat fuck chicken joe","steam_id":76561198840876723,"connected_time":2356000000000,"state":"active","ping":122},{"user_id":104,"name":"Hamster","steam_id":76561198079599992,"connected_time":3211000000000,"state":"active","ping":45},{"user_id":109,"name":"Ryan","steam_id":76561198046600383,"connected_time":2798000000000,"state":"active","ping":49},{"user_id":125,"name":"bingle","steam_id":76561198359413453,"connected_time":503000000000,"state":"active","ping":77},{"user_id":86,"name":"Jarryl97","steam_id":76561198055451373,"connected_time":5316000000000,"state":"active","ping":79},{"user_id":62,"name":"bbqjunky","steam_id":76561198016224813,"connected_time":7968000000000,"state":"active","ping":64},{"user_id":93,"name":"Scorpie Doodle","steam_id":76561198021845763,"connected_time":4145000000000,"state":"active","ping":54},{"user_id":58,"name":"turkey is nota country its food","steam_id":76561198203725631,"connected_time":8466000000000,"state":"active","ping":73},{"user_id":126,"name":"Loo7 goonin' Ca$hual","steam_id":76561198011675372,"connected_time":502000000000,"state":"active","ping":108},{"user_id":95,"name":"Pizza Party","steam_id":76561198165730754,"connected_time":3965000000000,"state":"active","ping":78},{"user_id":118,"name":"hashmap","steam_id":76561198043794014,"connected_time":2347000000000,"state":"active","ping":50},{"user_id":107,"name":"Wingz","steam_id":76561198135885865,"connected_time":3015000000000,"state":"active","ping":60},{"user_id":108,"name":"Ann Ziegler (No Sound)","steam_id":76561198052249401,"connected_time":2991000000000,"state":"active","ping":48},{"user_id":99,"name":"NOTWALTER","steam_id":76561198125464744,"connected_time":3811000000000,"state":"active","ping":81},{"user_id":54,"name":"Charcoal Corral","steam_id":76561198085762430,"connected_time":8551000000000,"state":"active","ping":68},{"user_id":41,"name":"Goofball","steam_id":76561198061211537,"connected_time":8873000000000,"state":"active","ping":60},{"user_id":101,"name":"viedoamegs","steam_id":76561198025295263,"connected_time":3682000000000,"state":"active","ping":79},{"user_id":121,"name":"Furox.","steam_id":76561198103503066,"connected_time":1767000000000,"state":"active","ping":97}]},{"server_id":38,"name":"Uncletopia | Chicago | 7 | Stopwatch Beta","name_short":"chi-7","host":"chi-2.us.uncletopia.com","port":27035,"enabled":true,"region":"us-central","cc":"us","latitude":41.881832,"longitude":-87.62318,"reserved":0,"last_update":"0001-01-01T00:00:00Z","name_a2s":"Uncletopia | Chicago | 7 | Stopwatch Beta","protocol":17,"map":"pl_swiftwater_final1","folder":"tf","game":"Team Fortress","app_id":440,"player_count":0,"max_players":24,"Bots":0,"server_type":"Dedicated","server_os":"Linux","password":true,"vac":true,"version":"7742253","steam_id":85568392924866364,"keywords":["nocrits","nodmgspread","payload","uncletopia"],"game_id":440,"stv_port":27036,"stv_name":"Uncletopia | Chicago | 7 | Stopwatch Beta | STV","players":null},{"server_id":39,"name":"Uncletopia | Chicago | 8 | Community","name_short":"chi-8","host":"chi-2.us.uncletopia.com","port":27045,"enabled":true,"region":"us-central","cc":"us","latitude":41.881832,"longitude":-87.62318,"reserved":0,"last_update":"0001-01-01T00:00:00Z","name_a2s":"Uncletopia | Chicago | 8 | Community","protocol":17,"map":"koth_lakeside_final","folder":"tf","game":"Team Fortress","app_id":440,"player_count":0,"max_players":24,"Bots":0,"server_type":"Dedicated","server_os":"Linux","password":true,"vac":true,"version":"7742253","steam_id":85568392924866365,"keywords":["cp","nocrits","nodmgspread","uncletopia"],"game_id":440,"stv_port":27046,"stv_name":"Uncletopia | Chicago | 8 | Community | STV","players":null},{"server_id":8,"name":"Uncletopia | Dallas | 1 | All Maps","name_short":"dal-1","host":"dal-1.us.uncletopia.com","port":27015,"enabled":true,"region":"us-central","cc":"us","latitude":32.779167,"longitude":-96.80889,"reserved":0,"last_update":"0001-01-01T00:00:00Z","name_a2s":"Uncletopia | Dallas | 1 | All Maps","protocol":17,"map":"cp_sunshine","folder":"tf","game":"Team Fortress","app_id":440,"player_count":20,"max_players":24,"Bots":0,"server_type":"Dedicated","server_os":"Linux","password":true,"vac":true,"version":"7742253","steam_id":85568392924469986,"keywords":["nocrits","nodmgspread","payload","uncletopia"],"game_id":440,"stv_port":27016,"stv_name":"Uncletopia | Dallas | 1 | All Maps | STV","players":[{"user_id":146,"name":"b_droid","steam_id":76561198103515747,"connected_time":23000000000,"state":"connecting","ping":94},{"user_id":82,"name":"arashsmash","steam_id":76561198277649058,"connected_time":5144000000000,"state":"connecting","ping":98},{"user_id":124,"name":"{ST} Oxythemoron","steam_id":76561198060089965,"connected_time":2086000000000,"state":"connecting","ping":62},{"user_id":113,"name":"Hi_barney","steam_id":76561199116792088,"connected_time":2863000000000,"state":"connecting","ping":91},{"user_id":135,"name":"Mother Cucker","steam_id":76561198121926605,"connected_time":1284000000000,"state":"connecting","ping":98},{"user_id":145,"name":"Stan","steam_id":76561199057962816,"connected_time":32000000000,"state":"connecting","ping":94},{"user_id":147,"name":"Pitch Stick","steam_id":76561198800287853,"connected_time":6000000000,"state":"connecting","ping":175},{"user_id":123,"name":"turnstyle","steam_id":76561199393438660,"connected_time":2420000000000,"state":"connecting","ping":99},{"user_id":100,"name":"Mr. Skerpentine","steam_id":76561198137244892,"connected_time":3836000000000,"state":"connecting","ping":114},{"user_id":50,"name":"Lore","steam_id":76561198098407538,"connected_time":7893000000000,"state":"connecting","ping":95},{"user_id":133,"name":"Mikey","steam_id":76561199027332418,"connected_time":1659000000000,"state":"connecting","ping":91},{"user_id":141,"name":"Atlas Fugged :D","steam_id":76561198018753989,"connected_time":712000000000,"state":"connecting","ping":113},{"user_id":140,"name":"Ozi Tea","steam_id":76561199278187678,"connected_time":741000000000,"state":"connecting","ping":85},{"user_id":87,"name":"iluvtoust","steam_id":76561198869269207,"connected_time":4673000000000,"state":"connecting","ping":64},{"user_id":105,"name":"Foomfa","steam_id":76561198007033616,"connected_time":3242000000000,"state":"connecting","ping":73},{"user_id":118,"name":"The Maikeru","steam_id":76561199081647852,"connected_time":2712000000000,"state":"connecting","ping":176},{"user_id":132,"name":"JuanPaco","steam_id":76561199171739050,"connected_time":1772000000000,"state":"connecting","ping":68},{"user_id":122,"name":"dog","steam_id":76561198263873491,"connected_time":2443000000000,"state":"connecting","ping":69},{"user_id":138,"name":"mac_cheese","steam_id":76561198071334162,"connected_time":929000000000,"state":"connecting","ping":126}]},{"server_id":108,"name":"Uncletopia | Dallas | 2 | All Maps","name_short":"dal-2","host":"dal-1.us.uncletopia.com","port":27025,"enabled":true,"region":"us-central","cc":"us","latitude":32.779167,"longitude":-96.80889,"reserved":0,"last_update":"0001-01-01T00:00:00Z","name_a2s":"Uncletopia | Dallas | 2 | All Maps","protocol":17,"map":"cp_mountainlab","folder":"tf","game":"Team Fortress","app_id":440,"player_count":16,"max_players":24,"Bots":0,"server_type":"Dedicated","server_os":"Linux","password":true,"vac":true,"version":"7742253","steam_id":85568392924469988,"keywords":["cp","nocrits","nodmgspread","uncletopia"],"game_id":440,"stv_port":27026,"stv_name":"Uncletopia | Dallas | 2 | All Maps | STV","players":[{"user_id":160,"name":"Karma's Camera","steam_id":76561198059385185,"connected_time":4000000000,"state":"spawning","ping":89},{"user_id":140,"name":"HeroicFan549","steam_id":76561198807874089,"connected_time":1961000000000,"state":"active","ping":82},{"user_id":142,"name":"Sw20k","steam_id":76561198104307477,"connected_time":1435000000000,"state":"active","ping":90},{"user_id":159,"name":"Sdehv2","steam_id":76561198067719497,"connected_time":22000000000,"state":"active","ping":33},{"user_id":145,"name":"Surly Joe","steam_id":76561199150833796,"connected_time":1269000000000,"state":"active","ping":123},{"user_id":123,"name":"Dannnnnn","steam_id":76561198442700385,"connected_time":3221000000000,"state":"spawning","ping":174},{"user_id":157,"name":"a bucket of chicken","steam_id":76561198023710042,"connected_time":34000000000,"state":"active","ping":46},{"user_id":154,"name":"Len","steam_id":76561199141913673,"connected_time":1055000000000,"state":"active","ping":71},{"user_id":125,"name":"Fancyassasin","steam_id":76561198331864258,"connected_time":3209000000000,"state":"active","ping":58},{"user_id":132,"name":"UnlimitedRune","steam_id":76561199170761237,"connected_time":2836000000000,"state":"active","ping":36},{"user_id":116,"name":"ThtGyVrThr","steam_id":76561198805852870,"connected_time":3994000000000,"state":"active","ping":77},{"user_id":129,"name":"Forest_Dragon93","steam_id":76561199064900666,"connected_time":3035000000000,"state":"active","ping":83},{"user_id":150,"name":"Drakon","steam_id":76561198078210822,"connected_time":1190000000000,"state":"active","ping":175},{"user_id":152,"name":"Venomous Soda Monster","steam_id":76561198207958788,"connected_time":1126000000000,"state":"active","ping":116},{"user_id":153,"name":"Bananwee","steam_id":76561199045802734,"connected_time":1114000000000,"state":"active","ping":87},{"user_id":155,"name":"NotTrunkMaster","steam_id":76561199465906631,"connected_time":1019000000000,"state":"spawning","ping":80}]},{"server_id":5,"name":"Uncletopia | Frankfurt | 1 | All Maps","name_short":"frk-1","host":"frk-1.de.uncletopia.com","port":27015,"enabled":true,"region":"eu","cc":"de","latitude":50.110924,"longitude":8.682127,"reserved":0,"last_update":"0001-01-01T00:00:00Z","name_a2s":"Uncletopia | Frankfurt | 1 | All Maps","protocol":17,"map":"pl_borneo","folder":"tf","game":"Team Fortress","app_id":440,"player_count":0,"max_players":24,"Bots":0,"server_type":"Dedicated","server_os":"Linux","password":true,"vac":true,"version":"7742253","steam_id":85568392924469989,"keywords":["nocrits","nodmgspread","payload","uncletopia"],"game_id":440,"stv_port":27016,"stv_name":"Uncletopia | Frankfurt | 1 | All Maps | STV","players":null},{"server_id":110,"name":"Uncletopia | Frankfurt | 2 | All Maps","name_short":"frk-2","host":"frk-1.de.uncletopia.com","port":27025,"enabled":true,"region":"eu","cc":"de","latitude":50.110924,"longitude":8.682127,"reserved":0,"last_update":"0001-01-01T00:00:00Z","name_a2s":"Uncletopia | Frankfurt | 2 | All Maps","protocol":17,"map":"pl_swiftwater_final1","folder":"tf","game":"Team Fortress","app_id":440,"player_count":0,"max_players":24,"Bots":0,"server_type":"Dedicated","server_os":"Linux","password":true,"vac":true,"version":"7742253","steam_id":85568392924469990,"keywords":["nocrits","nodmgspread","payload","uncletopia"],"game_id":440,"stv_port":27026,"stv_name":"Uncletopia | Frankfurt | 2 | All Maps | STV","players":null},{"server_id":308,"name":"Uncletopia | Frankfurt | 3 | All Maps","name_short":"frk-3","host":"frk-1.de.uncletopia.com","port":27035,"enabled":true,"region":"eu","cc":"de","latitude":50.110924,"longitude":8.682127,"reserved":0,"last_update":"0001-01-01T00:00:00Z","name_a2s":"Uncletopia | Frankfurt | 3 | All Maps","protocol":17,"map":"cp_dustbowl","folder":"tf","game":"Team Fortress","app_id":440,"player_count":0,"max_players":24,"Bots":0,"server_type":"Dedicated","server_os":"Linux","password":true,"vac":true,"version":"7742253","steam_id":85568392924504274,"keywords":["cp","nocrits","nodmgspread","uncletopia"],"game_id":440,"stv_port":27036,"stv_name":"Uncletopia | Frankfurt | 3 | All Maps | STV","players":null},{"server_id":309,"name":"Uncletopia | Frankfurt | 4 | All Maps","name_short":"frk-4","host":"frk-1.de.uncletopia.com","port":27045,"enabled":true,"region":"eu","cc":"de","latitude":50.110924,"longitude":8.682127,"reserved":0,"last_update":"0001-01-01T00:00:00Z","name_a2s":"Uncletopia | Frankfurt | 4 | All Maps","protocol":17,"map":"cp_sunshine","folder":"tf","game":"Team Fortress","app_id":440,"player_count":0,"max_players":24,"Bots":0,"server_type":"Dedicated","server_os":"Linux","password":true,"vac":true,"version":"7742253","steam_id":85568392924504275,"keywords":["cp","nocrits","nodmgspread","uncletopia"],"game_id":440,"stv_port":27046,"stv_name":"Uncletopia | Frankfurt | 4 | All Maps | STV","players":null},{"server_id":310,"name":"Uncletopia | Frankfurt | 5 | All Maps","name_short":"frk-5","host":"frk-1.de.uncletopia.com","port":27055,"enabled":true,"region":"eu","cc":"de","latitude":50.110924,"longitude":8.682127,"reserved":0,"last_update":"0001-01-01T00:00:00Z","name_a2s":"Uncletopia | Frankfurt | 5 | All Maps","protocol":17,"map":"cp_snakewater_final1","folder":"tf","game":"Team Fortress","app_id":440,"player_count":0,"max_players":24,"Bots":0,"server_type":"Dedicated","server_os":"Linux","password":true,"vac":true,"version":"7742253","steam_id":85568392924504277,"keywords":["cp","nocrits","nodmgspread","uncletopia"],"game_id":440,"stv_port":27056,"stv_name":"Uncletopia | Frankfurt | 5 | All Maps | STV","players":null},{"server_id":311,"name":"Uncletopia | Frankfurt | 6 | All Maps","name_short":"frk-6","host":"frk-1.de.uncletopia.com","port":27065,"enabled":true,"region":"eu","cc":"de","latitude":50.110924,"longitude":8.682127,"reserved":0,"last_update":"0001-01-01T00:00:00Z","name_a2s":"Uncletopia | Frankfurt | 6 | All Maps","protocol":17,"map":"koth_lakeside_final","folder":"tf","game":"Team Fortress","app_id":440,"player_count":0,"max_players":24,"Bots":0,"server_type":"Dedicated","server_os":"Linux","password":true,"vac":true,"version":"7742253","steam_id":85568392924504278,"keywords":["cp","nocrits","nodmgspread","uncletopia"],"game_id":440,"stv_port":27066,"stv_name":"Uncletopia | Frankfurt | 6 | All Maps | STV","players":null},{"server_id":23,"name":"Uncletopia | Frankfurt | 7 | Stopwatch Beta","name_short":"frk-7","host":"frk-1.de.uncletopia.com","port":27075,"enabled":true,"region":"eu","cc":"de","latitude":50.110924,"longitude":8.682127,"reserved":0,"last_update":"0001-01-01T00:00:00Z","name_a2s":"Uncletopia | Frankfurt | 7 | Stopwatch Beta","protocol":17,"map":"pl_badwater","folder":"tf","game":"Team Fortress","app_id":440,"player_count":0,"max_players":24,"Bots":0,"server_type":"Dedicated","server_os":"Linux","password":true,"vac":true,"version":"7742253","steam_id":85568392924742827,"keywords":["nocrits","nodmgspread","payload","uncletopia"],"game_id":440,"stv_port":27076,"stv_name":"Uncletopia | Frankfurt | 7 | Stopwatch Beta | STV","players":null},{"server_id":24,"name":"Uncletopia | Frankfurt | 8 | Community","name_short":"frk-8","host":"frk-1.de.uncletopia.com","port":27085,"enabled":true,"region":"eu","cc":"de","latitude":50.110924,"longitude":8.682127,"reserved":0,"last_update":"0001-01-01T00:00:00Z","name_a2s":"Uncletopia | Frankfurt | 8 | Community","protocol":17,"map":"koth_cascade","folder":"tf","game":"Team Fortress","app_id":440,"player_count":0,"max_players":24,"Bots":0,"server_type":"Dedicated","server_os":"Linux","password":true,"vac":true,"version":"7742253","steam_id":85568392924742828,"keywords":["cp","nocrits","nodmgspread","uncletopia"],"game_id":440,"stv_port":27086,"stv_name":"Uncletopia | Frankfurt | 8 | Community | STV","players":null},{"server_id":202,"name":"Uncletopia | Hong Kong | 1 | All Maps","name_short":"hgk-1","host":"hgk-1.hk.uncletopia.com","port":27015,"enabled":true,"region":"asia","cc":"hk","latitude":22.302711,"longitude":114.177216,"reserved":0,"last_update":"0001-01-01T00:00:00Z","name_a2s":"Uncletopia | Hong Kong | 1 | All Maps","protocol":17,"map":"cp_sunshine","folder":"tf","game":"Team Fortress","app_id":440,"player_count":24,"max_players":24,"Bots":0,"server_type":"Dedicated","server_os":"Linux","password":true,"vac":true,"version":"7742253","steam_id":85568392924494504,"keywords":["cp","nocrits","nodmgspread","uncletopia"],"game_id":440,"stv_port":27016,"stv_name":"Uncletopia | Hong Kong | 1 | All Maps | STV","players":[{"user_id":105,"name":"professional esports fortnite","steam_id":76561198337887896,"connected_time":2456000000000,"state":"active","ping":74},{"user_id":120,"name":"Skeptikal01","steam_id":76561199064694137,"connected_time":1966000000000,"state":"active","ping":103},{"user_id":69,"name":"Wakiiiz","steam_id":76561198850134590,"connected_time":6463000000000,"state":"active","ping":56},{"user_id":78,"name":"uptriste","steam_id":76561198158666692,"connected_time":5454000000000,"state":"active","ping":35},{"user_id":7,"name":"Windmill","steam_id":76561199230997986,"connected_time":9818000000000,"state":"active","ping":68},{"user_id":8,"name":"lillalune","steam_id":76561198230213828,"connected_time":9814000000000,"state":"active","ping":67},{"user_id":125,"name":"煙海 | Enkai","steam_id":76561198050460825,"connected_time":978000000000,"state":"active","ping":75},{"user_id":75,"name":"3wfFbdrjEze5d2G","steam_id":76561198435900451,"connected_time":5927000000000,"state":"active","ping":71},{"user_id":104,"name":"Telekhine","steam_id":76561198387120618,"connected_time":2479000000000,"state":"active","ping":50},{"user_id":126,"name":"the sex","steam_id":76561198129661272,"connected_time":973000000000,"state":"active","ping":65},{"user_id":100,"name":".12 Gauge rounds","steam_id":76561199013712216,"connected_time":3112000000000,"state":"active","ping":74},{"user_id":115,"name":"小波奇Bocchi","steam_id":76561198162424362,"connected_time":2124000000000,"state":"active","ping":74},{"user_id":98,"name":"Newbie.(cant chat)","steam_id":76561199131526926,"connected_time":3330000000000,"state":"active","ping":88},{"user_id":122,"name":"The Cake is a lie","steam_id":76561198190738610,"connected_time":998000000000,"state":"active","ping":94},{"user_id":110,"name":"Vortex Morez","steam_id":76561198833527091,"connected_time":2156000000000,"state":"active","ping":85},{"user_id":56,"name":"17","steam_id":76561198241530712,"connected_time":7696000000000,"state":"active","ping":62},{"user_id":95,"name":"iLikeMudrock ᗜ‸ᗜ","steam_id":76561199352285088,"connected_time":3423000000000,"state":"active","ping":89},{"user_id":123,"name":"victoria","steam_id":76561199109871823,"connected_time":997000000000,"state":"active","ping":89},{"user_id":127,"name":"troll juice (most hated in ut)","steam_id":76561199146847474,"connected_time":427000000000,"state":"active","ping":54},{"user_id":113,"name":"EAST","steam_id":76561198857299051,"connected_time":2127000000000,"state":"active","ping":72},{"user_id":37,"name":"Urotsuki","steam_id":76561198074339034,"connected_time":9268000000000,"state":"active","ping":75},{"user_id":121,"name":"Buttman","steam_id":76561198044693388,"connected_time":1922000000000,"state":"active","ping":46},{"user_id":124,"name":"Diavolo Diablo","steam_id":76561198166295333,"connected_time":994000000000,"state":"active","ping":82},{"user_id":81,"name":"Noyour","steam_id":76561198323259830,"connected_time":5435000000000,"state":"active","ping":120}]},{"server_id":1,"name":"Uncletopia | Los Angeles | 1 | All Maps","name_short":"lax-1","host":"lax-1.us.uncletopia.com","port":27015,"enabled":true,"region":"us-west","cc":"us","latitude":33.94279,"longitude":-118.41004,"reserved":0,"last_update":"0001-01-01T00:00:00Z","name_a2s":"Uncletopia | Los Angeles | 1 | All Maps","protocol":17,"map":"koth_lakeside_final","folder":"tf","game":"Team Fortress","app_id":440,"player_count":20,"max_players":24,"Bots":0,"server_type":"Dedicated","server_os":"Linux","password":true,"vac":true,"version":"7742253","steam_id":85568392924469991,"keywords":["cp","nocrits","nodmgspread","uncletopia"],"game_id":440,"stv_port":27016,"stv_name":"Uncletopia | Los Angeles | 1 | All Maps | STV","players":[{"user_id":95,"name":"bad spy player","steam_id":76561198873699671,"connected_time":4489000000000,"state":"active","ping":68},{"user_id":119,"name":"II Sands II","steam_id":76561198403429242,"connected_time":1261000000000,"state":"active","ping":122},{"user_id":125,"name":"The Paperwork","steam_id":76561198385887698,"connected_time":344000000000,"state":"active","ping":51},{"user_id":126,"name":"JON","steam_id":76561198057971005,"connected_time":328000000000,"state":"active","ping":60},{"user_id":113,"name":"Koyota","steam_id":76561198069878114,"connected_time":2203000000000,"state":"active","ping":80},{"user_id":127,"name":"xlesz","steam_id":76561199020119161,"connected_time":276000000000,"state":"active","ping":45},{"user_id":128,"name":"sonic.exe","steam_id":76561198133360797,"connected_time":214000000000,"state":"active","ping":54},{"user_id":121,"name":"CRBR-S Peck","steam_id":76561198037663873,"connected_time":1064000000000,"state":"active","ping":49},{"user_id":132,"name":"Logan601 #savetf2","steam_id":76561198263116731,"connected_time":4000000000,"state":"spawning","ping":49},{"user_id":114,"name":"Woody","steam_id":76561198055842769,"connected_time":1925000000000,"state":"active","ping":43},{"user_id":129,"name":"The Arm","steam_id":76561197983066285,"connected_time":189000000000,"state":"active","ping":63},{"user_id":131,"name":"bruh","steam_id":76561198120421485,"connected_time":30000000000,"state":"active","ping":78},{"user_id":130,"name":"1000 Ping","steam_id":76561198098330939,"connected_time":185000000000,"state":"active","ping":62},{"user_id":110,"name":"Tenma","steam_id":76561198296557689,"connected_time":2939000000000,"state":"active","ping":48},{"user_id":70,"name":"Poverty's Finest","steam_id":76561198127704044,"connected_time":7241000000000,"state":"active","ping":108},{"user_id":91,"name":"Nüþ","steam_id":76561198043956703,"connected_time":4586000000000,"state":"active","ping":47},{"user_id":107,"name":"HAT-WEARING™ Maggot Gamer Cat","steam_id":76561197973992705,"connected_time":3035000000000,"state":"active","ping":61},{"user_id":86,"name":"Evanb","steam_id":76561198042057792,"connected_time":5778000000000,"state":"active","ping":75},{"user_id":72,"name":"SNIPSNAP","steam_id":76561198275472683,"connected_time":7227000000000,"state":"active","ping":96},{"user_id":81,"name":"cam","steam_id":76561198073426718,"connected_time":6288000000000,"state":"active","ping":57}]},{"server_id":112,"name":"Uncletopia | Los Angeles | 2 | All Maps","name_short":"lax-2","host":"lax-1.us.uncletopia.com","port":27025,"enabled":true,"region":"us-west","cc":"us","latitude":33.94279,"longitude":-118.41004,"reserved":0,"last_update":"0001-01-01T00:00:00Z","name_a2s":"Uncletopia | Los Angeles | 2 | All Maps","protocol":17,"map":"pl_pier","folder":"tf","game":"Team Fortress","app_id":440,"player_count":21,"max_players":24,"Bots":0,"server_type":"Dedicated","server_os":"Linux","password":true,"vac":true,"version":"7742253","steam_id":85568392924469992,"keywords":["nocrits","nodmgspread","payload","uncletopia"],"game_id":440,"stv_port":27026,"stv_name":"Uncletopia | Los Angeles | 2 | All Maps | STV","players":[{"user_id":144,"name":"music_hawk","steam_id":76561199183686977,"connected_time":202000000000,"state":"active","ping":77},{"user_id":126,"name":"Testicular Torsion","steam_id":76561197968179862,"connected_time":2008000000000,"state":"active","ping":69},{"user_id":145,"name":"Willis The Whale","steam_id":76561198240046452,"connected_time":201000000000,"state":"active","ping":49},{"user_id":130,"name":"gazpacho","steam_id":76561198132903078,"connected_time":1877000000000,"state":"active","ping":53},{"user_id":106,"name":"gerg","steam_id":76561197997127387,"connected_time":4824000000000,"state":"active","ping":59},{"user_id":107,"name":"The Population of Sweden","steam_id":76561198202201644,"connected_time":4792000000000,"state":"active","ping":68},{"user_id":103,"name":"zinnk","steam_id":76561198092081825,"connected_time":5219000000000,"state":"active","ping":45},{"user_id":141,"name":"Axel Valentine","steam_id":76561198092084917,"connected_time":880000000000,"state":"active","ping":32},{"user_id":146,"name":"Ball_Pit","steam_id":76561199094582367,"connected_time":162000000000,"state":"active","ping":82},{"user_id":132,"name":"shoes","steam_id":76561198044104086,"connected_time":1867000000000,"state":"active","ping":53},{"user_id":140,"name":"Cute Gatito","steam_id":76561198351147780,"connected_time":1134000000000,"state":"active","ping":53},{"user_id":118,"name":"MantisTobboggan","steam_id":76561197969447887,"connected_time":3014000000000,"state":"active","ping":87},{"user_id":147,"name":"Nuglels","steam_id":76561198010928944,"connected_time":106000000000,"state":"active","ping":88},{"user_id":113,"name":"Chiaki Nanami","steam_id":76561198164782653,"connected_time":4103000000000,"state":"active","ping":107},{"user_id":77,"name":"Brynkiwi","steam_id":76561198052177917,"connected_time":6531000000000,"state":"active","ping":66},{"user_id":143,"name":"tobrehto","steam_id":76561198097544038,"connected_time":783000000000,"state":"active","ping":48},{"user_id":138,"name":"LeTonzy","steam_id":76561198005806699,"connected_time":1291000000000,"state":"active","ping":85},{"user_id":148,"name":"Skip Hop Doo Bop","steam_id":76561199161571849,"connected_time":97000000000,"state":"active","ping":49},{"user_id":149,"name":"homestuck","steam_id":76561198085042338,"connected_time":7000000000,"state":"spawning","ping":42},{"user_id":112,"name":"social distance warrior","steam_id":76561198128992994,"connected_time":4244000000000,"state":"active","ping":70},{"user_id":92,"name":"1 Great Wooden Dad","steam_id":76561198377126974,"connected_time":6072000000000,"state":"active","ping":112}]},{"server_id":324,"name":"Uncletopia | Los Angeles | 3 | All Maps","name_short":"lax-3","host":"lax-1.us.uncletopia.com","port":27035,"enabled":true,"region":"us-west","cc":"us","latitude":33.94279,"longitude":-118.41004,"reserved":0,"last_update":"0001-01-01T00:00:00Z","name_a2s":"Uncletopia | Los Angeles | 3 | All Maps","protocol":17,"map":"pl_barnblitz","folder":"tf","game":"Team Fortress","app_id":440,"player_count":0,"max_players":24,"Bots":0,"server_type":"Dedicated","server_os":"Linux","password":true,"vac":true,"version":"7742253","steam_id":85568392924510198,"keywords":["nocrits","nodmgspread","payload","uncletopia"],"game_id":440,"stv_port":27036,"stv_name":"Uncletopia | Los Angeles | 3 | All Maps | STV","players":null},{"server_id":25,"name":"Uncletopia | Los Angeles | 4 | Stopwatch Beta","name_short":"lax-4","host":"lax-1.us.uncletopia.com","port":27045,"enabled":true,"region":"us-west","cc":"us","latitude":33.94279,"longitude":-118.41004,"reserved":0,"last_update":"0001-01-01T00:00:00Z","name_a2s":"Uncletopia | Los Angeles | 4 | Stopwatch Beta","protocol":17,"map":"pl_borneo","folder":"tf","game":"Team Fortress","app_id":440,"player_count":0,"max_players":24,"Bots":0,"server_type":"Dedicated","server_os":"Linux","password":true,"vac":true,"version":"7742253","steam_id":85568392924510199,"keywords":["nocrits","nodmgspread","payload","uncletopia"],"game_id":440,"stv_port":27046,"stv_name":"Uncletopia | Los Angeles | 4 | Stopwatch Beta | STV","players":null},{"server_id":11,"name":"Uncletopia | London | 1 | All Maps","name_short":"lon-1","host":"lon-1.uk.uncletopia.com","port":27015,"enabled":true,"region":"eu","cc":"gb","latitude":51.509865,"longitude":-0.118092,"reserved":0,"last_update":"0001-01-01T00:00:00Z","name_a2s":"Uncletopia | London | 1 | All Maps","protocol":17,"map":"pl_borneo","folder":"tf","game":"Team Fortress","app_id":440,"player_count":4,"max_players":24,"Bots":0,"server_type":"Dedicated","server_os":"Linux","password":true,"vac":true,"version":"7742253","steam_id":85568392924367362,"keywords":["nocrits","nodmgspread","payload","uncletopia"],"game_id":440,"stv_port":27016,"stv_name":"Uncletopia | London | 1 | All Maps | STV","players":[{"user_id":9,"name":"avarage evangelion fan","steam_id":76561198083359604,"connected_time":1027000000000,"state":"active","ping":64},{"user_id":10,"name":"Random Dude","steam_id":76561199035738200,"connected_time":722000000000,"state":"active","ping":45},{"user_id":11,"name":"Loop_Cat","steam_id":76561199045902145,"connected_time":567000000000,"state":"active","ping":122},{"user_id":13,"name":"ViralBoris","steam_id":76561199374945481,"connected_time":286000000000,"state":"active","ping":193}]},{"server_id":114,"name":"Uncletopia | London | 2 | All Maps","name_short":"lon-2","host":"lon-1.uk.uncletopia.com","port":27025,"enabled":true,"region":"eu","cc":"gb","latitude":51.509865,"longitude":-0.118092,"reserved":0,"last_update":"0001-01-01T00:00:00Z","name_a2s":"Uncletopia | London | 2 | All Maps","protocol":17,"map":"pl_swiftwater_final1","folder":"tf","game":"Team Fortress","app_id":440,"player_count":0,"max_players":24,"Bots":0,"server_type":"Dedicated","server_os":"Linux","password":true,"vac":true,"version":"7742253","steam_id":85568392924470941,"keywords":["nocrits","nodmgspread","payload","uncletopia"],"game_id":440,"stv_port":27026,"stv_name":"Uncletopia | London | 2 | All Maps | STV","players":null},{"server_id":320,"name":"Uncletopia | London | 3 | All Maps","name_short":"lon-3","host":"lon-1.uk.uncletopia.com","port":27035,"enabled":true,"region":"eu","cc":"gb","latitude":51.509865,"longitude":-0.118092,"reserved":0,"last_update":"0001-01-01T00:00:00Z","name_a2s":"Uncletopia | London | 3 | All Maps","protocol":17,"map":"pl_upward","folder":"tf","game":"Team Fortress","app_id":440,"player_count":0,"max_players":24,"Bots":0,"server_type":"Dedicated","server_os":"Linux","password":true,"vac":true,"version":"7742253","steam_id":85568392924510192,"keywords":["nocrits","nodmgspread","payload","uncletopia"],"game_id":440,"stv_port":27036,"stv_name":"Uncletopia | London | 3 | All Maps | STV","players":null},{"server_id":321,"name":"Uncletopia | London | 4 | All Maps","name_short":"lon-4","host":"lon-1.uk.uncletopia.com","port":27045,"enabled":true,"region":"eu","cc":"gb","latitude":51.509865,"longitude":-0.118092,"reserved":0,"last_update":"0001-01-01T00:00:00Z","name_a2s":"Uncletopia | London | 4 | All Maps","protocol":17,"map":"pl_rumford_event","folder":"tf","game":"Team Fortress","app_id":440,"player_count":24,"max_players":24,"Bots":0,"server_type":"Dedicated","server_os":"Linux","password":true,"vac":true,"version":"7742253","steam_id":85568392924510193,"keywords":["nocrits","nodmgspread","payload","uncletopia"],"game_id":440,"stv_port":27046,"stv_name":"Uncletopia | London | 4 | All Maps | STV","players":[{"user_id":73,"name":"scout TF2","steam_id":76561198072037878,"connected_time":175000000000,"state":"active","ping":45},{"user_id":46,"name":"Making Coffee","steam_id":76561198138281039,"connected_time":2309000000000,"state":"active","ping":67},{"user_id":71,"name":"Mr. Bob","steam_id":76561198047177932,"connected_time":516000000000,"state":"active","ping":163},{"user_id":6,"name":"R A S M U S","steam_id":76561198279799226,"connected_time":4378000000000,"state":"active","ping":67},{"user_id":47,"name":"Marloo","steam_id":76561198210792815,"connected_time":2139000000000,"state":"active","ping":79},{"user_id":49,"name":"lagzer","steam_id":76561198029295449,"connected_time":1883000000000,"state":"active","ping":82},{"user_id":64,"name":"Scarlet","steam_id":76561198075966579,"connected_time":865000000000,"state":"active","ping":43},{"user_id":72,"name":"LAMC","steam_id":76561199066888917,"connected_time":222000000000,"state":"active","ping":69},{"user_id":61,"name":"loveless","steam_id":76561198142256651,"connected_time":988000000000,"state":"active","ping":88},{"user_id":68,"name":"sam-","steam_id":76561198013770973,"connected_time":688000000000,"state":"active","ping":67},{"user_id":51,"name":"Karvahattu Hemuli","steam_id":76561198118334653,"connected_time":1763000000000,"state":"active","ping":97},{"user_id":37,"name":"Joe","steam_id":76561198061717026,"connected_time":3242000000000,"state":"active","ping":44},{"user_id":16,"name":"BONK","steam_id":76561199120275042,"connected_time":4318000000000,"state":"active","ping":66},{"user_id":59,"name":".::[SerafeTTiN]::.","steam_id":76561198009471724,"connected_time":1197000000000,"state":"active","ping":100},{"user_id":50,"name":"Economic crisis","steam_id":76561198063562843,"connected_time":1862000000000,"state":"active","ping":65},{"user_id":67,"name":"holmes6007","steam_id":76561198200075734,"connected_time":789000000000,"state":"active","ping":62},{"user_id":52,"name":"peruna","steam_id":76561198000721196,"connected_time":1735000000000,"state":"active","ping":75},{"user_id":53,"name":"beornot2be","steam_id":76561199274918860,"connected_time":1726000000000,"state":"active","ping":93},{"user_id":66,"name":"Chad IV","steam_id":76561198107767058,"connected_time":830000000000,"state":"active","ping":90},{"user_id":55,"name":"Bob","steam_id":76561198218200489,"connected_time":1678000000000,"state":"active","ping":48},{"user_id":60,"name":"DogBazooka23","steam_id":76561198251943518,"connected_time":1012000000000,"state":"active","ping":60},{"user_id":58,"name":"weed fairy","steam_id":76561197998843096,"connected_time":1261000000000,"state":"active","ping":85},{"user_id":63,"name":"Walle","steam_id":76561197995148937,"connected_time":889000000000,"state":"active","ping":77},{"user_id":70,"name":"E-why","steam_id":76561198063270899,"connected_time":576000000000,"state":"active","ping":45}]},{"server_id":21,"name":"Uncletopia | London | 5 | All Maps","name_short":"lon-5","host":"lon-1.uk.uncletopia.com","port":27055,"enabled":true,"region":"eu","cc":"gb","latitude":51.509865,"longitude":-0.118092,"reserved":0,"last_update":"0001-01-01T00:00:00Z","name_a2s":"Uncletopia | London | 5 | All Maps","protocol":17,"map":"pl_frontier_final","folder":"tf","game":"Team Fortress","app_id":440,"player_count":0,"max_players":24,"Bots":0,"server_type":"Dedicated","server_os":"Linux","password":true,"vac":true,"version":"7742253","steam_id":85568392924742829,"keywords":["nocrits","nodmgspread","payload","uncletopia"],"game_id":440,"stv_port":27056,"stv_name":"Uncletopia | London | 5 | All Maps | STV","players":null},{"server_id":22,"name":"Uncletopia | London | 6 | All Maps","name_short":"lon-6","host":"lon-1.uk.uncletopia.com","port":27065,"enabled":true,"region":"eu","cc":"gb","latitude":51.509865,"longitude":-0.118092,"reserved":0,"last_update":"0001-01-01T00:00:00Z","name_a2s":"Uncletopia | London | 6 | All Maps","protocol":17,"map":"pl_borneo","folder":"tf","game":"Team Fortress","app_id":440,"player_count":0,"max_players":24,"Bots":0,"server_type":"Dedicated","server_os":"Linux","password":true,"vac":true,"version":"7742253","steam_id":85568392924742830,"keywords":["nocrits","nodmgspread","payload","uncletopia"],"game_id":440,"stv_port":27066,"stv_name":"Uncletopia | London | 6 | All Maps | STV","players":null},{"server_id":40,"name":"Uncletopia | London | 7 | No Payload","name_short":"lon-7","host":"lon-1.uk.uncletopia.com","port":27075,"enabled":true,"region":"eu","cc":"gb","latitude":51.509865,"longitude":-0.118092,"reserved":0,"last_update":"0001-01-01T00:00:00Z","name_a2s":"Uncletopia | London | 7 | No Payload","protocol":17,"map":"koth_viaduct","folder":"tf","game":"Team Fortress","app_id":440,"player_count":0,"max_players":24,"Bots":0,"server_type":"Dedicated","server_os":"Linux","password":true,"vac":true,"version":"7742253","steam_id":85568392924964314,"keywords":["cp","nocrits","nodmgspread","uncletopia"],"game_id":440,"stv_port":27076,"stv_name":"Uncletopia | London | 7 | No Payload | STV","players":null},{"server_id":41,"name":"Uncletopia | London | 8 | Community","name_short":"lon-8","host":"lon-1.uk.uncletopia.com","port":27085,"enabled":true,"region":"eu","cc":"gb","latitude":51.509865,"longitude":-0.118092,"reserved":0,"last_update":"0001-01-01T00:00:00Z","name_a2s":"Uncletopia | London | 8 | Community","protocol":17,"map":"cp_altitude","folder":"tf","game":"Team Fortress","app_id":440,"player_count":0,"max_players":24,"Bots":0,"server_type":"Dedicated","server_os":"Linux","password":true,"vac":true,"version":"7742253","steam_id":85568392924964315,"keywords":["cp","nocrits","nodmgspread","uncletopia"],"game_id":440,"stv_port":27086,"stv_name":"Uncletopia | London | 8 | Community | STV","players":null},{"server_id":300,"name":"Uncletopia | Montréal | 1 | All Maps","name_short":"mtl-1","host":"mtl-1.ca.uncletopia.com","port":27015,"enabled":true,"region":"us-east","cc":"ca","latitude":45.50889,"longitude":-73.56167,"reserved":0,"last_update":"0001-01-01T00:00:00Z","name_a2s":"Uncletopia | Montréal | 1 | All Maps","protocol":17,"map":"pl_pier","folder":"tf","game":"Team Fortress","app_id":440,"player_count":0,"max_players":24,"Bots":0,"server_type":"Dedicated","server_os":"Linux","password":true,"vac":true,"version":"7742253","steam_id":85568392924500087,"keywords":["nocrits","nodmgspread","payload","uncletopia"],"game_id":440,"stv_port":27016,"stv_name":"Uncletopia | Montréal | 1 | All Maps | STV","players":null},{"server_id":301,"name":"Uncletopia | Montréal | 2 | All Maps","name_short":"mtl-2","host":"mtl-1.ca.uncletopia.com","port":27025,"enabled":true,"region":"us-east","cc":"ca","latitude":45.50889,"longitude":-73.56167,"reserved":0,"last_update":"0001-01-01T00:00:00Z","name_a2s":"Uncletopia | Montréal | 2 | All Maps","protocol":17,"map":"koth_highpass","folder":"tf","game":"Team Fortress","app_id":440,"player_count":0,"max_players":24,"Bots":0,"server_type":"Dedicated","server_os":"Linux","password":true,"vac":true,"version":"7742253","steam_id":85568392924500088,"keywords":["cp","nocrits","nodmgspread","uncletopia"],"game_id":440,"stv_port":27026,"stv_name":"Uncletopia | Montréal | 2 | All Maps | STV","players":null},{"server_id":302,"name":"Uncletopia | Montréal | 3 | All Maps","name_short":"mtl-3","host":"mtl-1.ca.uncletopia.com","port":27035,"enabled":true,"region":"us-east","cc":"ca","latitude":45.50889,"longitude":-73.56167,"reserved":0,"last_update":"0001-01-01T00:00:00Z","name_a2s":"Uncletopia | Montréal | 3 | All Maps","protocol":17,"map":"cp_mountainlab","folder":"tf","game":"Team Fortress","app_id":440,"player_count":0,"max_players":24,"Bots":0,"server_type":"Dedicated","server_os":"Linux","password":true,"vac":true,"version":"7742253","steam_id":85568392924500089,"keywords":["cp","nocrits","nodmgspread","uncletopia"],"game_id":440,"stv_port":27036,"stv_name":"Uncletopia | Montréal | 3 | All Maps | STV","players":null},{"server_id":303,"name":"Uncletopia | Montréal | 4 | No Payload","name_short":"mtl-4","host":"mtl-1.ca.uncletopia.com","port":27045,"enabled":true,"region":"us-east","cc":"ca","latitude":45.50889,"longitude":-73.56167,"reserved":0,"last_update":"0001-01-01T00:00:00Z","name_a2s":"Uncletopia | Montréal | 4 | No Payload","protocol":17,"map":"cp_snakewater_final1","folder":"tf","game":"Team Fortress","app_id":440,"player_count":0,"max_players":24,"Bots":0,"server_type":"Dedicated","server_os":"Linux","password":true,"vac":true,"version":"7742253","steam_id":85568392924500090,"keywords":["cp","nocrits","nodmgspread","uncletopia"],"game_id":440,"stv_port":27046,"stv_name":"Uncletopia | Montréal | 4 | No Payload | STV","players":null},{"server_id":13,"name":"Uncletopia | New York City | 1 | All Maps","name_short":"nyc-1","host":"nyc-1.us.uncletopia.com","port":27015,"enabled":true,"region":"us-east","cc":"us","latitude":40.73061,"longitude":-73.93524,"reserved":0,"last_update":"0001-01-01T00:00:00Z","name_a2s":"Uncletopia | New York City | 1 | All Maps","protocol":17,"map":"pl_snowycoast","folder":"tf","game":"Team Fortress","app_id":440,"player_count":24,"max_players":24,"Bots":0,"server_type":"Dedicated","server_os":"Linux","password":true,"vac":true,"version":"7742253","steam_id":85568392924469993,"keywords":["nocrits","nodmgspread","payload","uncletopia"],"game_id":440,"stv_port":27016,"stv_name":"Uncletopia | New York City | 1 | All Maps | STV","players":[{"user_id":163,"name":"astron","steam_id":76561198058546328,"connected_time":671000000000,"state":"active","ping":78},{"user_id":141,"name":"Whyamidoingthisaaaa","steam_id":76561199168837342,"connected_time":1708000000000,"state":"active","ping":56},{"user_id":161,"name":"ape (real)","steam_id":76561198379444671,"connected_time":913000000000,"state":"active","ping":60},{"user_id":173,"name":"Anshin","steam_id":76561198018803214,"connected_time":16000000000,"state":"active","ping":68},{"user_id":165,"name":"sithreis","steam_id":76561198000564263,"connected_time":172000000000,"state":"active","ping":73},{"user_id":166,"name":"AlecTheNefarious","steam_id":76561198035291230,"connected_time":170000000000,"state":"active","ping":75},{"user_id":143,"name":"vroop","steam_id":76561198211781375,"connected_time":1523000000000,"state":"active","ping":92},{"user_id":107,"name":"Garbage","steam_id":76561198286796934,"connected_time":4468000000000,"state":"active","ping":47},{"user_id":164,"name":"gangstalker","steam_id":76561198363267009,"connected_time":203000000000,"state":"active","ping":85},{"user_id":168,"name":"lanoc","steam_id":76561198055415367,"connected_time":148000000000,"state":"active","ping":60},{"user_id":169,"name":"pelicAn","steam_id":76561197963422599,"connected_time":104000000000,"state":"active","ping":52},{"user_id":154,"name":"behringer synth clone","steam_id":76561198102876081,"connected_time":1095000000000,"state":"active","ping":129},{"user_id":162,"name":"Walter White","steam_id":76561198870018009,"connected_time":803000000000,"state":"active","ping":87},{"user_id":139,"name":"chachi but high","steam_id":76561199045511890,"connected_time":1887000000000,"state":"active","ping":44},{"user_id":123,"name":"the deadliest pyroshark","steam_id":76561198374227766,"connected_time":3348000000000,"state":"active","ping":69},{"user_id":145,"name":"[Nick]","steam_id":76561198171649453,"connected_time":1507000000000,"state":"active","ping":47},{"user_id":155,"name":"CatLike Pigeon","steam_id":76561198171716030,"connected_time":1010000000000,"state":"active","ping":127},{"user_id":170,"name":"sweaterfan","steam_id":76561199389567214,"connected_time":67000000000,"state":"active","ping":60},{"user_id":171,"name":"DIO","steam_id":76561198084174868,"connected_time":59000000000,"state":"active","ping":120},{"user_id":157,"name":"mcarreno.ata","steam_id":76561199457221286,"connected_time":984000000000,"state":"active","ping":175},{"user_id":172,"name":"stockhack","steam_id":76561198050220225,"connected_time":54000000000,"state":"active","ping":57},{"user_id":148,"name":"Adolf The Toast Jesus™","steam_id":76561198024553767,"connected_time":1441000000000,"state":"active","ping":90},{"user_id":160,"name":"KTB","steam_id":76561197990744614,"connected_time":943000000000,"state":"active","ping":61},{"user_id":105,"name":"jingle shitmouth","steam_id":76561198055109192,"connected_time":4603000000000,"state":"active","ping":89}]},{"server_id":14,"name":"Uncletopia | New York City | 2 | All Maps","name_short":"nyc-2","host":"nyc-1.us.uncletopia.com","port":27025,"enabled":true,"region":"us-east","cc":"us","latitude":40.73061,"longitude":-73.93524,"reserved":0,"last_update":"0001-01-01T00:00:00Z","name_a2s":"Uncletopia | New York City | 2 | All Maps","protocol":17,"map":"pl_borneo","folder":"tf","game":"Team Fortress","app_id":440,"player_count":23,"max_players":24,"Bots":0,"server_type":"Dedicated","server_os":"Linux","password":true,"vac":true,"version":"7742253","steam_id":85568392924469994,"keywords":["nocrits","nodmgspread","payload","uncletopia"],"game_id":440,"stv_port":27026,"stv_name":"Uncletopia | New York City | 2 | All Maps | STV","players":[{"user_id":81,"name":"Vaude","steam_id":76561198369187511,"connected_time":4911000000000,"state":"active","ping":48},{"user_id":114,"name":"d-fens","steam_id":76561197969414326,"connected_time":1114000000000,"state":"active","ping":59},{"user_id":126,"name":"kitrod","steam_id":76561198814135622,"connected_time":221000000000,"state":"active","ping":90},{"user_id":111,"name":"JASC","steam_id":76561198050683512,"connected_time":1704000000000,"state":"active","ping":87},{"user_id":117,"name":"0","steam_id":76561197961095970,"connected_time":902000000000,"state":"active","ping":70},{"user_id":87,"name":"Mak","steam_id":76561198089197922,"connected_time":3530000000000,"state":"active","ping":119},{"user_id":118,"name":"Lost","steam_id":76561198025933206,"connected_time":874000000000,"state":"active","ping":89},{"user_id":90,"name":"Snazzi","steam_id":76561198085208276,"connected_time":3138000000000,"state":"active","ping":78},{"user_id":92,"name":"febfowl","steam_id":76561198023888890,"connected_time":3100000000000,"state":"active","ping":68},{"user_id":119,"name":"Trusty","steam_id":76561198035444237,"connected_time":858000000000,"state":"active","ping":45},{"user_id":65,"name":"Lumpy","steam_id":76561198058840585,"connected_time":7026000000000,"state":"active","ping":60},{"user_id":95,"name":"A Puppy","steam_id":76561198828184456,"connected_time":3005000000000,"state":"active","ping":45},{"user_id":127,"name":"brain griffin","steam_id":76561198865971290,"connected_time":141000000000,"state":"active","ping":76},{"user_id":123,"name":"jayy.t","steam_id":76561198059575962,"connected_time":654000000000,"state":"active","ping":44},{"user_id":124,"name":"schizo","steam_id":76561198016121536,"connected_time":495000000000,"state":"active","ping":60},{"user_id":99,"name":"Decot","steam_id":76561198042016967,"connected_time":2802000000000,"state":"active","ping":53},{"user_id":125,"name":"NovaSc6ut","steam_id":76561198277163301,"connected_time":358000000000,"state":"active","ping":73},{"user_id":101,"name":"Hameas","steam_id":76561198195620918,"connected_time":2671000000000,"state":"active","ping":154},{"user_id":102,"name":"u/unhinged_person","steam_id":76561198085839920,"connected_time":2642000000000,"state":"active","ping":70},{"user_id":60,"name":"comet sooicidy","steam_id":76561198025173479,"connected_time":7198000000000,"state":"active","ping":79},{"user_id":121,"name":"The Clayton","steam_id":76561199160459733,"connected_time":719000000000,"state":"active","ping":101},{"user_id":122,"name":"maze","steam_id":76561198068443860,"connected_time":701000000000,"state":"active","ping":65},{"user_id":104,"name":"Javaris Jamar Javarison-Lamar","steam_id":76561198146951387,"connected_time":2560000000000,"state":"active","ping":54}]},{"server_id":15,"name":"Uncletopia | New York City | 3 | Stopwatch Beta","name_short":"nyc-3","host":"nyc-1.us.uncletopia.com","port":27035,"enabled":true,"region":"us-east","cc":"us","latitude":40.73061,"longitude":-73.93524,"reserved":0,"last_update":"0001-01-01T00:00:00Z","name_a2s":"Uncletopia | New York City | 3 | Stopwatch Beta","protocol":17,"map":"pl_pier","folder":"tf","game":"Team Fortress","app_id":440,"player_count":0,"max_players":24,"Bots":0,"server_type":"Dedicated","server_os":"Linux","password":true,"vac":true,"version":"7742253","steam_id":85568392924742820,"keywords":["nocrits","nodmgspread","payload","uncletopia"],"game_id":440,"stv_port":27036,"stv_name":"Uncletopia | New York City | 3 | Stopwatch Beta | STV","players":null},{"server_id":16,"name":"Uncletopia | New York City | 4 | Community","name_short":"nyc-4","host":"nyc-1.us.uncletopia.com","port":27045,"enabled":true,"region":"us-east","cc":"us","latitude":40.73061,"longitude":-73.93524,"reserved":0,"last_update":"0001-01-01T00:00:00Z","name_a2s":"Uncletopia | New York City | 4 | Community","protocol":17,"map":"koth_viaduct","folder":"tf","game":"Team Fortress","app_id":440,"player_count":0,"max_players":24,"Bots":0,"server_type":"Dedicated","server_os":"Linux","password":true,"vac":true,"version":"7742253","steam_id":85568392924742821,"keywords":["cp","nocrits","nodmgspread","uncletopia"],"game_id":440,"stv_port":27046,"stv_name":"Uncletopia | New York City | 4 | Community | STV","players":null},{"server_id":142,"name":"Uncletopia | São Paulo | 1 | All Maps","name_short":"sao-1","host":"sao-1.br.uncletopia.com","port":27015,"enabled":true,"region":"sa","cc":"br","latitude":-23.533773,"longitude":-46.62529,"reserved":0,"last_update":"0001-01-01T00:00:00Z","name_a2s":"Uncletopia | São Paulo | 1 | All Maps","protocol":17,"map":"koth_viaduct","folder":"tf","game":"Team Fortress","app_id":440,"player_count":0,"max_players":24,"Bots":0,"server_type":"Dedicated","server_os":"Linux","password":true,"vac":true,"version":"7742253","steam_id":85568392924469996,"keywords":["cp","nocrits","nodmgspread","uncletopia"],"game_id":440,"stv_port":27016,"stv_name":"Uncletopia | São Paulo | 1 | All Maps | STV","players":null},{"server_id":143,"name":"Uncletopia | São Paulo | 2 | All Maps","name_short":"sao-2","host":"sao-2.br.uncletopia.com","port":27015,"enabled":true,"region":"sa","cc":"br","latitude":-23.533773,"longitude":-46.62529,"reserved":0,"last_update":"0001-01-01T00:00:00Z","name_a2s":"Uncletopia | São Paulo | 2 | All Maps","protocol":17,"map":"koth_viaduct","folder":"tf","game":"Team Fortress","app_id":440,"player_count":0,"max_players":24,"Bots":0,"server_type":"Dedicated","server_os":"Linux","password":true,"vac":true,"version":"7742253","steam_id":85568392924485349,"keywords":["cp","nocrits","nodmgspread","uncletopia"],"game_id":440,"stv_port":27016,"stv_name":"Uncletopia | São Paulo | 2 | All Maps | STV","players":null},{"server_id":7,"name":"Uncletopia | Seattle | 1 | All Maps","name_short":"sea-1","host":"sea-1.us.uncletopia.com","port":27015,"enabled":true,"region":"us-west","cc":"us","latitude":47.608013,"longitude":-122.33517,"reserved":0,"last_update":"0001-01-01T00:00:00Z","name_a2s":"Uncletopia | Seattle | 1 | All Maps","protocol":17,"map":"koth_nucleus","folder":"tf","game":"Team Fortress","app_id":440,"player_count":24,"max_players":24,"Bots":0,"server_type":"Dedicated","server_os":"Linux","password":true,"vac":true,"version":"7742253","steam_id":85568392924469997,"keywords":["cp","nocrits","nodmgspread","uncletopia"],"game_id":440,"stv_port":27016,"stv_name":"Uncletopia | Seattle | 1 | All Maps | STV","players":[{"user_id":135,"name":"festive jester","steam_id":76561198079609974,"connected_time":476000000000,"state":"active","ping":85},{"user_id":107,"name":"geometrically insensitive","steam_id":76561198038142791,"connected_time":2335000000000,"state":"active","ping":58},{"user_id":138,"name":"Can of Oranges (Festive)","steam_id":76561199121813529,"connected_time":194000000000,"state":"active","ping":43},{"user_id":114,"name":"Scansy","steam_id":76561198140528754,"connected_time":1245000000000,"state":"active","ping":50},{"user_id":125,"name":"local","steam_id":76561198069537437,"connected_time":973000000000,"state":"active","ping":82},{"user_id":140,"name":"skosgo","steam_id":76561197996403345,"connected_time":95000000000,"state":"active","ping":80},{"user_id":130,"name":"whoa...","steam_id":76561198143132686,"connected_time":852000000000,"state":"active","ping":74},{"user_id":136,"name":"OutspokenWeeb","steam_id":76561198062984704,"connected_time":412000000000,"state":"active","ping":96},{"user_id":120,"name":"coffee enjoyer","steam_id":76561198059900288,"connected_time":1091000000000,"state":"active","ping":123},{"user_id":126,"name":"sly1","steam_id":76561198049014977,"connected_time":914000000000,"state":"active","ping":57},{"user_id":137,"name":"Serene Salamander","steam_id":76561198001094770,"connected_time":328000000000,"state":"active","ping":87},{"user_id":110,"name":"doopsies","steam_id":76561198083000867,"connected_time":1651000000000,"state":"active","ping":50},{"user_id":124,"name":"- Knipples -","steam_id":76561197977061311,"connected_time":1004000000000,"state":"active","ping":119},{"user_id":141,"name":"Ω Compu","steam_id":76561198041397577,"connected_time":35000000000,"state":"active","ping":129},{"user_id":109,"name":"The King of Piss World","steam_id":76561198082806956,"connected_time":2146000000000,"state":"active","ping":119},{"user_id":83,"name":"Savant","steam_id":76561197969881916,"connected_time":5174000000000,"state":"active","ping":57},{"user_id":93,"name":"profile name","steam_id":76561198032625036,"connected_time":4401000000000,"state":"active","ping":60},{"user_id":127,"name":"8core","steam_id":76561198131163454,"connected_time":910000000000,"state":"active","ping":87},{"user_id":92,"name":"KingToaster","steam_id":76561198007903802,"connected_time":4509000000000,"state":"active","ping":38},{"user_id":128,"name":"gwy","steam_id":76561198277458653,"connected_time":907000000000,"state":"active","ping":40},{"user_id":139,"name":"An Old Lady","steam_id":76561198047480318,"connected_time":180000000000,"state":"active","ping":72},{"user_id":133,"name":"Ducks","steam_id":76561198130038345,"connected_time":739000000000,"state":"active","ping":60},{"user_id":143,"name":"Gaming","steam_id":76561198327632113,"connected_time":26000000000,"state":"active","ping":48},{"user_id":121,"name":"Kaos","steam_id":76561198332958244,"connected_time":1082000000000,"state":"active","ping":59}]},{"server_id":119,"name":"Uncletopia | Seattle | 2 | All Maps","name_short":"sea-2","host":"sea-1.us.uncletopia.com","port":27025,"enabled":true,"region":"us-west","cc":"us","latitude":47.608013,"longitude":-122.33517,"reserved":0,"last_update":"0001-01-01T00:00:00Z","name_a2s":"Uncletopia | Seattle | 2 | All Maps","protocol":17,"map":"pl_pier","folder":"tf","game":"Team Fortress","app_id":440,"player_count":24,"max_players":24,"Bots":0,"server_type":"Dedicated","server_os":"Linux","password":true,"vac":true,"version":"7742253","steam_id":85568392924469998,"keywords":["nocrits","nodmgspread","payload","uncletopia"],"game_id":440,"stv_port":27026,"stv_name":"Uncletopia | Seattle | 2 | All Maps | STV","players":[{"user_id":105,"name":"Dr. Karl, the AUS Science Guy","steam_id":76561198031278747,"connected_time":893000000000,"state":"active","ping":45},{"user_id":83,"name":"Keth (No i)","steam_id":76561198155903648,"connected_time":3713000000000,"state":"active","ping":62},{"user_id":5,"name":"strong and healthy gamer","steam_id":76561198049489349,"connected_time":10466000000000,"state":"active","ping":52},{"user_id":117,"name":"dzcreeper","steam_id":76561198072250723,"connected_time":192000000000,"state":"active","ping":86},{"user_id":118,"name":"(ง⌐■ω■)ง","steam_id":76561198157412975,"connected_time":141000000000,"state":"active","ping":59},{"user_id":119,"name":"themadlad67","steam_id":76561199309554436,"connected_time":132000000000,"state":"active","ping":44},{"user_id":114,"name":"jc71777","steam_id":76561199124210364,"connected_time":401000000000,"state":"active","ping":81},{"user_id":87,"name":"Salty.Sam","steam_id":76561198030933901,"connected_time":3631000000000,"state":"active","ping":99},{"user_id":116,"name":"I'm sorry in advance","steam_id":76561198087380785,"connected_time":301000000000,"state":"active","ping":80},{"user_id":115,"name":"E","steam_id":76561198238236044,"connected_time":400000000000,"state":"active","ping":138},{"user_id":120,"name":"_DrunkenGibberish_","steam_id":76561199123070071,"connected_time":127000000000,"state":"active","ping":110},{"user_id":91,"name":"Smeagolhoss","steam_id":76561198361514063,"connected_time":3422000000000,"state":"active","ping":86},{"user_id":76,"name":"butt3r_","steam_id":76561198156374792,"connected_time":4888000000000,"state":"active","ping":51},{"user_id":98,"name":"2 Point Tom","steam_id":76561198087617008,"connected_time":1293000000000,"state":"active","ping":52},{"user_id":106,"name":"SorenMaximus","steam_id":76561198962936832,"connected_time":859000000000,"state":"active","ping":46},{"user_id":107,"name":"goldhed","steam_id":76561198051751133,"connected_time":827000000000,"state":"active","ping":60},{"user_id":110,"name":"Google","steam_id":76561198857237473,"connected_time":668000000000,"state":"active","ping":48},{"user_id":102,"name":"B-0-D-I-E ✓","steam_id":76561198079474904,"connected_time":1074000000000,"state":"active","ping":60},{"user_id":121,"name":"ztnt1000","steam_id":76561198245073566,"connected_time":122000000000,"state":"active","ping":61},{"user_id":122,"name":"Waltuh Gaming","steam_id":76561198173624978,"connected_time":109000000000,"state":"active","ping":88},{"user_id":123,"name":"I AM THE DANGER","steam_id":76561198261903052,"connected_time":97000000000,"state":"active","ping":80},{"user_id":86,"name":"Robotguy9","steam_id":76561198147429617,"connected_time":3666000000000,"state":"active","ping":60},{"user_id":90,"name":"mohamy_19","steam_id":76561198075833698,"connected_time":3589000000000,"state":"active","ping":72},{"user_id":124,"name":"cardboard","steam_id":76561198193855346,"connected_time":59000000000,"state":"spawning","ping":106}]},{"server_id":406,"name":"Uncletopia | Seattle | 3 | Stopwatch Beta","name_short":"sea-3","host":"sea-1.us.uncletopia.com","port":27035,"enabled":true,"region":"us-west","cc":"us","latitude":47.608013,"longitude":-122.33517,"reserved":0,"last_update":"0001-01-01T00:00:00Z","name_a2s":"Uncletopia | Seattle | 3 | Stopwatch Beta","protocol":17,"map":"cp_sunshine","folder":"tf","game":"Team Fortress","app_id":440,"player_count":0,"max_players":24,"Bots":0,"server_type":"Dedicated","server_os":"Linux","password":true,"vac":true,"version":"7742253","steam_id":85568392924515217,"keywords":["cp","nocrits","nodmgspread","uncletopia"],"game_id":440,"stv_port":27036,"stv_name":"Uncletopia | Seattle | 3 | Stopwatch Beta | STV","players":null},{"server_id":17,"name":"Uncletopia | San Francisco | 1 | All Maps","name_short":"sfo-1","host":"sfo-1.us.uncletopia.com","port":27015,"enabled":true,"region":"us-west","cc":"us","latitude":37.77397,"longitude":-122.4313,"reserved":0,"last_update":"0001-01-01T00:00:00Z","name_a2s":"Uncletopia | San Francisco | 1 | All Maps","protocol":17,"map":"cp_altitude","folder":"tf","game":"Team Fortress","app_id":440,"player_count":0,"max_players":24,"Bots":0,"server_type":"Dedicated","server_os":"Linux","password":true,"vac":true,"version":"7742253","steam_id":85568392924469999,"keywords":["cp","nocrits","nodmgspread","uncletopia"],"game_id":440,"stv_port":27016,"stv_name":"Uncletopia | San Francisco | 1 | All Maps | STV","players":null},{"server_id":18,"name":"Uncletopia | San Francisco | 2 | All Maps","name_short":"sfo-2","host":"sfo-1.us.uncletopia.com","port":27025,"enabled":true,"region":"us-west","cc":"us","latitude":37.77397,"longitude":-122.4313,"reserved":0,"last_update":"0001-01-01T00:00:00Z","name_a2s":"Uncletopia | San Francisco | 2 | All Maps","protocol":17,"map":"cp_altitude","folder":"tf","game":"Team Fortress","app_id":440,"player_count":0,"max_players":24,"Bots":0,"server_type":"Dedicated","server_os":"Linux","password":true,"vac":true,"version":"7742253","steam_id":85568392924470000,"keywords":["cp","nocrits","nodmgspread","uncletopia"],"game_id":440,"stv_port":27026,"stv_name":"Uncletopia | San Francisco | 2 | All Maps | STV","players":null},{"server_id":19,"name":"Uncletopia | San Francisco | 3 | Stopwatch Beta","name_short":"sfo-3","host":"sfo-1.us.uncletopia.com","port":27035,"enabled":true,"region":"us-west","cc":"us","latitude":37.77397,"longitude":-122.4313,"reserved":0,"last_update":"0001-01-01T00:00:00Z","name_a2s":"Uncletopia | San Francisco | 3 | Stopwatch Beta","protocol":17,"map":"cp_snakewater_final1","folder":"tf","game":"Team Fortress","app_id":440,"player_count":0,"max_players":24,"Bots":0,"server_type":"Dedicated","server_os":"Linux","password":true,"vac":true,"version":"7742253","steam_id":85568392924742824,"keywords":["cp","nocrits","nodmgspread","uncletopia"],"game_id":440,"stv_port":27036,"stv_name":"Uncletopia | San Francisco | 3 | Stopwatch Beta | STV","players":null},{"server_id":20,"name":"Uncletopia | San Francisco | 4 | Community","name_short":"sfo-4","host":"sfo-1.us.uncletopia.com","port":27045,"enabled":true,"region":"us-west","cc":"us","latitude":37.77397,"longitude":-122.4313,"reserved":0,"last_update":"0001-01-01T00:00:00Z","name_a2s":"Uncletopia | San Francisco | 4 | Community","protocol":17,"map":"cp_dustbowl","folder":"tf","game":"Team Fortress","app_id":440,"player_count":0,"max_players":24,"Bots":0,"server_type":"Dedicated","server_os":"Linux","password":true,"vac":true,"version":"7742253","steam_id":85568392924742826,"keywords":["cp","nocrits","nodmgspread","uncletopia"],"game_id":440,"stv_port":27046,"stv_name":"Uncletopia | San Francisco | 4 | Community | STV","players":null},{"server_id":141,"name":"Uncletopia | Sydney | 1 | All Maps","name_short":"syd-1","host":"syd-1.au.uncletopia.com","port":27015,"enabled":true,"region":"au","cc":"au","latitude":-33.865143,"longitude":151.2099,"reserved":0,"last_update":"0001-01-01T00:00:00Z","name_a2s":"Uncletopia | Sydney | 1 | All Maps","protocol":17,"map":"cp_dustbowl","folder":"tf","game":"Team Fortress","app_id":440,"player_count":25,"max_players":24,"Bots":0,"server_type":"Dedicated","server_os":"Linux","password":true,"vac":true,"version":"7742253","steam_id":85568392924470001,"keywords":["cp","nocrits","nodmgspread","uncletopia"],"game_id":440,"stv_port":27016,"stv_name":"Uncletopia | Sydney | 1 | All Maps | STV","players":[{"user_id":122,"name":"Eldritch Horror Dexter","steam_id":76561198017793171,"connected_time":897000000000,"state":"active","ping":60},{"user_id":73,"name":"Rant","steam_id":76561198949751771,"connected_time":3114000000000,"state":"active","ping":31},{"user_id":125,"name":"Performance Issues","steam_id":76561198202341454,"connected_time":806000000000,"state":"active","ping":63},{"user_id":121,"name":"Mr Asian","steam_id":76561199119648313,"connected_time":1003000000000,"state":"active","ping":70},{"user_id":98,"name":"KillerBlow","steam_id":76561198930232832,"connected_time":2332000000000,"state":"active","ping":82},{"user_id":83,"name":"lofty","steam_id":76561198380588357,"connected_time":2715000000000,"state":"active","ping":65},{"user_id":116,"name":"hawk","steam_id":76561198135164277,"connected_time":1401000000000,"state":"active","ping":56},{"user_id":117,"name":"monkeyman536","steam_id":76561197997717737,"connected_time":1296000000000,"state":"active","ping":171},{"user_id":131,"name":"LeoJoeD","steam_id":76561198161848749,"connected_time":46000000000,"state":"active","ping":37},{"user_id":124,"name":"ziah","steam_id":76561198159375596,"connected_time":843000000000,"state":"active","ping":52},{"user_id":113,"name":"the coolest karlos","steam_id":76561198956180767,"connected_time":1478000000000,"state":"active","ping":45},{"user_id":112,"name":"Macca","steam_id":76561198010207998,"connected_time":1482000000000,"state":"active","ping":57},{"user_id":120,"name":"doctor morbin' (real)","steam_id":76561199365241695,"connected_time":1044000000000,"state":"active","ping":127},{"user_id":107,"name":"Dr Barry Mundy PhD","steam_id":76561198034512686,"connected_time":1746000000000,"state":"active","ping":41},{"user_id":111,"name":"Phoish","steam_id":76561198442526296,"connected_time":1534000000000,"state":"active","ping":63},{"user_id":69,"name":"beet","steam_id":76561198097873940,"connected_time":3228000000000,"state":"active","ping":55},{"user_id":92,"name":"Turb Durgler","steam_id":76561198055358448,"connected_time":2486000000000,"state":"active","ping":58},{"user_id":129,"name":"crimo","steam_id":76561198273057915,"connected_time":132000000000,"state":"active","ping":36},{"user_id":72,"name":"₱elica₦","steam_id":76561198123827973,"connected_time":3133000000000,"state":"active","ping":89},{"user_id":134,"name":"[TÐK] KeRpaL","steam_id":76561197974427061,"connected_time":4000000000,"state":"spawning","ping":85},{"user_id":118,"name":"Wake'n'Bake'n'Make'n'Bacon","steam_id":76561198061960926,"connected_time":1241000000000,"state":"active","ping":82},{"user_id":84,"name":"NewChris","steam_id":76561198254754182,"connected_time":2705000000000,"state":"active","ping":76},{"user_id":133,"name":"carf","steam_id":76561199142612869,"connected_time":39000000000,"state":"spawning","ping":78},{"user_id":126,"name":"hadouken","steam_id":76561198019740135,"connected_time":749000000000,"state":"active","ping":58},{"user_id":128,"name":"Sherpa","steam_id":76561198018913829,"connected_time":561000000000,"state":"active","ping":56}]},{"server_id":123,"name":"Uncletopia | Sydney | 2 | All Maps","name_short":"syd-2","host":"syd-1.au.uncletopia.com","port":27025,"enabled":true,"region":"au","cc":"au","latitude":-33.865143,"longitude":151.2099,"reserved":0,"last_update":"0001-01-01T00:00:00Z","name_a2s":"Uncletopia | Sydney | 2 | All Maps","protocol":17,"map":"pl_snowycoast","folder":"tf","game":"Team Fortress","app_id":440,"player_count":6,"max_players":24,"Bots":0,"server_type":"Dedicated","server_os":"Linux","password":true,"vac":true,"version":"7742253","steam_id":85568392924470002,"keywords":["nocrits","nodmgspread","payload","uncletopia"],"game_id":440,"stv_port":27026,"stv_name":"Uncletopia | Sydney | 2 | All Maps | STV","players":[{"user_id":10,"name":"Morgenstern","steam_id":76561198253080474,"connected_time":1582000000000,"state":"active","ping":68},{"user_id":11,"name":"dingo","steam_id":76561198315774295,"connected_time":1551000000000,"state":"active","ping":55},{"user_id":14,"name":"Jasmine","steam_id":76561198872890799,"connected_time":1043000000000,"state":"active","ping":64},{"user_id":15,"name":"lemur","steam_id":76561198278239170,"connected_time":549000000000,"state":"active","ping":76},{"user_id":16,"name":"猫","steam_id":76561198077371097,"connected_time":415000000000,"state":"active","ping":59},{"user_id":17,"name":"Sover blw.tf","steam_id":76561198136347837,"connected_time":242000000000,"state":"active","ping":132}]},{"server_id":395,"name":"Uncletopia | Sydney | 3 | All Maps","name_short":"syd-3","host":"syd-1.au.uncletopia.com","port":27035,"enabled":true,"region":"au","cc":"au","latitude":-33.865143,"longitude":151.2099,"reserved":0,"last_update":"0001-01-01T00:00:00Z","name_a2s":"Uncletopia | Sydney | 3 | All Maps","protocol":17,"map":"ctf_2fort","folder":"tf","game":"Team Fortress","app_id":440,"player_count":0,"max_players":24,"Bots":0,"server_type":"Dedicated","server_os":"Linux","password":true,"vac":true,"version":"7742253","steam_id":85568392925194467,"keywords":["ctf","nocrits","nodmgspread","uncletopia"],"game_id":440,"stv_port":27036,"stv_name":"Uncletopia | Sydney | 3 | All Maps | STV","players":null},{"server_id":396,"name":"Uncletopia | Sydney | 4 | All Maps","name_short":"syd-4","host":"syd-1.au.uncletopia.com","port":27045,"enabled":true,"region":"au","cc":"au","latitude":-33.865143,"longitude":151.2099,"reserved":0,"last_update":"0001-01-01T00:00:00Z","name_a2s":"Uncletopia | Sydney | 4 | All Maps","protocol":17,"map":"ctf_2fort","folder":"tf","game":"Team Fortress","app_id":440,"player_count":0,"max_players":24,"Bots":0,"server_type":"Dedicated","server_os":"Linux","password":true,"vac":true,"version":"7742253","steam_id":85568392925397958,"keywords":["ctf","nocrits","nodmgspread","uncletopia"],"game_id":440,"stv_port":27046,"stv_name":"Uncletopia | Sydney | 4 | All Maps | STV","players":null},{"server_id":58,"name":"Uncletopia | Sydney | 5 | Stopwatch Beta","name_short":"syd-5","host":"syd-1.au.uncletopia.com","port":27055,"enabled":true,"region":"au","cc":"au","latitude":-33.865143,"longitude":151.2099,"reserved":0,"last_update":"0001-01-01T00:00:00Z","name_a2s":"Uncletopia | Sydney | 5 | Stopwatch Beta","protocol":17,"map":"workshop/koth_bagel_rc5.ugc2514036946","folder":"tf","game":"Team Fortress","app_id":440,"player_count":0,"max_players":24,"Bots":0,"server_type":"Dedicated","server_os":"Linux","password":true,"vac":true,"version":"7742253","steam_id":85568392925397959,"keywords":["cp","nocrits","nodmgspread","uncletopia"],"game_id":440,"stv_port":27056,"stv_name":"Uncletopia | Sydney | 5 | Stopwatch Beta | STV","players":null},{"server_id":59,"name":"Uncletopia | Sydney | 6 | Community","name_short":"syd-6","host":"syd-1.au.uncletopia.com","port":27065,"enabled":true,"region":"au","cc":"au","latitude":-33.865143,"longitude":151.2099,"reserved":0,"last_update":"0001-01-01T00:00:00Z","name_a2s":"Uncletopia | Sydney | 6 | Community","protocol":17,"map":"workshop/pl_cactuscanyon_redux_rc4b.ugc2579644293","folder":"tf","game":"Team Fortress","app_id":440,"player_count":0,"max_players":24,"Bots":0,"server_type":"Dedicated","server_os":"Linux","password":true,"vac":true,"version":"7742253","steam_id":85568392925397960,"keywords":["nocrits","nodmgspread","payload","uncletopia"],"game_id":440,"stv_port":27066,"stv_name":"Uncletopia | Sydney | 6 | Community | STV","players":null},{"server_id":49,"name":"Uncletopia | Warsaw | 1 | All Maps","name_short":"waw-1","host":"waw-1.pl.uncletopia.com","port":27015,"enabled":true,"region":"eu","cc":"pl","latitude":52.2297,"longitude":21.017532,"reserved":0,"last_update":"0001-01-01T00:00:00Z","name_a2s":"","protocol":0,"map":"","folder":"","game":"","app_id":0,"player_count":0,"max_players":0,"Bots":0,"server_type":"","server_os":"","password":false,"vac":false,"version":"","steam_id":0,"keywords":null,"game_id":0,"stv_port":0,"stv_name":"","players":null},{"server_id":50,"name":"Uncletopia | Warsaw | 2 | All Maps","name_short":"waw-2","host":"waw-1.pl.uncletopia.com","port":27025,"enabled":true,"region":"eu","cc":"pl","latitude":52.2297,"longitude":21.017532,"reserved":0,"last_update":"0001-01-01T00:00:00Z","name_a2s":"Uncletopia | Warsaw | 2 | All Maps","protocol":17,"map":"pl_borneo","folder":"tf","game":"Team Fortress","app_id":440,"player_count":0,"max_players":24,"Bots":0,"server_type":"Dedicated","server_os":"Linux","password":true,"vac":true,"version":"7742253","steam_id":85568392925397851,"keywords":["nocrits","nodmgspread","payload","uncletopia"],"game_id":440,"stv_port":27026,"stv_name":"Uncletopia | Warsaw | 2 | All Maps | STV","players":null},{"server_id":51,"name":"Uncletopia | Warsaw | 3 | All Maps","name_short":"waw-3","host":"waw-1.pl.uncletopia.com","port":27035,"enabled":true,"region":"eu","cc":"pl","latitude":52.2297,"longitude":21.017532,"reserved":0,"last_update":"0001-01-01T00:00:00Z","name_a2s":"Uncletopia | Warsaw | 3 | All Maps","protocol":17,"map":"koth_lakeside_final","folder":"tf","game":"Team Fortress","app_id":440,"player_count":0,"max_players":24,"Bots":0,"server_type":"Dedicated","server_os":"Linux","password":true,"vac":true,"version":"7742253","steam_id":85568392925397852,"keywords":["cp","nocrits","nodmgspread","uncletopia"],"game_id":440,"stv_port":27036,"stv_name":"Uncletopia | Warsaw | 3 | All Maps | STV","players":null},{"server_id":52,"name":"Uncletopia | Warsaw | 4 | All Maps","name_short":"waw-4","host":"waw-1.pl.uncletopia.com","port":27045,"enabled":true,"region":"eu","cc":"pl","latitude":52.2297,"longitude":21.017532,"reserved":0,"last_update":"0001-01-01T00:00:00Z","name_a2s":"Uncletopia | Warsaw | 4 | All Maps","protocol":17,"map":"pl_upward","folder":"tf","game":"Team Fortress","app_id":440,"player_count":0,"max_players":24,"Bots":0,"server_type":"Dedicated","server_os":"Linux","password":true,"vac":true,"version":"7742253","steam_id":85568392925397853,"keywords":["nocrits","nodmgspread","payload","uncletopia"],"game_id":440,"stv_port":27046,"stv_name":"Uncletopia | Warsaw | 4 | All Maps | STV","players":null},{"server_id":53,"name":"Uncletopia | Warsaw | 5 | Stopwatch Beta","name_short":"waw-5","host":"waw-1.pl.uncletopia.com","port":27055,"enabled":true,"region":"eu","cc":"pl","latitude":52.2297,"longitude":21.017532,"reserved":0,"last_update":"0001-01-01T00:00:00Z","name_a2s":"Uncletopia | Warsaw | 5 | Stopwatch Beta","protocol":17,"map":"pl_swiftwater_final1","folder":"tf","game":"Team Fortress","app_id":440,"player_count":0,"max_players":24,"Bots":0,"server_type":"Dedicated","server_os":"Linux","password":true,"vac":true,"version":"7742253","steam_id":85568392925397854,"keywords":["nocrits","nodmgspread","payload","uncletopia"],"game_id":440,"stv_port":27056,"stv_name":"Uncletopia | Warsaw | 5 | Stopwatch Beta | STV","players":null},{"server_id":54,"name":"Uncletopia | Warsaw | 6 | Community","name_short":"waw-6","host":"waw-1.pl.uncletopia.com","port":27065,"enabled":true,"region":"eu","cc":"pl","latitude":52.2297,"longitude":21.017532,"reserved":0,"last_update":"0001-01-01T00:00:00Z","name_a2s":"Uncletopia | Warsaw | 6 | Community","protocol":17,"map":"koth_highpass","folder":"tf","game":"Team Fortress","app_id":440,"player_count":0,"max_players":24,"Bots":0,"server_type":"Dedicated","server_os":"Linux","password":true,"vac":true,"version":"7742253","steam_id":85568392925397856,"keywords":["cp","nocrits","nodmgspread","uncletopia"],"game_id":440,"stv_port":27066,"stv_name":"Uncletopia | Warsaw | 6 | Community | STV","players":null}]}