{"status":true,"message":"","result":[{"server_id":9,"name":"Uncletopia | Atlanta | 1 | All Maps","name_short":"atl-1","host":"atl-1.us.uncletopia.com","port":27015,"enabled":true,"region":"us-east","cc":"us","latitude":33.753746,"longitude":-84.38633,"reserved":0,"last_update":"0001-01-01T00:00:00Z","name_a2s":"Uncletopia | Atlanta | 1 | All Maps","protocol":17,"map":"pl_badwater","folder":"tf","game":"Team Fortress","app_id":440,"player_count":24,"max_players":24,"Bots":0,"server_type":"Dedicated","server_os":"Linux","password":true,"vac":true,"version":"7961495","steam_id":85568392924469982,"keywords":["nocrits","nodmgspread","payload","uncletopia"],"game_id":440,"stv_port":27016,"stv_name":"Uncletopia | Atlanta | 1 | All Maps | STV","players":[{"user_id":71,"name":"Ashes!","steam_id":76561197998475441,"connected_time":21351000000000,"state":"active","ping":76},{"user_id":249,"name":"EntityReport","steam_id":76561199004218744,"connected_time":2684000000000,"state":"active","ping":74},{"user_id":264,"name":"thomasdee725???","steam_id":76561199189526173,"connected_time":991000000000,"state":"active","ping":87},{"user_id":248,"name":"Vadenair","steam_id":76561198277100433,"connected_time":2802000000000,"state":"active","ping":82},{"user_id":209,"name":"Yes!","steam_id":76561198084208477,"connected_time":7630000000000,"state":"active","ping":59},{"user_id":255,"name":"JucaPirama","steam_id":76561198004473680,"connected_time":1615000000000,"state":"active","ping":175},{"user_id":218,"name":"Tay1Qr","steam_id":76561198082809935,"connected_time":6482000000000,"state":"active","ping":60},{"user_id":252,"name":"Im High","steam_id":76561198049954886,"connected_time":2251000000000,"state":"active","ping":75},{"user_id":239,"name":"Sinta","steam_id":76561198098398841,"connected_time":3616000000000,"state":"active","ping":46},{"user_id":226,"name":"Onyx","steam_id":76561198275349640,"connected_time":5627000000000,"state":"active","ping":74},{"user_id":244,"name":"joe","steam_id":76561198045781320,"connected_time":3188000000000,"state":"active","ping":59},{"user_id":250,"name":"Woke Bush","steam_id":76561198047994501,"connected_time":2295000000000,"state":"active","ping":43},{"user_id":205,"name":"King Cotton","steam_id":76561198292444376,"connected_time":8101000000000,"state":"active","ping":85},{"user_id":228,"name":"Trapilicious","steam_id":76561198061430457,"connected_time":5495000000000,"state":"active","ping":74},{"user_id":258,"name":"Shame","steam_id":76561198100490994,"connected_time":1255000000000,"state":"active","ping":60},{"user_id":259,"name":"Kuri","steam_id":76561199037050183,"connected_time":1244000000000,"state":"active","ping":126},{"user_id":265,"name":"ATL1 | I have one enemy","steam_id":76561199121276474,"connected_time":705000000000,"state":"active","ping":79},{"user_id":266,"name":"Lilith","steam_id":76561198125102885,"connected_time":151000000000,"state":"active","ping":62},{"user_id":246,"name":"THE FOOL","steam_id":76561198243965308,"connected_time":3004000000000,"state":"active","ping":98},{"user_id":262,"name":"peace dog","steam_id":76561198267988522,"connected_time":1164000000000,"state":"active","ping":80},{"user_id":236,"name":"ash","steam_id":76561198127890645,"connected_time":4174000000000,"state":"active","ping":72},{"user_id":243,"name":"The Kansas Crack Addict","steam_id":76561199022178492,"connected_time":3254000000000,"state":"active","ping":57},{"user_id":263,"name":"napo poopy-tuff shamarry nite","steam_id":76561198309155116,"connected_time":1141000000000,"state":"active","ping":160},{"user_id":238,"name":"Echo","steam_id":76561198072092594,"connected_time":4031000000000,"state":"active","ping":59}]},{"server_id":104,"name":"Uncletopia | Atlanta | 2 | All Maps","name_short":"atl-2","host":"atl-1.us.uncletopia.com","port":27025,"enabled":true,"region":"us-east","cc":"us","latitude":33.753746,"longitude":-84.38633,"reserved":0,"last_update":"0001-01-01T00:00:00Z","name_a2s":"Uncletopia | Atlanta | 2 | All Maps","protocol":17,"map":"pl_borneo","folder":"tf","game":"Team Fortress","app_id":440,"player_count":20,"max_players":24,"Bots":0,"server_type":"Dedicated","server_os":"Linux","password":true,"vac":true,"version":"7961495","steam_id":85568392924469983,"keywords":["nocrits","nodmgspread","payload","uncletopia"],"game_id":440,"stv_port":27026,"stv_name":"Uncletopia | Atlanta | 2 | All Maps | STV","players":[{"user_id":273,"name":"GibbusGod","steam_id":76561199232436690,"connected_time":1110000000000,"state":"spawning","ping":119},{"user_id":291,"name":"roii","steam_id":76561198157517892,"connected_time":7000000000,"state":"connecting","ping":85},{"user_id":267,"name":"FloridaMan","steam_id":76561199220767924,"connected_time":2008000000000,"state":"spawning","ping":79},{"user_id":151,"name":"B0B_Bobson","steam_id":76561198400694217,"connected_time":11668000000000,"state":"spawning","ping":86},{"user_id":277,"name":"pastry","steam_id":76561198038999341,"connected_time":933000000000,"state":"spawning","ping":173},{"user_id":270,"name":"2x4 =)","steam_id":76561198971497888,"connected_time":1330000000000,"state":"spawning","ping":81},{"user_id":289,"name":"FreshlyBrewed","steam_id":76561198181099881,"connected_time":242000000000,"state":"spawning","ping":145},{"user_id":276,"name":"popfulmail","steam_id":76561198865971290,"connected_time":965000000000,"state":"connecting","ping":104},{"user_id":257,"name":"Spongebobbbbbb","steam_id":76561198270963428,"connected_time":2965000000000,"state":"spawning","ping":157},{"user_id":290,"name":"Rockstar Grill Operator","steam_id":76561199125789367,"connected_time":110000000000,"state":"spawning","ping":68},{"user_id":282,"name":"fpin","steam_id":76561198109900369,"connected_time":803000000000,"state":"spawning","ping":180},{"user_id":248,"name":"A2","steam_id":76561198068266632,"connected_time":3951000000000,"state":"spawning","ping":92},{"user_id":241,"name":"vastrobotmax","steam_id":76561198417110724,"connected_time":4517000000000,"state":"spawning","ping":108},{"user_id":285,"name":"room temp IQ","steam_id":76561198018724712,"connected_time":580000000000,"state":"spawning","ping":133},{"user_id":259,"name":"crabapples","steam_id":76561198075818655,"connected_time":2927000000000,"state":"spawning","ping":142},{"user_id":272,"name":"ae","steam_id":76561198185490827,"connected_time":1299000000000,"state":"spawning","ping":139},{"user_id":284,"name":"Salt","steam_id":76561198418001135,"connected_time":743000000000,"state":"spawning","ping":85},{"user_id":262,"name":"LOVEDRAGON","steam_id":76561198089908485,"connected_time":2633000000000,"state":"spawning","ping":126},{"user_id":288,"name":"rAnch","steam_id":76561198024562587,"connected_time":260000000000,"state":"spawning","ping":103},{"user_id":283,"name":"Green-Guy Geno","steam_id":76561198024512428,"connected_time":799000000000,"state":"spawning","ping":153}]},{"server_id":400,"name":"Uncletopia | Atlanta | 3 | Stopwatch","name_short":"atl-3","host":"atl-1.us.uncletopia.com","port":27035,"enabled":true,"region":"us-east","cc":"us","latitude":33.753746,"longitude":-84.38633,"reserved":0,"last_update":"0001-01-01T00:00:00Z","name_a2s":"Uncletopia | Atlanta | 3 | Stopwatch","protocol":17,"map":"workshop/koth_bagel_rc6.ugc2514036946","folder":"tf","game":"Team Fortress","app_id":440,"player_count":0,"max_players":24,"Bots":0,"server_type":"Dedicated","server_os":"Linux","password":true,"vac":true,"version":"7961495","steam_id":85568392924515187,"keywords":["cp","nocrits","nodmgspread","uncletopia"],"game_id":440,"stv_port":27036,"stv_name":"Uncletopia | Atlanta | 3 | Stopwatch | STV","players":null},{"server_id":401,"name":"Uncletopia | Atlanta | 4 | Community","name_short":"atl-4","host":"atl-1.us.uncletopia.com","port":27045,"enabled":true,"region":"us-east","cc":"us","latitude":33.753746,"longitude":-84.38633,"reserved":0,"last_update":"0001-01-01T00:00:00Z","name_a2s":"Uncletopia | Atlanta | 4 | Community","protocol":17,"map":"workshop/koth_product_final.ugc454272353","folder":"tf","game":"Team Fortress","app_id":440,"player_count":0,"max_players":24,"Bots":0,"server_type":"Dedicated","server_os":"Linux","password":true,"vac":true,"version":"7961495","steam_id":85568392924515188,"keywords":["cp","nocrits","nodmgspread","uncletopia"],"game_id":440,"stv_port":27046,"stv_name":"Uncletopia | Atlanta | 4 | Community | STV","players":null},{"server_id":2,"name":"Uncletopia | Chicago | 1 | All Maps","name_short":"chi-1","host":"chi-1.us.uncletopia.com","port":27015,"enabled":true,"region":"us-central","cc":"us","latitude":41.881832,"longitude":-87.62318,"reserved":0,"last_update":"0001-01-01T00:00:00Z","name_a2s":"Uncletopia | Chicago | 1 | All Maps","protocol":17,"map":"pl_upward","folder":"tf","game":"Team Fortress","app_id":440,"player_count":22,"max_players":24,"Bots":0,"server_type":"Dedicated","server_os":"Linux","password":true,"vac":true,"version":"7961495","steam_id":85568392924469984,"keywords":["nocrits","nodmgspread","payload","uncletopia"],"game_id":440,"stv_port":27016,"stv_name":"Uncletopia | Chicago | 1 | All Maps | STV","players":[{"user_id":530,"name":"Orange Triangle","steam_id":76561198320498182,"connected_time":2551000000000,"state":"active","ping":56},{"user_id":539,"name":"Chin, Bruce Lee's Relative","steam_id":76561198240105522,"connected_time":1176000000000,"state":"active","ping":74},{"user_id":520,"name":"KaÃ±ul","steam_id":76561198977359464,"connected_time":3530000000000,"state":"active","ping":104},{"user_id":460,"name":"Baka!â‘¨â‘¨â‘¨â‘¨","steam_id":76561198152948254,"connected_time":7181000000000,"state":"active","ping":58},{"user_id":552,"name":"Irish Empire","steam_id":76561199107427068,"connected_time":56000000000,"state":"active","ping":90},{"user_id":526,"name":"qory","steam_id":76561198152064890,"connected_time":2874000000000,"state":"active","ping":46},{"user_id":541,"name":"exa*âœ©â€§â‚ŠËš","steam_id":76561198044511912,"connected_time":1160000000000,"state":"active","ping":91},{"user_id":527,"name":"Elias","steam_id":76561198106431732,"connected_time":2837000000000,"state":"active","ping":53},{"user_id":504,"name":"c64guy","steam_id":76561198023022744,"connected_time":4589000000000,"state":"active","ping":56},{"user_id":545,"name":"CheekyMcCheek","steam_id":76561198081978491,"connected_time":729000000000,"state":"active","ping":131},{"user_id":547,"name":"Wierd Round","steam_id":76561197969205852,"connected_time":579000000000,"state":"active","ping":80},{"user_id":546,"name":"bug","steam_id":76561198130032444,"connected_time":709000000000,"state":"active","ping":92},{"user_id":551,"name":"Astoriii","steam_id":76561199090168858,"connected_time":96000000000,"state":"active","ping":71},{"user_id":553,"name":"Polio Malone","steam_id":76561198041277465,"connected_time":40000000000,"state":"spawning","ping":74},{"user_id":512,"name":"Dance4gravy","steam_id":76561198007325113,"connected_time":4343000000000,"state":"active","ping":54},{"user_id":509,"name":"Doshsviel","steam_id":76561199075118677,"connected_time":4434000000000,"state":"active","ping":70},{"user_id":550,"name":"â™¥Bunnyâ™¥Slutâ™¥","steam_id":76561198206376851,"connected_time":211000000000,"state":"active","ping":78},{"user_id":540,"name":"Owen","steam_id":76561198025446908,"connected_time":1170000000000,"state":"active","ping":59},{"user_id":549,"name":"Dokkibai","steam_id":76561198355935693,"connected_time":251000000000,"state":"active","ping":46},{"user_id":528,"name":"Boring101","steam_id":76561198300662918,"connected_time":2678000000000,"state":"active","ping":74},{"user_id":515,"name":"loser","steam_id":76561198259380127,"connected_time":4259000000000,"state":"active","ping":51},{"user_id":538,"name":"Mads Mikkelsen","steam_id":76561198083482001,"connected_time":1184000000000,"state":"active","ping":134}]},{"server_id":106,"name":"Uncletopia | Chicago | 2 | All Maps","name_short":"chi-2","host":"chi-1.us.uncletopia.com","port":27025,"enabled":true,"region":"us-central","cc":"us","latitude":41.881832,"longitude":-87.62318,"reserved":0,"last_update":"0001-01-01T00:00:00Z","name_a2s":"Uncletopia | Chicago | 2 | All Maps","protocol":17,"map":"koth_cascade","folder":"tf","game":"Team Fortress","app_id":440,"player_count":20,"max_players":24,"Bots":0,"server_type":"Dedicated","server_os":"Linux","password":true,"vac":true,"version":"7961495","steam_id":85568392924469985,"keywords":["cp","nocrits","nodmgspread","uncletopia"],"game_id":440,"stv_port":27026,"stv_name":"Uncletopia | Chicago | 2 | All Maps | STV","players":[{"user_id":423,"name":"Gheeotine","steam_id":76561198010181698,"connected_time":3459000000000,"state":"active","ping":88},{"user_id":442,"name":"royal hooters","steam_id":76561198068022595,"connected_time":2766000000000,"state":"active","ping":64},{"user_id":435,"name":"Ghost","steam_id":76561198110914180,"connected_time":2974000000000,"state":"active","ping":182},{"user_id":453,"name":"FungusBreeder","steam_id":76561198818724472,"connected_time":2354000000000,"state":"active","ping":72},{"user_id":407,"name":"Narz","steam_id":76561198076240365,"connected_time":4549000000000,"state":"active","ping":62},{"user_id":487,"name":"dr peppah chug!","steam_id":76561198068835693,"connected_time":352000000000,"state":"active","ping":96},{"user_id":474,"name":"Jesus H Christ","steam_id":76561199042591606,"connected_time":960000000000,"state":"active","ping":127},{"user_id":470,"name":"SnussyBussin","steam_id":76561199042329283,"connected_time":1172000000000,"state":"active","ping":68},{"user_id":469,"name":"filthy white trash","steam_id":76561198154176367,"connected_time":1213000000000,"state":"active","ping":71},{"user_id":446,"name":"Pepto B on YT","steam_id":76561198118198871,"connected_time":2504000000000,"state":"active","ping":73},{"user_id":465,"name":"Krissy","steam_id":76561197960848174,"connected_time":1697000000000,"state":"active","ping":61},{"user_id":485,"name":"That One Guy","steam_id":76561198945646560,"connected_time":658000000000,"state":"active","ping":106},{"user_id":449,"name":"elmackis","steam_id":76561199055065977,"connected_time":2476000000000,"state":"active","ping":82},{"user_id":450,"name":"ducky","steam_id":76561198084769792,"connected_time":2464000000000,"state":"active","ping":54},{"user_id":457,"name":"Spageebee","steam_id":76561198130057542,"connected_time":2122000000000,"state":"active","ping":104},{"user_id":484,"name":"eryn ðŸ—º","steam_id":76561198004433070,"connected_time":781000000000,"state":"active","ping":76},{"user_id":471,"name":"agless","steam_id":76561198045248344,"connected_time":1172000000000,"state":"active","ping":56},{"user_id":408,"name":"t.tv/ibbKitty  âˆ‘:3","steam_id":76561198110858518,"connected_time":4392000000000,"state":"active","ping":61},{"user_id":482,"name":"bengineer","steam_id":76561198171912174,"connected_time":791000000000,"state":"active","ping":99},{"user_id":429,"name":"Torensz64(But weezer)","steam_id":76561198239036482,"connected_time":3359000000000,"state":"active","ping":54}]},{"server_id":402,"name":"Uncletopia | Chicago | 3 | All Maps","name_short":"chi-3","host":"chi-1.us.uncletopia.com","port":27035,"enabled":true,"region":"us-central","cc":"us","latitude":41.881832,"longitude":-87.62318,"reserved":0,"last_update":"0001-01-01T00:00:00Z","name_a2s":"Uncletopia | Chicago | 3 | All Maps","protocol":17,"map":"koth_cascade","folder":"tf","game":"Team Fortress","app_id":440,"player_count":17,"max_players":24,"Bots":0,"server_type":"Dedicated","server_os":"Linux","password":true,"vac":true,"version":"7961495","steam_id":85568392924515191,"keywords":["cp","nocrits","nodmgspread","uncletopia"],"game_id":440,"stv_port":27036,"stv_name":"Uncletopia | Chicago | 3 | All Maps | STV","players":[{"user_id":417,"name":"Ninjoth","steam_id":76561198038611753,"connected_time":66000000000,"state":"active","ping":82},{"user_id":412,"name":"Mr. Onion","steam_id":76561198153165950,"connected_time":155000000000,"state":"active","ping":63},{"user_id":407,"name":"wack","steam_id":76561198095697330,"connected_time":279000000000,"state":"active","ping":86},{"user_id":340,"name":"Ockulus","steam_id":76561199069638460,"connected_time":4789000000000,"state":"active","ping":107},{"user_id":409,"name":"Congcrab","steam_id":76561198078687685,"connected_time":244000000000,"state":"active","ping":80},{"user_id":413,"name":"mountain goat","steam_id":76561198326628884,"connected_time":145000000000,"state":"active","ping":65},{"user_id":406,"name":"zoinks","steam_id":76561198127238003,"connected_time":631000000000,"state":"active","ping":90},{"user_id":410,"name":"Red_Hatkins","steam_id":76561198214004105,"connected_time":237000000000,"state":"active","ping":84},{"user_id":411,"name":"Yummy Kabobz","steam_id":76561198067661705,"connected_time":232000000000,"state":"active","ping":60},{"user_id":390,"name":"He","steam_id":76561198400826350,"connected_time":2301000000000,"state":"active","ping":59},{"user_id":367,"name":"pussyclapper69 (Ape)","steam_id":76561198237827742,"connected_time":3830000000000,"state":"active","ping":45},{"user_id":414,"name":"c","steam_id":76561199308869771,"connected_time":128000000000,"state":"active","ping":46},{"user_id":415,"name":"Real","steam_id":76561198405830028,"connected_time":125000000000,"state":"active","ping":100},{"user_id":398,"name":"MMAD","steam_id":76561198026446420,"connected_time":1737000000000,"state":"active","ping":75},{"user_id":416,"name":"Horrizan","steam_id":76561197965028480,"connected_time":94000000000,"state":"active","ping":78},{"user_id":418,"name":"Asanez3","steam_id":76561198037381436,"connected_time":38000000000,"state":"active","ping":71},{"user_id":359,"name":"chlomakisan","steam_id":76561199281299965,"connected_time":4095000000000,"state":"active","ping":55}]},{"server_id":403,"name":"Uncletopia | Chicago | 4 | All Maps","name_short":"chi-4","host":"chi-1.us.uncletopia.com","port":27045,"enabled":true,"region":"us-central","cc":"us","latitude":41.881832,"longitude":-87.62318,"reserved":0,"last_update":"0001-01-01T00:00:00Z","name_a2s":"Uncletopia | Chicago | 4 | All Maps","protocol":17,"map":"pl_upward","folder":"tf","game":"Team Fortress","app_id":440,"player_count":24,"max_players":24,"Bots":0,"server_type":"Dedicated","server_os":"Linux","password":true,"vac":true,"version":"7961495","steam_id":85568392924515193,"keywords":["nocrits","nodmgspread","payload","uncletopia"],"game_id":440,"stv_port":27046,"stv_name":"Uncletopia | Chicago | 4 | All Maps | STV","players":[{"user_id":135,"name":"Fitts1099","steam_id":76561198044986906,"connected_time":2384000000000,"state":"active","ping":50},{"user_id":157,"name":"frank","steam_id":76561198137777483,"connected_time":806000000000,"state":"active","ping":67},{"user_id":150,"name":"alright","steam_id":76561199074875663,"connected_time":1759000000000,"state":"active","ping":75},{"user_id":158,"name":"beats (16:38)","steam_id":76561199245717718,"connected_time":793000000000,"state":"active","ping":53},{"user_id":110,"name":"your moms car","steam_id":76561199389283507,"connected_time":2861000000000,"state":"active","ping":71},{"user_id":164,"name":"Pol Pot Pie","steam_id":76561198043225721,"connected_time":488000000000,"state":"active","ping":44},{"user_id":98,"name":"Caleb","steam_id":76561198002641282,"connected_time":3731000000000,"state":"active","ping":83},{"user_id":161,"name":"End.","steam_id":76561199129374922,"connected_time":666000000000,"state":"active","ping":81},{"user_id":153,"name":"HEY!","steam_id":76561198930820841,"connected_time":1116000000000,"state":"active","ping":86},{"user_id":123,"name":"IsleBound","steam_id":76561198278451717,"connected_time":2630000000000,"state":"active","ping":63},{"user_id":124,"name":"HasheM","steam_id":76561198090308879,"connected_time":2584000000000,"state":"active","ping":126},{"user_id":56,"name":"ewp","steam_id":76561199148289271,"connected_time":7258000000000,"state":"active","ping":98},{"user_id":126,"name":"BIgboy535","steam_id":76561198798967935,"connected_time":2561000000000,"state":"active","ping":92},{"user_id":128,"name":"turtlewho","steam_id":76561199071366637,"connected_time":2527000000000,"state":"active","ping":87},{"user_id":130,"name":"watersonterrence","steam_id":76561199110507045,"connected_time":2503000000000,"state":"active","ping":54},{"user_id":148,"name":"Mr Bootylicious","steam_id":76561199075353403,"connected_time":2038000000000,"state":"active","ping":55},{"user_id":144,"name":"Bumble Doof","steam_id":76561198026221247,"connected_time":2190000000000,"state":"active","ping":90},{"user_id":133,"name":"I'mWalkerHere","steam_id":76561199310055450,"connected_time":2474000000000,"state":"active","ping":86},{"user_id":160,"name":"Pissless Pissmass Pissman","steam_id":76561198409907417,"connected_time":704000000000,"state":"active","ping":114},{"user_id":163,"name":"TheSnipersHat","steam_id":76561198057684066,"connected_time":579000000000,"state":"active","ping":64},{"user_id":165,"name":"Im totally a hacker","steam_id":76561198888005736,"connected_time":324000000000,"state":"active","ping":74},{"user_id":152,"name":"Jaeger","steam_id":76561199392187099,"connected_time":1161000000000,"state":"active","ping":89},{"user_id":142,"name":"7734","steam_id":76561197998288591,"connected_time":2277000000000,"state":"active","ping":75},{"user_id":147,"name":"Kazul","steam_id":76561198014925555,"connected_time":2132000000000,"state":"active","ping":50}]},{"server_id":36,"name":"Uncletopia | Chicago | 5 | All Maps","name_short":"chi-5","host":"chi-2.us.uncletopia.com","port":27015,"enabled":true,"region":"us-central","cc":"us","latitude":41.881832,"longitude":-87.62318,"reserved":0,"last_update":"0001-01-01T00:00:00Z","name_a2s":"Uncletopia | Chicago | 5 | All Maps","protocol":17,"map":"cp_process_final","folder":"tf","game":"Team Fortress","app_id":440,"player_count":24,"max_players":24,"Bots":0,"server_type":"Dedicated","server_os":"Linux","password":true,"vac":true,"version":"7961495","steam_id":85568392924866362,"keywords":["cp","nocrits","nodmgspread","uncletopia"],"game_id":440,"stv_port":27016,"stv_name":"Uncletopia | Chicago | 5 | All Maps | STV","players":[{"user_id":287,"name":"Waos","steam_id":76561198329179651,"connected_time":2674000000000,"state":"active","ping":110},{"user_id":317,"name":"Junipyre","steam_id":76561198044819364,"connected_time":919000000000,"state":"active","ping":86},{"user_id":318,"name":"Jalon","steam_id":76561198056495562,"connected_time":809000000000,"state":"active","ping":71},{"user_id":331,"name":"xD_TheRizzler","steam_id":76561198202638164,"connected_time":98000000000,"state":"active","ping":148},{"user_id":288,"name":"crimmson","steam_id":76561198416325300,"connected_time":2671000000000,"state":"active","ping":98},{"user_id":316,"name":"Artemisia (She/They)","steam_id":76561198265616793,"connected_time":925000000000,"state":"active","ping":79},{"user_id":319,"name":"Flippy","steam_id":76561199071673742,"connected_time":806000000000,"state":"active","ping":73},{"user_id":248,"name":"ethanf","steam_id":76561198103930234,"connected_time":5154000000000,"state":"active","ping":46},{"user_id":304,"name":"hater","steam_id":76561199072909614,"connected_time":1892000000000,"state":"active","ping":49},{"user_id":195,"name":"Gen-E  TTV/geneoftf2","steam_id":76561199497800989,"connected_time":8279000000000,"state":"active","ping":89},{"user_id":305,"name":"ExtraExtra","steam_id":76561198041816027,"connected_time":1884000000000,"state":"active","ping":45},{"user_id":308,"name":"Blue_car_Reid","steam_id":76561198161120719,"connected_time":1682000000000,"state":"active","ping":48},{"user_id":320,"name":"hobgob","steam_id":76561198148549095,"connected_time":805000000000,"state":"active","ping":117},{"user_id":321,"name":"Xeno","steam_id":76561199021748262,"connected_time":780000000000,"state":"active","ping":105},{"user_id":322,"name":"Trigger1","steam_id":76561198967778980,"connected_time":771000000000,"state":"active","ping":89},{"user_id":298,"name":"Devlyn77","steam_id":76561198108965341,"connected_time":2436000000000,"state":"active","ping":45},{"user_id":323,"name":"Bluebird","steam_id":76561199143106401,"connected_time":743000000000,"state":"active","ping":82},{"user_id":324,"name":"Gad","steam_id":76561198020792373,"connected_time":735000000000,"state":"active","ping":59},{"user_id":332,"name":"duBstep","steam_id":76561198353928965,"connected_time":96000000000,"state":"active","ping":64},{"user_id":300,"name":"meatmountain393","steam_id":76561198063099828,"connected_time":2150000000000,"state":"active","ping":57},{"user_id":328,"name":"Randomnerd","steam_id":76561198067789964,"connected_time":577000000000,"state":"active","ping":71},{"user_id":283,"name":"juice drainer","steam_id":76561198361999761,"connected_time":3139000000000,"state":"active","ping":106},{"user_id":278,"name":"James","steam_id":76561198081313916,"connected_time":3651000000000,"state":"active","ping":66},{"user_id":330,"name":"ORI","steam_id":76561199184725455,"connected_time":321000000000,"state":"active","ping":81}]},{"server_id":37,"name":"Uncletopia | Chicago | 6 | All Maps","name_short":"chi-6","host":"chi-2.us.uncletopia.com","port":27025,"enabled":true,"region":"us-central","cc":"us","latitude":41.881832,"longitude":-87.62318,"reserved":0,"last_update":"0001-01-01T00:00:00Z","name_a2s":"Uncletopia | Chicago | 6 | All Maps","protocol":17,"map":"pl_snowycoast","folder":"tf","game":"Team Fortress","app_id":440,"player_count":24,"max_players":24,"Bots":0,"server_type":"Dedicated","server_os":"Linux","password":true,"vac":true,"version":"7961495","steam_id":85568392924866363,"keywords":["nocrits","nodmgspread","payload","uncletopia"],"game_id":440,"stv_port":27026,"stv_name":"Uncletopia | Chicago | 6 | All Maps | STV","players":[{"user_id":113,"name":"Dan","steam_id":76561199236719411,"connected_time":447000000000,"state":"active","ping":69},{"user_id":99,"name":"Yam Jazzy Jim","steam_id":76561198000788950,"connected_time":2288000000000,"state":"active","ping":71},{"user_id":107,"name":"RPGnoob","steam_id":76561198384913758,"connected_time":628000000000,"state":"active","ping":74},{"user_id":102,"name":"naturefan22","steam_id":76561199079614516,"connected_time":1532000000000,"state":"active","ping":47},{"user_id":33,"name":"Just a Festive TimeButt","steam_id":76561198074261742,"connected_time":5845000000000,"state":"active","ping":78},{"user_id":108,"name":"Dman2123","steam_id":76561198203287711,"connected_time":626000000000,"state":"active","ping":54},{"user_id":110,"name":"bumrusherz","steam_id":76561198440658195,"connected_time":583000000000,"state":"active","ping":75},{"user_id":28,"name":"[SB] EDDIE SPAGHETTI","steam_id":76561198071688546,"connected_time":6973000000000,"state":"active","ping":89},{"user_id":87,"name":"Arigato Gozaimasu!","steam_id":76561198052342856,"connected_time":2956000000000,"state":"active","ping":144},{"user_id":36,"name":"Cereal Killer","steam_id":76561198052368295,"connected_time":5610000000000,"state":"active","ping":86},{"user_id":35,"name":"Hovg9000","steam_id":76561199191556710,"connected_time":5703000000000,"state":"active","ping":94},{"user_id":109,"name":"Reiner","steam_id":76561199201762178,"connected_time":619000000000,"state":"active","ping":75},{"user_id":120,"name":"Octomal800","steam_id":76561199453595616,"connected_time":3000000000,"state":"spawning","ping":58},{"user_id":112,"name":"jg125","steam_id":76561198824953530,"connected_time":513000000000,"state":"active","ping":142},{"user_id":92,"name":"King of the Beasts","steam_id":76561198123927752,"connected_time":2603000000000,"state":"active","ping":54},{"user_id":78,"name":"Aethernet","steam_id":76561198219529573,"connected_time":4448000000000,"state":"active","ping":84},{"user_id":119,"name":"yes","steam_id":76561199094011002,"connected_time":72000000000,"state":"active","ping":54},{"user_id":106,"name":"absurdly high number of gecs","steam_id":76561198022806102,"connected_time":1058000000000,"state":"active","ping":47},{"user_id":115,"name":"Â¥","steam_id":76561198037518646,"connected_time":304000000000,"state":"active","ping":64},{"user_id":101,"name":"acornman316","steam_id":76561199159835595,"connected_time":1602000000000,"state":"active","ping":85},{"user_id":100,"name":"Genne","steam_id":76561198153434791,"connected_time":1720000000000,"state":"active","ping":74},{"user_id":105,"name":"Beef Wellington","steam_id":76561198049837377,"connected_time":1159000000000,"state":"active","ping":51},{"user_id":116,"name":"SpectreBurn","steam_id":76561198163300780,"connected_time":291000000000,"state":"active","ping":70},{"user_id":117,"name":"The Grim Heaper","steam_id":76561197987759101,"connected_time":256000000000,"state":"active","ping":108}]},{"server_id":38,"name":"Uncletopia | Chicago | 7 | Stopwatch","name_short":"chi-7","host":"chi-2.us.uncletopia.com","port":27035,"enabled":true,"region":"us-central","cc":"us","latitude":41.881832,"longitude":-87.62318,"reserved":0,"last_update":"0001-01-01T00:00:00Z","name_a2s":"Uncletopia | Chicago | 7 | Stopwatch","protocol":17,"map":"workshop/cp_process_f12.ugc2302948105","folder":"tf","game":"Team Fortress","app_id":440,"player_count":0,"max_players":24,"Bots":0,"server_type":"Dedicated","server_os":"Linux","password":true,"vac":true,"version":"7961495","steam_id":85568392924866364,"keywords":["cp","nocrits","nodmgspread","uncletopia"],"game_id":440,"stv_port":27036,"stv_name":"Uncletopia | Chicago | 7 | Stopwatch | STV","players":null},{"server_id":39,"name":"Uncletopia | Chicago | 8 | Community","name_short":"chi-8","host":"chi-2.us.uncletopia.com","port":27045,"enabled":true,"region":"us-central","cc":"us","latitude":41.881832,"longitude":-87.62318,"reserved":0,"last_update":"0001-01-01T00:00:00Z","name_a2s":"Uncletopia | Chicago | 8 | Community","protocol":17,"map":"workshop/pl_fifthcurve_rc1.ugc648227046","folder":"tf","game":"Team Fortress","app_id":440,"player_count":0,"max_players":24,"Bots":0,"server_type":"Dedicated","server_os":"Linux","password":true,"vac":true,"version":"7961495","steam_id":85568392924866365,"keywords":["nocrits","nodmgspread","payload","uncletopia"],"game_id":440,"stv_port":27046,"stv_name":"Uncletopia | Chicago | 8 | Community | STV","players":null},{"server_id":8,"name":"Uncletopia | Dallas | 1 | All Maps","name_short":"dal-1","host":"dal-1.us.uncletopia.com","port":27015,"enabled":true,"region":"us-central","cc":"us","latitude":32.779167,"longitude":-96.80889,"reserved":0,"last_update":"0001-01-01T00:00:00Z","name_a2s":"Uncletopia | Dallas | 1 | All Maps","protocol":17,"map":"pl_snowycoast","folder":"tf","game":"Team Fortress","app_id":440,"player_count":21,"max_players":24,"Bots":0,"server_type":"Dedicated","server_os":"Linux","password":true,"vac":true,"version":"7961495","steam_id":85568392924469986,"keywords":["nocrits","nodmgspread","payload","uncletopia"],"game_id":440,"stv_port":27016,"stv_name":"Uncletopia | Dallas | 1 | All Maps | STV","players":[{"user_id":230,"name":"schnedwob","steam_id":76561197999146588,"connected_time":5293000000000,"state":"active","ping":55},{"user_id":289,"name":"Derblitz","steam_id":76561198040953176,"connected_time":2514000000000,"state":"active","ping":88},{"user_id":307,"name":"Spinerx7","steam_id":76561198987597383,"connected_time":719000000000,"state":"active","ping":67},{"user_id":255,"name":"dweamy","steam_id":76561198119181880,"connected_time":4100000000000,"state":"active","ping":60},{"user_id":308,"name":"THE man is EPIC","steam_id":76561198085410777,"connected_time":714000000000,"state":"active","ping":98},{"user_id":300,"name":"Squagol","steam_id":76561197987486159,"connected_time":1329000000000,"state":"active","ping":61},{"user_id":312,"name":"Decapitation Station","steam_id":76561198201796098,"connected_time":568000000000,"state":"active","ping":69},{"user_id":282,"name":"Dreamzapp","steam_id":76561199084936632,"connected_time":2751000000000,"state":"active","ping":97},{"user_id":317,"name":"Sean","steam_id":76561199367470003,"connected_time":95000000000,"state":"active","ping":101},{"user_id":292,"name":"SAGE(à¤¸à¤—à¥‡*)","steam_id":76561198811114074,"connected_time":2360000000000,"state":"active","ping":59},{"user_id":302,"name":"elcarlos1010","steam_id":76561198201986832,"connected_time":1106000000000,"state":"active","ping":61},{"user_id":277,"name":"Two-Ton Heavy Thing","steam_id":76561198201724274,"connected_time":3053000000000,"state":"active","ping":87},{"user_id":309,"name":"hypnon","steam_id":76561197995428542,"connected_time":650000000000,"state":"active","ping":107},{"user_id":314,"name":"Wooden E","steam_id":76561198020308956,"connected_time":484000000000,"state":"active","ping":59},{"user_id":311,"name":"mr. nine","steam_id":76561198097599414,"connected_time":616000000000,"state":"active","ping":99},{"user_id":318,"name":"Prof. Abedul","steam_id":76561198146171581,"connected_time":79000000000,"state":"active","ping":81},{"user_id":316,"name":"who is gavin?","steam_id":76561198069415057,"connected_time":230000000000,"state":"active","ping":78},{"user_id":297,"name":"Greg Boberton 2012","steam_id":76561198983566026,"connected_time":1494000000000,"state":"active","ping":79},{"user_id":299,"name":"Mediocre Gaming","steam_id":76561199230467980,"connected_time":1429000000000,"state":"active","ping":91},{"user_id":290,"name":"scarybroccoli","steam_id":76561198296440084,"connected_time":2509000000000,"state":"active","ping":81},{"user_id":287,"name":"Freddy Fazbear","steam_id":76561198272353440,"connected_time":2577000000000,"state":"active","ping":55}]},{"server_id":108,"name":"Uncletopia | Dallas | 2 | All Maps","name_short":"dal-2","host":"dal-1.us.uncletopia.com","port":27025,"enabled":true,"region":"us-central","cc":"us","latitude":32.779167,"longitude":-96.80889,"reserved":0,"last_update":"0001-01-01T00:00:00Z","name_a2s":"Uncletopia | Dallas | 2 | All Maps","protocol":17,"map":"cp_5gorge","folder":"tf","game":"Team Fortress","app_id":440,"player_count":24,"max_players":24,"Bots":0,"server_type":"Dedicated","server_os":"Linux","password":true,"vac":true,"version":"7961495","steam_id":85568392924469988,"keywords":["cp","nocrits","nodmgspread","uncletopia"],"game_id":440,"stv_port":27026,"stv_name":"Uncletopia | Dallas | 2 | All Maps | STV","players":[{"user_id":491,"name":"Hey","steam_id":76561198447517893,"connected_time":2694000000000,"state":"active","ping":80},{"user_id":487,"name":"Dosux2","steam_id":76561198390916062,"connected_time":2942000000000,"state":"active","ping":138},{"user_id":520,"name":"Digit","steam_id":76561198156589157,"connected_time":465000000000,"state":"active","ping":87},{"user_id":510,"name":"asdasdasdasdasd","steam_id":76561198129682583,"connected_time":1114000000000,"state":"active","ping":59},{"user_id":518,"name":"Egg Guzzler","steam_id":76561199109194893,"connected_time":837000000000,"state":"active","ping":93},{"user_id":494,"name":"Yongle","steam_id":76561198068591156,"connected_time":2620000000000,"state":"active","ping":69},{"user_id":509,"name":"paddle gaming","steam_id":76561199250055131,"connected_time":1135000000000,"state":"active","ping":73},{"user_id":485,"name":"AXELORDX","steam_id":76561198136639581,"connected_time":3014000000000,"state":"active","ping":60},{"user_id":499,"name":"An00bis","steam_id":76561198044084508,"connected_time":1340000000000,"state":"active","ping":71},{"user_id":524,"name":"augs","steam_id":76561199120607417,"connected_time":244000000000,"state":"active","ping":96},{"user_id":450,"name":"RiceFarmer","steam_id":76561198869180993,"connected_time":5857000000000,"state":"active","ping":102},{"user_id":521,"name":"Hawkborne","steam_id":76561198107249245,"connected_time":368000000000,"state":"active","ping":62},{"user_id":511,"name":"goober","steam_id":76561199102839784,"connected_time":1054000000000,"state":"active","ping":111},{"user_id":527,"name":"-{SL}- Dr. Hoja","steam_id":76561198024601289,"connected_time":73000000000,"state":"active","ping":45},{"user_id":473,"name":"Tuvok Shakur","steam_id":76561198018875334,"connected_time":4046000000000,"state":"active","ping":73},{"user_id":503,"name":"Justy","steam_id":76561198044014069,"connected_time":1260000000000,"state":"active","ping":65},{"user_id":523,"name":"-_-","steam_id":76561198005773253,"connected_time":309000000000,"state":"active","ping":86},{"user_id":513,"name":"CervidÃ©","steam_id":76561198098579497,"connected_time":998000000000,"state":"active","ping":88},{"user_id":526,"name":"seats","steam_id":76561197998756039,"connected_time":187000000000,"state":"active","ping":74},{"user_id":458,"name":"iluvtoust","steam_id":76561198869269207,"connected_time":5732000000000,"state":"active","ping":45},{"user_id":519,"name":"APETASTIC","steam_id":76561198394608264,"connected_time":754000000000,"state":"active","ping":125},{"user_id":516,"name":"BADWOLF42","steam_id":76561198055447523,"connected_time":915000000000,"state":"active","ping":55},{"user_id":507,"name":"firestabber","steam_id":76561198057055577,"connected_time":1204000000000,"state":"active","ping":104},{"user_id":525,"name":"Nixon Me, Dixon Me","steam_id":76561198126519537,"connected_time":237000000000,"state":"active","ping":87}]},{"server_id":404,"name":"Uncletopia | Dallas | 3 | All Maps","name_short":"dal-3","host":"dal-1.us.uncletopia.com","port":27035,"enabled":true,"region":"us-central","cc":"us","latitude":32.779167,"longitude":-96.80889,"reserved":0,"last_update":"0001-01-01T00:00:00Z","name_a2s":"Uncletopia | Dallas | 3 | All Maps","protocol":17,"map":"pl_thundermountain","folder":"tf","game":"Team Fortress","app_id":440,"player_count":23,"max_players":24,"Bots":0,"server_type":"Dedicated","server_os":"Linux","password":true,"vac":true,"version":"7961495","steam_id":85568392924515219,"keywords":["nocrits","nodmgspread","payload","uncletopia"],"game_id":440,"stv_port":27036,"stv_name":"Uncletopia | Dallas | 3 | All Maps | STV","players":[{"user_id":279,"name":"Damian0gre","steam_id":76561197970831355,"connected_time":1786000000000,"state":"active","ping":53},{"user_id":290,"name":"StudioMania (#SAVETF2)","steam_id":76561198211315795,"connected_time":904000000000,"state":"active","ping":82},{"user_id":274,"name":"kelvindavid121","steam_id":76561199010489413,"connected_time":2722000000000,"state":"active","ping":111},{"user_id":229,"name":"Erik_Von_Derpinstien","steam_id":76561198853543456,"connected_time":5423000000000,"state":"active","ping":86},{"user_id":291,"name":"ZombieSlayer77","steam_id":76561199023974356,"connected_time":829000000000,"state":"active","ping":94},{"user_id":286,"name":"Saiko","steam_id":76561198982717237,"connected_time":1057000000000,"state":"active","ping":97},{"user_id":287,"name":"the juicy one","steam_id":76561199012771039,"connected_time":1020000000000,"state":"active","ping":67},{"user_id":300,"name":"UFQ NARRATIVE","steam_id":76561197995211570,"connected_time":13000000000,"state":"spawning","ping":33},{"user_id":292,"name":"pim","steam_id":76561198095163441,"connected_time":786000000000,"state":"active","ping":52},{"user_id":257,"name":"Ranchyboii","steam_id":76561198805482627,"connected_time":3380000000000,"state":"active","ping":45},{"user_id":283,"name":"MasterAqua","steam_id":76561198044807380,"connected_time":1401000000000,"state":"active","ping":62},{"user_id":299,"name":"Muselk, but mexican","steam_id":76561199289676387,"connected_time":181000000000,"state":"active","ping":64},{"user_id":295,"name":"ZRMicrowave","steam_id":76561198288574525,"connected_time":503000000000,"state":"active","ping":68},{"user_id":245,"name":"Fermenting Kiwi","steam_id":76561198253303497,"connected_time":3994000000000,"state":"active","ping":68},{"user_id":296,"name":"Al Cabone","steam_id":76561198956823243,"connected_time":454000000000,"state":"active","ping":61},{"user_id":297,"name":"Rin \"Hindwing\" Redtail","steam_id":76561199074865638,"connected_time":362000000000,"state":"active","ping":51},{"user_id":276,"name":"â™¥ Tomboy â™¥","steam_id":76561198069881436,"connected_time":2056000000000,"state":"active","ping":75},{"user_id":298,"name":"DetectiveAwesome","steam_id":76561199211252432,"connected_time":259000000000,"state":"active","ping":108},{"user_id":253,"name":"Osrepnay","steam_id":76561199033799657,"connected_time":3564000000000,"state":"active","ping":67},{"user_id":271,"name":"Vaun","steam_id":76561198034075317,"connected_time":2989000000000,"state":"active","ping":81},{"user_id":259,"name":"gerf.","steam_id":76561198811706201,"connected_time":3363000000000,"state":"active","ping":63},{"user_id":260,"name":"Zeora","steam_id":76561198799145251,"connected_time":3356000000000,"state":"active","ping":78},{"user_id":268,"name":"Red Jessy","steam_id":76561198820078770,"connected_time":3195000000000,"state":"active","ping":51}]},{"server_id":405,"name":"Uncletopia | Dallas | 4 | Community","name_short":"dal-4","host":"dal-1.us.uncletopia.com","port":27045,"enabled":true,"region":"us-central","cc":"us","latitude":32.779167,"longitude":-96.80889,"reserved":0,"last_update":"0001-01-01T00:00:00Z","name_a2s":"Uncletopia | Dallas | 4 | Community","protocol":17,"map":"workshop/koth_kemptown_rc1.ugc767410655","folder":"tf","game":"Team Fortress","app_id":440,"player_count":0,"max_players":24,"Bots":0,"server_type":"Dedicated","server_os":"Linux","password":true,"vac":true,"version":"7961495","steam_id":85568392924515220,"keywords":["cp","nocrits","nodmgspread","uncletopia"],"game_id":440,"stv_port":27046,"stv_name":"Uncletopia | Dallas | 4 | Community | STV","players":null},{"server_id":5,"name":"Uncletopia | Frankfurt | 1 | All Maps","name_short":"frk-1","host":"frk-1.de.uncletopia.com","port":27015,"enabled":true,"region":"eu","cc":"de","latitude":50.110924,"longitude":8.682127,"reserved":0,"last_update":"0001-01-01T00:00:00Z","name_a2s":"Uncletopia | Frankfurt | 1 | All Maps","protocol":17,"map":"koth_cascade","folder":"tf","game":"Team Fortress","app_id":440,"player_count":0,"max_players":24,"Bots":0,"server_type":"Dedicated","server_os":"Linux","password":true,"vac":true,"version":"7961495","steam_id":85568392924469989,"keywords":["cp","nocrits","nodmgspread","uncletopia"],"game_id":440,"stv_port":27016,"stv_name":"Uncletopia | Frankfurt | 1 | All Maps | STV","players":null},{"server_id":110,"name":"Uncletopia | Frankfurt | 2 | All Maps","name_short":"frk-2","host":"frk-1.de.uncletopia.com","port":27025,"enabled":true,"region":"eu","cc":"de","latitude":50.110924,"longitude":8.682127,"reserved":0,"last_update":"0001-01-01T00:00:00Z","name_a2s":"Uncletopia | Frankfurt | 2 | All Maps","protocol":17,"map":"pl_barnblitz","folder":"tf","game":"Team Fortress","app_id":440,"player_count":25,"max_players":24,"Bots":0,"server_type":"Dedicated","server_os":"Linux","password":true,"vac":true,"version":"7961495","steam_id":85568392924469990,"keywords":["nocrits","nodmgspread","payload","uncletopia"],"game_id":440,"stv_port":27026,"stv_name":"Uncletopia | Frankfurt | 2 | All Maps | STV","players":[{"user_id":665,"name":"6a6kin","steam_id":76561198020106655,"connected_time":711000000000,"state":"active","ping":54},{"user_id":660,"name":"Piss Man","steam_id":76561198089957950,"connected_time":1054000000000,"state":"active","ping":64},{"user_id":659,"name":"Plushy Freeman","steam_id":76561198004935560,"connected_time":1134000000000,"state":"active","ping":53},{"user_id":664,"name":"GothGolfer","steam_id":76561198060991119,"connected_time":816000000000,"state":"active","ping":68},{"user_id":603,"name":"Mr.Shpee","steam_id":76561198158701474,"connected_time":6394000000000,"state":"active","ping":75},{"user_id":666,"name":"SNOOPFRoGG","steam_id":76561198217474928,"connected_time":652000000000,"state":"active","ping":77},{"user_id":667,"name":"Hydro`","steam_id":76561198000849705,"connected_time":616000000000,"state":"active","ping":100},{"user_id":631,"name":"BlueBlueFox","steam_id":76561198053817230,"connected_time":4787000000000,"state":"active","ping":66},{"user_id":668,"name":"shortgiant97","steam_id":76561198798803845,"connected_time":610000000000,"state":"active","ping":54},{"user_id":669,"name":"Ash_Dies_Alone","steam_id":76561198136126828,"connected_time":454000000000,"state":"active","ping":57},{"user_id":656,"name":"Greg","steam_id":76561198014131702,"connected_time":1895000000000,"state":"active","ping":107},{"user_id":670,"name":"Fer De Lancer","steam_id":76561198091367098,"connected_time":422000000000,"state":"active","ping":158},{"user_id":610,"name":"KrAk3rs","steam_id":76561198298179344,"connected_time":5915000000000,"state":"active","ping":65},{"user_id":657,"name":"Rent Ntragkon","steam_id":76561198259054682,"connected_time":1682000000000,"state":"active","ping":99},{"user_id":645,"name":"Mza28","steam_id":76561198873993324,"connected_time":3559000000000,"state":"active","ping":67},{"user_id":671,"name":"lukethepumpkin","steam_id":76561198204158335,"connected_time":418000000000,"state":"active","ping":141},{"user_id":661,"name":"lawn","steam_id":76561198001243486,"connected_time":971000000000,"state":"active","ping":49},{"user_id":628,"name":"sega rally championship","steam_id":76561198061707247,"connected_time":4828000000000,"state":"active","ping":54},{"user_id":677,"name":"cuddles","steam_id":76561198805181599,"connected_time":44000000000,"state":"active","ping":65},{"user_id":675,"name":"Devaron","steam_id":76561198072545397,"connected_time":199000000000,"state":"active","ping":256},{"user_id":650,"name":"travis","steam_id":76561198138119811,"connected_time":2866000000000,"state":"active","ping":58},{"user_id":674,"name":"Salt_Shaker309","steam_id":76561198086931010,"connected_time":294000000000,"state":"active","ping":53},{"user_id":676,"name":"MMMonkey | trade.tf","steam_id":76561198118917458,"connected_time":61000000000,"state":"active","ping":110},{"user_id":678,"name":"Shmig","steam_id":76561199039358883,"connected_time":33000000000,"state":"spawning","ping":166},{"user_id":644,"name":"Predrag218","steam_id":76561199242439630,"connected_time":3643000000000,"state":"active","ping":112}]},{"server_id":308,"name":"Uncletopia | Frankfurt | 3 | All Maps","name_short":"frk-3","host":"frk-1.de.uncletopia.com","port":27035,"enabled":true,"region":"eu","cc":"de","latitude":50.110924,"longitude":8.682127,"reserved":0,"last_update":"0001-01-01T00:00:00Z","name_a2s":"Uncletopia | Frankfurt | 3 | All Maps","protocol":17,"map":"pl_pier","folder":"tf","game":"Team Fortress","app_id":440,"player_count":10,"max_players":24,"Bots":0,"server_type":"Dedicated","server_os":"Linux","password":true,"vac":true,"version":"7961495","steam_id":85568392924504274,"keywords":["nocrits","nodmgspread","payload","uncletopia"],"game_id":440,"stv_port":27036,"stv_name":"Uncletopia | Frankfurt | 3 | All Maps | STV","players":[{"user_id":695,"name":"mentt","steam_id":76561198091555183,"connected_time":21000000000,"state":"active","ping":134},{"user_id":694,"name":"Mr_Pulse_","steam_id":76561198095001602,"connected_time":129000000000,"state":"spawning","ping":97},{"user_id":664,"name":"Siegmeyer","steam_id":76561198328543549,"connected_time":1998000000000,"state":"spawning","ping":96},{"user_id":667,"name":"Sandvich Healer Heavy","steam_id":76561198150195195,"connected_time":1524000000000,"state":"spawning","ping":63},{"user_id":665,"name":"Ankmar le Touffu","steam_id":76561198169381436,"connected_time":1828000000000,"state":"spawning","ping":46},{"user_id":690,"name":"Pikdy","steam_id":76561199492395972,"connected_time":385000000000,"state":"spawning","ping":45},{"user_id":688,"name":"Jackal","steam_id":76561198263001231,"connected_time":512000000000,"state":"spawning","ping":64},{"user_id":649,"name":"Plop_","steam_id":76561198112567921,"connected_time":3626000000000,"state":"spawning","ping":52},{"user_id":612,"name":"â˜…Lily","steam_id":76561198014774371,"connected_time":6480000000000,"state":"active","ping":60},{"user_id":671,"name":"paypig","steam_id":76561198035137115,"connected_time":1307000000000,"state":"active","ping":56}]},{"server_id":309,"name":"Uncletopia | Frankfurt | 4 | All Maps","name_short":"frk-4","host":"frk-1.de.uncletopia.com","port":27045,"enabled":true,"region":"eu","cc":"de","latitude":50.110924,"longitude":8.682127,"reserved":0,"last_update":"0001-01-01T00:00:00Z","name_a2s":"Uncletopia | Frankfurt | 4 | All Maps","protocol":17,"map":"koth_cascade","folder":"tf","game":"Team Fortress","app_id":440,"player_count":0,"max_players":24,"Bots":0,"server_type":"Dedicated","server_os":"Linux","password":true,"vac":true,"version":"7961495","steam_id":85568392924504275,"keywords":["cp","nocrits","nodmgspread","uncletopia"],"game_id":440,"stv_port":27046,"stv_name":"Uncletopia | Frankfurt | 4 | All Maps | STV","players":null},{"server_id":310,"name":"Uncletopia | Frankfurt | 5 | All Maps","name_short":"frk-5","host":"frk-1.de.uncletopia.com","port":27055,"enabled":true,"region":"eu","cc":"de","latitude":50.110924,"longitude":8.682127,"reserved":0,"last_update":"0001-01-01T00:00:00Z","name_a2s":"Uncletopia | Frankfurt | 5 | All Maps","protocol":17,"map":"pl_borneo","folder":"tf","game":"Team Fortress","app_id":440,"player_count":0,"max_players":24,"Bots":0,"server_type":"Dedicated","server_os":"Linux","password":true,"vac":true,"version":"7961495","steam_id":85568392924504277,"keywords":["nocrits","nodmgspread","payload","uncletopia"],"game_id":440,"stv_port":27056,"stv_name":"Uncletopia | Frankfurt | 5 | All Maps | STV","players":null},{"server_id":311,"name":"Uncletopia | Frankfurt | 6 | All Maps","name_short":"frk-6","host":"frk-1.de.uncletopia.com","port":27065,"enabled":true,"region":"eu","cc":"de","latitude":50.110924,"longitude":8.682127,"reserved":0,"last_update":"0001-01-01T00:00:00Z","name_a2s":"Uncletopia | Frankfurt | 6 | All Maps","protocol":17,"map":"koth_highpass","folder":"tf","game":"Team Fortress","app_id":440,"player_count":0,"max_players":24,"Bots":0,"server_type":"Dedicated","server_os":"Linux","password":true,"vac":true,"version":"7961495","steam_id":85568392924504278,"keywords":["cp","nocrits","nodmgspread","uncletopia"],"game_id":440,"stv_port":27066,"stv_name":"Uncletopia | Frankfurt | 6 | All Maps | STV","players":null},{"server_id":23,"name":"Uncletopia | Frankfurt | 7 | Stopwatch","name_short":"frk-7","host":"frk-1.de.uncletopia.com","port":27075,"enabled":true,"region":"eu","cc":"de","latitude":50.110924,"longitude":8.682127,"reserved":0,"last_update":"0001-01-01T00:00:00Z","name_a2s":"Uncletopia | Frankfurt | 7 | Stopwatch","protocol":17,"map":"pl_swiftwater_final1","folder":"tf","game":"Team Fortress","app_id":440,"player_count":0,"max_players":24,"Bots":0,"server_type":"Dedicated","server_os":"Linux","password":true,"vac":true,"version":"7961495","steam_id":85568392924742827,"keywords":["nocrits","nodmgspread","payload","uncletopia"],"game_id":440,"stv_port":27076,"stv_name":"Uncletopia | Frankfurt | 7 | Stopwatch | STV","players":null},{"server_id":24,"name":"Uncletopia | Frankfurt | 8 | Community","name_short":"frk-8","host":"frk-1.de.uncletopia.com","port":27085,"enabled":true,"region":"eu","cc":"de","latitude":50.110924,"longitude":8.682127,"reserved":0,"last_update":"0001-01-01T00:00:00Z","name_a2s":"Uncletopia | Frankfurt | 8 | Community","protocol":17,"map":"workshop/koth_trenchfoot_ab1.ugc731436616","folder":"tf","game":"Team Fortress","app_id":440,"player_count":0,"max_players":24,"Bots":0,"server_type":"Dedicated","server_os":"Linux","password":true,"vac":true,"version":"7961495","steam_id":85568392924742828,"keywords":["cp","nocrits","nodmgspread","uncletopia"],"game_id":440,"stv_port":27086,"stv_name":"Uncletopia | Frankfurt | 8 | Community | STV","players":null},{"server_id":202,"name":"Uncletopia | Hong Kong | 1 | All Maps","name_short":"hgk-1","host":"hgk-1.hk.uncletopia.com","port":27015,"enabled":true,"region":"asia","cc":"hk","latitude":22.302711,"longitude":114.177216,"reserved":0,"last_update":"0001-01-01T00:00:00Z","name_a2s":"Uncletopia | Hong Kong | 1 | All Maps","protocol":17,"map":"pl_frontier_final","folder":"tf","game":"Team Fortress","app_id":440,"player_count":0,"max_players":24,"Bots":0,"server_type":"Dedicated","server_os":"Linux","password":true,"vac":true,"version":"7961495","steam_id":85568392924494504,"keywords":["nocrits","nodmgspread","payload","uncletopia"],"game_id":440,"stv_port":27016,"stv_name":"Uncletopia | Hong Kong | 1 | All Maps | STV","players":null},{"server_id":1,"name":"Uncletopia | Los Angeles | 1 | All Maps","name_short":"lax-1","host":"lax-1.us.uncletopia.com","port":27015,"enabled":true,"region":"us-west","cc":"us","latitude":33.94279,"longitude":-118.41004,"reserved":0,"last_update":"0001-01-01T00:00:00Z","name_a2s":"Uncletopia | Los Angeles | 1 | All Maps","protocol":17,"map":"pl_pier","folder":"tf","game":"Team Fortress","app_id":440,"player_count":0,"max_players":24,"Bots":0,"server_type":"Dedicated","server_os":"Linux","password":true,"vac":true,"version":"7961495","steam_id":85568392924469991,"keywords":["nocrits","nodmgspread","payload","uncletopia"],"game_id":440,"stv_port":27016,"stv_name":"Uncletopia | Los Angeles | 1 | All Maps | STV","players":null},{"server_id":112,"name":"Uncletopia | Los Angeles | 2 | All Maps","name_short":"lax-2","host":"lax-1.us.uncletopia.com","port":27025,"enabled":true,"region":"us-west","cc":"us","latitude":33.94279,"longitude":-118.41004,"reserved":0,"last_update":"0001-01-01T00:00:00Z","name_a2s":"Uncletopia | Los Angeles | 2 | All Maps","protocol":17,"map":"pl_pier","folder":"tf","game":"Team Fortress","app_id":440,"player_count":0,"max_players":24,"Bots":0,"server_type":"Dedicated","server_os":"Linux","password":true,"vac":true,"version":"7961495","steam_id":85568392924469992,"keywords":["nocrits","nodmgspread","payload","uncletopia"],"game_id":440,"stv_port":27026,"stv_name":"Uncletopia | Los Angeles | 2 | All Maps | STV","players":null},{"server_id":324,"name":"Uncletopia | Los Angeles | 3 | All Maps","name_short":"lax-3","host":"lax-1.us.uncletopia.com","port":27035,"enabled":true,"region":"us-west","cc":"us","latitude":33.94279,"longitude":-118.41004,"reserved":0,"last_update":"0001-01-01T00:00:00Z","name_a2s":"Uncletopia | Los Angeles | 3 | All Maps","protocol":17,"map":"cp_foundry","folder":"tf","game":"Team Fortress","app_id":440,"player_count":24,"max_players":24,"Bots":0,"server_type":"Dedicated","server_os":"Linux","password":true,"vac":true,"version":"7961495","steam_id":85568392924510198,"keywords":["cp","nocrits","nodmgspread","uncletopia"],"game_id":440,"stv_port":27036,"stv_name":"Uncletopia | Los Angeles | 3 | All Maps | STV","players":[{"user_id":128,"name":"MaDeuce","steam_id":76561198110732835,"connected_time":588000000000,"state":"active","ping":89},{"user_id":117,"name":"THGAwesome","steam_id":76561198162847218,"connected_time":1683000000000,"state":"active","ping":137},{"user_id":124,"name":"keybuds","steam_id":76561198357664102,"connected_time":770000000000,"state":"active","ping":49},{"user_id":88,"name":"TheGhostThatWas","steam_id":76561198055836483,"connected_time":3748000000000,"state":"active","ping":111},{"user_id":104,"name":"aeai","steam_id":76561198069446738,"connected_time":2365000000000,"state":"active","ping":87},{"user_id":100,"name":"Crusty Sock","steam_id":76561199006526991,"connected_time":2829000000000,"state":"active","ping":44},{"user_id":127,"name":"scringo","steam_id":76561198169969030,"connected_time":641000000000,"state":"active","ping":59},{"user_id":129,"name":"StorminMormon","steam_id":76561198053583297,"connected_time":567000000000,"state":"active","ping":83},{"user_id":130,"name":"Jimmy Fallon","steam_id":76561198069131730,"connected_time":528000000000,"state":"active","ping":84},{"user_id":106,"name":"luigigario","steam_id":76561198881262416,"connected_time":2249000000000,"state":"active","ping":67},{"user_id":131,"name":"lament","steam_id":76561198408747483,"connected_time":370000000000,"state":"active","ping":61},{"user_id":121,"name":"Larry Gooseman","steam_id":76561198018696922,"connected_time":1156000000000,"state":"active","ping":59},{"user_id":132,"name":"Birby","steam_id":76561198884009768,"connected_time":152000000000,"state":"active","ping":67},{"user_id":116,"name":"Renz","steam_id":76561198118995036,"connected_time":1859000000000,"state":"active","ping":82},{"user_id":99,"name":"Little Shuriken","steam_id":76561199020477560,"connected_time":2940000000000,"state":"active","ping":38},{"user_id":125,"name":"ricky","steam_id":76561198355708209,"connected_time":666000000000,"state":"active","ping":60},{"user_id":50,"name":"the pizza","steam_id":76561198221331476,"connected_time":5567000000000,"state":"active","ping":34},{"user_id":93,"name":"Chad the Sex Haver","steam_id":76561198058236528,"connected_time":3618000000000,"state":"active","ping":55},{"user_id":51,"name":"Mr. Cheesey","steam_id":76561198153462183,"connected_time":5506000000000,"state":"active","ping":109},{"user_id":73,"name":"DapperNoodle420","steam_id":76561199032809452,"connected_time":4500000000000,"state":"active","ping":63},{"user_id":119,"name":"Nilantive","steam_id":76561198177565082,"connected_time":1477000000000,"state":"active","ping":113},{"user_id":110,"name":"Freelance Police","steam_id":76561198333279646,"connected_time":2133000000000,"state":"active","ping":60},{"user_id":115,"name":"bigchungusgaming(real)","steam_id":76561198273392037,"connected_time":1864000000000,"state":"active","ping":60},{"user_id":76,"name":"Lunarthrope","steam_id":76561198292132147,"connected_time":4359000000000,"state":"active","ping":58}]},{"server_id":25,"name":"Uncletopia | Los Angeles | 4 | Stopwatch","name_short":"lax-4","host":"lax-1.us.uncletopia.com","port":27045,"enabled":true,"region":"us-west","cc":"us","latitude":33.94279,"longitude":-118.41004,"reserved":0,"last_update":"0001-01-01T00:00:00Z","name_a2s":"Uncletopia | Los Angeles | 4 | Stopwatch","protocol":17,"map":"pl_barnblitz","folder":"tf","game":"Team Fortress","app_id":440,"player_count":0,"max_players":24,"Bots":0,"server_type":"Dedicated","server_os":"Linux","password":true,"vac":true,"version":"7961495","steam_id":85568392924510199,"keywords":["nocrits","nodmgspread","payload","uncletopia"],"game_id":440,"stv_port":27046,"stv_name":"Uncletopia | Los Angeles | 4 | Stopwatch | STV","players":null},{"server_id":11,"name":"Uncletopia | London | 1 | All Maps","name_short":"lon-1","host":"lon-1.uk.uncletopia.com","port":27015,"enabled":true,"region":"eu","cc":"gb","latitude":51.509865,"longitude":-0.118092,"reserved":0,"last_update":"0001-01-01T00:00:00Z","name_a2s":"Uncletopia | London | 1 | All Maps","protocol":17,"map":"pl_badwater","folder":"tf","game":"Team Fortress","app_id":440,"player_count":24,"max_players":24,"Bots":0,"server_type":"Dedicated","server_os":"Linux","password":true,"vac":true,"version":"7961495","steam_id":85568392924367362,"keywords":["nocrits","nodmgspread","payload","uncletopia"],"game_id":440,"stv_port":27016,"stv_name":"Uncletopia | London | 1 | All Maps | STV","players":[{"user_id":810,"name":"Testy","steam_id":76561198169996602,"connected_time":398000000000,"state":"active","ping":53},{"user_id":803,"name":"Dani","steam_id":76561198211627920,"connected_time":1008000000000,"state":"active","ping":79},{"user_id":815,"name":"Aku+","steam_id":76561198813782795,"connected_time":268000000000,"state":"active","ping":62},{"user_id":811,"name":"hide on bush","steam_id":76561198149967445,"connected_time":354000000000,"state":"active","ping":44},{"user_id":796,"name":"xva","steam_id":76561198969286813,"connected_time":1860000000000,"state":"active","ping":71},{"user_id":804,"name":"The Torch Gorg","steam_id":76561199193396853,"connected_time":735000000000,"state":"active","ping":139},{"user_id":755,"name":"albert","steam_id":76561198353496134,"connected_time":5746000000000,"state":"active","ping":58},{"user_id":766,"name":"SirDirtbag","steam_id":76561198091890855,"connected_time":4229000000000,"state":"active","ping":80},{"user_id":799,"name":"sora","steam_id":76561198096547662,"connected_time":1450000000000,"state":"active","ping":52},{"user_id":757,"name":"gibb (heLP HELP HELP)","steam_id":76561198074097655,"connected_time":5386000000000,"state":"active","ping":77},{"user_id":805,"name":"Bouuuulic","steam_id":76561198053731110,"connected_time":654000000000,"state":"active","ping":72},{"user_id":788,"name":"BOT Jeremus","steam_id":76561198072981684,"connected_time":2193000000000,"state":"active","ping":43},{"user_id":709,"name":"Rjay","steam_id":76561198026151229,"connected_time":10251000000000,"state":"active","ping":101},{"user_id":679,"name":"JÃ¶rÃ¶","steam_id":76561198342570528,"connected_time":11804000000000,"state":"active","ping":73},{"user_id":782,"name":"Mario Gaming","steam_id":76561198866959211,"connected_time":2667000000000,"state":"active","ping":98},{"user_id":772,"name":"Fnif","steam_id":76561197987988100,"connected_time":4102000000000,"state":"active","ping":73},{"user_id":812,"name":"b0g","steam_id":76561198051124946,"connected_time":336000000000,"state":"active","ping":55},{"user_id":807,"name":"BIG BOI SPICE","steam_id":76561198194862277,"connected_time":575000000000,"state":"active","ping":57},{"user_id":813,"name":"Killroywashere","steam_id":76561198169854979,"connected_time":332000000000,"state":"active","ping":96},{"user_id":801,"name":"yuck","steam_id":76561197987249568,"connected_time":1186000000000,"state":"active","ping":94},{"user_id":542,"name":"sokige","steam_id":76561198167112371,"connected_time":19300000000000,"state":"active","ping":105},{"user_id":789,"name":"BELADIT","steam_id":76561198011911501,"connected_time":2051000000000,"state":"active","ping":75},{"user_id":700,"name":"shooer!","steam_id":76561198110531281,"connected_time":10685000000000,"state":"active","ping":71},{"user_id":816,"name":"whimsy.","steam_id":76561198878171763,"connected_time":55000000000,"state":"spawning","ping":53}]},{"server_id":114,"name":"Uncletopia | London | 2 | All Maps","name_short":"lon-2","host":"lon-1.uk.uncletopia.com","port":27025,"enabled":true,"region":"eu","cc":"gb","latitude":51.509865,"longitude":-0.118092,"reserved":0,"last_update":"0001-01-01T00:00:00Z","name_a2s":"Uncletopia | London | 2 | All Maps","protocol":17,"map":"pl_swiftwater_final1","folder":"tf","game":"Team Fortress","app_id":440,"player_count":23,"max_players":24,"Bots":0,"server_type":"Dedicated","server_os":"Linux","password":true,"vac":true,"version":"7961495","steam_id":85568392924470941,"keywords":["nocrits","nodmgspread","payload","uncletopia"],"game_id":440,"stv_port":27026,"stv_name":"Uncletopia | London | 2 | All Maps | STV","players":[{"user_id":671,"name":"sussy baka","steam_id":76561198368758532,"connected_time":225000000000,"state":"active","ping":75},{"user_id":672,"name":"Pipp Petals2014","steam_id":76561198147668373,"connected_time":207000000000,"state":"active","ping":60},{"user_id":669,"name":"ryuusei","steam_id":76561198049983016,"connected_time":379000000000,"state":"active","ping":90},{"user_id":666,"name":"Varsity Athlete","steam_id":76561198012296395,"connected_time":554000000000,"state":"active","ping":54},{"user_id":621,"name":"sticks","steam_id":76561198127099299,"connected_time":3530000000000,"state":"active","ping":43},{"user_id":622,"name":"BoPoe","steam_id":76561198093333882,"connected_time":3375000000000,"state":"active","ping":92},{"user_id":632,"name":":P","steam_id":76561198963804772,"connected_time":1801000000000,"state":"active","ping":74},{"user_id":624,"name":"Neottious","steam_id":76561198113700383,"connected_time":2921000000000,"state":"active","ping":80},{"user_id":643,"name":"Tout Petit Cerveau","steam_id":76561198120837915,"connected_time":1197000000000,"state":"active","ping":39},{"user_id":651,"name":"Isaac Boush","steam_id":76561198179746529,"connected_time":1060000000000,"state":"active","ping":84},{"user_id":627,"name":"Ethan","steam_id":76561198342605680,"connected_time":2776000000000,"state":"active","ping":51},{"user_id":654,"name":"Gillusion","steam_id":76561198138818087,"connected_time":998000000000,"state":"active","ping":45},{"user_id":638,"name":"PeskyPlumber","steam_id":76561198241999094,"connected_time":1450000000000,"state":"active","ping":44},{"user_id":645,"name":"Generic","steam_id":76561198171073018,"connected_time":1155000000000,"state":"active","ping":53},{"user_id":657,"name":"noah","steam_id":76561198099457089,"connected_time":835000000000,"state":"active","ping":60},{"user_id":647,"name":"Janner","steam_id":76561198127045282,"connected_time":1113000000000,"state":"active","ping":45},{"user_id":658,"name":"Janosik","steam_id":76561198013528365,"connected_time":768000000000,"state":"active","ping":60},{"user_id":665,"name":"2c-based","steam_id":76561198054214390,"connected_time":673000000000,"state":"active","ping":35},{"user_id":650,"name":"Mr.Boop","steam_id":76561198252192070,"connected_time":1081000000000,"state":"active","ping":61},{"user_id":660,"name":"PÃ¶tatÃ¸ dÃ«Ã« shrÃ®mpÃ©Ã©!","steam_id":76561197990608860,"connected_time":751000000000,"state":"active","ping":46},{"user_id":662,"name":"Axio","steam_id":76561198046826031,"connected_time":709000000000,"state":"active","ping":75},{"user_id":670,"name":"gogurt","steam_id":76561199051096093,"connected_time":243000000000,"state":"active","ping":155},{"user_id":664,"name":"Tree","steam_id":76561197989948420,"connected_time":703000000000,"state":"active","ping":51}]},{"server_id":320,"name":"Uncletopia | London | 3 | All Maps","name_short":"lon-3","host":"lon-1.uk.uncletopia.com","port":27035,"enabled":true,"region":"eu","cc":"gb","latitude":51.509865,"longitude":-0.118092,"reserved":0,"last_update":"0001-01-01T00:00:00Z","name_a2s":"Uncletopia | London | 3 | All Maps","protocol":17,"map":"cp_sunshine","folder":"tf","game":"Team Fortress","app_id":440,"player_count":23,"max_players":24,"Bots":0,"server_type":"Dedicated","server_os":"Linux","password":true,"vac":true,"version":"7961495","steam_id":85568392924510192,"keywords":["cp","nocrits","nodmgspread","uncletopia"],"game_id":440,"stv_port":27036,"stv_name":"Uncletopia | London | 3 | All Maps | STV","players":[{"user_id":463,"name":"gek","steam_id":76561198038982326,"connected_time":5685000000000,"state":"active","ping":70},{"user_id":529,"name":"i AM the medic gf","steam_id":76561198247284680,"connected_time":471000000000,"state":"active","ping":75},{"user_id":499,"name":"elijah","steam_id":76561198093936708,"connected_time":3586000000000,"state":"active","ping":46},{"user_id":530,"name":"chillrend_morphs_high_lod6","steam_id":76561198452963141,"connected_time":448000000000,"state":"active","ping":83},{"user_id":509,"name":"JuanCarlosOMG","steam_id":76561198310912671,"connected_time":2830000000000,"state":"active","ping":181},{"user_id":512,"name":"Bags.","steam_id":76561198045708372,"connected_time":2713000000000,"state":"active","ping":61},{"user_id":531,"name":"Nomakh","steam_id":76561198096414653,"connected_time":442000000000,"state":"active","ping":92},{"user_id":532,"name":"Sharky Cuddle","steam_id":76561198322300131,"connected_time":425000000000,"state":"active","ping":54},{"user_id":464,"name":"NeXXus","steam_id":76561198066888201,"connected_time":5685000000000,"state":"active","ping":80},{"user_id":513,"name":"Cheese","steam_id":76561198253336519,"connected_time":2531000000000,"state":"active","ping":40},{"user_id":533,"name":"Aphex","steam_id":76561198066273098,"connected_time":258000000000,"state":"active","ping":102},{"user_id":538,"name":"cold","steam_id":76561199017901552,"connected_time":139000000000,"state":"active","ping":153},{"user_id":535,"name":"ashley","steam_id":76561198448551449,"connected_time":226000000000,"state":"active","ping":35},{"user_id":536,"name":"MhstER-_-KSA","steam_id":76561198389852292,"connected_time":224000000000,"state":"active","ping":122},{"user_id":502,"name":"Cosmic Gamer","steam_id":76561198027357981,"connected_time":3175000000000,"state":"active","ping":100},{"user_id":537,"name":"clcraven","steam_id":76561198004637699,"connected_time":187000000000,"state":"active","ping":55},{"user_id":539,"name":"Consumer of Cacti","steam_id":76561198827775670,"connected_time":118000000000,"state":"active","ping":68},{"user_id":454,"name":"Froenzi","steam_id":76561198168841723,"connected_time":6315000000000,"state":"active","ping":53},{"user_id":516,"name":"Worm","steam_id":76561198296497176,"connected_time":2445000000000,"state":"active","ping":50},{"user_id":521,"name":"uncle113582345","steam_id":76561198423902979,"connected_time":2164000000000,"state":"active","ping":55},{"user_id":540,"name":"Mong","steam_id":76561198254497427,"connected_time":95000000000,"state":"active","ping":32},{"user_id":523,"name":"GabeTheGoldfish","steam_id":76561198153408011,"connected_time":1913000000000,"state":"active","ping":72},{"user_id":505,"name":"tapeworms!","steam_id":76561198069649097,"connected_time":2875000000000,"state":"active","ping":48}]},{"server_id":321,"name":"Uncletopia | London | 4 | All Maps","name_short":"lon-4","host":"lon-1.uk.uncletopia.com","port":27045,"enabled":true,"region":"eu","cc":"gb","latitude":51.509865,"longitude":-0.118092,"reserved":0,"last_update":"0001-01-01T00:00:00Z","name_a2s":"Uncletopia | London | 4 | All Maps","protocol":17,"map":"pl_pier","folder":"tf","game":"Team Fortress","app_id":440,"player_count":24,"max_players":24,"Bots":0,"server_type":"Dedicated","server_os":"Linux","password":true,"vac":true,"version":"7961495","steam_id":85568392924510193,"keywords":["nocrits","nodmgspread","payload","uncletopia"],"game_id":440,"stv_port":27046,"stv_name":"Uncletopia | London | 4 | All Maps | STV","players":[{"user_id":539,"name":"Bretgrenz","steam_id":76561198042250264,"connected_time":3981000000000,"state":"active","ping":58},{"user_id":547,"name":"TreatFly","steam_id":76561198069707362,"connected_time":2604000000000,"state":"active","ping":50},{"user_id":560,"name":"smiley","steam_id":76561198042245117,"connected_time":1609000000000,"state":"active","ping":66},{"user_id":544,"name":"Valen","steam_id":76561198049614521,"connected_time":2825000000000,"state":"active","ping":67},{"user_id":551,"name":"grief","steam_id":76561198116332177,"connected_time":2175000000000,"state":"active","ping":69},{"user_id":566,"name":"murf","steam_id":76561199184831395,"connected_time":1318000000000,"state":"active","ping":40},{"user_id":574,"name":"bum","steam_id":76561198067678158,"connected_time":191000000000,"state":"active","ping":44},{"user_id":570,"name":"shr1mple","steam_id":76561198173537027,"connected_time":775000000000,"state":"active","ping":59},{"user_id":548,"name":"BlankSlate","steam_id":76561198411321755,"connected_time":2604000000000,"state":"active","ping":61},{"user_id":549,"name":"Bill Carr","steam_id":76561198110033943,"connected_time":2585000000000,"state":"active","ping":34},{"user_id":575,"name":"TrashBoat","steam_id":76561199089671432,"connected_time":66000000000,"state":"active","ping":157},{"user_id":559,"name":"Jon","steam_id":76561199380849468,"connected_time":1633000000000,"state":"active","ping":73},{"user_id":571,"name":"Laru","steam_id":76561197998838438,"connected_time":774000000000,"state":"active","ping":75},{"user_id":546,"name":"frosty","steam_id":76561198094560834,"connected_time":2651000000000,"state":"active","ping":55},{"user_id":565,"name":"Purps","steam_id":76561198053886680,"connected_time":1369000000000,"state":"active","ping":40},{"user_id":473,"name":"lillunya â™¡","steam_id":76561198330418866,"connected_time":8607000000000,"state":"active","ping":71},{"user_id":561,"name":"JackWalms","steam_id":76561198065633253,"connected_time":1587000000000,"state":"active","ping":48},{"user_id":554,"name":"wG toemas_","steam_id":76561198156188209,"connected_time":1938000000000,"state":"active","ping":45},{"user_id":538,"name":"Ivo 'M'Banza'","steam_id":76561198033392385,"connected_time":4556000000000,"state":"active","ping":54},{"user_id":556,"name":"Princess Peach","steam_id":76561198260272240,"connected_time":1756000000000,"state":"active","ping":52},{"user_id":568,"name":"Domo","steam_id":76561198056790920,"connected_time":809000000000,"state":"active","ping":58},{"user_id":563,"name":"tone","steam_id":76561197975301462,"connected_time":1564000000000,"state":"active","ping":62},{"user_id":564,"name":"Hey!","steam_id":76561198204837289,"connected_time":1560000000000,"state":"active","ping":40},{"user_id":537,"name":"tm`","steam_id":76561197993580412,"connected_time":4578000000000,"state":"active","ping":71}]},{"server_id":21,"name":"Uncletopia | London | 5 | All Maps","name_short":"lon-5","host":"lon-1.uk.uncletopia.com","port":27055,"enabled":true,"region":"eu","cc":"gb","latitude":51.509865,"longitude":-0.118092,"reserved":0,"last_update":"0001-01-01T00:00:00Z","name_a2s":"Uncletopia | London | 5 | All Maps","protocol":17,"map":"koth_highpass","folder":"tf","game":"Team Fortress","app_id":440,"player_count":0,"max_players":24,"Bots":0,"server_type":"Dedicated","server_os":"Linux","password":true,"vac":true,"version":"7961495","steam_id":85568392924742829,"keywords":["cp","nocrits","nodmgspread","uncletopia"],"game_id":440,"stv_port":27056,"stv_name":"Uncletopia | London | 5 | All Maps | STV","players":null},{"server_id":22,"name":"Uncletopia | London | 6 | All Maps","name_short":"lon-6","host":"lon-1.uk.uncletopia.com","port":27065,"enabled":true,"region":"eu","cc":"gb","latitude":51.509865,"longitude":-0.118092,"reserved":0,"last_update":"0001-01-01T00:00:00Z","name_a2s":"Uncletopia | London | 6 | All Maps","protocol":17,"map":"cp_dustbowl","folder":"tf","game":"Team Fortress","app_id":440,"player_count":0,"max_players":24,"Bots":0,"server_type":"Dedicated","server_os":"Linux","password":true,"vac":true,"version":"7961495","steam_id":85568392924742830,"keywords":["cp","nocrits","nodmgspread","uncletopia"],"game_id":440,"stv_port":27066,"stv_name":"Uncletopia | London | 6 | All Maps | STV","players":null},{"server_id":40,"name":"Uncletopia | London | 7 | Stopwatch","name_short":"lon-7","host":"lon-1.uk.uncletopia.com","port":27075,"enabled":true,"region":"eu","cc":"gb","latitude":51.509865,"longitude":-0.118092,"reserved":0,"last_update":"0001-01-01T00:00:00Z","name_a2s":"Uncletopia | London | 7 | Stopwatch","protocol":17,"map":"koth_highpass","folder":"tf","game":"Team Fortress","app_id":440,"player_count":0,"max_players":24,"Bots":0,"server_type":"Dedicated","server_os":"Linux","password":true,"vac":true,"version":"7961495","steam_id":85568392924964314,"keywords":["cp","nocrits","nodmgspread","uncletopia"],"game_id":440,"stv_port":27076,"stv_name":"Uncletopia | London | 7 | Stopwatch | STV","players":null},{"server_id":41,"name":"Uncletopia | London | 8 | Community","name_short":"lon-8","host":"lon-1.uk.uncletopia.com","port":27085,"enabled":true,"region":"eu","cc":"gb","latitude":51.509865,"longitude":-0.118092,"reserved":0,"last_update":"0001-01-01T00:00:00Z","name_a2s":"Uncletopia | London | 8 | Community","protocol":17,"map":"workshop/koth_trenchfoot_ab1.ugc731436616","folder":"tf","game":"Team Fortress","app_id":440,"player_count":0,"max_players":24,"Bots":0,"server_type":"Dedicated","server_os":"Linux","password":true,"vac":true,"version":"7961495","steam_id":85568392924964315,"keywords":["cp","nocrits","nodmgspread","uncletopia"],"game_id":440,"stv_port":27086,"stv_name":"Uncletopia | London | 8 | Community | STV","players":null},{"server_id":300,"name":"Uncletopia | MontrÃ©al | 1 | One Thousand Uncles","name_short":"mtl-1","host":"mtl-1.ca.uncletopia.com","port":27015,"enabled":true,"region":"us-east","cc":"ca","latitude":45.50889,"longitude":-73.56167,"reserved":0,"last_update":"0001-01-01T00:00:00Z","name_a2s":"","protocol":0,"map":"","folder":"","game":"","app_id":0,"player_count":12,"max_players":0,"Bots":0,"server_type":"","server_os":"","password":false,"vac":false,"version":"","steam_id":0,"keywords":null,"game_id":0,"stv_port":0,"stv_name":"","players":[{"user_id":230,"name":"Yep","steam_id":76561198041437251,"connected_time":16194000000000,"state":"active","ping":56},{"user_id":420,"name":"CuSO4","steam_id":76561199278147589,"connected_time":1614000000000,"state":"active","ping":57},{"user_id":418,"name":"Jade Jetts [She/They]","steam_id":76561198206130076,"connected_time":2323000000000,"state":"active","ping":120},{"user_id":417,"name":"Bobbn","steam_id":76561198876124683,"connected_time":2616000000000,"state":"active","ping":77},{"user_id":385,"name":"FlameEmerald","steam_id":76561198407696514,"connected_time":4858000000000,"state":"active","ping":77},{"user_id":462,"name":"Grand Wizard","steam_id":76561199382783363,"connected_time":75000000000,"state":"active","ping":75},{"user_id":386,"name":"DurpyChimiChanGa","steam_id":76561199101447065,"connected_time":4790000000000,"state":"active","ping":68},{"user_id":422,"name":"Philo","steam_id":76561198061873341,"connected_time":1096000000000,"state":"active","ping":93},{"user_id":425,"name":"bobby flay","steam_id":76561198149124090,"connected_time":1052000000000,"state":"active","ping":60},{"user_id":423,"name":"StiaanSauce","steam_id":76561198091940547,"connected_time":1095000000000,"state":"active","ping":77},{"user_id":445,"name":"Satchamo","steam_id":76561198012968239,"connected_time":498000000000,"state":"active","ping":91},{"user_id":443,"name":"REDOYSTERCULT302","steam_id":76561199499023967,"connected_time":839000000000,"state":"active","ping":56}]},{"server_id":301,"name":"Uncletopia | MontrÃ©al | 2 | One Thousand Uncles","name_short":"mtl-2","host":"mtl-1.ca.uncletopia.com","port":27025,"enabled":true,"region":"us-east","cc":"ca","latitude":45.50889,"longitude":-73.56167,"reserved":0,"last_update":"0001-01-01T00:00:00Z","name_a2s":"","protocol":0,"map":"","folder":"","game":"","app_id":0,"player_count":0,"max_players":0,"Bots":0,"server_type":"","server_os":"","password":false,"vac":false,"version":"","steam_id":0,"keywords":null,"game_id":0,"stv_port":0,"stv_name":"","players":null},{"server_id":302,"name":"Uncletopia | MontrÃ©al | 3 | One Thousand Uncles","name_short":"mtl-3","host":"mtl-1.ca.uncletopia.com","port":27035,"enabled":true,"region":"us-east","cc":"ca","latitude":45.50889,"longitude":-73.56167,"reserved":0,"last_update":"0001-01-01T00:00:00Z","name_a2s":"","protocol":0,"map":"","folder":"","game":"","app_id":0,"player_count":0,"max_players":0,"Bots":0,"server_type":"","server_os":"","password":false,"vac":false,"version":"","steam_id":0,"keywords":null,"game_id":0,"stv_port":0,"stv_name":"","players":null},{"server_id":13,"name":"Uncletopia | New York City | 1 | All Maps","name_short":"nyc-1","host":"nyc-1.us.uncletopia.com","port":27015,"enabled":true,"region":"us-east","cc":"us","latitude":40.73061,"longitude":-73.93524,"reserved":0,"last_update":"0001-01-01T00:00:00Z","name_a2s":"Uncletopia | New York City | 1 | All Maps","protocol":17,"map":"pl_badwater","folder":"tf","game":"Team Fortress","app_id":440,"player_count":22,"max_players":24,"Bots":0,"server_type":"Dedicated","server_os":"Linux","password":true,"vac":true,"version":"7961495","steam_id":85568392924469993,"keywords":["nocrits","nodmgspread","payload","uncletopia"],"game_id":440,"stv_port":27016,"stv_name":"Uncletopia | New York City | 1 | All Maps | STV","players":[{"user_id":209,"name":"Top Frog","steam_id":76561198072793446,"connected_time":3790000000000,"state":"active","ping":81},{"user_id":211,"name":"The Nikocado Enjoyer","steam_id":76561198263154374,"connected_time":3612000000000,"state":"active","ping":57},{"user_id":223,"name":"pnut","steam_id":76561198043862737,"connected_time":2874000000000,"state":"active","ping":37},{"user_id":228,"name":"Scita","steam_id":76561198066861559,"connected_time":2597000000000,"state":"active","ping":58},{"user_id":266,"name":"mostly ham","steam_id":76561199479937232,"connected_time":45000000000,"state":"active","ping":84},{"user_id":247,"name":"Scum Knight | T.I.D.K.","steam_id":76561198282444763,"connected_time":1293000000000,"state":"active","ping":50},{"user_id":265,"name":"Lemurian","steam_id":76561198324118507,"connected_time":118000000000,"state":"active","ping":65},{"user_id":262,"name":"Chhaam","steam_id":76561198058508132,"connected_time":367000000000,"state":"active","ping":44},{"user_id":234,"name":"SHADY SWEATER SALESMAN","steam_id":76561198014616865,"connected_time":2002000000000,"state":"active","ping":45},{"user_id":250,"name":"Gotta Move That Gear Up","steam_id":76561197993467034,"connected_time":1063000000000,"state":"active","ping":76},{"user_id":258,"name":"nav","steam_id":76561198872608266,"connected_time":532000000000,"state":"active","ping":65},{"user_id":259,"name":"goobert","steam_id":76561198161385366,"connected_time":519000000000,"state":"active","ping":56},{"user_id":260,"name":"Lucide","steam_id":76561197998530400,"connected_time":477000000000,"state":"active","ping":125},{"user_id":246,"name":"ndvr (femboy (REAL))","steam_id":76561199379200102,"connected_time":1449000000000,"state":"active","ping":53},{"user_id":248,"name":"Psychosis","steam_id":76561198078659070,"connected_time":1292000000000,"state":"active","ping":73},{"user_id":231,"name":"Ask Me For Random Trivia!","steam_id":76561198087065165,"connected_time":2478000000000,"state":"active","ping":55},{"user_id":221,"name":"Strange Diplomat","steam_id":76561198428191920,"connected_time":2988000000000,"state":"active","ping":50},{"user_id":252,"name":"the follower","steam_id":76561198921045691,"connected_time":1015000000000,"state":"active","ping":289},{"user_id":222,"name":"Lemon Soda","steam_id":76561198140208761,"connected_time":2878000000000,"state":"active","ping":54},{"user_id":256,"name":"Femboy Medic Main","steam_id":76561198268225109,"connected_time":618000000000,"state":"active","ping":99},{"user_id":219,"name":"kibble","steam_id":76561198239909096,"connected_time":3153000000000,"state":"active","ping":61},{"user_id":267,"name":"carti","steam_id":76561199037980939,"connected_time":4000000000,"state":"spawning","ping":91}]},{"server_id":14,"name":"Uncletopia | New York City | 2 | All Maps","name_short":"nyc-2","host":"nyc-1.us.uncletopia.com","port":27025,"enabled":true,"region":"us-east","cc":"us","latitude":40.73061,"longitude":-73.93524,"reserved":0,"last_update":"0001-01-01T00:00:00Z","name_a2s":"Uncletopia | New York City | 2 | All Maps","protocol":17,"map":"pl_snowycoast","folder":"tf","game":"Team Fortress","app_id":440,"player_count":23,"max_players":24,"Bots":0,"server_type":"Dedicated","server_os":"Linux","password":true,"vac":true,"version":"7961495","steam_id":85568392924469994,"keywords":["nocrits","nodmgspread","payload","uncletopia"],"game_id":440,"stv_port":27026,"stv_name":"Uncletopia | New York City | 2 | All Maps | STV","players":[{"user_id":492,"name":"Mipsiek","steam_id":76561198164013471,"connected_time":3031000000000,"state":"active","ping":53},{"user_id":532,"name":"you forgot the sauce","steam_id":76561198387016713,"connected_time":798000000000,"state":"active","ping":59},{"user_id":531,"name":"Admiral Desto","steam_id":76561198301585815,"connected_time":805000000000,"state":"active","ping":43},{"user_id":540,"name":"Comfy!","steam_id":76561198008818346,"connected_time":556000000000,"state":"active","ping":59},{"user_id":549,"name":"TheGuy101","steam_id":76561199201772624,"connected_time":193000000000,"state":"active","ping":127},{"user_id":550,"name":"Accident","steam_id":76561198037232641,"connected_time":3000000000,"state":"spawning","ping":119},{"user_id":548,"name":"Drapph","steam_id":76561199384213314,"connected_time":253000000000,"state":"active","ping":83},{"user_id":529,"name":"Lemoncurry","steam_id":76561198045356414,"connected_time":1197000000000,"state":"active","ping":75},{"user_id":546,"name":"Olifont","steam_id":76561198141162919,"connected_time":375000000000,"state":"active","ping":68},{"user_id":535,"name":"MT","steam_id":76561198148830685,"connected_time":688000000000,"state":"active","ping":117},{"user_id":527,"name":"fwaeoij-4","steam_id":76561198057691823,"connected_time":1579000000000,"state":"active","ping":56},{"user_id":500,"name":"Shmebulock","steam_id":76561198046941925,"connected_time":2863000000000,"state":"active","ping":64},{"user_id":547,"name":"salami girl","steam_id":76561198817968375,"connected_time":328000000000,"state":"active","ping":87},{"user_id":536,"name":"BradB.","steam_id":76561199163905036,"connected_time":680000000000,"state":"active","ping":76},{"user_id":542,"name":"Nerrrd_","steam_id":76561198870129960,"connected_time":512000000000,"state":"active","ping":45},{"user_id":530,"name":"lalman","steam_id":76561198196605887,"connected_time":1108000000000,"state":"active","ping":42},{"user_id":504,"name":"[MOM] Preening Champion","steam_id":76561198055855534,"connected_time":2784000000000,"state":"active","ping":45},{"user_id":543,"name":"Tethered","steam_id":76561199237582239,"connected_time":512000000000,"state":"active","ping":75},{"user_id":469,"name":"LeGamingProPlays","steam_id":76561198121304032,"connected_time":4334000000000,"state":"active","ping":80},{"user_id":544,"name":"MilkTee","steam_id":76561198137189605,"connected_time":499000000000,"state":"active","ping":46},{"user_id":513,"name":"Traincar12","steam_id":76561198126786583,"connected_time":2399000000000,"state":"active","ping":76},{"user_id":507,"name":"Grify","steam_id":76561198012292317,"connected_time":2774000000000,"state":"active","ping":86},{"user_id":545,"name":"Î» T O M I C S P E E D","steam_id":76561198378581038,"connected_time":486000000000,"state":"active","ping":92}]},{"server_id":15,"name":"Uncletopia | New York City | 3 | Stopwatch","name_short":"nyc-3","host":"nyc-1.us.uncletopia.com","port":27035,"enabled":true,"region":"us-east","cc":"us","latitude":40.73061,"longitude":-73.93524,"reserved":0,"last_update":"0001-01-01T00:00:00Z","name_a2s":"Uncletopia | New York City | 3 | Stopwatch","protocol":17,"map":"pl_upward","folder":"tf","game":"Team Fortress","app_id":440,"player_count":24,"max_players":24,"Bots":0,"server_type":"Dedicated","server_os":"Linux","password":true,"vac":true,"version":"7961495","steam_id":85568392924742820,"keywords":["nocrits","nodmgspread","payload","uncletopia"],"game_id":440,"stv_port":27036,"stv_name":"Uncletopia | New York City | 3 | Stopwatch | STV","players":[{"user_id":66,"name":"Magi","steam_id":76561198150790710,"connected_time":636000000000,"state":"active","ping":44},{"user_id":58,"name":"on that zaza?","steam_id":76561198038713198,"connected_time":902000000000,"state":"active","ping":58},{"user_id":21,"name":"THEY DONT KNOWWWWWW","steam_id":76561198062991744,"connected_time":2701000000000,"state":"active","ping":47},{"user_id":25,"name":"RitzPlease","steam_id":76561198799314590,"connected_time":2451000000000,"state":"active","ping":104},{"user_id":43,"name":"Salt Dragon","steam_id":76561198331207987,"connected_time":1622000000000,"state":"active","ping":61},{"user_id":70,"name":"Sin","steam_id":76561199007901003,"connected_time":335000000000,"state":"active","ping":79},{"user_id":71,"name":"kolesov.id","steam_id":76561198871074902,"connected_time":312000000000,"state":"active","ping":81},{"user_id":17,"name":"X0X2","steam_id":76561198418503762,"connected_time":3249000000000,"state":"active","ping":104},{"user_id":18,"name":"NatePlayz97(Twitch)","steam_id":76561198184494979,"connected_time":3242000000000,"state":"active","ping":70},{"user_id":28,"name":"WhoWee!","steam_id":76561198269471732,"connected_time":2336000000000,"state":"active","ping":82},{"user_id":54,"name":"Drake the Pixel","steam_id":76561198131824401,"connected_time":1038000000000,"state":"active","ping":40},{"user_id":30,"name":"Some Octopus Wizard","steam_id":76561198005470354,"connected_time":1923000000000,"state":"active","ping":76},{"user_id":45,"name":"DaPandaDev","steam_id":76561199122457460,"connected_time":1577000000000,"state":"active","ping":91},{"user_id":33,"name":"MaineGameBoy","steam_id":76561198278698726,"connected_time":1773000000000,"state":"active","ping":193},{"user_id":55,"name":"Anthony's Official Profile","steam_id":76561199020903774,"connected_time":1035000000000,"state":"active","ping":136},{"user_id":56,"name":"you're so girlpunk emocore","steam_id":76561198055902452,"connected_time":1010000000000,"state":"active","ping":77},{"user_id":68,"name":"Hoob.egfug","steam_id":76561197980557818,"connected_time":480000000000,"state":"active","ping":65},{"user_id":52,"name":"SCATTER","steam_id":76561198405168492,"connected_time":1325000000000,"state":"active","ping":77},{"user_id":47,"name":"DeSynthed","steam_id":76561198098768007,"connected_time":1566000000000,"state":"active","ping":77},{"user_id":62,"name":"Dr. Heinz Doofenschmirtz","steam_id":76561198180454149,"connected_time":779000000000,"state":"active","ping":97},{"user_id":61,"name":"nhbiker","steam_id":76561198081277675,"connected_time":832000000000,"state":"active","ping":45},{"user_id":63,"name":"Meet The Taunt","steam_id":76561198253927199,"connected_time":736000000000,"state":"active","ping":170},{"user_id":49,"name":"fourarmz","steam_id":76561198989654828,"connected_time":1525000000000,"state":"active","ping":70},{"user_id":73,"name":"YourLocalAddict","steam_id":76561199101866008,"connected_time":270000000000,"state":"active","ping":108}]},{"server_id":16,"name":"Uncletopia | New York City | 4 | Community","name_short":"nyc-4","host":"nyc-1.us.uncletopia.com","port":27045,"enabled":true,"region":"us-east","cc":"us","latitude":40.73061,"longitude":-73.93524,"reserved":0,"last_update":"0001-01-01T00:00:00Z","name_a2s":"Uncletopia | New York City | 4 | Community","protocol":17,"map":"workshop/pl_emerge_rc2.ugc888027758","folder":"tf","game":"Team Fortress","app_id":440,"player_count":0,"max_players":24,"Bots":0,"server_type":"Dedicated","server_os":"Linux","password":true,"vac":true,"version":"7961495","steam_id":85568392924742821,"keywords":["nocrits","nodmgspread","payload","uncletopia"],"game_id":440,"stv_port":27046,"stv_name":"Uncletopia | New York City | 4 | Community | STV","players":null},{"server_id":142,"name":"Uncletopia | SÃ£o Paulo | 1 | All Maps","name_short":"sao-1","host":"sao-1.br.uncletopia.com","port":27015,"enabled":true,"region":"sa","cc":"br","latitude":-23.533773,"longitude":-46.62529,"reserved":0,"last_update":"0001-01-01T00:00:00Z","name_a2s":"Uncletopia | SÃ£o Paulo | 1 | All Maps","protocol":17,"map":"pl_frontier_final","folder":"tf","game":"Team Fortress","app_id":440,"player_count":15,"max_players":24,"Bots":0,"server_type":"Dedicated","server_os":"Linux","password":true,"vac":true,"version":"7961495","steam_id":85568392924469996,"keywords":["nocrits","nodmgspread","payload","uncletopia"],"game_id":440,"stv_port":27016,"stv_name":"Uncletopia | SÃ£o Paulo | 1 | All Maps | STV","players":[{"user_id":50,"name":"mg11a3","steam_id":76561198872798175,"connected_time":2699000000000,"state":"active","ping":49},{"user_id":51,"name":"joaoivomogu","steam_id":76561198090381468,"connected_time":2623000000000,"state":"active","ping":51},{"user_id":69,"name":"Key","steam_id":76561198078685690,"connected_time":693000000000,"state":"active","ping":54},{"user_id":71,"name":"anaheisenberg","steam_id":76561198304847307,"connected_time":324000000000,"state":"active","ping":58},{"user_id":70,"name":"ailuros","steam_id":76561198171349369,"connected_time":617000000000,"state":"active","ping":34},{"user_id":67,"name":"vacaloca25","steam_id":76561198082683352,"connected_time":1107000000000,"state":"active","ping":67},{"user_id":68,"name":"epic_charles","steam_id":76561198048485283,"connected_time":1045000000000,"state":"active","ping":206},{"user_id":62,"name":"Adolf_Dripler_1945","steam_id":76561198963738808,"connected_time":1531000000000,"state":"active","ping":40},{"user_id":55,"name":"Kaiser","steam_id":76561199168194896,"connected_time":2170000000000,"state":"active","ping":66},{"user_id":72,"name":"mechanical bride","steam_id":76561198161382276,"connected_time":185000000000,"state":"active","ping":53},{"user_id":73,"name":"jr_","steam_id":76561198313937899,"connected_time":2000000000,"state":"spawning","ping":41},{"user_id":44,"name":"YellowEyePatch Guy","steam_id":76561199108111310,"connected_time":3047000000000,"state":"active","ping":61},{"user_id":28,"name":"SHELDON999ms","steam_id":76561198977549357,"connected_time":4216000000000,"state":"active","ping":113},{"user_id":56,"name":"pikabrun","steam_id":76561198408632444,"connected_time":2141000000000,"state":"active","ping":70},{"user_id":49,"name":"SCARFACEâ„¢","steam_id":76561198227772584,"connected_time":2744000000000,"state":"active","ping":97}]},{"server_id":143,"name":"Uncletopia | SÃ£o Paulo | 2 | Community","name_short":"sao-2","host":"sao-2.br.uncletopia.com","port":27015,"enabled":true,"region":"sa","cc":"br","latitude":-23.533773,"longitude":-46.62529,"reserved":0,"last_update":"0001-01-01T00:00:00Z","name_a2s":"Uncletopia | SÃ£o Paulo | 2 | Community","protocol":17,"map":"workshop/cp_snowbase_b21.ugc2081770490","folder":"tf","game":"Team Fortress","app_id":440,"player_count":0,"max_players":24,"Bots":0,"server_type":"Dedicated","server_os":"Linux","password":true,"vac":true,"version":"7961495","steam_id":85568392924485349,"keywords":["cp","nocrits","nodmgspread","uncletopia"],"game_id":440,"stv_port":27016,"stv_name":"Uncletopia | SÃ£o Paulo | 2 | Community | STV","players":null},{"server_id":7,"name":"Uncletopia | Seattle | 1 | All Maps","name_short":"sea-1","host":"sea-1.us.uncletopia.com","port":27015,"enabled":true,"region":"us-west","cc":"us","latitude":47.608013,"longitude":-122.33517,"reserved":0,"last_update":"0001-01-01T00:00:00Z","name_a2s":"Uncletopia | Seattle | 1 | All Maps","protocol":17,"map":"pl_upward","folder":"tf","game":"Team Fortress","app_id":440,"player_count":23,"max_players":24,"Bots":0,"server_type":"Dedicated","server_os":"Linux","password":true,"vac":true,"version":"7961495","steam_id":85568392924469997,"keywords":["nocrits","nodmgspread","payload","uncletopia"],"game_id":440,"stv_port":27016,"stv_name":"Uncletopia | Seattle | 1 | All Maps | STV","players":[{"user_id":429,"name":"Zetta","steam_id":76561198045710113,"connected_time":4867000000000,"state":"active","ping":90},{"user_id":486,"name":"Fh","steam_id":76561198000903511,"connected_time":16000000000,"state":"active","ping":52},{"user_id":478,"name":"Attrition","steam_id":76561197969881916,"connected_time":345000000000,"state":"active","ping":47},{"user_id":457,"name":"Ayayayayayayayayayayayayahuasca","steam_id":76561199002906056,"connected_time":1908000000000,"state":"active","ping":48},{"user_id":448,"name":"Gregg Rulz ok","steam_id":76561199027131213,"connected_time":2649000000000,"state":"active","ping":51},{"user_id":463,"name":"Callahan","steam_id":76561197976928457,"connected_time":1376000000000,"state":"active","ping":45},{"user_id":409,"name":"Cheezbeargur","steam_id":76561198164702899,"connected_time":6685000000000,"state":"active","ping":62},{"user_id":482,"name":"MyMonkeyBaby","steam_id":76561198046896670,"connected_time":68000000000,"state":"active","ping":54},{"user_id":483,"name":"The_Man","steam_id":76561199194890696,"connected_time":63000000000,"state":"active","ping":103},{"user_id":480,"name":"the sludge?!","steam_id":76561198094575882,"connected_time":305000000000,"state":"active","ping":52},{"user_id":445,"name":"Keamy","steam_id":76561199471434875,"connected_time":2721000000000,"state":"active","ping":45},{"user_id":446,"name":"Dr.keinmann","steam_id":76561198360305514,"connected_time":2707000000000,"state":"active","ping":59},{"user_id":471,"name":"collector's pest","steam_id":76561198170402666,"connected_time":671000000000,"state":"active","ping":69},{"user_id":479,"name":"munkeev","steam_id":76561198258121444,"connected_time":326000000000,"state":"active","ping":120},{"user_id":468,"name":"manchego gaming","steam_id":76561198069895678,"connected_time":1333000000000,"state":"active","ping":61},{"user_id":477,"name":"nathanxbox2","steam_id":76561198046874088,"connected_time":506000000000,"state":"active","ping":130},{"user_id":459,"name":"MegaBitmap","steam_id":76561198086027059,"connected_time":1773000000000,"state":"active","ping":77},{"user_id":452,"name":"Ojen","steam_id":76561197998414482,"connected_time":2546000000000,"state":"active","ping":108},{"user_id":414,"name":"Medic_Bot (32k Heals To Go)","steam_id":76561198111278197,"connected_time":6317000000000,"state":"active","ping":45},{"user_id":474,"name":"WaffleWithNoToppings","steam_id":76561199088280111,"connected_time":644000000000,"state":"active","ping":45},{"user_id":435,"name":"Pootis","steam_id":76561199067766868,"connected_time":4177000000000,"state":"active","ping":55},{"user_id":439,"name":"Nom Skirrett","steam_id":76561198014600788,"connected_time":3837000000000,"state":"active","ping":61},{"user_id":461,"name":"Themasterman75","steam_id":76561199385573293,"connected_time":1440000000000,"state":"active","ping":60}]},{"server_id":119,"name":"Uncletopia | Seattle | 2 | All Maps","name_short":"sea-2","host":"sea-1.us.uncletopia.com","port":27025,"enabled":true,"region":"us-west","cc":"us","latitude":47.608013,"longitude":-122.33517,"reserved":0,"last_update":"0001-01-01T00:00:00Z","name_a2s":"Uncletopia | Seattle | 2 | All Maps","protocol":17,"map":"pl_swiftwater_final1","folder":"tf","game":"Team Fortress","app_id":440,"player_count":12,"max_players":24,"Bots":0,"server_type":"Dedicated","server_os":"Linux","password":true,"vac":true,"version":"7961495","steam_id":85568392924469998,"keywords":["nocrits","nodmgspread","payload","uncletopia"],"game_id":440,"stv_port":27026,"stv_name":"Uncletopia | Seattle | 2 | All Maps | STV","players":[{"user_id":200,"name":"pyrotechnic","steam_id":76561198043558709,"connected_time":312000000000,"state":"active","ping":44},{"user_id":203,"name":"Smile","steam_id":76561198110008786,"connected_time":157000000000,"state":"active","ping":69},{"user_id":197,"name":"poopfart messiah","steam_id":76561198082551861,"connected_time":484000000000,"state":"active","ping":50},{"user_id":204,"name":"transfem pinocchio","steam_id":76561199232573859,"connected_time":83000000000,"state":"active","ping":119},{"user_id":198,"name":"Arkell","steam_id":76561198135884882,"connected_time":436000000000,"state":"active","ping":46},{"user_id":199,"name":"fellow NPC","steam_id":76561199152882553,"connected_time":348000000000,"state":"active","ping":64},{"user_id":202,"name":"Bob","steam_id":76561199100437824,"connected_time":180000000000,"state":"active","ping":118},{"user_id":156,"name":"shitass | troutsupply.net","steam_id":76561198210572481,"connected_time":3184000000000,"state":"active","ping":74},{"user_id":194,"name":"DaisyTheCat","steam_id":76561198241732704,"connected_time":873000000000,"state":"active","ping":169},{"user_id":185,"name":"âœ¨ Rarity âœ¨","steam_id":76561199172206856,"connected_time":1662000000000,"state":"active","ping":100},{"user_id":195,"name":"goos  e","steam_id":76561198036774894,"connected_time":672000000000,"state":"active","ping":52}]},{"server_id":406,"name":"Uncletopia | Seattle | 3 | Stopwatch","name_short":"sea-3","host":"sea-1.us.uncletopia.com","port":27035,"enabled":true,"region":"us-west","cc":"us","latitude":47.608013,"longitude":-122.33517,"reserved":0,"last_update":"0001-01-01T00:00:00Z","name_a2s":"Uncletopia | Seattle | 3 | Stopwatch","protocol":17,"map":"pl_swiftwater_final1","folder":"tf","game":"Team Fortress","app_id":440,"player_count":0,"max_players":24,"Bots":0,"server_type":"Dedicated","server_os":"Linux","password":true,"vac":true,"version":"7961495","steam_id":85568392924515217,"keywords":["nocrits","nodmgspread","payload","uncletopia"],"game_id":440,"stv_port":27036,"stv_name":"Uncletopia | Seattle | 3 | Stopwatch | STV","players":null},{"server_id":17,"name":"Uncletopia | San Francisco | 1 | All Maps","name_short":"sfo-1","host":"sfo-1.us.uncletopia.com","port":27015,"enabled":true,"region":"us-west","cc":"us","latitude":37.77397,"longitude":-122.4313,"reserved":0,"last_update":"0001-01-01T00:00:00Z","name_a2s":"Uncletopia | San Francisco | 1 | All Maps","protocol":17,"map":"pl_frontier_final","folder":"tf","game":"Team Fortress","app_id":440,"player_count":21,"max_players":24,"Bots":0,"server_type":"Dedicated","server_os":"Linux","password":true,"vac":true,"version":"7961495","steam_id":85568392924469999,"keywords":["nocrits","nodmgspread","payload","uncletopia"],"game_id":440,"stv_port":27016,"stv_name":"Uncletopia | San Francisco | 1 | All Maps | STV","players":[{"user_id":6,"name":"Clump","steam_id":76561198049690860,"connected_time":5493000000000,"state":"active","ping":64},{"user_id":7,"name":"Dirt Mammal","steam_id":76561198040781653,"connected_time":5422000000000,"state":"active","ping":63},{"user_id":61,"name":"Engynier Gaimeang (F2P)","steam_id":76561199013888779,"connected_time":479000000000,"state":"active","ping":64},{"user_id":51,"name":"Beans","steam_id":76561198353581050,"connected_time":1597000000000,"state":"active","ping":57},{"user_id":13,"name":"Big Zach","steam_id":76561198108655065,"connected_time":3658000000000,"state":"active","ping":94},{"user_id":63,"name":"PumpkyðŸŒˆ","steam_id":76561198095168396,"connected_time":328000000000,"state":"active","ping":91},{"user_id":21,"name":"Agent Q","steam_id":76561198830829003,"connected_time":2911000000000,"state":"active","ping":85},{"user_id":16,"name":"Big Leon","steam_id":76561198119283410,"connected_time":3453000000000,"state":"active","ping":102},{"user_id":66,"name":"Emma","steam_id":76561198286888723,"connected_time":185000000000,"state":"active","ping":94},{"user_id":52,"name":"JohnnyGitGud","steam_id":76561198401455467,"connected_time":1529000000000,"state":"active","ping":55},{"user_id":70,"name":"Crazy Cane","steam_id":76561198993941174,"connected_time":25000000000,"state":"active","ping":125},{"user_id":69,"name":"am to pm","steam_id":76561198256257931,"connected_time":70000000000,"state":"active","ping":45},{"user_id":53,"name":"GKumo","steam_id":76561198023175868,"connected_time":1392000000000,"state":"active","ping":48},{"user_id":62,"name":"Demonstration Man","steam_id":76561198801427404,"connected_time":466000000000,"state":"active","ping":60},{"user_id":27,"name":"JamieCracker","steam_id":76561198138766696,"connected_time":2342000000000,"state":"active","ping":59},{"user_id":57,"name":"Leo x.x","steam_id":76561198309760791,"connected_time":773000000000,"state":"active","ping":100},{"user_id":46,"name":"ð“•ð“®ð“¶ð“«ð“¸ð”‚ð“©\ufffd\ufffd\ufffd","steam_id":76561198220055885,"connected_time":1897000000000,"state":"active","ping":90},{"user_id":67,"name":"Acer","steam_id":76561198212225157,"connected_time":147000000000,"state":"active","ping":78},{"user_id":59,"name":"Dimmerswitch","steam_id":76561198034782177,"connected_time":631000000000,"state":"active","ping":30},{"user_id":60,"name":"Chrisscar","steam_id":76561198086298130,"connected_time":583000000000,"state":"active","ping":47},{"user_id":38,"name":"scp 2394 \"lebron bugleberry\"","steam_id":76561198060288611,"connected_time":2017000000000,"state":"active","ping":92}]},{"server_id":18,"name":"Uncletopia | San Francisco | 2 | All Maps","name_short":"sfo-2","host":"sfo-1.us.uncletopia.com","port":27025,"enabled":true,"region":"us-west","cc":"us","latitude":37.77397,"longitude":-122.4313,"reserved":0,"last_update":"0001-01-01T00:00:00Z","name_a2s":"Uncletopia | San Francisco | 2 | All Maps","protocol":17,"map":"koth_cascade","folder":"tf","game":"Team Fortress","app_id":440,"player_count":0,"max_players":24,"Bots":0,"server_type":"Dedicated","server_os":"Linux","password":true,"vac":true,"version":"7961495","steam_id":85568392924470000,"keywords":["cp","nocrits","nodmgspread","uncletopia"],"game_id":440,"stv_port":27026,"stv_name":"Uncletopia | San Francisco | 2 | All Maps | STV","players":null},{"server_id":19,"name":"Uncletopia | San Francisco | 3 | Stopwatch","name_short":"sfo-3","host":"sfo-1.us.uncletopia.com","port":27035,"enabled":true,"region":"us-west","cc":"us","latitude":37.77397,"longitude":-122.4313,"reserved":0,"last_update":"0001-01-01T00:00:00Z","name_a2s":"Uncletopia | San Francisco | 3 | Stopwatch","protocol":17,"map":"workshop/koth_clearcut_b15.ugc2107050255","folder":"tf","game":"Team Fortress","app_id":440,"player_count":0,"max_players":24,"Bots":0,"server_type":"Dedicated","server_os":"Linux","password":true,"vac":true,"version":"7961495","steam_id":85568392924742824,"keywords":["cp","nocrits","nodmgspread","uncletopia"],"game_id":440,"stv_port":27036,"stv_name":"Uncletopia | San Francisco | 3 | Stopwatch | STV","players":null},{"server_id":20,"name":"Uncletopia | San Francisco | 4 | Community","name_short":"sfo-4","host":"sfo-1.us.uncletopia.com","port":27045,"enabled":true,"region":"us-west","cc":"us","latitude":37.77397,"longitude":-122.4313,"reserved":0,"last_update":"0001-01-01T00:00:00Z","name_a2s":"Uncletopia | San Francisco | 4 | Community","protocol":17,"map":"pl_pier","folder":"tf","game":"Team Fortress","app_id":440,"player_count":0,"max_players":24,"Bots":0,"server_type":"Dedicated","server_os":"Linux","password":true,"vac":true,"version":"7961495","steam_id":85568392924742826,"keywords":["nocrits","nodmgspread","payload","uncletopia"],"game_id":440,"stv_port":27046,"stv_name":"Uncletopia | San Francisco | 4 | Community | STV","players":null},{"server_id":141,"name":"Uncletopia | Sydney | 1 | All Maps","name_short":"syd-1","host":"syd-1.au.uncletopia.com","port":27015,"enabled":true,"region":"au","cc":"au","latitude":-33.865143,"longitude":151.2099,"reserved":0,"last_update":"0001-01-01T00:00:00Z","name_a2s":"Uncletopia | Sydney | 1 | All Maps","protocol":17,"map":"koth_viaduct","folder":"tf","game":"Team Fortress","app_id":440,"player_count":0,"max_players":24,"Bots":0,"server_type":"Dedicated","server_os":"Linux","password":true,"vac":true,"version":"7961495","steam_id":85568392924470001,"keywords":["cp","nocrits","nodmgspread","uncletopia"],"game_id":440,"stv_port":27016,"stv_name":"Uncletopia | Sydney | 1 | All Maps | STV","players":null},{"server_id":123,"name":"Uncletopia | Sydney | 2 | All Maps","name_short":"syd-2","host":"syd-1.au.uncletopia.com","port":27025,"enabled":true,"region":"au","cc":"au","latitude":-33.865143,"longitude":151.2099,"reserved":0,"last_update":"0001-01-01T00:00:00Z","name_a2s":"Uncletopia | Sydney | 2 | All Maps","protocol":17,"map":"koth_lakeside_final","folder":"tf","game":"Team Fortress","app_id":440,"player_count":0,"max_players":24,"Bots":0,"server_type":"Dedicated","server_os":"Linux","password":true,"vac":true,"version":"7961495","steam_id":85568392924470002,"keywords":["cp","nocrits","nodmgspread","uncletopia"],"game_id":440,"stv_port":27026,"stv_name":"Uncletopia | Sydney | 2 | All Maps | STV","players":null},{"server_id":395,"name":"Uncletopia | Sydney | 3 | All Maps","name_short":"syd-3","host":"syd-1.au.uncletopia.com","port":27035,"enabled":true,"region":"au","cc":"au","latitude":-33.865143,"longitude":151.2099,"reserved":0,"last_update":"0001-01-01T00:00:00Z","name_a2s":"Uncletopia | Sydney | 3 | All Maps","protocol":17,"map":"pl_frontier_final","folder":"tf","game":"Team Fortress","app_id":440,"player_count":0,"max_players":24,"Bots":0,"server_type":"Dedicated","server_os":"Linux","password":true,"vac":true,"version":"7961495","steam_id":85568392925194467,"keywords":["nocrits","nodmgspread","payload","uncletopia"],"game_id":440,"stv_port":27036,"stv_name":"Uncletopia | Sydney | 3 | All Maps | STV","players":null},{"server_id":396,"name":"Uncletopia | Sydney | 4 | All Maps","name_short":"syd-4","host":"syd-1.au.uncletopia.com","port":27045,"enabled":true,"region":"au","cc":"au","latitude":-33.865143,"longitude":151.2099,"reserved":0,"last_update":"0001-01-01T00:00:00Z","name_a2s":"Uncletopia | Sydney | 4 | All Maps","protocol":17,"map":"pl_pier","folder":"tf","game":"Team Fortress","app_id":440,"player_count":0,"max_players":24,"Bots":0,"server_type":"Dedicated","server_os":"Linux","password":true,"vac":true,"version":"7961495","steam_id":85568392925397958,"keywords":["nocrits","nodmgspread","payload","uncletopia"],"game_id":440,"stv_port":27046,"stv_name":"Uncletopia | Sydney | 4 | All Maps | STV","players":null},{"server_id":58,"name":"Uncletopia | Sydney | 5 | Stopwatch","name_short":"syd-5","host":"syd-1.au.uncletopia.com","port":27055,"enabled":true,"region":"au","cc":"au","latitude":-33.865143,"longitude":151.2099,"reserved":0,"last_update":"0001-01-01T00:00:00Z","name_a2s":"Uncletopia | Sydney | 5 | Stopwatch","protocol":17,"map":"pl_frontier_final","folder":"tf","game":"Team Fortress","app_id":440,"player_count":0,"max_players":24,"Bots":0,"server_type":"Dedicated","server_os":"Linux","password":true,"vac":true,"version":"7961495","steam_id":85568392925397959,"keywords":["nocrits","nodmgspread","payload","uncletopia"],"game_id":440,"stv_port":27056,"stv_name":"Uncletopia | Sydney | 5 | Stopwatch | STV","players":null},{"server_id":59,"name":"Uncletopia | Sydney | 6 | Community","name_short":"syd-6","host":"syd-1.au.uncletopia.com","port":27065,"enabled":true,"region":"au","cc":"au","latitude":-33.865143,"longitude":151.2099,"reserved":0,"last_update":"0001-01-01T00:00:00Z","name_a2s":"Uncletopia | Sydney | 6 | Community","protocol":17,"map":"cp_sunshine","folder":"tf","game":"Team Fortress","app_id":440,"player_count":0,"max_players":24,"Bots":0,"server_type":"Dedicated","server_os":"Linux","password":true,"vac":true,"version":"7961495","steam_id":85568392925397960,"keywords":["cp","nocrits","nodmgspread","uncletopia"],"game_id":440,"stv_port":27066,"stv_name":"Uncletopia | Sydney | 6 | Community | STV","players":null},{"server_id":49,"name":"Uncletopia | Warsaw | 1 | One Thousand Uncles","name_short":"waw-1","host":"waw-1.pl.uncletopia.com","port":27015,"enabled":true,"region":"eu","cc":"pl","latitude":52.2297,"longitude":21.017532,"reserved":0,"last_update":"0001-01-01T00:00:00Z","name_a2s":"Uncletopia | Warsaw | 1 | One Thousand Uncles","protocol":17,"map":"pl_badwater","folder":"tf","game":"Team Fortress","app_id":440,"player_count":26,"max_players":32,"Bots":16,"server_type":"Dedicated","server_os":"Linux","password":true,"vac":true,"version":"7961495","steam_id":85568392925397850,"keywords":["alltalk","bots","danepve","increased_maxplayers","nocrits","norespawntime","payload","uncletopia"],"game_id":440,"stv_port":0,"stv_name":"","players":[{"user_id":845,"name":"scott steiners strongest warrio","steam_id":76561198148888622,"connected_time":1804000000000,"state":"active","ping":89},{"user_id":805,"name":"[HK]æˆ‘ä¿‚é¦™æ¸¯äºº","steam_id":76561198165376815,"connected_time":7351000000000,"state":"active","ping":79},{"user_id":813,"name":"Professorstino","steam_id":76561199117907277,"connected_time":5727000000000,"state":"active","ping":156},{"user_id":821,"name":"ivan Dimitrov","steam_id":76561199116463922,"connected_time":4286000000000,"state":"active","ping":92},{"user_id":850,"name":"nik","steam_id":76561199060824074,"connected_time":1118000000000,"state":"active","ping":51},{"user_id":815,"name":"jimmygunn13","steam_id":76561199198832963,"connected_time":5697000000000,"state":"active","ping":217},{"user_id":853,"name":"Baba","steam_id":76561198214034403,"connected_time":501000000000,"state":"active","ping":82},{"user_id":847,"name":"The Noise","steam_id":76561199181824842,"connected_time":1680000000000,"state":"active","ping":65},{"user_id":842,"name":"VikTic","steam_id":76561199189732765,"connected_time":3348000000000,"state":"active","ping":139},{"user_id":852,"name":"qqqqqq","steam_id":76561199063070592,"connected_time":1035000000000,"state":"active","ping":53}]},{"server_id":50,"name":"Uncletopia | Warsaw | 2 | One Thousand Uncles","name_short":"waw-2","host":"waw-1.pl.uncletopia.com","port":27025,"enabled":true,"region":"eu","cc":"pl","latitude":52.2297,"longitude":21.017532,"reserved":0,"last_update":"0001-01-01T00:00:00Z","name_a2s":"Uncletopia | Warsaw | 2 | One Thousand Uncles","protocol":17,"map":"pl_hoodoo_final","folder":"tf","game":"Team Fortress","app_id":440,"player_count":0,"max_players":32,"Bots":0,"server_type":"Dedicated","server_os":"Linux","password":true,"vac":true,"version":"7961495","steam_id":85568392925397851,"keywords":["alltalk","danepve","increased_maxplayers","nocrits","norespawntime","payload","uncletopia"],"game_id":440,"stv_port":0,"stv_name":"","players":null},{"server_id":51,"name":"Uncletopia | Warsaw | 3 | All Maps","name_short":"waw-3","host":"waw-1.pl.uncletopia.com","port":27035,"enabled":true,"region":"eu","cc":"pl","latitude":52.2297,"longitude":21.017532,"reserved":0,"last_update":"0001-01-01T00:00:00Z","name_a2s":"Uncletopia | Warsaw | 3 | All Maps","protocol":17,"map":"pl_barnblitz","folder":"tf","game":"Team Fortress","app_id":440,"player_count":0,"max_players":24,"Bots":0,"server_type":"Dedicated","server_os":"Linux","password":true,"vac":true,"version":"7961495","steam_id":85568392925397852,"keywords":["nocrits","nodmgspread","payload","uncletopia"],"game_id":440,"stv_port":27036,"stv_name":"Uncletopia | Warsaw | 3 | All Maps | STV","players":null},{"server_id":52,"name":"Uncletopia | Warsaw | 4 | All Maps","name_short":"waw-4","host":"waw-1.pl.uncletopia.com","port":27045,"enabled":true,"region":"eu","cc":"pl","latitude":52.2297,"longitude":21.017532,"reserved":0,"last_update":"0001-01-01T00:00:00Z","name_a2s":"Uncletopia | Warsaw | 4 | All Maps","protocol":17,"map":"koth_suijin","folder":"tf","game":"Team Fortress","app_id":440,"player_count":0,"max_players":24,"Bots":0,"server_type":"Dedicated","server_os":"Linux","password":true,"vac":true,"version":"7961495","steam_id":85568392925397853,"keywords":["cp","nocrits","nodmgspread","uncletopia"],"game_id":440,"stv_port":27046,"stv_name":"Uncletopia | Warsaw | 4 | All Maps | STV","players":null},{"server_id":53,"name":"Uncletopia | Warsaw | 5 | Stopwatch","name_short":"waw-5","host":"waw-1.pl.uncletopia.com","port":27055,"enabled":true,"region":"eu","cc":"pl","latitude":52.2297,"longitude":21.017532,"reserved":0,"last_update":"0001-01-01T00:00:00Z","name_a2s":"Uncletopia | Warsaw | 5 | Stopwatch","protocol":17,"map":"workshop/koth_ramjam_rc1.ugc459778887","folder":"tf","game":"Team Fortress","app_id":440,"player_count":0,"max_players":24,"Bots":0,"server_type":"Dedicated","server_os":"Linux","password":true,"vac":true,"version":"7961495","steam_id":85568392925397854,"keywords":["cp","nocrits","nodmgspread","uncletopia"],"game_id":440,"stv_port":27056,"stv_name":"Uncletopia | Warsaw | 5 | Stopwatch | STV","players":null},{"server_id":54,"name":"Uncletopia | Warsaw | 6 | Community","name_short":"waw-6","host":"waw-1.pl.uncletopia.com","port":27065,"enabled":true,"region":"eu","cc":"pl","latitude":52.2297,"longitude":21.017532,"reserved":0,"last_update":"0001-01-01T00:00:00Z","name_a2s":"Uncletopia | Warsaw | 6 | Community","protocol":17,"map":"workshop/pl_corrode_rc2.ugc546577989","folder":"tf","game":"Team Fortress","app_id":440,"player_count":0,"max_players":24,"Bots":0,"server_type":"Dedicated","server_os":"Linux","password":true,"vac":true,"version":"7961495","steam_id":85568392925397856,"keywords":["nocrits","nodmgspread","payload","uncletopia"],"game_id":440,"stv_port":27066,"stv_name":"Uncletopia | Warsaw | 6 | Community | STV","players":null}]}