{"status":true,"message":"","result":[{"server_id":2,"name":"Uncletopia | Chicago | 1 | All Maps","name_short":"chi-1","host":"chi-1.us.uncletopia.com","port":27015,"enabled":true,"region":"us-central","cc":"us","latitude":41.881832,"longitude":-87.62318,"reserved":0,"last_update":"0001-01-01T00:00:00Z","name_a2s":"Uncletopia | Chicago | 1 | All Maps","protocol":17,"map":"koth_lakeside_final","folder":"tf","game":"Team Fortress","app_id":440,"player_count":0,"max_players":24,"Bots":0,"server_type":"Dedicated","server_os":"Linux","password":true,"vac":true,"version":"7932396","steam_id":85568392924469984,"keywords":["cp","nocrits","nodmgspread","uncletopia"],"game_id":440,"stv_port":27016,"stv_name":"Uncletopia | Chicago | 1 | All Maps | STV","players":null},{"server_id":106,"name":"Uncletopia | Chicago | 2 | All Maps","name_short":"chi-2","host":"chi-1.us.uncletopia.com","port":27025,"enabled":true,"region":"us-central","cc":"us","latitude":41.881832,"longitude":-87.62318,"reserved":0,"last_update":"0001-01-01T00:00:00Z","name_a2s":"Uncletopia | Chicago | 2 | All Maps","protocol":17,"map":"pl_badwater","folder":"tf","game":"Team Fortress","app_id":440,"player_count":24,"max_players":24,"Bots":0,"server_type":"Dedicated","server_os":"Linux","password":true,"vac":true,"version":"7932396","steam_id":85568392924469985,"keywords":["nocrits","nodmgspread","payload","uncletopia"],"game_id":440,"stv_port":27026,"stv_name":"Uncletopia | Chicago | 2 | All Maps | STV","players":[{"user_id":217,"name":"Brown_Dream","steam_id":76561198975766145,"connected_time":374000000000,"state":"active","ping":78},{"user_id":215,"name":"DMM","steam_id":76561198065426171,"connected_time":1031000000000,"state":"active","ping":75},{"user_id":224,"name":"Sgt Spungule","steam_id":76561198061591743,"connected_time":40000000000,"state":"active","ping":68},{"user_id":219,"name":"Honolulu","steam_id":76561198106381764,"connected_time":351000000000,"state":"active","ping":53},{"user_id":177,"name":"gale","steam_id":76561198250068972,"connected_time":3371000000000,"state":"active","ping":99},{"user_id":192,"name":"Skele","steam_id":76561198154574280,"connected_time":3078000000000,"state":"active","ping":60},{"user_id":218,"name":"FrenchToastMan","steam_id":76561198275833701,"connected_time":356000000000,"state":"active","ping":82},{"user_id":222,"name":"flaccid","steam_id":76561198299241777,"connected_time":217000000000,"state":"active","ping":87},{"user_id":221,"name":"Distraction","steam_id":76561199445895882,"connected_time":336000000000,"state":"active","ping":84},{"user_id":188,"name":"pinky","steam_id":76561199109784776,"connected_time":3153000000000,"state":"active","ping":52},{"user_id":194,"name":"Copus","steam_id":76561199011708421,"connected_time":2914000000000,"state":"active","ping":74},{"user_id":212,"name":"gamerlegend47","steam_id":76561198122776598,"connected_time":1101000000000,"state":"active","ping":70},{"user_id":205,"name":"ashely miami","steam_id":76561197993236478,"connected_time":2096000000000,"state":"active","ping":86},{"user_id":216,"name":"Rornir","steam_id":76561198081829615,"connected_time":913000000000,"state":"active","ping":32},{"user_id":196,"name":"6t26j","steam_id":76561198278282836,"connected_time":2845000000000,"state":"active","ping":46},{"user_id":176,"name":"MouxeWare","steam_id":76561199339512223,"connected_time":3374000000000,"state":"active","ping":139},{"user_id":213,"name":"Moon_Worthy","steam_id":76561198106321418,"connected_time":1083000000000,"state":"active","ping":81},{"user_id":197,"name":"lazyhead","steam_id":76561198044358804,"connected_time":2758000000000,"state":"active","ping":47},{"user_id":204,"name":"asbestos","steam_id":76561198079178866,"connected_time":2100000000000,"state":"active","ping":70},{"user_id":185,"name":"ttv/lilirouxxx","steam_id":76561198000522179,"connected_time":3225000000000,"state":"active","ping":66},{"user_id":223,"name":"ray (the based god)","steam_id":76561198311984941,"connected_time":64000000000,"state":"active","ping":62},{"user_id":220,"name":"eat Pant","steam_id":76561197974965536,"connected_time":351000000000,"state":"active","ping":52},{"user_id":187,"name":"Furry on main","steam_id":76561198371577822,"connected_time":3164000000000,"state":"active","ping":70},{"user_id":189,"name":"Video Game Andy Reid","steam_id":76561198202195792,"connected_time":3122000000000,"state":"active","ping":60}]},{"server_id":402,"name":"Uncletopia | Chicago | 3 | All Maps","name_short":"chi-3","host":"chi-1.us.uncletopia.com","port":27035,"enabled":true,"region":"us-central","cc":"us","latitude":41.881832,"longitude":-87.62318,"reserved":0,"last_update":"0001-01-01T00:00:00Z","name_a2s":"Uncletopia | Chicago | 3 | All Maps","protocol":17,"map":"pl_badwater","folder":"tf","game":"Team Fortress","app_id":440,"player_count":0,"max_players":24,"Bots":0,"server_type":"Dedicated","server_os":"Linux","password":true,"vac":true,"version":"7932396","steam_id":85568392924515191,"keywords":["nocrits","nodmgspread","payload","uncletopia"],"game_id":440,"stv_port":27036,"stv_name":"Uncletopia | Chicago | 3 | All Maps | STV","players":null},{"server_id":403,"name":"Uncletopia | Chicago | 4 | All Maps","name_short":"chi-4","host":"chi-1.us.uncletopia.com","port":27045,"enabled":true,"region":"us-central","cc":"us","latitude":41.881832,"longitude":-87.62318,"reserved":0,"last_update":"0001-01-01T00:00:00Z","name_a2s":"Uncletopia | Chicago | 4 | All Maps","protocol":17,"map":"cp_process_final","folder":"tf","game":"Team Fortress","app_id":440,"player_count":0,"max_players":24,"Bots":0,"server_type":"Dedicated","server_os":"Linux","password":true,"vac":true,"version":"7932396","steam_id":85568392924515193,"keywords":["cp","nocrits","nodmgspread","uncletopia"],"game_id":440,"stv_port":27046,"stv_name":"Uncletopia | Chicago | 4 | All Maps | STV","players":null},{"server_id":36,"name":"Uncletopia | Chicago | 5 | All Maps","name_short":"chi-5","host":"chi-2.us.uncletopia.com","port":27015,"enabled":true,"region":"us-central","cc":"us","latitude":41.881832,"longitude":-87.62318,"reserved":0,"last_update":"0001-01-01T00:00:00Z","name_a2s":"Uncletopia | Chicago | 5 | All Maps","protocol":17,"map":"pl_pier","folder":"tf","game":"Team Fortress","app_id":440,"player_count":24,"max_players":24,"Bots":0,"server_type":"Dedicated","server_os":"Linux","password":true,"vac":true,"version":"7932396","steam_id":85568392924866362,"keywords":["nocrits","nodmgspread","payload","uncletopia"],"game_id":440,"stv_port":27016,"stv_name":"Uncletopia | Chicago | 5 | All Maps | STV","players":[{"user_id":258,"name":"MjrMovnTARGET","steam_id":76561199125908849,"connected_time":262000000000,"state":"active","ping":72},{"user_id":251,"name":"Milkmur","steam_id":76561198210043821,"connected_time":923000000000,"state":"active","ping":65},{"user_id":173,"name":"Cheesi","steam_id":76561199417190840,"connected_time":6701000000000,"state":"active","ping":66},{"user_id":247,"name":"bikerkid207","steam_id":76561198390782783,"connected_time":1481000000000,"state":"active","ping":68},{"user_id":233,"name":"krill issue","steam_id":76561199013461400,"connected_time":2312000000000,"state":"active","ping":75},{"user_id":239,"name":"--_Cook_--","steam_id":76561198080855748,"connected_time":1951000000000,"state":"active","ping":45},{"user_id":236,"name":"Whorse","steam_id":76561198114141445,"connected_time":2098000000000,"state":"active","ping":69},{"user_id":259,"name":"Yam Jazzy Jim","steam_id":76561198000788950,"connected_time":212000000000,"state":"active","ping":61},{"user_id":208,"name":"viego","steam_id":76561198273568117,"connected_time":3908000000000,"state":"active","ping":61},{"user_id":229,"name":"need a dispenser here","steam_id":76561198060912995,"connected_time":2787000000000,"state":"active","ping":49},{"user_id":203,"name":"daemon","steam_id":76561198001541433,"connected_time":4741000000000,"state":"active","ping":60},{"user_id":260,"name":"V!CT!M","steam_id":76561198962721502,"connected_time":205000000000,"state":"active","ping":70},{"user_id":261,"name":"Green","steam_id":76561198074907529,"connected_time":185000000000,"state":"active","ping":67},{"user_id":255,"name":"Capybara Enjoyer","steam_id":76561199147114434,"connected_time":522000000000,"state":"active","ping":114},{"user_id":254,"name":"Acro","steam_id":76561198092451804,"connected_time":630000000000,"state":"active","ping":70},{"user_id":257,"name":"JUST ONE PEPSI","steam_id":76561198084334538,"connected_time":466000000000,"state":"active","ping":66},{"user_id":245,"name":"garbo","steam_id":76561198149280150,"connected_time":1553000000000,"state":"active","ping":90},{"user_id":256,"name":"Freewave","steam_id":76561198156282541,"connected_time":513000000000,"state":"active","ping":45},{"user_id":262,"name":"nullptr","steam_id":76561198111790388,"connected_time":133000000000,"state":"active","ping":98},{"user_id":230,"name":"Villain_7","steam_id":76561198985858094,"connected_time":2734000000000,"state":"active","ping":74},{"user_id":209,"name":"RuinLucky","steam_id":76561199481172481,"connected_time":3879000000000,"state":"active","ping":88},{"user_id":192,"name":"juanjoesc","steam_id":76561198186368430,"connected_time":5724000000000,"state":"active","ping":132},{"user_id":238,"name":"LVL 4 Dispenser Gaming","steam_id":76561198044244547,"connected_time":1972000000000,"state":"active","ping":78},{"user_id":252,"name":"AVG brass beast enjoyer","steam_id":76561199228384234,"connected_time":923000000000,"state":"active","ping":68}]},{"server_id":37,"name":"Uncletopia | Chicago | 6 | All Maps","name_short":"chi-6","host":"chi-2.us.uncletopia.com","port":27025,"enabled":true,"region":"us-central","cc":"us","latitude":41.881832,"longitude":-87.62318,"reserved":0,"last_update":"0001-01-01T00:00:00Z","name_a2s":"Uncletopia | Chicago | 6 | All Maps","protocol":17,"map":"koth_viaduct","folder":"tf","game":"Team Fortress","app_id":440,"player_count":0,"max_players":24,"Bots":0,"server_type":"Dedicated","server_os":"Linux","password":true,"vac":true,"version":"7932396","steam_id":85568392924866363,"keywords":["cp","nocrits","nodmgspread","uncletopia"],"game_id":440,"stv_port":27026,"stv_name":"Uncletopia | Chicago | 6 | All Maps | STV","players":null},{"server_id":38,"name":"Uncletopia | Chicago | 7 | Stopwatch Beta","name_short":"chi-7","host":"chi-2.us.uncletopia.com","port":27035,"enabled":true,"region":"us-central","cc":"us","latitude":41.881832,"longitude":-87.62318,"reserved":0,"last_update":"0001-01-01T00:00:00Z","name_a2s":"Uncletopia | Chicago | 7 | Stopwatch Beta","protocol":17,"map":"pl_borneo","folder":"tf","game":"Team Fortress","app_id":440,"player_count":0,"max_players":24,"Bots":0,"server_type":"Dedicated","server_os":"Linux","password":true,"vac":true,"version":"7932396","steam_id":85568392924866364,"keywords":["nocrits","nodmgspread","payload","uncletopia"],"game_id":440,"stv_port":27036,"stv_name":"Uncletopia | Chicago | 7 | Stopwatch Beta | STV","players":null},{"server_id":39,"name":"Uncletopia | Chicago | 8 | Community","name_short":"chi-8","host":"chi-2.us.uncletopia.com","port":27045,"enabled":true,"region":"us-central","cc":"us","latitude":41.881832,"longitude":-87.62318,"reserved":0,"last_update":"0001-01-01T00:00:00Z","name_a2s":"Uncletopia | Chicago | 8 | Community","protocol":17,"map":"koth_viaduct","folder":"tf","game":"Team Fortress","app_id":440,"player_count":0,"max_players":24,"Bots":0,"server_type":"Dedicated","server_os":"Linux","password":true,"vac":true,"version":"7932396","steam_id":85568392924866365,"keywords":["cp","nocrits","nodmgspread","uncletopia"],"game_id":440,"stv_port":27046,"stv_name":"Uncletopia | Chicago | 8 | Community | STV","players":null},{"server_id":8,"name":"Uncletopia | Dallas | 1 | All Maps","name_short":"dal-1","host":"dal-1.us.uncletopia.com","port":27015,"enabled":true,"region":"us-central","cc":"us","latitude":32.779167,"longitude":-96.80889,"reserved":0,"last_update":"0001-01-01T00:00:00Z","name_a2s":"Uncletopia | Dallas | 1 | All Maps","protocol":17,"map":"pl_badwater","folder":"tf","game":"Team Fortress","app_id":440,"player_count":24,"max_players":24,"Bots":0,"server_type":"Dedicated","server_os":"Linux","password":true,"vac":true,"version":"7932396","steam_id":85568392924469986,"keywords":["nocrits","nodmgspread","payload","uncletopia"],"game_id":440,"stv_port":27016,"stv_name":"Uncletopia | Dallas | 1 | All Maps | STV","players":[{"user_id":79,"name":"g6 brainrot","steam_id":76561199488121742,"connected_time":13000000000,"state":"spawning","ping":487},{"user_id":5,"name":"Mal","steam_id":76561198066074151,"connected_time":5036000000000,"state":"active","ping":80},{"user_id":59,"name":"FI LO","steam_id":76561198976530881,"connected_time":1184000000000,"state":"active","ping":60},{"user_id":56,"name":"tasty","steam_id":76561198083839061,"connected_time":1400000000000,"state":"active","ping":76},{"user_id":69,"name":"ZeFizzyPop™","steam_id":76561198258104981,"connected_time":383000000000,"state":"active","ping":87},{"user_id":60,"name":"Crispy","steam_id":76561198037481161,"connected_time":1172000000000,"state":"active","ping":62},{"user_id":77,"name":"beats","steam_id":76561199245717718,"connected_time":178000000000,"state":"active","ping":67},{"user_id":47,"name":"Engideer","steam_id":76561198145733164,"connected_time":2529000000000,"state":"active","ping":45},{"user_id":58,"name":"The Mothafuckin Man","steam_id":76561199127423378,"connected_time":1238000000000,"state":"active","ping":87},{"user_id":78,"name":"Shadoe","steam_id":76561198218577281,"connected_time":42000000000,"state":"active","ping":76},{"user_id":52,"name":"d0nut","steam_id":76561198072646165,"connected_time":1829000000000,"state":"active","ping":80},{"user_id":22,"name":"Prof. Eggnog","steam_id":76561198193389166,"connected_time":3476000000000,"state":"active","ping":100},{"user_id":57,"name":"popfulmail","steam_id":76561198865971290,"connected_time":1393000000000,"state":"active","ping":89},{"user_id":27,"name":"endo","steam_id":76561197995204381,"connected_time":3207000000000,"state":"active","ping":76},{"user_id":48,"name":"little buddy","steam_id":76561198066619792,"connected_time":2523000000000,"state":"active","ping":77},{"user_id":67,"name":"TTV/ChadMorningWood","steam_id":76561198139832291,"connected_time":723000000000,"state":"active","ping":65},{"user_id":61,"name":"Glaceon","steam_id":76561198177715869,"connected_time":1031000000000,"state":"active","ping":59},{"user_id":30,"name":"whats an egg","steam_id":76561198991039398,"connected_time":3127000000000,"state":"active","ping":79},{"user_id":64,"name":"EmptyB33R","steam_id":76561198993166528,"connected_time":1003000000000,"state":"active","ping":136},{"user_id":76,"name":"Null | Crack Clan","steam_id":76561198895762836,"connected_time":197000000000,"state":"active","ping":78},{"user_id":71,"name":"Waffle Wannabe","steam_id":76561198064510650,"connected_time":316000000000,"state":"active","ping":78},{"user_id":68,"name":"Dreyfus the protogen :3","steam_id":76561198243365378,"connected_time":675000000000,"state":"active","ping":71},{"user_id":72,"name":"Banned Worthless Specimen","steam_id":76561198117206414,"connected_time":315000000000,"state":"active","ping":87},{"user_id":46,"name":"SadVeggie","steam_id":76561198163430099,"connected_time":2630000000000,"state":"active","ping":104}]},{"server_id":108,"name":"Uncletopia | Dallas | 2 | All Maps","name_short":"dal-2","host":"dal-1.us.uncletopia.com","port":27025,"enabled":true,"region":"us-central","cc":"us","latitude":32.779167,"longitude":-96.80889,"reserved":0,"last_update":"0001-01-01T00:00:00Z","name_a2s":"Uncletopia | Dallas | 2 | All Maps","protocol":17,"map":"koth_highpass","folder":"tf","game":"Team Fortress","app_id":440,"player_count":0,"max_players":24,"Bots":0,"server_type":"Dedicated","server_os":"Linux","password":true,"vac":true,"version":"7932396","steam_id":85568392924469988,"keywords":["cp","nocrits","nodmgspread","uncletopia"],"game_id":440,"stv_port":27026,"stv_name":"Uncletopia | Dallas | 2 | All Maps | STV","players":null},{"server_id":5,"name":"Uncletopia | Frankfurt | 1 | All Maps","name_short":"frk-1","host":"frk-1.de.uncletopia.com","port":27015,"enabled":true,"region":"eu","cc":"de","latitude":50.110924,"longitude":8.682127,"reserved":0,"last_update":"0001-01-01T00:00:00Z","name_a2s":"Uncletopia | Frankfurt | 1 | All Maps","protocol":17,"map":"koth_king","folder":"tf","game":"Team Fortress","app_id":440,"player_count":23,"max_players":24,"Bots":0,"server_type":"Dedicated","server_os":"Linux","password":true,"vac":true,"version":"7932396","steam_id":85568392924469989,"keywords":["cp","nocrits","nodmgspread","uncletopia"],"game_id":440,"stv_port":27016,"stv_name":"Uncletopia | Frankfurt | 1 | All Maps | STV","players":[{"user_id":117,"name":"Risinger","steam_id":76561198079789688,"connected_time":4756000000000,"state":"active","ping":65},{"user_id":98,"name":"Lartsa","steam_id":76561198275690230,"connected_time":5933000000000,"state":"active","ping":93},{"user_id":154,"name":"Cosmetic brain","steam_id":76561198055936410,"connected_time":3293000000000,"state":"active","ping":89},{"user_id":189,"name":"P3rsErkki","steam_id":76561198063093495,"connected_time":523000000000,"state":"active","ping":60},{"user_id":176,"name":"sbaitso","steam_id":76561198072153288,"connected_time":1234000000000,"state":"active","ping":62},{"user_id":100,"name":"Sensei","steam_id":76561198383582429,"connected_time":5845000000000,"state":"active","ping":90},{"user_id":196,"name":"Domink Gaming","steam_id":76561199169905108,"connected_time":56000000000,"state":"active","ping":79},{"user_id":188,"name":"john fortress","steam_id":76561198013237629,"connected_time":777000000000,"state":"active","ping":106},{"user_id":171,"name":"SoupER","steam_id":76561198063056668,"connected_time":1837000000000,"state":"active","ping":63},{"user_id":177,"name":"Remembrance","steam_id":76561199229247163,"connected_time":1220000000000,"state":"active","ping":52},{"user_id":191,"name":"kasia.1988","steam_id":76561199249564747,"connected_time":433000000000,"state":"active","ping":92},{"user_id":156,"name":"zinzyk","steam_id":76561198128011822,"connected_time":2898000000000,"state":"active","ping":57},{"user_id":192,"name":"2D","steam_id":76561199113659141,"connected_time":392000000000,"state":"active","ping":126},{"user_id":161,"name":"FUKAYU","steam_id":76561198380484033,"connected_time":2771000000000,"state":"active","ping":53},{"user_id":181,"name":"Star in a pond","steam_id":76561198205501279,"connected_time":1178000000000,"state":"active","ping":85},{"user_id":174,"name":"Nyhde","steam_id":76561198012771416,"connected_time":1421000000000,"state":"active","ping":87},{"user_id":149,"name":"☭TheDevilsEye☭","steam_id":76561198017379398,"connected_time":3516000000000,"state":"active","ping":72},{"user_id":133,"name":"Der Herr Doktor","steam_id":76561198119476089,"connected_time":4312000000000,"state":"active","ping":58},{"user_id":170,"name":"Chopperson_","steam_id":76561198873728497,"connected_time":1892000000000,"state":"active","ping":105},{"user_id":175,"name":"Harley-Davidson","steam_id":76561198013789719,"connected_time":1253000000000,"state":"active","ping":114},{"user_id":193,"name":"smalldolmar","steam_id":76561198028041542,"connected_time":302000000000,"state":"active","ping":68},{"user_id":182,"name":"shadowarrior","steam_id":76561198231304076,"connected_time":1165000000000,"state":"active","ping":172},{"user_id":195,"name":"dominikcz.zero","steam_id":76561198423489957,"connected_time":137000000000,"state":"active","ping":52}]},{"server_id":110,"name":"Uncletopia | Frankfurt | 2 | All Maps","name_short":"frk-2","host":"frk-1.de.uncletopia.com","port":27025,"enabled":true,"region":"eu","cc":"de","latitude":50.110924,"longitude":8.682127,"reserved":0,"last_update":"0001-01-01T00:00:00Z","name_a2s":"Uncletopia | Frankfurt | 2 | All Maps","protocol":17,"map":"pl_thundermountain","folder":"tf","game":"Team Fortress","app_id":440,"player_count":23,"max_players":24,"Bots":0,"server_type":"Dedicated","server_os":"Linux","password":true,"vac":true,"version":"7932396","steam_id":85568392924469990,"keywords":["nocrits","nodmgspread","payload","uncletopia"],"game_id":440,"stv_port":27026,"stv_name":"Uncletopia | Frankfurt | 2 | All Maps | STV","players":[{"user_id":100,"name":"♥ Your Medic Boyfriend ♥","steam_id":76561199202438796,"connected_time":691000000000,"state":"active","ping":43},{"user_id":108,"name":"Nag","steam_id":76561197970488206,"connected_time":191000000000,"state":"active","ping":86},{"user_id":110,"name":"Aeglos","steam_id":76561198248698294,"connected_time":30000000000,"state":"active","ping":77},{"user_id":27,"name":"Bayoyo","steam_id":76561199069591774,"connected_time":4840000000000,"state":"active","ping":73},{"user_id":98,"name":"Leibeigener","steam_id":76561199275478305,"connected_time":981000000000,"state":"active","ping":43},{"user_id":93,"name":"Toasty5050","steam_id":76561198073540881,"connected_time":1336000000000,"state":"active","ping":44},{"user_id":87,"name":"Daan77","steam_id":76561198129940468,"connected_time":1624000000000,"state":"active","ping":77},{"user_id":88,"name":"AdrianMc","steam_id":76561198271830248,"connected_time":1620000000000,"state":"active","ping":72},{"user_id":90,"name":"stoneflower","steam_id":76561198046250873,"connected_time":1463000000000,"state":"active","ping":76},{"user_id":77,"name":"dmEngineer_tf2 #SaveTF2","steam_id":76561199388956338,"connected_time":2866000000000,"state":"active","ping":77},{"user_id":94,"name":"Rimx","steam_id":76561198053034840,"connected_time":1209000000000,"state":"active","ping":89},{"user_id":107,"name":"Koss","steam_id":76561198033316239,"connected_time":272000000000,"state":"active","ping":92},{"user_id":103,"name":"ThugShaker2024","steam_id":76561199000645463,"connected_time":645000000000,"state":"active","ping":55},{"user_id":105,"name":"halow","steam_id":76561198061505163,"connected_time":606000000000,"state":"active","ping":106},{"user_id":111,"name":"Pugzilla","steam_id":76561198108088960,"connected_time":1000000000,"state":"spawning","ping":94},{"user_id":89,"name":"strigoi2","steam_id":76561198351880994,"connected_time":1591000000000,"state":"active","ping":94},{"user_id":48,"name":"gneeda","steam_id":76561198147249160,"connected_time":4300000000000,"state":"active","ping":95},{"user_id":99,"name":"suhi pajek","steam_id":76561198166113202,"connected_time":791000000000,"state":"active","ping":61},{"user_id":106,"name":"Ruth(-less bitch)","steam_id":76561198150006573,"connected_time":597000000000,"state":"active","ping":72},{"user_id":75,"name":"Jefe de Los Mariachis","steam_id":76561198047304470,"connected_time":3203000000000,"state":"active","ping":55},{"user_id":83,"name":"Pumpkin Pie","steam_id":76561198115230959,"connected_time":2086000000000,"state":"active","ping":87},{"user_id":41,"name":"soda","steam_id":76561198202990635,"connected_time":4568000000000,"state":"active","ping":61},{"user_id":95,"name":"HADID_sex_god","steam_id":76561198302623594,"connected_time":1124000000000,"state":"active","ping":91}]},{"server_id":308,"name":"Uncletopia | Frankfurt | 3 | All Maps","name_short":"frk-3","host":"frk-1.de.uncletopia.com","port":27035,"enabled":true,"region":"eu","cc":"de","latitude":50.110924,"longitude":8.682127,"reserved":0,"last_update":"0001-01-01T00:00:00Z","name_a2s":"Uncletopia | Frankfurt | 3 | All Maps","protocol":17,"map":"pl_badwater","folder":"tf","game":"Team Fortress","app_id":440,"player_count":24,"max_players":24,"Bots":0,"server_type":"Dedicated","server_os":"Linux","password":true,"vac":true,"version":"7932396","steam_id":85568392924504274,"keywords":["nocrits","nodmgspread","payload","uncletopia"],"game_id":440,"stv_port":27036,"stv_name":"Uncletopia | Frankfurt | 3 | All Maps | STV","players":[{"user_id":229,"name":"mohamadparadox","steam_id":76561198346156085,"connected_time":694000000000,"state":"active","ping":165},{"user_id":213,"name":"engineer drip","steam_id":76561198991032570,"connected_time":1738000000000,"state":"active","ping":94},{"user_id":202,"name":"Femboy Gaming","steam_id":76561198174108515,"connected_time":2547000000000,"state":"active","ping":45},{"user_id":232,"name":"кекс","steam_id":76561199203525443,"connected_time":639000000000,"state":"active","ping":81},{"user_id":212,"name":"Chivler","steam_id":76561198097655395,"connected_time":1811000000000,"state":"active","ping":45},{"user_id":239,"name":"sock","steam_id":76561198211198731,"connected_time":124000000000,"state":"active","ping":48},{"user_id":230,"name":"WHISKY","steam_id":76561198079167358,"connected_time":691000000000,"state":"active","ping":53},{"user_id":204,"name":"A place beyond belief","steam_id":76561198069098478,"connected_time":2247000000000,"state":"active","ping":80},{"user_id":228,"name":":)","steam_id":76561198039964082,"connected_time":730000000000,"state":"active","ping":61},{"user_id":205,"name":"cat","steam_id":76561198832231975,"connected_time":2211000000000,"state":"active","ping":85},{"user_id":224,"name":"Боевой комар","steam_id":76561198796564094,"connected_time":991000000000,"state":"active","ping":81},{"user_id":179,"name":"the village idiot","steam_id":76561199060384919,"connected_time":3715000000000,"state":"active","ping":46},{"user_id":231,"name":"Beetle God","steam_id":76561198119353053,"connected_time":665000000000,"state":"active","ping":70},{"user_id":186,"name":"7-Zip","steam_id":76561198099726966,"connected_time":3636000000000,"state":"active","ping":99},{"user_id":233,"name":"pijacka","steam_id":76561198103899658,"connected_time":622000000000,"state":"active","ping":60},{"user_id":226,"name":"Astyloblatta","steam_id":76561199222909666,"connected_time":985000000000,"state":"active","ping":58},{"user_id":182,"name":"MisterLegitimate","steam_id":76561199198559715,"connected_time":3695000000000,"state":"active","ping":73},{"user_id":237,"name":"griba64","steam_id":76561198008120424,"connected_time":216000000000,"state":"active","ping":90},{"user_id":215,"name":"Peskyplumber64","steam_id":76561198044458330,"connected_time":1603000000000,"state":"active","ping":68},{"user_id":234,"name":"Arkku","steam_id":76561198255441801,"connected_time":621000000000,"state":"active","ping":103},{"user_id":217,"name":"philipibba1","steam_id":76561199470534991,"connected_time":1551000000000,"state":"active","ping":86},{"user_id":235,"name":"Torben","steam_id":76561198377574408,"connected_time":618000000000,"state":"active","ping":57},{"user_id":227,"name":"Ziemniaczki z koperkiem","steam_id":76561198829123464,"connected_time":908000000000,"state":"active","ping":70},{"user_id":236,"name":"bruh_bruh","steam_id":76561199271656560,"connected_time":603000000000,"state":"active","ping":363}]},{"server_id":309,"name":"Uncletopia | Frankfurt | 4 | All Maps","name_short":"frk-4","host":"frk-1.de.uncletopia.com","port":27045,"enabled":true,"region":"eu","cc":"de","latitude":50.110924,"longitude":8.682127,"reserved":0,"last_update":"0001-01-01T00:00:00Z","name_a2s":"Uncletopia | Frankfurt | 4 | All Maps","protocol":17,"map":"pl_upward","folder":"tf","game":"Team Fortress","app_id":440,"player_count":24,"max_players":24,"Bots":0,"server_type":"Dedicated","server_os":"Linux","password":true,"vac":true,"version":"7932396","steam_id":85568392924504275,"keywords":["nocrits","nodmgspread","payload","uncletopia"],"game_id":440,"stv_port":27046,"stv_name":"Uncletopia | Frankfurt | 4 | All Maps | STV","players":[{"user_id":427,"name":"Miloleopard","steam_id":76561199196616680,"connected_time":63000000000,"state":"active","ping":68},{"user_id":377,"name":"papaja","steam_id":76561199216208960,"connected_time":4349000000000,"state":"active","ping":83},{"user_id":399,"name":"Plastic","steam_id":76561198026307715,"connected_time":2524000000000,"state":"active","ping":63},{"user_id":417,"name":"darkwater","steam_id":76561197986978738,"connected_time":799000000000,"state":"active","ping":57},{"user_id":408,"name":"Niko","steam_id":76561199006295285,"connected_time":2240000000000,"state":"active","ping":123},{"user_id":388,"name":"Yachooo","steam_id":76561198085972300,"connected_time":3938000000000,"state":"active","ping":47},{"user_id":418,"name":"del2o","steam_id":76561199072601822,"connected_time":592000000000,"state":"active","ping":125},{"user_id":394,"name":"Kekster","steam_id":76561198302448192,"connected_time":2928000000000,"state":"active","ping":43},{"user_id":410,"name":"drearyplane8","steam_id":76561198216074509,"connected_time":2164000000000,"state":"active","ping":65},{"user_id":424,"name":"ALARM","steam_id":76561198120686521,"connected_time":339000000000,"state":"active","ping":59},{"user_id":425,"name":"Pyrolander","steam_id":76561198050785450,"connected_time":327000000000,"state":"active","ping":58},{"user_id":426,"name":"marvs","steam_id":76561198851777617,"connected_time":228000000000,"state":"active","ping":64},{"user_id":419,"name":"Ehrmantraut","steam_id":76561199042470246,"connected_time":582000000000,"state":"active","ping":53},{"user_id":428,"name":"New_SteFano_","steam_id":76561198448642353,"connected_time":5000000000,"state":"spawning","ping":72},{"user_id":415,"name":"not so fish scout","steam_id":76561199274025847,"connected_time":1471000000000,"state":"active","ping":93},{"user_id":423,"name":"Marky","steam_id":76561199474556920,"connected_time":500000000000,"state":"active","ping":120},{"user_id":416,"name":"Random Weeb [YUE]","steam_id":76561198839212897,"connected_time":1468000000000,"state":"active","ping":112},{"user_id":407,"name":"ducks","steam_id":76561198166148685,"connected_time":2261000000000,"state":"active","ping":45},{"user_id":409,"name":"Mr. Sandman","steam_id":76561198281209867,"connected_time":2234000000000,"state":"active","ping":58},{"user_id":361,"name":"AnanasGerste","steam_id":76561198133825211,"connected_time":5195000000000,"state":"active","ping":47},{"user_id":383,"name":"Nornia","steam_id":76561198040509712,"connected_time":4190000000000,"state":"active","ping":60},{"user_id":397,"name":"Hexagon","steam_id":76561198151205758,"connected_time":2877000000000,"state":"active","ping":68},{"user_id":391,"name":"Linoleum","steam_id":76561198531978435,"connected_time":3885000000000,"state":"active","ping":77},{"user_id":393,"name":"Zerfesh","steam_id":76561198117534358,"connected_time":3477000000000,"state":"active","ping":91}]},{"server_id":310,"name":"Uncletopia | Frankfurt | 5 | All Maps","name_short":"frk-5","host":"frk-1.de.uncletopia.com","port":27055,"enabled":true,"region":"eu","cc":"de","latitude":50.110924,"longitude":8.682127,"reserved":0,"last_update":"0001-01-01T00:00:00Z","name_a2s":"Uncletopia | Frankfurt | 5 | All Maps","protocol":17,"map":"pl_badwater","folder":"tf","game":"Team Fortress","app_id":440,"player_count":24,"max_players":24,"Bots":0,"server_type":"Dedicated","server_os":"Linux","password":true,"vac":true,"version":"7932396","steam_id":85568392924504277,"keywords":["nocrits","nodmgspread","payload","uncletopia"],"game_id":440,"stv_port":27056,"stv_name":"Uncletopia | Frankfurt | 5 | All Maps | STV","players":[{"user_id":168,"name":"YOU ARE SHITTING YOUR SELF","steam_id":76561198371719058,"connected_time":1282000000000,"state":"active","ping":63},{"user_id":167,"name":"WHUSSKEY","steam_id":76561198137827441,"connected_time":1344000000000,"state":"active","ping":64},{"user_id":187,"name":"ムGeRmAn |×UA×ム","steam_id":76561199044754898,"connected_time":40000000000,"state":"active","ping":60},{"user_id":175,"name":"Princess Fuzz","steam_id":76561198025783000,"connected_time":379000000000,"state":"active","ping":51},{"user_id":162,"name":"Gorzel","steam_id":76561198828273330,"connected_time":2264000000000,"state":"active","ping":70},{"user_id":160,"name":"Anime coomer","steam_id":76561197993362052,"connected_time":2298000000000,"state":"active","ping":71},{"user_id":164,"name":"Erik","steam_id":76561198089991130,"connected_time":1448000000000,"state":"active","ping":59},{"user_id":157,"name":"mixxxa_french","steam_id":76561198085098243,"connected_time":2522000000000,"state":"active","ping":106},{"user_id":152,"name":"night.s","steam_id":76561198326287823,"connected_time":2896000000000,"state":"active","ping":74},{"user_id":176,"name":"Half Dane","steam_id":76561198170255465,"connected_time":292000000000,"state":"active","ping":60},{"user_id":132,"name":"yush","steam_id":76561198121688934,"connected_time":3944000000000,"state":"active","ping":74},{"user_id":177,"name":"Spijonas","steam_id":76561198041950547,"connected_time":282000000000,"state":"active","ping":78},{"user_id":178,"name":"sAmasam","steam_id":76561198114953928,"connected_time":282000000000,"state":"active","ping":60},{"user_id":172,"name":"TheEventGuy","steam_id":76561197972797744,"connected_time":669000000000,"state":"active","ping":69},{"user_id":113,"name":"ness player","steam_id":76561198088624259,"connected_time":5686000000000,"state":"active","ping":60},{"user_id":63,"name":"q`","steam_id":76561197985597838,"connected_time":8466000000000,"state":"active","ping":66},{"user_id":179,"name":"Dr.Sees [F2P]","steam_id":76561199219233587,"connected_time":260000000000,"state":"active","ping":86},{"user_id":180,"name":"0","steam_id":76561199084809092,"connected_time":260000000000,"state":"active","ping":95},{"user_id":181,"name":"RiX","steam_id":76561197969053733,"connected_time":257000000000,"state":"active","ping":69},{"user_id":182,"name":"nivlemo :)","steam_id":76561198963784884,"connected_time":243000000000,"state":"active","ping":73},{"user_id":183,"name":"Egtu","steam_id":76561198013757235,"connected_time":222000000000,"state":"active","ping":69},{"user_id":184,"name":"Ardbeg","steam_id":76561197973483985,"connected_time":216000000000,"state":"active","ping":63},{"user_id":185,"name":"ScaryTree","steam_id":76561199384362833,"connected_time":170000000000,"state":"active","ping":66},{"user_id":186,"name":"nitroglycerin","steam_id":76561199158447878,"connected_time":166000000000,"state":"active","ping":68}]},{"server_id":311,"name":"Uncletopia | Frankfurt | 6 | All Maps","name_short":"frk-6","host":"frk-1.de.uncletopia.com","port":27065,"enabled":true,"region":"eu","cc":"de","latitude":50.110924,"longitude":8.682127,"reserved":0,"last_update":"0001-01-01T00:00:00Z","name_a2s":"Uncletopia | Frankfurt | 6 | All Maps","protocol":17,"map":"koth_viaduct","folder":"tf","game":"Team Fortress","app_id":440,"player_count":0,"max_players":24,"Bots":0,"server_type":"Dedicated","server_os":"Linux","password":true,"vac":true,"version":"7932396","steam_id":85568392924504278,"keywords":["cp","nocrits","nodmgspread","uncletopia"],"game_id":440,"stv_port":27066,"stv_name":"Uncletopia | Frankfurt | 6 | All Maps | STV","players":null},{"server_id":23,"name":"Uncletopia | Frankfurt | 7 | Stopwatch Beta","name_short":"frk-7","host":"frk-1.de.uncletopia.com","port":27075,"enabled":true,"region":"eu","cc":"de","latitude":50.110924,"longitude":8.682127,"reserved":0,"last_update":"0001-01-01T00:00:00Z","name_a2s":"Uncletopia | Frankfurt | 7 | Stopwatch Beta","protocol":17,"map":"pl_snowycoast","folder":"tf","game":"Team Fortress","app_id":440,"player_count":0,"max_players":24,"Bots":0,"server_type":"Dedicated","server_os":"Linux","password":true,"vac":true,"version":"7932396","steam_id":85568392924742827,"keywords":["nocrits","nodmgspread","payload","uncletopia"],"game_id":440,"stv_port":27076,"stv_name":"Uncletopia | Frankfurt | 7 | Stopwatch Beta | STV","players":null},{"server_id":24,"name":"Uncletopia | Frankfurt | 8 | Community","name_short":"frk-8","host":"frk-1.de.uncletopia.com","port":27085,"enabled":true,"region":"eu","cc":"de","latitude":50.110924,"longitude":8.682127,"reserved":0,"last_update":"0001-01-01T00:00:00Z","name_a2s":"Uncletopia | Frankfurt | 8 | Community","protocol":17,"map":"pl_barnblitz","folder":"tf","game":"Team Fortress","app_id":440,"player_count":0,"max_players":24,"Bots":0,"server_type":"Dedicated","server_os":"Linux","password":true,"vac":true,"version":"7932396","steam_id":85568392924742828,"keywords":["nocrits","nodmgspread","payload","uncletopia"],"game_id":440,"stv_port":27086,"stv_name":"Uncletopia | Frankfurt | 8 | Community | STV","players":null},{"server_id":202,"name":"Uncletopia | Hong Kong | 1 | All Maps","name_short":"hgk-1","host":"hgk-1.hk.uncletopia.com","port":27015,"enabled":true,"region":"asia","cc":"hk","latitude":22.302711,"longitude":114.177216,"reserved":0,"last_update":"0001-01-01T00:00:00Z","name_a2s":"Uncletopia | Hong Kong | 1 | All Maps","protocol":17,"map":"cp_mountainlab","folder":"tf","game":"Team Fortress","app_id":440,"player_count":0,"max_players":24,"Bots":0,"server_type":"Dedicated","server_os":"Linux","password":true,"vac":true,"version":"7932396","steam_id":85568392924494504,"keywords":["cp","nocrits","nodmgspread","uncletopia"],"game_id":440,"stv_port":27016,"stv_name":"Uncletopia | Hong Kong | 1 | All Maps | STV","players":null},{"server_id":1,"name":"Uncletopia | Los Angeles | 1 | All Maps","name_short":"lax-1","host":"lax-1.us.uncletopia.com","port":27015,"enabled":true,"region":"us-west","cc":"us","latitude":33.94279,"longitude":-118.41004,"reserved":0,"last_update":"0001-01-01T00:00:00Z","name_a2s":"Uncletopia | Los Angeles | 1 | All Maps","protocol":17,"map":"pl_barnblitz","folder":"tf","game":"Team Fortress","app_id":440,"player_count":0,"max_players":24,"Bots":0,"server_type":"Dedicated","server_os":"Linux","password":true,"vac":true,"version":"7932396","steam_id":85568392924469991,"keywords":["nocrits","nodmgspread","payload","uncletopia"],"game_id":440,"stv_port":27016,"stv_name":"Uncletopia | Los Angeles | 1 | All Maps | STV","players":null},{"server_id":112,"name":"Uncletopia | Los Angeles | 2 | All Maps","name_short":"lax-2","host":"lax-1.us.uncletopia.com","port":27025,"enabled":true,"region":"us-west","cc":"us","latitude":33.94279,"longitude":-118.41004,"reserved":0,"last_update":"0001-01-01T00:00:00Z","name_a2s":"Uncletopia | Los Angeles | 2 | All Maps","protocol":17,"map":"pl_borneo","folder":"tf","game":"Team Fortress","app_id":440,"player_count":0,"max_players":24,"Bots":0,"server_type":"Dedicated","server_os":"Linux","password":true,"vac":true,"version":"7932396","steam_id":85568392924469992,"keywords":["nocrits","nodmgspread","payload","uncletopia"],"game_id":440,"stv_port":27026,"stv_name":"Uncletopia | Los Angeles | 2 | All Maps | STV","players":null},{"server_id":324,"name":"Uncletopia | Los Angeles | 3 | All Maps","name_short":"lax-3","host":"lax-1.us.uncletopia.com","port":27035,"enabled":true,"region":"us-west","cc":"us","latitude":33.94279,"longitude":-118.41004,"reserved":0,"last_update":"0001-01-01T00:00:00Z","name_a2s":"Uncletopia | Los Angeles | 3 | All Maps","protocol":17,"map":"pl_borneo","folder":"tf","game":"Team Fortress","app_id":440,"player_count":0,"max_players":24,"Bots":0,"server_type":"Dedicated","server_os":"Linux","password":true,"vac":true,"version":"7932396","steam_id":85568392924510198,"keywords":["nocrits","nodmgspread","payload","uncletopia"],"game_id":440,"stv_port":27036,"stv_name":"Uncletopia | Los Angeles | 3 | All Maps | STV","players":null},{"server_id":25,"name":"Uncletopia | Los Angeles | 4 | Stopwatch Beta","name_short":"lax-4","host":"lax-1.us.uncletopia.com","port":27045,"enabled":true,"region":"us-west","cc":"us","latitude":33.94279,"longitude":-118.41004,"reserved":0,"last_update":"0001-01-01T00:00:00Z","name_a2s":"Uncletopia | Los Angeles | 4 | Stopwatch Beta","protocol":17,"map":"workshop/koth_clearcut_b15.ugc2107050255","folder":"tf","game":"Team Fortress","app_id":440,"player_count":0,"max_players":24,"Bots":0,"server_type":"Dedicated","server_os":"Linux","password":true,"vac":true,"version":"7932396","steam_id":85568392924510199,"keywords":["cp","nocrits","nodmgspread","uncletopia"],"game_id":440,"stv_port":27046,"stv_name":"Uncletopia | Los Angeles | 4 | Stopwatch Beta | STV","players":null},{"server_id":11,"name":"Uncletopia | London | 1 | All Maps","name_short":"lon-1","host":"lon-1.uk.uncletopia.com","port":27015,"enabled":true,"region":"eu","cc":"gb","latitude":51.509865,"longitude":-0.118092,"reserved":0,"last_update":"0001-01-01T00:00:00Z","name_a2s":"Uncletopia | London | 1 | All Maps","protocol":17,"map":"pl_badwater","folder":"tf","game":"Team Fortress","app_id":440,"player_count":24,"max_players":24,"Bots":0,"server_type":"Dedicated","server_os":"Linux","password":true,"vac":true,"version":"7932396","steam_id":85568392924367362,"keywords":["nocrits","nodmgspread","payload","uncletopia"],"game_id":440,"stv_port":27016,"stv_name":"Uncletopia | London | 1 | All Maps | STV","players":[{"user_id":441,"name":"gingus bobing IV","steam_id":76561198197851753,"connected_time":162000000000,"state":"active","ping":76},{"user_id":432,"name":"Lorenzo Lovers","steam_id":76561198073973581,"connected_time":468000000000,"state":"active","ping":82},{"user_id":421,"name":"peruna","steam_id":76561198000721196,"connected_time":1762000000000,"state":"active","ping":76},{"user_id":424,"name":"madijo","steam_id":76561198012617400,"connected_time":1372000000000,"state":"active","ping":67},{"user_id":405,"name":"a hedgehog or something","steam_id":76561198063093802,"connected_time":3939000000000,"state":"active","ping":40},{"user_id":427,"name":"cazador","steam_id":76561198123096922,"connected_time":517000000000,"state":"active","ping":104},{"user_id":422,"name":"MargoulGetron","steam_id":76561198020551698,"connected_time":1673000000000,"state":"active","ping":53},{"user_id":435,"name":"dogs_drink_water","steam_id":76561198296630670,"connected_time":414000000000,"state":"active","ping":69},{"user_id":383,"name":"pandillero gato","steam_id":76561198314381191,"connected_time":5357000000000,"state":"active","ping":100},{"user_id":445,"name":"Mr.killer","steam_id":76561198290584189,"connected_time":36000000000,"state":"active","ping":96},{"user_id":415,"name":"Dog ?","steam_id":76561198347020945,"connected_time":2362000000000,"state":"active","ping":91},{"user_id":433,"name":"yeldad","steam_id":76561198447264153,"connected_time":444000000000,"state":"active","ping":118},{"user_id":442,"name":"Caerot","steam_id":76561198839000676,"connected_time":129000000000,"state":"active","ping":70},{"user_id":357,"name":"bartwk","steam_id":76561198452299840,"connected_time":6703000000000,"state":"active","ping":71},{"user_id":412,"name":"Lubrsi","steam_id":76561198040208195,"connected_time":2773000000000,"state":"active","ping":52},{"user_id":428,"name":"wal","steam_id":76561198066043883,"connected_time":514000000000,"state":"active","ping":49},{"user_id":434,"name":"Chen","steam_id":76561198440363619,"connected_time":443000000000,"state":"active","ping":52},{"user_id":437,"name":"Qdarks","steam_id":76561198013391340,"connected_time":378000000000,"state":"active","ping":142},{"user_id":436,"name":"Squeek","steam_id":76561198037498898,"connected_time":410000000000,"state":"active","ping":56},{"user_id":443,"name":"VampiuS","steam_id":76561197998827007,"connected_time":103000000000,"state":"active","ping":69},{"user_id":439,"name":"KiT","steam_id":76561198043770371,"connected_time":364000000000,"state":"active","ping":83},{"user_id":444,"name":"Kiha","steam_id":76561198031408608,"connected_time":78000000000,"state":"active","ping":72},{"user_id":382,"name":"After8","steam_id":76561198090750865,"connected_time":5401000000000,"state":"active","ping":75},{"user_id":440,"name":"margaret thatcher's girl power","steam_id":76561199401283123,"connected_time":342000000000,"state":"active","ping":50}]},{"server_id":114,"name":"Uncletopia | London | 2 | All Maps","name_short":"lon-2","host":"lon-1.uk.uncletopia.com","port":27025,"enabled":true,"region":"eu","cc":"gb","latitude":51.509865,"longitude":-0.118092,"reserved":0,"last_update":"0001-01-01T00:00:00Z","name_a2s":"Uncletopia | London | 2 | All Maps","protocol":17,"map":"koth_cascade","folder":"tf","game":"Team Fortress","app_id":440,"player_count":23,"max_players":24,"Bots":0,"server_type":"Dedicated","server_os":"Linux","password":true,"vac":true,"version":"7932396","steam_id":85568392924470941,"keywords":["cp","nocrits","nodmgspread","uncletopia"],"game_id":440,"stv_port":27026,"stv_name":"Uncletopia | London | 2 | All Maps | STV","players":[{"user_id":302,"name":"clunk","steam_id":76561198836460767,"connected_time":1323000000000,"state":"active","ping":76},{"user_id":295,"name":"ulterior plank meals","steam_id":76561198013502376,"connected_time":2111000000000,"state":"active","ping":52},{"user_id":329,"name":"walrus","steam_id":76561198167898969,"connected_time":542000000000,"state":"active","ping":57},{"user_id":163,"name":"s a i","steam_id":76561197970379754,"connected_time":11485000000000,"state":"active","ping":62},{"user_id":291,"name":"Dangerousbros","steam_id":76561198088952519,"connected_time":2459000000000,"state":"active","ping":34},{"user_id":322,"name":"Hukka","steam_id":76561198035505355,"connected_time":822000000000,"state":"active","ping":101},{"user_id":305,"name":"njits23","steam_id":76561198031194977,"connected_time":1305000000000,"state":"active","ping":63},{"user_id":319,"name":"JC","steam_id":76561198029213352,"connected_time":1111000000000,"state":"active","ping":45},{"user_id":324,"name":"Plep","steam_id":76561198840259819,"connected_time":725000000000,"state":"active","ping":58},{"user_id":330,"name":"OutOfDucks","steam_id":76561198166376227,"connected_time":435000000000,"state":"active","ping":56},{"user_id":261,"name":"Sarahtonin","steam_id":76561197992144115,"connected_time":3814000000000,"state":"active","ping":75},{"user_id":334,"name":"Michael","steam_id":76561198003146906,"connected_time":240000000000,"state":"active","ping":44},{"user_id":327,"name":"Penis Gaming","steam_id":76561199198623988,"connected_time":654000000000,"state":"active","ping":61},{"user_id":168,"name":"Ark-e","steam_id":76561198261870909,"connected_time":10970000000000,"state":"active","ping":34},{"user_id":312,"name":"Wattoz","steam_id":76561198127779511,"connected_time":1284000000000,"state":"active","ping":60},{"user_id":333,"name":"Oki (Bon)","steam_id":76561199047748534,"connected_time":363000000000,"state":"active","ping":52},{"user_id":332,"name":"hedon/","steam_id":76561198249832770,"connected_time":384000000000,"state":"active","ping":49},{"user_id":316,"name":"shankz","steam_id":76561198128803260,"connected_time":1230000000000,"state":"active","ping":46},{"user_id":298,"name":"Seratonin deficient gamer","steam_id":76561198051685232,"connected_time":1798000000000,"state":"active","ping":48},{"user_id":273,"name":"B1urred","steam_id":76561198263657694,"connected_time":3629000000000,"state":"active","ping":50},{"user_id":275,"name":"Dreyfus","steam_id":76561198366687805,"connected_time":3581000000000,"state":"active","ping":72},{"user_id":296,"name":"sushii","steam_id":76561198297987372,"connected_time":1881000000000,"state":"active","ping":55},{"user_id":318,"name":"chef","steam_id":76561198412087092,"connected_time":1149000000000,"state":"active","ping":97}]},{"server_id":320,"name":"Uncletopia | London | 3 | All Maps","name_short":"lon-3","host":"lon-1.uk.uncletopia.com","port":27035,"enabled":true,"region":"eu","cc":"gb","latitude":51.509865,"longitude":-0.118092,"reserved":0,"last_update":"0001-01-01T00:00:00Z","name_a2s":"Uncletopia | London | 3 | All Maps","protocol":17,"map":"pl_pier","folder":"tf","game":"Team Fortress","app_id":440,"player_count":12,"max_players":24,"Bots":0,"server_type":"Dedicated","server_os":"Linux","password":true,"vac":true,"version":"7932396","steam_id":85568392924510192,"keywords":["nocrits","nodmgspread","payload","uncletopia"],"game_id":440,"stv_port":27036,"stv_name":"Uncletopia | London | 3 | All Maps | STV","players":[{"user_id":8,"name":"◢◤ Joker ◢◤","steam_id":76561198038325384,"connected_time":1030000000000,"state":"active","ping":45},{"user_id":17,"name":"Eidolon","steam_id":76561198043919565,"connected_time":326000000000,"state":"active","ping":65},{"user_id":10,"name":"Zama","steam_id":76561199121691104,"connected_time":944000000000,"state":"active","ping":39},{"user_id":11,"name":"slippysloth08","steam_id":76561199013310735,"connected_time":937000000000,"state":"active","ping":54},{"user_id":15,"name":"Vigilanis","steam_id":76561198349099737,"connected_time":560000000000,"state":"active","ping":47},{"user_id":13,"name":"Mozzaza","steam_id":76561198156316111,"connected_time":870000000000,"state":"active","ping":122},{"user_id":20,"name":"Galex","steam_id":76561198045637579,"connected_time":152000000000,"state":"active","ping":70},{"user_id":18,"name":"Đesmond","steam_id":76561198097676225,"connected_time":197000000000,"state":"active","ping":60},{"user_id":19,"name":"Litreal","steam_id":76561199113925337,"connected_time":176000000000,"state":"active","ping":173},{"user_id":21,"name":"lidl","steam_id":76561198895235231,"connected_time":142000000000,"state":"active","ping":58},{"user_id":22,"name":"Axord","steam_id":76561199289652176,"connected_time":116000000000,"state":"active","ping":66},{"user_id":23,"name":"Thors","steam_id":76561197968739075,"connected_time":88000000000,"state":"active","ping":44}]},{"server_id":321,"name":"Uncletopia | London | 4 | All Maps","name_short":"lon-4","host":"lon-1.uk.uncletopia.com","port":27045,"enabled":true,"region":"eu","cc":"gb","latitude":51.509865,"longitude":-0.118092,"reserved":0,"last_update":"0001-01-01T00:00:00Z","name_a2s":"Uncletopia | London | 4 | All Maps","protocol":17,"map":"pl_borneo","folder":"tf","game":"Team Fortress","app_id":440,"player_count":0,"max_players":24,"Bots":0,"server_type":"Dedicated","server_os":"Linux","password":true,"vac":true,"version":"7932396","steam_id":85568392924510193,"keywords":["nocrits","nodmgspread","payload","uncletopia"],"game_id":440,"stv_port":27046,"stv_name":"Uncletopia | London | 4 | All Maps | STV","players":null},{"server_id":21,"name":"Uncletopia | London | 5 | All Maps","name_short":"lon-5","host":"lon-1.uk.uncletopia.com","port":27055,"enabled":true,"region":"eu","cc":"gb","latitude":51.509865,"longitude":-0.118092,"reserved":0,"last_update":"0001-01-01T00:00:00Z","name_a2s":"Uncletopia | London | 5 | All Maps","protocol":17,"map":"pl_snowycoast","folder":"tf","game":"Team Fortress","app_id":440,"player_count":0,"max_players":24,"Bots":0,"server_type":"Dedicated","server_os":"Linux","password":true,"vac":true,"version":"7932396","steam_id":85568392924742829,"keywords":["nocrits","nodmgspread","payload","uncletopia"],"game_id":440,"stv_port":27056,"stv_name":"Uncletopia | London | 5 | All Maps | STV","players":null},{"server_id":22,"name":"Uncletopia | London | 6 | All Maps","name_short":"lon-6","host":"lon-1.uk.uncletopia.com","port":27065,"enabled":true,"region":"eu","cc":"gb","latitude":51.509865,"longitude":-0.118092,"reserved":0,"last_update":"0001-01-01T00:00:00Z","name_a2s":"Uncletopia | London | 6 | All Maps","protocol":17,"map":"koth_viaduct","folder":"tf","game":"Team Fortress","app_id":440,"player_count":0,"max_players":24,"Bots":0,"server_type":"Dedicated","server_os":"Linux","password":true,"vac":true,"version":"7932396","steam_id":85568392924742830,"keywords":["cp","nocrits","nodmgspread","uncletopia"],"game_id":440,"stv_port":27066,"stv_name":"Uncletopia | London | 6 | All Maps | STV","players":null},{"server_id":40,"name":"Uncletopia | London | 7 | No Payload","name_short":"lon-7","host":"lon-1.uk.uncletopia.com","port":27075,"enabled":true,"region":"eu","cc":"gb","latitude":51.509865,"longitude":-0.118092,"reserved":0,"last_update":"0001-01-01T00:00:00Z","name_a2s":"Uncletopia | London | 7 | No Payload","protocol":17,"map":"cp_powerhouse","folder":"tf","game":"Team Fortress","app_id":440,"player_count":0,"max_players":24,"Bots":0,"server_type":"Dedicated","server_os":"Linux","password":true,"vac":true,"version":"7932396","steam_id":85568392924964314,"keywords":["cp","nocrits","nodmgspread","uncletopia"],"game_id":440,"stv_port":27076,"stv_name":"Uncletopia | London | 7 | No Payload | STV","players":null},{"server_id":41,"name":"Uncletopia | London | 8 | Community","name_short":"lon-8","host":"lon-1.uk.uncletopia.com","port":27085,"enabled":true,"region":"eu","cc":"gb","latitude":51.509865,"longitude":-0.118092,"reserved":0,"last_update":"0001-01-01T00:00:00Z","name_a2s":"Uncletopia | London | 8 | Community","protocol":17,"map":"workshop/pl_highwood_b13.ugc1769496557","folder":"tf","game":"Team Fortress","app_id":440,"player_count":0,"max_players":24,"Bots":0,"server_type":"Dedicated","server_os":"Linux","password":true,"vac":true,"version":"7932396","steam_id":85568392924964315,"keywords":["nocrits","nodmgspread","payload","uncletopia"],"game_id":440,"stv_port":27086,"stv_name":"Uncletopia | London | 8 | Community | STV","players":null},{"server_id":300,"name":"Uncletopia | Montréal | 1 | All Maps","name_short":"mtl-1","host":"mtl-1.ca.uncletopia.com","port":27015,"enabled":true,"region":"us-east","cc":"ca","latitude":45.50889,"longitude":-73.56167,"reserved":0,"last_update":"0001-01-01T00:00:00Z","name_a2s":"Uncletopia | Montréal | 1 | All Maps","protocol":17,"map":"cp_altitude","folder":"tf","game":"Team Fortress","app_id":440,"player_count":0,"max_players":24,"Bots":0,"server_type":"Dedicated","server_os":"Linux","password":true,"vac":true,"version":"7932396","steam_id":85568392924500087,"keywords":["cp","nocrits","nodmgspread","uncletopia"],"game_id":440,"stv_port":27016,"stv_name":"Uncletopia | Montréal | 1 | All Maps | STV","players":null},{"server_id":301,"name":"Uncletopia | Montréal | 2 | All Maps","name_short":"mtl-2","host":"mtl-1.ca.uncletopia.com","port":27025,"enabled":true,"region":"us-east","cc":"ca","latitude":45.50889,"longitude":-73.56167,"reserved":0,"last_update":"0001-01-01T00:00:00Z","name_a2s":"Uncletopia | Montréal | 2 | All Maps","protocol":17,"map":"koth_lakeside_final","folder":"tf","game":"Team Fortress","app_id":440,"player_count":0,"max_players":24,"Bots":0,"server_type":"Dedicated","server_os":"Linux","password":true,"vac":true,"version":"7932396","steam_id":85568392924500088,"keywords":["cp","nocrits","nodmgspread","uncletopia"],"game_id":440,"stv_port":27026,"stv_name":"Uncletopia | Montréal | 2 | All Maps | STV","players":null},{"server_id":302,"name":"Uncletopia | Montréal | 3 | All Maps","name_short":"mtl-3","host":"mtl-1.ca.uncletopia.com","port":27035,"enabled":true,"region":"us-east","cc":"ca","latitude":45.50889,"longitude":-73.56167,"reserved":0,"last_update":"0001-01-01T00:00:00Z","name_a2s":"Uncletopia | Montréal | 3 | All Maps","protocol":17,"map":"cp_process_final","folder":"tf","game":"Team Fortress","app_id":440,"player_count":0,"max_players":24,"Bots":0,"server_type":"Dedicated","server_os":"Linux","password":true,"vac":true,"version":"7932396","steam_id":85568392924500089,"keywords":["cp","nocrits","nodmgspread","uncletopia"],"game_id":440,"stv_port":27036,"stv_name":"Uncletopia | Montréal | 3 | All Maps | STV","players":null},{"server_id":303,"name":"Uncletopia | Montréal | 4 | No Payload","name_short":"mtl-4","host":"mtl-1.ca.uncletopia.com","port":27045,"enabled":true,"region":"us-east","cc":"ca","latitude":45.50889,"longitude":-73.56167,"reserved":0,"last_update":"0001-01-01T00:00:00Z","name_a2s":"Uncletopia | Montréal | 4 | No Payload","protocol":17,"map":"cp_snakewater_final1","folder":"tf","game":"Team Fortress","app_id":440,"player_count":0,"max_players":24,"Bots":0,"server_type":"Dedicated","server_os":"Linux","password":true,"vac":true,"version":"7932396","steam_id":85568392924500090,"keywords":["cp","nocrits","nodmgspread","uncletopia"],"game_id":440,"stv_port":27046,"stv_name":"Uncletopia | Montréal | 4 | No Payload | STV","players":null},{"server_id":13,"name":"Uncletopia | New York City | 1 | All Maps","name_short":"nyc-1","host":"nyc-1.us.uncletopia.com","port":27015,"enabled":true,"region":"us-east","cc":"us","latitude":40.73061,"longitude":-73.93524,"reserved":0,"last_update":"0001-01-01T00:00:00Z","name_a2s":"Uncletopia | New York City | 1 | All Maps","protocol":17,"map":"koth_highpass","folder":"tf","game":"Team Fortress","app_id":440,"player_count":9,"max_players":24,"Bots":0,"server_type":"Dedicated","server_os":"Linux","password":true,"vac":true,"version":"7932396","steam_id":85568392924469993,"keywords":["cp","nocrits","nodmgspread","uncletopia"],"game_id":440,"stv_port":27016,"stv_name":"Uncletopia | New York City | 1 | All Maps | STV","players":[{"user_id":10,"name":"pigfarmer.gov","steam_id":76561199071167548,"connected_time":1544000000000,"state":"active","ping":77},{"user_id":11,"name":"Blaz3rr","steam_id":76561198316228836,"connected_time":1510000000000,"state":"active","ping":86},{"user_id":14,"name":"Norman","steam_id":76561198154715990,"connected_time":1193000000000,"state":"active","ping":105},{"user_id":21,"name":"Tailsmonster12","steam_id":76561198399989261,"connected_time":85000000000,"state":"active","ping":39},{"user_id":16,"name":"Tideflat","steam_id":76561198179850851,"connected_time":817000000000,"state":"active","ping":153},{"user_id":18,"name":"JaxlerTheKid","steam_id":76561198828996070,"connected_time":274000000000,"state":"active","ping":75},{"user_id":25,"name":"haida fan","steam_id":76561198970747503,"connected_time":6000000000,"state":"spawning","ping":58},{"user_id":22,"name":"Bio_Optical","steam_id":76561199128084374,"connected_time":73000000000,"state":"active","ping":86},{"user_id":26,"name":"Sam","steam_id":76561197991129901,"connected_time":0,"state":"spawning","ping":29}]},{"server_id":14,"name":"Uncletopia | New York City | 2 | All Maps","name_short":"nyc-2","host":"nyc-1.us.uncletopia.com","port":27025,"enabled":true,"region":"us-east","cc":"us","latitude":40.73061,"longitude":-73.93524,"reserved":0,"last_update":"0001-01-01T00:00:00Z","name_a2s":"Uncletopia | New York City | 2 | All Maps","protocol":17,"map":"koth_lakeside_final","folder":"tf","game":"Team Fortress","app_id":440,"player_count":0,"max_players":24,"Bots":0,"server_type":"Dedicated","server_os":"Linux","password":true,"vac":true,"version":"7932396","steam_id":85568392924469994,"keywords":["cp","nocrits","nodmgspread","uncletopia"],"game_id":440,"stv_port":27026,"stv_name":"Uncletopia | New York City | 2 | All Maps | STV","players":null},{"server_id":15,"name":"Uncletopia | New York City | 3 | Stopwatch Beta","name_short":"nyc-3","host":"nyc-1.us.uncletopia.com","port":27035,"enabled":true,"region":"us-east","cc":"us","latitude":40.73061,"longitude":-73.93524,"reserved":0,"last_update":"0001-01-01T00:00:00Z","name_a2s":"Uncletopia | New York City | 3 | Stopwatch Beta","protocol":17,"map":"koth_lakeside_final","folder":"tf","game":"Team Fortress","app_id":440,"player_count":0,"max_players":24,"Bots":0,"server_type":"Dedicated","server_os":"Linux","password":true,"vac":true,"version":"7932396","steam_id":85568392924742820,"keywords":["cp","nocrits","nodmgspread","uncletopia"],"game_id":440,"stv_port":27036,"stv_name":"Uncletopia | New York City | 3 | Stopwatch Beta | STV","players":null},{"server_id":16,"name":"Uncletopia | New York City | 4 | Community","name_short":"nyc-4","host":"nyc-1.us.uncletopia.com","port":27045,"enabled":true,"region":"us-east","cc":"us","latitude":40.73061,"longitude":-73.93524,"reserved":0,"last_update":"0001-01-01T00:00:00Z","name_a2s":"Uncletopia | New York City | 4 | Community","protocol":17,"map":"workshop/cp_reckoner_rc6.ugc674719999","folder":"tf","game":"Team Fortress","app_id":440,"player_count":24,"max_players":24,"Bots":0,"server_type":"Dedicated","server_os":"Linux","password":true,"vac":true,"version":"7932396","steam_id":85568392924742821,"keywords":["cp","nocrits","nodmgspread","uncletopia"],"game_id":440,"stv_port":27046,"stv_name":"Uncletopia | New York City | 4 | Community | STV","players":[{"user_id":116,"name":"festivized rat","steam_id":76561198055969492,"connected_time":952000000000,"state":"active","ping":56},{"user_id":128,"name":"gritty 2024","steam_id":76561198165567310,"connected_time":186000000000,"state":"active","ping":45},{"user_id":48,"name":"I really enjoy MEN","steam_id":76561198164119602,"connected_time":4978000000000,"state":"active","ping":159},{"user_id":84,"name":";^)","steam_id":76561198269497358,"connected_time":2979000000000,"state":"active","ping":83},{"user_id":135,"name":"Jork","steam_id":76561198121415366,"connected_time":32000000000,"state":"spawning","ping":294},{"user_id":104,"name":"chicken little","steam_id":76561198128347876,"connected_time":1136000000000,"state":"active","ping":45},{"user_id":136,"name":"iyed","steam_id":76561198982141827,"connected_time":10000000000,"state":"spawning","ping":109},{"user_id":112,"name":"JustLooking","steam_id":76561198207877387,"connected_time":1013000000000,"state":"active","ping":41},{"user_id":93,"name":"The Nikocado Enjoyer","steam_id":76561198263154374,"connected_time":2339000000000,"state":"active","ping":53},{"user_id":98,"name":"ChozoChorizo","steam_id":76561198272609196,"connected_time":2160000000000,"state":"active","ping":69},{"user_id":107,"name":"⚙Nebula⚙","steam_id":76561198093148959,"connected_time":1075000000000,"state":"active","ping":59},{"user_id":125,"name":"🅜🅔🅔🅚🅢🅣🅔\ufffd\ufffd\ufffd","steam_id":76561197999748343,"connected_time":522000000000,"state":"active","ping":75},{"user_id":94,"name":"neet","steam_id":76561197968115168,"connected_time":2320000000000,"state":"active","ping":45},{"user_id":117,"name":"boneboy88","steam_id":76561199231079499,"connected_time":874000000000,"state":"active","ping":74},{"user_id":127,"name":"PloinK","steam_id":76561198350102319,"connected_time":495000000000,"state":"active","ping":41},{"user_id":120,"name":"Delightful MadCat","steam_id":76561198086178426,"connected_time":773000000000,"state":"active","ping":87},{"user_id":110,"name":"BenBen07","steam_id":76561198129584634,"connected_time":1030000000000,"state":"active","ping":87},{"user_id":131,"name":"(‾▿ ‾)","steam_id":76561198432226673,"connected_time":153000000000,"state":"active","ping":129},{"user_id":111,"name":"cwaggs76","steam_id":76561199013048778,"connected_time":1028000000000,"state":"active","ping":76},{"user_id":100,"name":"Lifial","steam_id":76561198271885819,"connected_time":1523000000000,"state":"active","ping":48},{"user_id":132,"name":"Scrux","steam_id":76561198129763115,"connected_time":116000000000,"state":"active","ping":125},{"user_id":121,"name":"Team Fortress 2","steam_id":76561198180638958,"connected_time":708000000000,"state":"active","ping":56},{"user_id":124,"name":"Upijijis","steam_id":76561198185344153,"connected_time":656000000000,"state":"active","ping":103},{"user_id":134,"name":"we're so back","steam_id":76561198058485742,"connected_time":100000000000,"state":"active","ping":64}]},{"server_id":142,"name":"Uncletopia | São Paulo | 1 | All Maps","name_short":"sao-1","host":"sao-1.br.uncletopia.com","port":27015,"enabled":true,"region":"sa","cc":"br","latitude":-23.533773,"longitude":-46.62529,"reserved":0,"last_update":"0001-01-01T00:00:00Z","name_a2s":"Uncletopia | São Paulo | 1 | All Maps","protocol":17,"map":"pl_borneo","folder":"tf","game":"Team Fortress","app_id":440,"player_count":0,"max_players":24,"Bots":0,"server_type":"Dedicated","server_os":"Linux","password":true,"vac":true,"version":"7932396","steam_id":85568392924469996,"keywords":["nocrits","nodmgspread","payload","uncletopia"],"game_id":440,"stv_port":27016,"stv_name":"Uncletopia | São Paulo | 1 | All Maps | STV","players":null},{"server_id":143,"name":"Uncletopia | São Paulo | 2 | All Maps","name_short":"sao-2","host":"sao-2.br.uncletopia.com","port":27015,"enabled":true,"region":"sa","cc":"br","latitude":-23.533773,"longitude":-46.62529,"reserved":0,"last_update":"0001-01-01T00:00:00Z","name_a2s":"Uncletopia | São Paulo | 2 | All Maps","protocol":17,"map":"pl_swiftwater_final1","folder":"tf","game":"Team Fortress","app_id":440,"player_count":0,"max_players":24,"Bots":0,"server_type":"Dedicated","server_os":"Linux","password":true,"vac":true,"version":"7932396","steam_id":85568392924485349,"keywords":["nocrits","nodmgspread","payload","uncletopia"],"game_id":440,"stv_port":27016,"stv_name":"Uncletopia | São Paulo | 2 | All Maps | STV","players":null},{"server_id":7,"name":"Uncletopia | Seattle | 1 | All Maps","name_short":"sea-1","host":"sea-1.us.uncletopia.com","port":27015,"enabled":true,"region":"us-west","cc":"us","latitude":47.608013,"longitude":-122.33517,"reserved":0,"last_update":"0001-01-01T00:00:00Z","name_a2s":"Uncletopia | Seattle | 1 | All Maps","protocol":17,"map":"pl_pier","folder":"tf","game":"Team Fortress","app_id":440,"player_count":0,"max_players":24,"Bots":0,"server_type":"Dedicated","server_os":"Linux","password":true,"vac":true,"version":"7932396","steam_id":85568392924469997,"keywords":["nocrits","nodmgspread","payload","uncletopia"],"game_id":440,"stv_port":27016,"stv_name":"Uncletopia | Seattle | 1 | All Maps | STV","players":null},{"server_id":119,"name":"Uncletopia | Seattle | 2 | All Maps","name_short":"sea-2","host":"sea-1.us.uncletopia.com","port":27025,"enabled":true,"region":"us-west","cc":"us","latitude":47.608013,"longitude":-122.33517,"reserved":0,"last_update":"0001-01-01T00:00:00Z","name_a2s":"Uncletopia | Seattle | 2 | All Maps","protocol":17,"map":"pl_thundermountain","folder":"tf","game":"Team Fortress","app_id":440,"player_count":25,"max_players":24,"Bots":0,"server_type":"Dedicated","server_os":"Linux","password":true,"vac":true,"version":"7932396","steam_id":85568392924469998,"keywords":["nocrits","nodmgspread","payload","uncletopia"],"game_id":440,"stv_port":27026,"stv_name":"Uncletopia | Seattle | 2 | All Maps | STV","players":[{"user_id":186,"name":"..flop","steam_id":76561197989058876,"connected_time":1163000000000,"state":"active","ping":83},{"user_id":189,"name":"Cosmic Torgue","steam_id":76561198828724945,"connected_time":911000000000,"state":"active","ping":125},{"user_id":193,"name":"Patio","steam_id":76561197986082608,"connected_time":297000000000,"state":"active","ping":55},{"user_id":195,"name":"Still Alive","steam_id":76561198042523000,"connected_time":210000000000,"state":"active","ping":105},{"user_id":137,"name":"volta","steam_id":76561199214283884,"connected_time":3826000000000,"state":"active","ping":148},{"user_id":176,"name":"Vincent Van Bro","steam_id":76561197966919802,"connected_time":2314000000000,"state":"active","ping":57},{"user_id":169,"name":"pep","steam_id":76561198009276239,"connected_time":2454000000000,"state":"active","ping":60},{"user_id":131,"name":"KindaFemboy","steam_id":76561198781220345,"connected_time":4629000000000,"state":"active","ping":116},{"user_id":182,"name":"HawkBlaze","steam_id":76561199000152914,"connected_time":2116000000000,"state":"active","ping":82},{"user_id":139,"name":"Zag Fcghy Hcha Hcha","steam_id":76561198812405908,"connected_time":3775000000000,"state":"active","ping":73},{"user_id":135,"name":"saggysage","steam_id":76561198249808678,"connected_time":4039000000000,"state":"active","ping":123},{"user_id":196,"name":"CLAYDUCK","steam_id":76561197995221829,"connected_time":201000000000,"state":"active","ping":48},{"user_id":191,"name":"Integral","steam_id":76561198158225481,"connected_time":320000000000,"state":"active","ping":88},{"user_id":197,"name":"Bug","steam_id":76561198279239047,"connected_time":9000000000,"state":"spawning","ping":95},{"user_id":161,"name":"Xeno","steam_id":76561199248963771,"connected_time":2603000000000,"state":"active","ping":94},{"user_id":190,"name":"MeatShield 2000","steam_id":76561199375192850,"connected_time":555000000000,"state":"active","ping":100},{"user_id":194,"name":"taksss","steam_id":76561198995422051,"connected_time":297000000000,"state":"active","ping":78},{"user_id":166,"name":"⎝⧹MythicalTwinkie⧸⎠","steam_id":76561198167969738,"connected_time":2534000000000,"state":"active","ping":55},{"user_id":198,"name":"James","steam_id":76561198077251918,"connected_time":8000000000,"state":"spawning","ping":164},{"user_id":174,"name":"poofysters","steam_id":76561198800118537,"connected_time":2374000000000,"state":"active","ping":75},{"user_id":183,"name":"BoxMan","steam_id":76561198316541559,"connected_time":2112000000000,"state":"active","ping":135},{"user_id":181,"name":"Kaiza Slumby","steam_id":76561199109063823,"connected_time":2156000000000,"state":"active","ping":69},{"user_id":192,"name":"uhoh","steam_id":76561198136967934,"connected_time":320000000000,"state":"active","ping":85},{"user_id":128,"name":"❤To Lazy❤","steam_id":76561198164211904,"connected_time":5379000000000,"state":"active","ping":93},{"user_id":152,"name":"Aquiles Baeza","steam_id":76561198081053203,"connected_time":3154000000000,"state":"active","ping":110}]},{"server_id":406,"name":"Uncletopia | Seattle | 3 | Stopwatch Beta","name_short":"sea-3","host":"sea-1.us.uncletopia.com","port":27035,"enabled":true,"region":"us-west","cc":"us","latitude":47.608013,"longitude":-122.33517,"reserved":0,"last_update":"0001-01-01T00:00:00Z","name_a2s":"Uncletopia | Seattle | 3 | Stopwatch Beta","protocol":17,"map":"workshop/koth_clearcut_b15.ugc2107050255","folder":"tf","game":"Team Fortress","app_id":440,"player_count":0,"max_players":24,"Bots":0,"server_type":"Dedicated","server_os":"Linux","password":true,"vac":true,"version":"7932396","steam_id":85568392924515217,"keywords":["cp","nocrits","nodmgspread","uncletopia"],"game_id":440,"stv_port":27036,"stv_name":"Uncletopia | Seattle | 3 | Stopwatch Beta | STV","players":null},{"server_id":17,"name":"Uncletopia | San Francisco | 1 | All Maps","name_short":"sfo-1","host":"sfo-1.us.uncletopia.com","port":27015,"enabled":true,"region":"us-west","cc":"us","latitude":37.77397,"longitude":-122.4313,"reserved":0,"last_update":"0001-01-01T00:00:00Z","name_a2s":"Uncletopia | San Francisco | 1 | All Maps","protocol":17,"map":"pl_frontier_final","folder":"tf","game":"Team Fortress","app_id":440,"player_count":0,"max_players":24,"Bots":0,"server_type":"Dedicated","server_os":"Linux","password":true,"vac":true,"version":"7932396","steam_id":85568392924469999,"keywords":["nocrits","nodmgspread","payload","uncletopia"],"game_id":440,"stv_port":27016,"stv_name":"Uncletopia | San Francisco | 1 | All Maps | STV","players":null},{"server_id":18,"name":"Uncletopia | San Francisco | 2 | All Maps","name_short":"sfo-2","host":"sfo-1.us.uncletopia.com","port":27025,"enabled":true,"region":"us-west","cc":"us","latitude":37.77397,"longitude":-122.4313,"reserved":0,"last_update":"0001-01-01T00:00:00Z","name_a2s":"Uncletopia | San Francisco | 2 | All Maps","protocol":17,"map":"ctf_turbine","folder":"tf","game":"Team Fortress","app_id":440,"player_count":2,"max_players":24,"Bots":0,"server_type":"Dedicated","server_os":"Linux","password":true,"vac":true,"version":"7932396","steam_id":85568392924470000,"keywords":["ctf","nocrits","nodmgspread","uncletopia"],"game_id":440,"stv_port":27026,"stv_name":"Uncletopia | San Francisco | 2 | All Maps | STV","players":[{"user_id":8,"name":"HippoLover69","steam_id":76561199143302326,"connected_time":344000000000,"state":"active","ping":207},{"user_id":4,"name":"Joe Nathan","steam_id":76561198041030399,"connected_time":473000000000,"state":"active","ping":85}]},{"server_id":19,"name":"Uncletopia | San Francisco | 3 | Stopwatch Beta","name_short":"sfo-3","host":"sfo-1.us.uncletopia.com","port":27035,"enabled":true,"region":"us-west","cc":"us","latitude":37.77397,"longitude":-122.4313,"reserved":0,"last_update":"0001-01-01T00:00:00Z","name_a2s":"Uncletopia | San Francisco | 3 | Stopwatch Beta","protocol":17,"map":"koth_lakeside_final","folder":"tf","game":"Team Fortress","app_id":440,"player_count":0,"max_players":24,"Bots":0,"server_type":"Dedicated","server_os":"Linux","password":true,"vac":true,"version":"7932396","steam_id":85568392924742824,"keywords":["cp","nocrits","nodmgspread","uncletopia"],"game_id":440,"stv_port":27036,"stv_name":"Uncletopia | San Francisco | 3 | Stopwatch Beta | STV","players":null},{"server_id":20,"name":"Uncletopia | San Francisco | 4 | Community","name_short":"sfo-4","host":"sfo-1.us.uncletopia.com","port":27045,"enabled":true,"region":"us-west","cc":"us","latitude":37.77397,"longitude":-122.4313,"reserved":0,"last_update":"0001-01-01T00:00:00Z","name_a2s":"Uncletopia | San Francisco | 4 | Community","protocol":17,"map":"pl_borneo","folder":"tf","game":"Team Fortress","app_id":440,"player_count":0,"max_players":24,"Bots":0,"server_type":"Dedicated","server_os":"Linux","password":true,"vac":true,"version":"7932396","steam_id":85568392924742826,"keywords":["nocrits","nodmgspread","payload","uncletopia"],"game_id":440,"stv_port":27046,"stv_name":"Uncletopia | San Francisco | 4 | Community | STV","players":null},{"server_id":141,"name":"Uncletopia | Sydney | 1 | All Maps","name_short":"syd-1","host":"syd-1.au.uncletopia.com","port":27015,"enabled":true,"region":"au","cc":"au","latitude":-33.865143,"longitude":151.2099,"reserved":0,"last_update":"0001-01-01T00:00:00Z","name_a2s":"Uncletopia | Sydney | 1 | All Maps","protocol":17,"map":"koth_lakeside_final","folder":"tf","game":"Team Fortress","app_id":440,"player_count":0,"max_players":24,"Bots":0,"server_type":"Dedicated","server_os":"Linux","password":true,"vac":true,"version":"7932396","steam_id":85568392924470001,"keywords":["cp","nocrits","nodmgspread","uncletopia"],"game_id":440,"stv_port":27016,"stv_name":"Uncletopia | Sydney | 1 | All Maps | STV","players":null},{"server_id":123,"name":"Uncletopia | Sydney | 2 | All Maps","name_short":"syd-2","host":"syd-1.au.uncletopia.com","port":27025,"enabled":true,"region":"au","cc":"au","latitude":-33.865143,"longitude":151.2099,"reserved":0,"last_update":"0001-01-01T00:00:00Z","name_a2s":"Uncletopia | Sydney | 2 | All Maps","protocol":17,"map":"koth_lakeside_final","folder":"tf","game":"Team Fortress","app_id":440,"player_count":0,"max_players":24,"Bots":0,"server_type":"Dedicated","server_os":"Linux","password":true,"vac":true,"version":"7932396","steam_id":85568392924470002,"keywords":["cp","nocrits","nodmgspread","uncletopia"],"game_id":440,"stv_port":27026,"stv_name":"Uncletopia | Sydney | 2 | All Maps | STV","players":null},{"server_id":395,"name":"Uncletopia | Sydney | 3 | All Maps","name_short":"syd-3","host":"syd-1.au.uncletopia.com","port":27035,"enabled":true,"region":"au","cc":"au","latitude":-33.865143,"longitude":151.2099,"reserved":0,"last_update":"0001-01-01T00:00:00Z","name_a2s":"Uncletopia | Sydney | 3 | All Maps","protocol":17,"map":"pl_barnblitz","folder":"tf","game":"Team Fortress","app_id":440,"player_count":0,"max_players":24,"Bots":0,"server_type":"Dedicated","server_os":"Linux","password":true,"vac":true,"version":"7932396","steam_id":85568392925194467,"keywords":["nocrits","nodmgspread","payload","uncletopia"],"game_id":440,"stv_port":27036,"stv_name":"Uncletopia | Sydney | 3 | All Maps | STV","players":null},{"server_id":396,"name":"Uncletopia | Sydney | 4 | All Maps","name_short":"syd-4","host":"syd-1.au.uncletopia.com","port":27045,"enabled":true,"region":"au","cc":"au","latitude":-33.865143,"longitude":151.2099,"reserved":0,"last_update":"0001-01-01T00:00:00Z","name_a2s":"Uncletopia | Sydney | 4 | All Maps","protocol":17,"map":"pl_frontier_final","folder":"tf","game":"Team Fortress","app_id":440,"player_count":0,"max_players":24,"Bots":0,"server_type":"Dedicated","server_os":"Linux","password":true,"vac":true,"version":"7932396","steam_id":85568392925397958,"keywords":["nocrits","nodmgspread","payload","uncletopia"],"game_id":440,"stv_port":27046,"stv_name":"Uncletopia | Sydney | 4 | All Maps | STV","players":null},{"server_id":58,"name":"Uncletopia | Sydney | 5 | Stopwatch Beta","name_short":"syd-5","host":"syd-1.au.uncletopia.com","port":27055,"enabled":true,"region":"au","cc":"au","latitude":-33.865143,"longitude":151.2099,"reserved":0,"last_update":"0001-01-01T00:00:00Z","name_a2s":"Uncletopia | Sydney | 5 | Stopwatch Beta","protocol":17,"map":"pl_borneo","folder":"tf","game":"Team Fortress","app_id":440,"player_count":0,"max_players":24,"Bots":0,"server_type":"Dedicated","server_os":"Linux","password":true,"vac":true,"version":"7932396","steam_id":85568392925397959,"keywords":["nocrits","nodmgspread","payload","uncletopia"],"game_id":440,"stv_port":27056,"stv_name":"Uncletopia | Sydney | 5 | Stopwatch Beta | STV","players":null},{"server_id":59,"name":"Uncletopia | Sydney | 6 | Community","name_short":"syd-6","host":"syd-1.au.uncletopia.com","port":27065,"enabled":true,"region":"au","cc":"au","latitude":-33.865143,"longitude":151.2099,"reserved":0,"last_update":"0001-01-01T00:00:00Z","name_a2s":"Uncletopia | Sydney | 6 | Community","protocol":17,"map":"pl_badwater","folder":"tf","game":"Team Fortress","app_id":440,"player_count":0,"max_players":24,"Bots":0,"server_type":"Dedicated","server_os":"Linux","password":true,"vac":true,"version":"7932396","steam_id":85568392925397960,"keywords":["nocrits","nodmgspread","payload","uncletopia"],"game_id":440,"stv_port":27066,"stv_name":"Uncletopia | Sydney | 6 | Community | STV","players":null},{"server_id":49,"name":"Uncletopia | Warsaw | 1 | All Maps","name_short":"waw-1","host":"waw-1.pl.uncletopia.com","port":27015,"enabled":true,"region":"eu","cc":"pl","latitude":52.2297,"longitude":21.017532,"reserved":0,"last_update":"0001-01-01T00:00:00Z","name_a2s":"","protocol":0,"map":"","folder":"","game":"","app_id":0,"player_count":0,"max_players":0,"Bots":0,"server_type":"","server_os":"","password":false,"vac":false,"version":"","steam_id":0,"keywords":null,"game_id":0,"stv_port":0,"stv_name":"","players":null},{"server_id":50,"name":"Uncletopia | Warsaw | 2 | All Maps","name_short":"waw-2","host":"waw-1.pl.uncletopia.com","port":27025,"enabled":true,"region":"eu","cc":"pl","latitude":52.2297,"longitude":21.017532,"reserved":0,"last_update":"0001-01-01T00:00:00Z","name_a2s":"Uncletopia | Warsaw | 2 | All Maps","protocol":17,"map":"cp_altitude","folder":"tf","game":"Team Fortress","app_id":440,"player_count":0,"max_players":24,"Bots":0,"server_type":"Dedicated","server_os":"Linux","password":true,"vac":true,"version":"7932396","steam_id":85568392925397851,"keywords":["cp","nocrits","nodmgspread","uncletopia"],"game_id":440,"stv_port":27026,"stv_name":"Uncletopia | Warsaw | 2 | All Maps | STV","players":null},{"server_id":51,"name":"Uncletopia | Warsaw | 3 | All Maps","name_short":"waw-3","host":"waw-1.pl.uncletopia.com","port":27035,"enabled":true,"region":"eu","cc":"pl","latitude":52.2297,"longitude":21.017532,"reserved":0,"last_update":"0001-01-01T00:00:00Z","name_a2s":"Uncletopia | Warsaw | 3 | All Maps","protocol":17,"map":"koth_lakeside_final","folder":"tf","game":"Team Fortress","app_id":440,"player_count":0,"max_players":24,"Bots":0,"server_type":"Dedicated","server_os":"Linux","password":true,"vac":true,"version":"7932396","steam_id":85568392925397852,"keywords":["cp","nocrits","nodmgspread","uncletopia"],"game_id":440,"stv_port":27036,"stv_name":"Uncletopia | Warsaw | 3 | All Maps | STV","players":null},{"server_id":52,"name":"Uncletopia | Warsaw | 4 | All Maps","name_short":"waw-4","host":"waw-1.pl.uncletopia.com","port":27045,"enabled":true,"region":"eu","cc":"pl","latitude":52.2297,"longitude":21.017532,"reserved":0,"last_update":"0001-01-01T00:00:00Z","name_a2s":"Uncletopia | Warsaw | 4 | All Maps","protocol":17,"map":"pl_pier","folder":"tf","game":"Team Fortress","app_id":440,"player_count":0,"max_players":24,"Bots":0,"server_type":"Dedicated","server_os":"Linux","password":true,"vac":true,"version":"7932396","steam_id":85568392925397853,"keywords":["nocrits","nodmgspread","payload","uncletopia"],"game_id":440,"stv_port":27046,"stv_name":"Uncletopia | Warsaw | 4 | All Maps | STV","players":null},{"server_id":53,"name":"Uncletopia | Warsaw | 5 | Stopwatch Beta","name_short":"waw-5","host":"waw-1.pl.uncletopia.com","port":27055,"enabled":true,"region":"eu","cc":"pl","latitude":52.2297,"longitude":21.017532,"reserved":0,"last_update":"0001-01-01T00:00:00Z","name_a2s":"Uncletopia | Warsaw | 5 | Stopwatch Beta","protocol":17,"map":"cp_process_final","folder":"tf","game":"Team Fortress","app_id":440,"player_count":0,"max_players":24,"Bots":0,"server_type":"Dedicated","server_os":"Linux","password":true,"vac":true,"version":"7932396","steam_id":85568392925397854,"keywords":["cp","nocrits","nodmgspread","uncletopia"],"game_id":440,"stv_port":27056,"stv_name":"Uncletopia | Warsaw | 5 | Stopwatch Beta | STV","players":null},{"server_id":54,"name":"Uncletopia | Warsaw | 6 | Community","name_short":"waw-6","host":"waw-1.pl.uncletopia.com","port":27065,"enabled":true,"region":"eu","cc":"pl","latitude":52.2297,"longitude":21.017532,"reserved":0,"last_update":"0001-01-01T00:00:00Z","name_a2s":"Uncletopia | Warsaw | 6 | Community","protocol":17,"map":"pl_upward","folder":"tf","game":"Team Fortress","app_id":440,"player_count":0,"max_players":24,"Bots":0,"server_type":"Dedicated","server_os":"Linux","password":true,"vac":true,"version":"7932396","steam_id":85568392925397856,"keywords":["nocrits","nodmgspread","payload","uncletopia"],"game_id":440,"stv_port":27066,"stv_name":"Uncletopia | Warsaw | 6 | Community | STV","players":null}]}