{"status":true,"message":"","result":[{"server_id":9,"name":"Uncletopia | Atlanta | 1 | All Maps","name_short":"atl-1","host":"atl-1.us.uncletopia.com","port":27015,"enabled":true,"region":"us-east","cc":"us","latitude":33.753746,"longitude":-84.38633,"reserved":0,"last_update":"0001-01-01T00:00:00Z","name_a2s":"Uncletopia | Atlanta | 1 | All Maps","protocol":17,"map":"pl_pier","folder":"tf","game":"Team Fortress","app_id":440,"player_count":4,"max_players":24,"Bots":0,"server_type":"Dedicated","server_os":"Linux","password":true,"vac":true,"version":"7757534","steam_id":85568392924469982,"keywords":["nocrits","nodmgspread","payload","uncletopia"],"game_id":440,"stv_port":27016,"stv_name":"Uncletopia | Atlanta | 1 | All Maps | STV","players":[{"user_id":612,"name":"keffers","steam_id":76561198202338796,"connected_time":2146000000000,"state":"active","ping":95},{"user_id":582,"name":"Arizona","steam_id":76561198113748347,"connected_time":3602000000000,"state":"active","ping":91},{"user_id":561,"name":"vid_","steam_id":76561198065159053,"connected_time":4695000000000,"state":"active","ping":39},{"user_id":577,"name":"Karma","steam_id":76561198030565234,"connected_time":4098000000000,"state":"active","ping":62}]},{"server_id":400,"name":"Uncletopia | Atlanta | 3 | Stopwatch Beta","name_short":"atl-3","host":"atl-1.us.uncletopia.com","port":27035,"enabled":true,"region":"us-east","cc":"us","latitude":33.753746,"longitude":-84.38633,"reserved":0,"last_update":"0001-01-01T00:00:00Z","name_a2s":"Uncletopia | Atlanta | 3 | Stopwatch Beta","protocol":17,"map":"pl_upward","folder":"tf","game":"Team Fortress","app_id":440,"player_count":0,"max_players":24,"Bots":0,"server_type":"Dedicated","server_os":"Linux","password":true,"vac":true,"version":"7757534","steam_id":85568392924515187,"keywords":["nocrits","nodmgspread","payload","uncletopia"],"game_id":440,"stv_port":27036,"stv_name":"Uncletopia | Atlanta | 3 | Stopwatch Beta | STV","players":null},{"server_id":401,"name":"Uncletopia | Atlanta | 4 | No Payload","name_short":"atl-4","host":"atl-1.us.uncletopia.com","port":27045,"enabled":true,"region":"us-east","cc":"us","latitude":33.753746,"longitude":-84.38633,"reserved":0,"last_update":"0001-01-01T00:00:00Z","name_a2s":"Uncletopia | Atlanta | 4 | No Payload","protocol":17,"map":"pl_pier","folder":"tf","game":"Team Fortress","app_id":440,"player_count":0,"max_players":24,"Bots":0,"server_type":"Dedicated","server_os":"Linux","password":true,"vac":true,"version":"7723704","steam_id":85568392924515188,"keywords":["nocrits","nodmgspread","payload","uncletopia"],"game_id":440,"stv_port":27046,"stv_name":"Uncletopia | Atlanta | 4 | No Payload | STV","players":null},{"server_id":2,"name":"Uncletopia | Chicago | 1 | All Maps","name_short":"chi-1","host":"chi-1.us.uncletopia.com","port":27015,"enabled":true,"region":"us-central","cc":"us","latitude":41.881832,"longitude":-87.62318,"reserved":0,"last_update":"0001-01-01T00:00:00Z","name_a2s":"Uncletopia | Chicago | 1 | All Maps","protocol":17,"map":"pl_borneo","folder":"tf","game":"Team Fortress","app_id":440,"player_count":24,"max_players":24,"Bots":0,"server_type":"Dedicated","server_os":"Linux","password":true,"vac":true,"version":"7757534","steam_id":85568392924469984,"keywords":["nocrits","nodmgspread","payload","uncletopia"],"game_id":440,"stv_port":27016,"stv_name":"Uncletopia | Chicago | 1 | All Maps | STV","players":[{"user_id":682,"name":"rlty","steam_id":76561198009395055,"connected_time":2819000000000,"state":"active","ping":63},{"user_id":707,"name":"Farseer Ulwithy","steam_id":76561197965179245,"connected_time":300000000000,"state":"active","ping":74},{"user_id":700,"name":"I ate those kids in 1984","steam_id":76561199053305387,"connected_time":432000000000,"state":"active","ping":77},{"user_id":697,"name":"void","steam_id":76561198107501413,"connected_time":732000000000,"state":"active","ping":54},{"user_id":695,"name":"gabapentin","steam_id":76561198259529793,"connected_time":1030000000000,"state":"active","ping":82},{"user_id":636,"name":"Ț̷̓r̷̺̈́1̵͒̆ȅ̸͂d̵","steam_id":76561198058522069,"connected_time":6672000000000,"state":"active","ping":76},{"user_id":638,"name":"Woofly132","steam_id":76561199075738626,"connected_time":6645000000000,"state":"active","ping":74},{"user_id":701,"name":"gangster spongebob","steam_id":76561198199090317,"connected_time":415000000000,"state":"active","ping":134},{"user_id":696,"name":"Richard Kickem","steam_id":76561199249733628,"connected_time":1006000000000,"state":"active","ping":78},{"user_id":685,"name":"Dragon of Dojima","steam_id":76561198171059033,"connected_time":2147000000000,"state":"active","ping":116},{"user_id":702,"name":"Penrose42","steam_id":76561198288577396,"connected_time":401000000000,"state":"active","ping":80},{"user_id":703,"name":"Aribari","steam_id":76561198117327938,"connected_time":370000000000,"state":"active","ping":61},{"user_id":704,"name":"Missing Minus","steam_id":76561198120822928,"connected_time":350000000000,"state":"active","ping":64},{"user_id":698,"name":"aberrant salience","steam_id":76561198287671082,"connected_time":673000000000,"state":"active","ping":77},{"user_id":625,"name":"Kapitan Bomba","steam_id":76561199102087660,"connected_time":7598000000000,"state":"active","ping":69},{"user_id":655,"name":"larguu","steam_id":76561197994336210,"connected_time":4893000000000,"state":"active","ping":57},{"user_id":673,"name":"swimmuician","steam_id":76561198154265853,"connected_time":3249000000000,"state":"active","ping":73},{"user_id":705,"name":"stevie","steam_id":76561198096144081,"connected_time":334000000000,"state":"active","ping":90},{"user_id":690,"name":"MRSNGREENKILL","steam_id":76561198436967904,"connected_time":1267000000000,"state":"active","ping":73},{"user_id":642,"name":"PKBEAST_7","steam_id":76561198177136537,"connected_time":6535000000000,"state":"active","ping":91},{"user_id":691,"name":"Tyco","steam_id":76561197978414167,"connected_time":1264000000000,"state":"active","ping":79},{"user_id":688,"name":"Curvrstob","steam_id":76561199012446849,"connected_time":1592000000000,"state":"active","ping":85},{"user_id":693,"name":"Takllin","steam_id":76561199289103007,"connected_time":1230000000000,"state":"active","ping":80},{"user_id":708,"name":"moint pan","steam_id":76561198968773067,"connected_time":212000000000,"state":"active","ping":92}]},{"server_id":106,"name":"Uncletopia | Chicago | 2 | All Maps","name_short":"chi-2","host":"chi-1.us.uncletopia.com","port":27025,"enabled":true,"region":"us-central","cc":"us","latitude":41.881832,"longitude":-87.62318,"reserved":0,"last_update":"0001-01-01T00:00:00Z","name_a2s":"Uncletopia | Chicago | 2 | All Maps","protocol":17,"map":"pl_borneo","folder":"tf","game":"Team Fortress","app_id":440,"player_count":0,"max_players":24,"Bots":0,"server_type":"Dedicated","server_os":"Linux","password":true,"vac":true,"version":"7757534","steam_id":85568392924469985,"keywords":["nocrits","nodmgspread","payload","uncletopia"],"game_id":440,"stv_port":27026,"stv_name":"Uncletopia | Chicago | 2 | All Maps | STV","players":null},{"server_id":402,"name":"Uncletopia | Chicago | 3 | All Maps","name_short":"chi-3","host":"chi-1.us.uncletopia.com","port":27035,"enabled":true,"region":"us-central","cc":"us","latitude":41.881832,"longitude":-87.62318,"reserved":0,"last_update":"0001-01-01T00:00:00Z","name_a2s":"Uncletopia | Chicago | 3 | All Maps","protocol":17,"map":"koth_highpass","folder":"tf","game":"Team Fortress","app_id":440,"player_count":5,"max_players":24,"Bots":0,"server_type":"Dedicated","server_os":"Linux","password":true,"vac":true,"version":"7757534","steam_id":85568392924515191,"keywords":["cp","nocrits","nodmgspread","uncletopia"],"game_id":440,"stv_port":27036,"stv_name":"Uncletopia | Chicago | 3 | All Maps | STV","players":[{"user_id":682,"name":"☁Ridge☁","steam_id":76561198082430898,"connected_time":740000000000,"state":"active","ping":83},{"user_id":683,"name":"Dr. Piss","steam_id":76561199170203468,"connected_time":689000000000,"state":"active","ping":72},{"user_id":685,"name":"Lichy","steam_id":76561198310682841,"connected_time":11000000000,"state":"active","ping":50},{"user_id":679,"name":"Dosario","steam_id":76561198298095535,"connected_time":1545000000000,"state":"active","ping":98},{"user_id":664,"name":"ExEm","steam_id":76561198832738000,"connected_time":4046000000000,"state":"active","ping":69}]},{"server_id":403,"name":"Uncletopia | Chicago | 4 | All Maps","name_short":"chi-4","host":"chi-1.us.uncletopia.com","port":27045,"enabled":true,"region":"us-central","cc":"us","latitude":41.881832,"longitude":-87.62318,"reserved":0,"last_update":"0001-01-01T00:00:00Z","name_a2s":"Uncletopia | Chicago | 4 | All Maps","protocol":17,"map":"pl_pier","folder":"tf","game":"Team Fortress","app_id":440,"player_count":24,"max_players":24,"Bots":0,"server_type":"Dedicated","server_os":"Linux","password":true,"vac":true,"version":"7757534","steam_id":85568392924515193,"keywords":["nocrits","nodmgspread","payload","uncletopia"],"game_id":440,"stv_port":27046,"stv_name":"Uncletopia | Chicago | 4 | All Maps | STV","players":[{"user_id":666,"name":"Sly Fox Lemmy","steam_id":76561198069225954,"connected_time":3108000000000,"state":"active","ping":82},{"user_id":685,"name":"Angel Devil Fan (Derogatory)","steam_id":76561198165208572,"connected_time":1750000000000,"state":"active","ping":50},{"user_id":686,"name":"I Rush ⁧⁧Russians","steam_id":76561198119454013,"connected_time":1729000000000,"state":"active","ping":68},{"user_id":678,"name":"kametro4","steam_id":76561198835430429,"connected_time":2780000000000,"state":"active","ping":81},{"user_id":643,"name":"hamal cine","steam_id":76561198079619374,"connected_time":5372000000000,"state":"active","ping":81},{"user_id":679,"name":"CheeseCake488","steam_id":76561199407617942,"connected_time":2617000000000,"state":"active","ping":127},{"user_id":698,"name":"Maxxycat","steam_id":76561198194062681,"connected_time":1146000000000,"state":"active","ping":61},{"user_id":669,"name":"john kebab sunday","steam_id":76561198026674465,"connected_time":2986000000000,"state":"active","ping":102},{"user_id":697,"name":"McDonald's Hashbrown at 4am","steam_id":76561198273769337,"connected_time":1189000000000,"state":"active","ping":68},{"user_id":637,"name":"k8o","steam_id":76561198042481882,"connected_time":5752000000000,"state":"active","ping":86},{"user_id":683,"name":"three three","steam_id":76561198177354155,"connected_time":1786000000000,"state":"active","ping":47},{"user_id":684,"name":"sweaterfan","steam_id":76561199389567214,"connected_time":1770000000000,"state":"active","ping":64},{"user_id":688,"name":"Tones","steam_id":76561198039572032,"connected_time":1705000000000,"state":"active","ping":64},{"user_id":702,"name":"j020","steam_id":76561198243358410,"connected_time":838000000000,"state":"active","ping":76},{"user_id":675,"name":"the bong james","steam_id":76561198010372082,"connected_time":2871000000000,"state":"active","ping":80},{"user_id":704,"name":"darkHeart :3","steam_id":76561198184071579,"connected_time":57000000000,"state":"spawning","ping":57},{"user_id":652,"name":"MYCHEMICALROMANCEENJOYER2","steam_id":76561198278655467,"connected_time":4644000000000,"state":"active","ping":67},{"user_id":676,"name":"Koolsniper123","steam_id":76561199122168520,"connected_time":2870000000000,"state":"active","ping":69},{"user_id":659,"name":"gyroFSnoob","steam_id":76561198158404683,"connected_time":4301000000000,"state":"active","ping":69},{"user_id":703,"name":"Pongallow","steam_id":76561198146876078,"connected_time":307000000000,"state":"active","ping":45},{"user_id":705,"name":"meow","steam_id":76561198298140571,"connected_time":6000000000,"state":"spawning","ping":83},{"user_id":657,"name":"RyInc","steam_id":76561198874261643,"connected_time":4420000000000,"state":"active","ping":46},{"user_id":682,"name":"Bucket Hat Trick","steam_id":76561198381785132,"connected_time":2105000000000,"state":"active","ping":89},{"user_id":656,"name":"jack's vitamin d","steam_id":76561198036032168,"connected_time":4596000000000,"state":"active","ping":56}]},{"server_id":36,"name":"Uncletopia | Chicago | 5 | All Maps","name_short":"chi-5","host":"chi-2.us.uncletopia.com","port":27015,"enabled":true,"region":"us-central","cc":"us","latitude":41.881832,"longitude":-87.62318,"reserved":0,"last_update":"0001-01-01T00:00:00Z","name_a2s":"Uncletopia | Chicago | 5 | All Maps","protocol":17,"map":"pl_borneo","folder":"tf","game":"Team Fortress","app_id":440,"player_count":22,"max_players":24,"Bots":0,"server_type":"Dedicated","server_os":"Linux","password":true,"vac":true,"version":"7757534","steam_id":85568392924866362,"keywords":["nocrits","nodmgspread","payload","uncletopia"],"game_id":440,"stv_port":27016,"stv_name":"Uncletopia | Chicago | 5 | All Maps | STV","players":[{"user_id":831,"name":"nameban","steam_id":76561198869995094,"connected_time":3109000000000,"state":"active","ping":114},{"user_id":850,"name":"pv.Bebop","steam_id":76561198207022619,"connected_time":1013000000000,"state":"active","ping":67},{"user_id":812,"name":"Fantastic","steam_id":76561198079088978,"connected_time":4163000000000,"state":"active","ping":43},{"user_id":842,"name":"womthedom","steam_id":76561198088768287,"connected_time":1330000000000,"state":"active","ping":58},{"user_id":808,"name":"EATARI","steam_id":76561198158066570,"connected_time":4323000000000,"state":"active","ping":86},{"user_id":856,"name":"Moofins","steam_id":76561198050291949,"connected_time":73000000000,"state":"active","ping":84},{"user_id":813,"name":"Yeshie the Dragon Layer","steam_id":76561198080214214,"connected_time":4158000000000,"state":"active","ping":42},{"user_id":843,"name":"evilgod","steam_id":76561198890522517,"connected_time":1231000000000,"state":"active","ping":88},{"user_id":837,"name":"Stupid frogs!","steam_id":76561198069415057,"connected_time":2059000000000,"state":"active","ping":60},{"user_id":844,"name":"zemtzovart","steam_id":76561199086651334,"connected_time":1230000000000,"state":"active","ping":188},{"user_id":845,"name":"wilbyyy","steam_id":76561198286832779,"connected_time":1228000000000,"state":"active","ping":85},{"user_id":857,"name":"warewarewa","steam_id":76561197965022076,"connected_time":61000000000,"state":"active","ping":59},{"user_id":803,"name":"HanakoToast","steam_id":76561198045233131,"connected_time":4834000000000,"state":"active","ping":101},{"user_id":836,"name":"HE’S IN THE GODDAMN WALLS","steam_id":76561198363267009,"connected_time":2325000000000,"state":"active","ping":64},{"user_id":815,"name":"Vulpes","steam_id":76561198038929334,"connected_time":4078000000000,"state":"active","ping":58},{"user_id":846,"name":"Dr. Pleasant","steam_id":76561198111945101,"connected_time":1114000000000,"state":"active","ping":71},{"user_id":841,"name":"Ye ( I Love Caulk ) West","steam_id":76561198068830312,"connected_time":1352000000000,"state":"active","ping":51},{"user_id":830,"name":"Sleepy","steam_id":76561198108969263,"connected_time":3371000000000,"state":"active","ping":106},{"user_id":822,"name":"IDNTT","steam_id":76561198080859587,"connected_time":3920000000000,"state":"active","ping":118},{"user_id":839,"name":"$$$","steam_id":76561198218897541,"connected_time":1626000000000,"state":"active","ping":70},{"user_id":848,"name":"DJSTRIKER","steam_id":76561198259158272,"connected_time":1076000000000,"state":"active","ping":81},{"user_id":854,"name":"cooldude127","steam_id":76561198804931081,"connected_time":506000000000,"state":"active","ping":81}]},{"server_id":37,"name":"Uncletopia | Chicago | 6 | All Maps","name_short":"chi-6","host":"chi-2.us.uncletopia.com","port":27025,"enabled":true,"region":"us-central","cc":"us","latitude":41.881832,"longitude":-87.62318,"reserved":0,"last_update":"0001-01-01T00:00:00Z","name_a2s":"Uncletopia | Chicago | 6 | All Maps","protocol":17,"map":"cp_mountainlab","folder":"tf","game":"Team Fortress","app_id":440,"player_count":0,"max_players":24,"Bots":0,"server_type":"Dedicated","server_os":"Linux","password":true,"vac":true,"version":"7757534","steam_id":85568392924866363,"keywords":["cp","nocrits","nodmgspread","uncletopia"],"game_id":440,"stv_port":27026,"stv_name":"Uncletopia | Chicago | 6 | All Maps | STV","players":null},{"server_id":38,"name":"Uncletopia | Chicago | 7 | Stopwatch Beta","name_short":"chi-7","host":"chi-2.us.uncletopia.com","port":27035,"enabled":true,"region":"us-central","cc":"us","latitude":41.881832,"longitude":-87.62318,"reserved":0,"last_update":"0001-01-01T00:00:00Z","name_a2s":"Uncletopia | Chicago | 7 | Stopwatch Beta","protocol":17,"map":"workshop/pl_badwater_pro_v12.ugc2142942074","folder":"tf","game":"Team Fortress","app_id":440,"player_count":0,"max_players":24,"Bots":0,"server_type":"Dedicated","server_os":"Linux","password":true,"vac":true,"version":"7757534","steam_id":85568392924866364,"keywords":["nocrits","nodmgspread","payload","uncletopia"],"game_id":440,"stv_port":27036,"stv_name":"Uncletopia | Chicago | 7 | Stopwatch Beta | STV","players":null},{"server_id":39,"name":"Uncletopia | Chicago | 8 | Community","name_short":"chi-8","host":"chi-2.us.uncletopia.com","port":27045,"enabled":true,"region":"us-central","cc":"us","latitude":41.881832,"longitude":-87.62318,"reserved":0,"last_update":"0001-01-01T00:00:00Z","name_a2s":"Uncletopia | Chicago | 8 | Community","protocol":17,"map":"workshop/pl_vigil_rc9.ugc1266210012","folder":"tf","game":"Team Fortress","app_id":440,"player_count":2,"max_players":24,"Bots":0,"server_type":"Dedicated","server_os":"Linux","password":true,"vac":true,"version":"7757534","steam_id":85568392924866365,"keywords":["nocrits","nodmgspread","payload","uncletopia"],"game_id":440,"stv_port":27046,"stv_name":"Uncletopia | Chicago | 8 | Community | STV","players":[{"user_id":327,"name":"Leaf_It","steam_id":76561198018342862,"connected_time":4556000000000,"state":"active","ping":69},{"user_id":330,"name":"RiAvoTheOfficial","steam_id":76561199121022061,"connected_time":3037000000000,"state":"active","ping":211}]},{"server_id":8,"name":"Uncletopia | Dallas | 1 | All Maps","name_short":"dal-1","host":"dal-1.us.uncletopia.com","port":27015,"enabled":true,"region":"us-central","cc":"us","latitude":32.779167,"longitude":-96.80889,"reserved":0,"last_update":"0001-01-01T00:00:00Z","name_a2s":"Uncletopia | Dallas | 1 | All Maps","protocol":17,"map":"cp_egypt_final","folder":"tf","game":"Team Fortress","app_id":440,"player_count":23,"max_players":24,"Bots":0,"server_type":"Dedicated","server_os":"Linux","password":true,"vac":true,"version":"7757534","steam_id":85568392924469986,"keywords":["cp","nocrits","nodmgspread","uncletopia"],"game_id":440,"stv_port":27016,"stv_name":"Uncletopia | Dallas | 1 | All Maps | STV","players":[{"user_id":804,"name":"ttv kason0_0 DOIN SHOTS","steam_id":76561198282279788,"connected_time":545000000000,"state":"active","ping":65},{"user_id":802,"name":"Woof","steam_id":76561198272276745,"connected_time":738000000000,"state":"active","ping":74},{"user_id":798,"name":"Klip","steam_id":76561198316254429,"connected_time":937000000000,"state":"active","ping":54},{"user_id":751,"name":"Dictator Noodle","steam_id":76561198277243768,"connected_time":4441000000000,"state":"active","ping":75},{"user_id":794,"name":"PirateJet","steam_id":76561198050858744,"connected_time":1181000000000,"state":"active","ping":84},{"user_id":750,"name":"BLOCKHEAD04","steam_id":76561198808224331,"connected_time":4601000000000,"state":"active","ping":120},{"user_id":799,"name":"OOHDOOBEGAH","steam_id":76561198083497855,"connected_time":926000000000,"state":"active","ping":70},{"user_id":735,"name":"mbell1199","steam_id":76561198827517736,"connected_time":5668000000000,"state":"active","ping":58},{"user_id":800,"name":"ᖉⱯꓕ","steam_id":76561198307722640,"connected_time":903000000000,"state":"active","ping":83},{"user_id":791,"name":"Newt","steam_id":76561198842909288,"connected_time":1585000000000,"state":"active","ping":89},{"user_id":790,"name":"Rurigade Towers","steam_id":76561198148598905,"connected_time":1729000000000,"state":"active","ping":85},{"user_id":788,"name":"HimynamewaS","steam_id":76561199082300828,"connected_time":1905000000000,"state":"active","ping":67},{"user_id":776,"name":"Large Charles","steam_id":76561197999663001,"connected_time":2604000000000,"state":"active","ping":56},{"user_id":782,"name":"Charles","steam_id":76561198155322277,"connected_time":2437000000000,"state":"active","ping":88},{"user_id":738,"name":"Dojojo","steam_id":76561198035654543,"connected_time":5627000000000,"state":"active","ping":65},{"user_id":775,"name":"Atlas","steam_id":76561199071658126,"connected_time":2663000000000,"state":"active","ping":77},{"user_id":789,"name":"Yoshimelon","steam_id":76561198253054325,"connected_time":1901000000000,"state":"active","ping":45},{"user_id":795,"name":"Team Fortress 2 Sex Update","steam_id":76561199466918607,"connected_time":1153000000000,"state":"active","ping":86},{"user_id":707,"name":"A Gamer [F2P]","steam_id":76561198138712892,"connected_time":8679000000000,"state":"active","ping":42},{"user_id":765,"name":"Galactamarx","steam_id":76561198028065755,"connected_time":3859000000000,"state":"active","ping":80},{"user_id":801,"name":"djfguru67","steam_id":76561198383941363,"connected_time":897000000000,"state":"active","ping":108},{"user_id":803,"name":"YouButBirthdayHours","steam_id":76561198368198172,"connected_time":703000000000,"state":"active","ping":67},{"user_id":766,"name":"veno","steam_id":76561198110261781,"connected_time":3852000000000,"state":"active","ping":52}]},{"server_id":108,"name":"Uncletopia | Dallas | 2 | All Maps","name_short":"dal-2","host":"dal-1.us.uncletopia.com","port":27025,"enabled":true,"region":"us-central","cc":"us","latitude":32.779167,"longitude":-96.80889,"reserved":0,"last_update":"0001-01-01T00:00:00Z","name_a2s":"Uncletopia | Dallas | 2 | All Maps","protocol":17,"map":"pl_barnblitz","folder":"tf","game":"Team Fortress","app_id":440,"player_count":24,"max_players":24,"Bots":0,"server_type":"Dedicated","server_os":"Linux","password":true,"vac":true,"version":"7757534","steam_id":85568392924469988,"keywords":["nocrits","nodmgspread","payload","uncletopia"],"game_id":440,"stv_port":27026,"stv_name":"Uncletopia | Dallas | 2 | All Maps | STV","players":[{"user_id":308,"name":"don't pursue lu bu","steam_id":76561198105515914,"connected_time":1503000000000,"state":"active","ping":62},{"user_id":281,"name":"-- .. -.- . / .... ..- -. -","steam_id":76561198109120511,"connected_time":4316000000000,"state":"active","ping":55},{"user_id":267,"name":"Saikyo","steam_id":76561198212461467,"connected_time":5575000000000,"state":"active","ping":44},{"user_id":321,"name":"Dr. Bobo","steam_id":76561198271696761,"connected_time":635000000000,"state":"active","ping":65},{"user_id":251,"name":"Birdhorse Of Course","steam_id":76561198038997485,"connected_time":7880000000000,"state":"active","ping":79},{"user_id":310,"name":"Pasta","steam_id":76561198170042173,"connected_time":1461000000000,"state":"active","ping":74},{"user_id":311,"name":"Gold Ghost","steam_id":76561199005805984,"connected_time":1453000000000,"state":"active","ping":44},{"user_id":270,"name":"Chiaki Nanami","steam_id":76561198164782653,"connected_time":5531000000000,"state":"active","ping":94},{"user_id":300,"name":"JasonIsGold79","steam_id":76561198101441539,"connected_time":2422000000000,"state":"active","ping":90},{"user_id":322,"name":"󠀡󠀡","steam_id":76561198202704364,"connected_time":450000000000,"state":"active","ping":85},{"user_id":318,"name":"gravyballs254","steam_id":76561198206132012,"connected_time":880000000000,"state":"active","ping":98},{"user_id":320,"name":"Cheeki-Breekinator","steam_id":76561198040120806,"connected_time":689000000000,"state":"active","ping":75},{"user_id":283,"name":"Riff","steam_id":76561198066921423,"connected_time":4303000000000,"state":"active","ping":68},{"user_id":290,"name":"Landlord","steam_id":76561198987913057,"connected_time":3925000000000,"state":"active","ping":96},{"user_id":247,"name":"Hooray!","steam_id":76561198136487957,"connected_time":8474000000000,"state":"active","ping":62},{"user_id":323,"name":"Rat Smacker","steam_id":76561199090197628,"connected_time":130000000000,"state":"active","ping":69},{"user_id":289,"name":"herb","steam_id":76561198185980055,"connected_time":4039000000000,"state":"active","ping":69},{"user_id":260,"name":"Woo-Hoo!","steam_id":76561198331647216,"connected_time":6438000000000,"state":"active","ping":71},{"user_id":315,"name":"Artic_Ryuu","steam_id":76561198182194918,"connected_time":1025000000000,"state":"active","ping":77},{"user_id":303,"name":"Ozone-flavored Starburst","steam_id":76561199163688421,"connected_time":1683000000000,"state":"active","ping":74},{"user_id":282,"name":"Shortbane","steam_id":76561198247166584,"connected_time":4308000000000,"state":"active","ping":62},{"user_id":319,"name":"TOKENLIZARD","steam_id":76561198218765205,"connected_time":868000000000,"state":"active","ping":66},{"user_id":299,"name":"Skab","steam_id":76561199126112357,"connected_time":2660000000000,"state":"active","ping":74}]},{"server_id":5,"name":"Uncletopia | Frankfurt | 1 | All Maps","name_short":"frk-1","host":"frk-1.de.uncletopia.com","port":27015,"enabled":true,"region":"eu","cc":"de","latitude":50.110924,"longitude":8.682127,"reserved":0,"last_update":"0001-01-01T00:00:00Z","name_a2s":"Uncletopia | Frankfurt | 1 | All Maps","protocol":17,"map":"pl_pier","folder":"tf","game":"Team Fortress","app_id":440,"player_count":0,"max_players":24,"Bots":0,"server_type":"Dedicated","server_os":"Linux","password":true,"vac":true,"version":"7757534","steam_id":85568392924469989,"keywords":["nocrits","nodmgspread","payload","uncletopia"],"game_id":440,"stv_port":27016,"stv_name":"Uncletopia | Frankfurt | 1 | All Maps | STV","players":null},{"server_id":110,"name":"Uncletopia | Frankfurt | 2 | All Maps","name_short":"frk-2","host":"frk-1.de.uncletopia.com","port":27025,"enabled":true,"region":"eu","cc":"de","latitude":50.110924,"longitude":8.682127,"reserved":0,"last_update":"0001-01-01T00:00:00Z","name_a2s":"Uncletopia | Frankfurt | 2 | All Maps","protocol":17,"map":"cp_mountainlab","folder":"tf","game":"Team Fortress","app_id":440,"player_count":0,"max_players":24,"Bots":0,"server_type":"Dedicated","server_os":"Linux","password":true,"vac":true,"version":"7757534","steam_id":85568392924469990,"keywords":["cp","nocrits","nodmgspread","uncletopia"],"game_id":440,"stv_port":27026,"stv_name":"Uncletopia | Frankfurt | 2 | All Maps | STV","players":null},{"server_id":308,"name":"Uncletopia | Frankfurt | 3 | All Maps","name_short":"frk-3","host":"frk-1.de.uncletopia.com","port":27035,"enabled":true,"region":"eu","cc":"de","latitude":50.110924,"longitude":8.682127,"reserved":0,"last_update":"0001-01-01T00:00:00Z","name_a2s":"Uncletopia | Frankfurt | 3 | All Maps","protocol":17,"map":"pl_barnblitz","folder":"tf","game":"Team Fortress","app_id":440,"player_count":0,"max_players":24,"Bots":0,"server_type":"Dedicated","server_os":"Linux","password":true,"vac":true,"version":"7757534","steam_id":85568392924504274,"keywords":["nocrits","nodmgspread","payload","uncletopia"],"game_id":440,"stv_port":27036,"stv_name":"Uncletopia | Frankfurt | 3 | All Maps | STV","players":null},{"server_id":309,"name":"Uncletopia | Frankfurt | 4 | All Maps","name_short":"frk-4","host":"frk-1.de.uncletopia.com","port":27045,"enabled":true,"region":"eu","cc":"de","latitude":50.110924,"longitude":8.682127,"reserved":0,"last_update":"0001-01-01T00:00:00Z","name_a2s":"Uncletopia | Frankfurt | 4 | All Maps","protocol":17,"map":"pl_snowycoast","folder":"tf","game":"Team Fortress","app_id":440,"player_count":0,"max_players":24,"Bots":0,"server_type":"Dedicated","server_os":"Linux","password":true,"vac":true,"version":"7757534","steam_id":85568392924504275,"keywords":["nocrits","nodmgspread","payload","uncletopia"],"game_id":440,"stv_port":27046,"stv_name":"Uncletopia | Frankfurt | 4 | All Maps | STV","players":null},{"server_id":310,"name":"Uncletopia | Frankfurt | 5 | All Maps","name_short":"frk-5","host":"frk-1.de.uncletopia.com","port":27055,"enabled":true,"region":"eu","cc":"de","latitude":50.110924,"longitude":8.682127,"reserved":0,"last_update":"0001-01-01T00:00:00Z","name_a2s":"Uncletopia | Frankfurt | 5 | All Maps","protocol":17,"map":"cp_altitude","folder":"tf","game":"Team Fortress","app_id":440,"player_count":0,"max_players":24,"Bots":0,"server_type":"Dedicated","server_os":"Linux","password":true,"vac":true,"version":"7757534","steam_id":85568392924504277,"keywords":["cp","nocrits","nodmgspread","uncletopia"],"game_id":440,"stv_port":27056,"stv_name":"Uncletopia | Frankfurt | 5 | All Maps | STV","players":null},{"server_id":311,"name":"Uncletopia | Frankfurt | 6 | All Maps","name_short":"frk-6","host":"frk-1.de.uncletopia.com","port":27065,"enabled":true,"region":"eu","cc":"de","latitude":50.110924,"longitude":8.682127,"reserved":0,"last_update":"0001-01-01T00:00:00Z","name_a2s":"Uncletopia | Frankfurt | 6 | All Maps","protocol":17,"map":"koth_highpass","folder":"tf","game":"Team Fortress","app_id":440,"player_count":0,"max_players":24,"Bots":0,"server_type":"Dedicated","server_os":"Linux","password":true,"vac":true,"version":"7757534","steam_id":85568392924504278,"keywords":["cp","nocrits","nodmgspread","uncletopia"],"game_id":440,"stv_port":27066,"stv_name":"Uncletopia | Frankfurt | 6 | All Maps | STV","players":null},{"server_id":23,"name":"Uncletopia | Frankfurt | 7 | Stopwatch Beta","name_short":"frk-7","host":"frk-1.de.uncletopia.com","port":27075,"enabled":true,"region":"eu","cc":"de","latitude":50.110924,"longitude":8.682127,"reserved":0,"last_update":"0001-01-01T00:00:00Z","name_a2s":"Uncletopia | Frankfurt | 7 | Stopwatch Beta","protocol":17,"map":"pl_borneo","folder":"tf","game":"Team Fortress","app_id":440,"player_count":0,"max_players":24,"Bots":0,"server_type":"Dedicated","server_os":"Linux","password":true,"vac":true,"version":"7757534","steam_id":85568392924742827,"keywords":["nocrits","nodmgspread","payload","uncletopia"],"game_id":440,"stv_port":27076,"stv_name":"Uncletopia | Frankfurt | 7 | Stopwatch Beta | STV","players":null},{"server_id":24,"name":"Uncletopia | Frankfurt | 8 | Community","name_short":"frk-8","host":"frk-1.de.uncletopia.com","port":27085,"enabled":true,"region":"eu","cc":"de","latitude":50.110924,"longitude":8.682127,"reserved":0,"last_update":"0001-01-01T00:00:00Z","name_a2s":"Uncletopia | Frankfurt | 8 | Community","protocol":17,"map":"koth_cascade","folder":"tf","game":"Team Fortress","app_id":440,"player_count":0,"max_players":24,"Bots":0,"server_type":"Dedicated","server_os":"Linux","password":true,"vac":true,"version":"7757534","steam_id":85568392924742828,"keywords":["cp","nocrits","nodmgspread","uncletopia"],"game_id":440,"stv_port":27086,"stv_name":"Uncletopia | Frankfurt | 8 | Community | STV","players":null},{"server_id":202,"name":"Uncletopia | Hong Kong | 1 | All Maps","name_short":"hgk-1","host":"hgk-1.hk.uncletopia.com","port":27015,"enabled":true,"region":"asia","cc":"hk","latitude":22.302711,"longitude":114.177216,"reserved":0,"last_update":"0001-01-01T00:00:00Z","name_a2s":"Uncletopia | Hong Kong | 1 | All Maps","protocol":17,"map":"pl_pier","folder":"tf","game":"Team Fortress","app_id":440,"player_count":24,"max_players":24,"Bots":0,"server_type":"Dedicated","server_os":"Linux","password":true,"vac":true,"version":"7757534","steam_id":85568392924494504,"keywords":["nocrits","nodmgspread","payload","uncletopia"],"game_id":440,"stv_port":27016,"stv_name":"Uncletopia | Hong Kong | 1 | All Maps | STV","players":[{"user_id":266,"name":"loreley","steam_id":76561198230213828,"connected_time":3248000000000,"state":"active","ping":61},{"user_id":366,"name":"Vortex Morez","steam_id":76561198833527091,"connected_time":119000000000,"state":"active","ping":100},{"user_id":272,"name":"Momru","steam_id":76561198275587172,"connected_time":2933000000000,"state":"active","ping":104},{"user_id":299,"name":"lettuce at 58p","steam_id":76561199401283123,"connected_time":1494000000000,"state":"active","ping":88},{"user_id":156,"name":"Peter Python","steam_id":76561198353760830,"connected_time":11164000000000,"state":"active","ping":134},{"user_id":269,"name":"tiden2000","steam_id":76561198092969425,"connected_time":2998000000000,"state":"active","ping":108},{"user_id":236,"name":"Buttman","steam_id":76561198044693388,"connected_time":7469000000000,"state":"active","ping":42},{"user_id":368,"name":"GreggieBoi","steam_id":76561199085200364,"connected_time":114000000000,"state":"active","ping":58},{"user_id":353,"name":"bocchi's 8ft cock","steam_id":76561199146847474,"connected_time":189000000000,"state":"active","ping":55},{"user_id":371,"name":"ThatGuyUSA","steam_id":76561198066919531,"connected_time":11000000000,"state":"active","ping":211},{"user_id":69,"name":"timmy.1366","steam_id":76561199065433547,"connected_time":16423000000000,"state":"active","ping":77},{"user_id":262,"name":"煙海 | Enkai","steam_id":76561198050460825,"connected_time":3815000000000,"state":"active","ping":75},{"user_id":240,"name":"Light Rainbow","steam_id":76561198118966673,"connected_time":6760000000000,"state":"active","ping":37},{"user_id":365,"name":"17","steam_id":76561198241530712,"connected_time":123000000000,"state":"active","ping":59},{"user_id":259,"name":"im_0ff","steam_id":76561198339346695,"connected_time":4294000000000,"state":"active","ping":121},{"user_id":274,"name":"jerrybel","steam_id":76561198055553140,"connected_time":2710000000000,"state":"active","ping":75},{"user_id":255,"name":"water tastes good","steam_id":76561199375947670,"connected_time":4572000000000,"state":"active","ping":82},{"user_id":367,"name":"vas","steam_id":76561198400698408,"connected_time":116000000000,"state":"active","ping":90},{"user_id":369,"name":"SavingPrivateEpa","steam_id":76561199126651013,"connected_time":100000000000,"state":"active","ping":111},{"user_id":324,"name":"PuMPkiNS","steam_id":76561199174449723,"connected_time":665000000000,"state":"active","ping":115},{"user_id":370,"name":"David Keithson","steam_id":76561199279393636,"connected_time":52000000000,"state":"active","ping":81},{"user_id":154,"name":"Nonexistent","steam_id":76561198980563251,"connected_time":11304000000000,"state":"active","ping":81},{"user_id":277,"name":"hot sauce miku","steam_id":76561198413116920,"connected_time":2265000000000,"state":"active","ping":81},{"user_id":309,"name":"Jimi Hend-Rizz Excrements","steam_id":76561198826565047,"connected_time":952000000000,"state":"active","ping":89}]},{"server_id":1,"name":"Uncletopia | Los Angeles | 1 | All Maps","name_short":"lax-1","host":"lax-1.us.uncletopia.com","port":27015,"enabled":true,"region":"us-west","cc":"us","latitude":33.94279,"longitude":-118.41004,"reserved":0,"last_update":"0001-01-01T00:00:00Z","name_a2s":"Uncletopia | Los Angeles | 1 | All Maps","protocol":17,"map":"pl_coal_event","folder":"tf","game":"Team Fortress","app_id":440,"player_count":23,"max_players":24,"Bots":0,"server_type":"Dedicated","server_os":"Linux","password":true,"vac":true,"version":"7757534","steam_id":85568392924469991,"keywords":["nocrits","nodmgspread","payload","uncletopia"],"game_id":440,"stv_port":27016,"stv_name":"Uncletopia | Los Angeles | 1 | All Maps | STV","players":[{"user_id":501,"name":"pipeline","steam_id":76561198212263380,"connected_time":4134000000000,"state":"active","ping":76},{"user_id":528,"name":"Killerofzombie23","steam_id":76561198799173778,"connected_time":1441000000000,"state":"active","ping":75},{"user_id":470,"name":"Bryce Gobo","steam_id":76561199411560141,"connected_time":7525000000000,"state":"active","ping":73},{"user_id":374,"name":"ุ","steam_id":76561198084134025,"connected_time":16053000000000,"state":"active","ping":104},{"user_id":516,"name":"❄Brrr-azorn❄","steam_id":76561198096327396,"connected_time":3256000000000,"state":"active","ping":113},{"user_id":439,"name":"Who is She?","steam_id":76561198080963759,"connected_time":10819000000000,"state":"active","ping":64},{"user_id":517,"name":"QueeQuee","steam_id":76561198070804012,"connected_time":3071000000000,"state":"active","ping":69},{"user_id":522,"name":"Sasuri","steam_id":76561198404769732,"connected_time":1860000000000,"state":"active","ping":57},{"user_id":495,"name":"YungKeet","steam_id":76561198293854963,"connected_time":4757000000000,"state":"active","ping":91},{"user_id":529,"name":"fulices","steam_id":76561198420163702,"connected_time":1344000000000,"state":"active","ping":42},{"user_id":539,"name":"Hifumi Togo","steam_id":76561198074930636,"connected_time":242000000000,"state":"active","ping":91},{"user_id":509,"name":"Mr. Yoshida","steam_id":76561198263829831,"connected_time":3655000000000,"state":"active","ping":73},{"user_id":508,"name":"Fresh","steam_id":76561198068565728,"connected_time":3656000000000,"state":"active","ping":59},{"user_id":534,"name":"Cixty","steam_id":76561198086749028,"connected_time":1048000000000,"state":"active","ping":59},{"user_id":510,"name":"sly1","steam_id":76561198049014977,"connected_time":3650000000000,"state":"active","ping":59},{"user_id":521,"name":"Impacer","steam_id":76561198133015547,"connected_time":1871000000000,"state":"active","ping":68},{"user_id":525,"name":"Grim","steam_id":76561198158911860,"connected_time":1765000000000,"state":"active","ping":85},{"user_id":520,"name":"The Caretaker","steam_id":76561198125241411,"connected_time":2479000000000,"state":"active","ping":61},{"user_id":537,"name":"selvhat","steam_id":76561198114225509,"connected_time":862000000000,"state":"active","ping":51},{"user_id":518,"name":"s9","steam_id":76561198065339248,"connected_time":2996000000000,"state":"active","ping":57},{"user_id":372,"name":"FESTIVE SQU1RRELLY","steam_id":76561197961279983,"connected_time":16162000000000,"state":"active","ping":75},{"user_id":538,"name":"cream team","steam_id":76561198139043953,"connected_time":381000000000,"state":"active","ping":82},{"user_id":513,"name":"Chili","steam_id":76561198042942046,"connected_time":3436000000000,"state":"active","ping":77}]},{"server_id":112,"name":"Uncletopia | Los Angeles | 2 | All Maps","name_short":"lax-2","host":"lax-1.us.uncletopia.com","port":27025,"enabled":true,"region":"us-west","cc":"us","latitude":33.94279,"longitude":-118.41004,"reserved":0,"last_update":"0001-01-01T00:00:00Z","name_a2s":"Uncletopia | Los Angeles | 2 | All Maps","protocol":17,"map":"koth_cascade","folder":"tf","game":"Team Fortress","app_id":440,"player_count":0,"max_players":24,"Bots":0,"server_type":"Dedicated","server_os":"Linux","password":true,"vac":true,"version":"7757534","steam_id":85568392924469992,"keywords":["cp","nocrits","nodmgspread","uncletopia"],"game_id":440,"stv_port":27026,"stv_name":"Uncletopia | Los Angeles | 2 | All Maps | STV","players":null},{"server_id":324,"name":"Uncletopia | Los Angeles | 3 | All Maps","name_short":"lax-3","host":"lax-1.us.uncletopia.com","port":27035,"enabled":true,"region":"us-west","cc":"us","latitude":33.94279,"longitude":-118.41004,"reserved":0,"last_update":"0001-01-01T00:00:00Z","name_a2s":"Uncletopia | Los Angeles | 3 | All Maps","protocol":17,"map":"cp_badlands","folder":"tf","game":"Team Fortress","app_id":440,"player_count":22,"max_players":24,"Bots":0,"server_type":"Dedicated","server_os":"Linux","password":true,"vac":true,"version":"7757534","steam_id":85568392924510198,"keywords":["cp","nocrits","nodmgspread","uncletopia"],"game_id":440,"stv_port":27036,"stv_name":"Uncletopia | Los Angeles | 3 | All Maps | STV","players":[{"user_id":311,"name":"Pan Dulce","steam_id":76561198044444716,"connected_time":4000000000,"state":"spawning","ping":44},{"user_id":292,"name":"dive","steam_id":76561198025499950,"connected_time":1712000000000,"state":"active","ping":123},{"user_id":301,"name":"Um, cool!","steam_id":76561198129870038,"connected_time":288000000000,"state":"active","ping":54},{"user_id":296,"name":"Professor Peppermint","steam_id":76561198184017082,"connected_time":953000000000,"state":"active","ping":89},{"user_id":298,"name":"cilo","steam_id":76561198046163502,"connected_time":838000000000,"state":"active","ping":75},{"user_id":303,"name":"Truffles","steam_id":76561198095868800,"connected_time":152000000000,"state":"active","ping":97},{"user_id":305,"name":"Shoe","steam_id":76561198951926312,"connected_time":100000000000,"state":"active","ping":118},{"user_id":306,"name":"[El Fail] MR.BadassMCLee","steam_id":76561198043787818,"connected_time":82000000000,"state":"active","ping":58},{"user_id":287,"name":"Grand","steam_id":76561198290143399,"connected_time":1823000000000,"state":"active","ping":79},{"user_id":307,"name":"AL GORE GAMING","steam_id":76561198429080860,"connected_time":80000000000,"state":"active","ping":174},{"user_id":258,"name":"mrdmnd","steam_id":76561198010278383,"connected_time":3306000000000,"state":"active","ping":49},{"user_id":308,"name":"Rice Farmer","steam_id":76561198448407150,"connected_time":62000000000,"state":"active","ping":59},{"user_id":309,"name":"⛧⸸⛧⸸⛧⸸","steam_id":76561198007051179,"connected_time":55000000000,"state":"active","ping":51},{"user_id":310,"name":"R4 | Mr. Commissioner","steam_id":76561198101666509,"connected_time":49000000000,"state":"active","ping":85},{"user_id":269,"name":"FightyPNW","steam_id":76561198981808810,"connected_time":2633000000000,"state":"active","ping":87},{"user_id":270,"name":"bungus","steam_id":76561198026280824,"connected_time":2545000000000,"state":"active","ping":91},{"user_id":282,"name":"Daddy-O Dizzy","steam_id":76561198292349348,"connected_time":2079000000000,"state":"active","ping":76},{"user_id":312,"name":"[LL] Basketball","steam_id":76561198106969410,"connected_time":4000000000,"state":"spawning","ping":222},{"user_id":276,"name":"Snety Gun","steam_id":76561198862745731,"connected_time":2225000000000,"state":"active","ping":89},{"user_id":240,"name":"Lavernius41","steam_id":76561198807274102,"connected_time":4277000000000,"state":"active","ping":70},{"user_id":279,"name":"Type Three Dabeetus","steam_id":76561198062710038,"connected_time":2171000000000,"state":"active","ping":59},{"user_id":293,"name":"skaj","steam_id":76561198082278586,"connected_time":1679000000000,"state":"active","ping":103}]},{"server_id":25,"name":"Uncletopia | Los Angeles | 4 | Stopwatch Beta","name_short":"lax-4","host":"lax-1.us.uncletopia.com","port":27045,"enabled":true,"region":"us-west","cc":"us","latitude":33.94279,"longitude":-118.41004,"reserved":0,"last_update":"0001-01-01T00:00:00Z","name_a2s":"Uncletopia | Los Angeles | 4 | Stopwatch Beta","protocol":17,"map":"koth_viaduct","folder":"tf","game":"Team Fortress","app_id":440,"player_count":0,"max_players":24,"Bots":0,"server_type":"Dedicated","server_os":"Linux","password":true,"vac":true,"version":"7757534","steam_id":85568392924510199,"keywords":["cp","nocrits","nodmgspread","uncletopia"],"game_id":440,"stv_port":27046,"stv_name":"Uncletopia | Los Angeles | 4 | Stopwatch Beta | STV","players":null},{"server_id":11,"name":"Uncletopia | London | 1 | All Maps","name_short":"lon-1","host":"lon-1.uk.uncletopia.com","port":27015,"enabled":true,"region":"eu","cc":"gb","latitude":51.509865,"longitude":-0.118092,"reserved":0,"last_update":"0001-01-01T00:00:00Z","name_a2s":"Uncletopia | London | 1 | All Maps","protocol":17,"map":"pl_borneo","folder":"tf","game":"Team Fortress","app_id":440,"player_count":24,"max_players":24,"Bots":0,"server_type":"Dedicated","server_os":"Linux","password":true,"vac":true,"version":"7757534","steam_id":85568392924367362,"keywords":["nocrits","nodmgspread","payload","uncletopia"],"game_id":440,"stv_port":27016,"stv_name":"Uncletopia | London | 1 | All Maps | STV","players":[{"user_id":85,"name":"PoseidonKnight","steam_id":76561198810878805,"connected_time":1206000000000,"state":"active","ping":119},{"user_id":59,"name":"Stun","steam_id":76561198047359132,"connected_time":3416000000000,"state":"active","ping":75},{"user_id":56,"name":"DemoKnight™","steam_id":76561199152186875,"connected_time":3461000000000,"state":"active","ping":161},{"user_id":60,"name":"Rezolt","steam_id":76561198069074807,"connected_time":3344000000000,"state":"active","ping":110},{"user_id":7,"name":"Hudzy","steam_id":76561198058290638,"connected_time":6735000000000,"state":"active","ping":48},{"user_id":65,"name":"ӋԼן.maS","steam_id":76561198114953928,"connected_time":2162000000000,"state":"active","ping":65},{"user_id":79,"name":"Mega Man Legends 3","steam_id":76561198014110199,"connected_time":1871000000000,"state":"active","ping":39},{"user_id":72,"name":"Fmow!","steam_id":76561198805834759,"connected_time":2138000000000,"state":"active","ping":120},{"user_id":43,"name":"333res","steam_id":76561198148106704,"connected_time":4472000000000,"state":"active","ping":88},{"user_id":84,"name":"finger","steam_id":76561198135274835,"connected_time":1215000000000,"state":"active","ping":101},{"user_id":75,"name":"Comilot","steam_id":76561198040234609,"connected_time":2119000000000,"state":"active","ping":94},{"user_id":68,"name":"duster cat","steam_id":76561198832231975,"connected_time":2157000000000,"state":"active","ping":95},{"user_id":87,"name":"HoodyWood","steam_id":76561198015361213,"connected_time":942000000000,"state":"active","ping":70},{"user_id":71,"name":"Micro","steam_id":76561198319239296,"connected_time":2149000000000,"state":"active","ping":144},{"user_id":64,"name":"тукку ирма","steam_id":76561197998715016,"connected_time":2290000000000,"state":"active","ping":60},{"user_id":73,"name":"stoppen","steam_id":76561197960281482,"connected_time":2136000000000,"state":"active","ping":73},{"user_id":81,"name":"Bob","steam_id":76561198218200489,"connected_time":1787000000000,"state":"active","ping":48},{"user_id":83,"name":"WildRode","steam_id":76561199199446240,"connected_time":1249000000000,"state":"active","ping":78},{"user_id":86,"name":"Sneaky boi","steam_id":76561199195985387,"connected_time":1133000000000,"state":"active","ping":91},{"user_id":69,"name":"real stun","steam_id":76561198276681691,"connected_time":2156000000000,"state":"active","ping":49},{"user_id":23,"name":"iuSDIB8+ ň7","steam_id":76561198363768590,"connected_time":6626000000000,"state":"active","ping":94},{"user_id":26,"name":"☠Holy(cz)☠","steam_id":76561197985535494,"connected_time":6320000000000,"state":"active","ping":101},{"user_id":70,"name":"Echo of Abyss","steam_id":76561198981841782,"connected_time":2156000000000,"state":"active","ping":85},{"user_id":45,"name":"Luke SpyWalker","steam_id":76561198008643276,"connected_time":4210000000000,"state":"active","ping":67}]},{"server_id":114,"name":"Uncletopia | London | 2 | All Maps","name_short":"lon-2","host":"lon-1.uk.uncletopia.com","port":27025,"enabled":true,"region":"eu","cc":"gb","latitude":51.509865,"longitude":-0.118092,"reserved":0,"last_update":"0001-01-01T00:00:00Z","name_a2s":"Uncletopia | London | 2 | All Maps","protocol":17,"map":"pl_borneo","folder":"tf","game":"Team Fortress","app_id":440,"player_count":0,"max_players":24,"Bots":0,"server_type":"Dedicated","server_os":"Linux","password":true,"vac":true,"version":"7757534","steam_id":85568392924470941,"keywords":["nocrits","nodmgspread","payload","uncletopia"],"game_id":440,"stv_port":27026,"stv_name":"Uncletopia | London | 2 | All Maps | STV","players":null},{"server_id":320,"name":"Uncletopia | London | 3 | All Maps","name_short":"lon-3","host":"lon-1.uk.uncletopia.com","port":27035,"enabled":true,"region":"eu","cc":"gb","latitude":51.509865,"longitude":-0.118092,"reserved":0,"last_update":"0001-01-01T00:00:00Z","name_a2s":"Uncletopia | London | 3 | All Maps","protocol":17,"map":"pl_upward","folder":"tf","game":"Team Fortress","app_id":440,"player_count":9,"max_players":24,"Bots":0,"server_type":"Dedicated","server_os":"Linux","password":true,"vac":true,"version":"7757534","steam_id":85568392924510192,"keywords":["nocrits","nodmgspread","payload","uncletopia"],"game_id":440,"stv_port":27036,"stv_name":"Uncletopia | London | 3 | All Maps | STV","players":[{"user_id":7,"name":"bug","steam_id":76561198008662376,"connected_time":1768000000000,"state":"active","ping":85},{"user_id":17,"name":"Spam \u0026 Heals Inc.","steam_id":76561198317165644,"connected_time":721000000000,"state":"active","ping":43},{"user_id":5,"name":"FingerMan","steam_id":76561198004040091,"connected_time":2595000000000,"state":"active","ping":56},{"user_id":8,"name":"Organic Donut","steam_id":76561199119121016,"connected_time":1639000000000,"state":"active","ping":82},{"user_id":9,"name":"VLADIM:IR","steam_id":76561198070275802,"connected_time":1566000000000,"state":"active","ping":70},{"user_id":23,"name":"The Blues Brother","steam_id":76561198043935491,"connected_time":80000000000,"state":"active","ping":100},{"user_id":21,"name":"Onnipoko","steam_id":76561198183966883,"connected_time":116000000000,"state":"active","ping":100},{"user_id":24,"name":"‰Kacu","steam_id":76561198026228672,"connected_time":68000000000,"state":"active","ping":79},{"user_id":13,"name":"BlackBird","steam_id":76561198093229816,"connected_time":1396000000000,"state":"active","ping":86}]},{"server_id":321,"name":"Uncletopia | London | 4 | All Maps","name_short":"lon-4","host":"lon-1.uk.uncletopia.com","port":27045,"enabled":true,"region":"eu","cc":"gb","latitude":51.509865,"longitude":-0.118092,"reserved":0,"last_update":"0001-01-01T00:00:00Z","name_a2s":"Uncletopia | London | 4 | All Maps","protocol":17,"map":"cp_dustbowl","folder":"tf","game":"Team Fortress","app_id":440,"player_count":0,"max_players":24,"Bots":0,"server_type":"Dedicated","server_os":"Linux","password":true,"vac":true,"version":"7757534","steam_id":85568392924510193,"keywords":["cp","nocrits","nodmgspread","uncletopia"],"game_id":440,"stv_port":27046,"stv_name":"Uncletopia | London | 4 | All Maps | STV","players":null},{"server_id":21,"name":"Uncletopia | London | 5 | All Maps","name_short":"lon-5","host":"lon-1.uk.uncletopia.com","port":27055,"enabled":true,"region":"eu","cc":"gb","latitude":51.509865,"longitude":-0.118092,"reserved":0,"last_update":"0001-01-01T00:00:00Z","name_a2s":"Uncletopia | London | 5 | All Maps","protocol":17,"map":"pl_snowycoast","folder":"tf","game":"Team Fortress","app_id":440,"player_count":0,"max_players":24,"Bots":0,"server_type":"Dedicated","server_os":"Linux","password":true,"vac":true,"version":"7757534","steam_id":85568392924742829,"keywords":["nocrits","nodmgspread","payload","uncletopia"],"game_id":440,"stv_port":27056,"stv_name":"Uncletopia | London | 5 | All Maps | STV","players":null},{"server_id":22,"name":"Uncletopia | London | 6 | All Maps","name_short":"lon-6","host":"lon-1.uk.uncletopia.com","port":27065,"enabled":true,"region":"eu","cc":"gb","latitude":51.509865,"longitude":-0.118092,"reserved":0,"last_update":"0001-01-01T00:00:00Z","name_a2s":"Uncletopia | London | 6 | All Maps","protocol":17,"map":"pl_snowycoast","folder":"tf","game":"Team Fortress","app_id":440,"player_count":0,"max_players":24,"Bots":0,"server_type":"Dedicated","server_os":"Linux","password":true,"vac":true,"version":"7757534","steam_id":85568392924742830,"keywords":["nocrits","nodmgspread","payload","uncletopia"],"game_id":440,"stv_port":27066,"stv_name":"Uncletopia | London | 6 | All Maps | STV","players":null},{"server_id":40,"name":"Uncletopia | London | 7 | No Payload","name_short":"lon-7","host":"lon-1.uk.uncletopia.com","port":27075,"enabled":true,"region":"eu","cc":"gb","latitude":51.509865,"longitude":-0.118092,"reserved":0,"last_update":"0001-01-01T00:00:00Z","name_a2s":"Uncletopia | London | 7 | No Payload","protocol":17,"map":"pl_upward","folder":"tf","game":"Team Fortress","app_id":440,"player_count":0,"max_players":24,"Bots":0,"server_type":"Dedicated","server_os":"Linux","password":true,"vac":true,"version":"7757534","steam_id":85568392924964314,"keywords":["nocrits","nodmgspread","payload","uncletopia"],"game_id":440,"stv_port":27076,"stv_name":"Uncletopia | London | 7 | No Payload | STV","players":null},{"server_id":41,"name":"Uncletopia | London | 8 | Community","name_short":"lon-8","host":"lon-1.uk.uncletopia.com","port":27085,"enabled":true,"region":"eu","cc":"gb","latitude":51.509865,"longitude":-0.118092,"reserved":0,"last_update":"0001-01-01T00:00:00Z","name_a2s":"Uncletopia | London | 8 | Community","protocol":17,"map":"workshop/pl_fifthcurve_rc1.ugc648227046","folder":"tf","game":"Team Fortress","app_id":440,"player_count":0,"max_players":24,"Bots":0,"server_type":"Dedicated","server_os":"Linux","password":true,"vac":true,"version":"7757534","steam_id":85568392924964315,"keywords":["nocrits","nodmgspread","payload","uncletopia"],"game_id":440,"stv_port":27086,"stv_name":"Uncletopia | London | 8 | Community | STV","players":null},{"server_id":300,"name":"Uncletopia | Montréal | 1 | All Maps","name_short":"mtl-1","host":"mtl-1.ca.uncletopia.com","port":27015,"enabled":true,"region":"us-east","cc":"ca","latitude":45.50889,"longitude":-73.56167,"reserved":0,"last_update":"0001-01-01T00:00:00Z","name_a2s":"Uncletopia | Montréal | 1 | All Maps","protocol":17,"map":"koth_harvest_final","folder":"tf","game":"Team Fortress","app_id":440,"player_count":0,"max_players":24,"Bots":0,"server_type":"Dedicated","server_os":"Linux","password":true,"vac":true,"version":"7757534","steam_id":85568392924500087,"keywords":["cp","nocrits","nodmgspread","uncletopia"],"game_id":440,"stv_port":27016,"stv_name":"Uncletopia | Montréal | 1 | All Maps | STV","players":null},{"server_id":301,"name":"Uncletopia | Montréal | 2 | All Maps","name_short":"mtl-2","host":"mtl-1.ca.uncletopia.com","port":27025,"enabled":true,"region":"us-east","cc":"ca","latitude":45.50889,"longitude":-73.56167,"reserved":0,"last_update":"0001-01-01T00:00:00Z","name_a2s":"Uncletopia | Montréal | 2 | All Maps","protocol":17,"map":"koth_cascade","folder":"tf","game":"Team Fortress","app_id":440,"player_count":0,"max_players":24,"Bots":0,"server_type":"Dedicated","server_os":"Linux","password":true,"vac":true,"version":"7757534","steam_id":85568392924500088,"keywords":["cp","nocrits","nodmgspread","uncletopia"],"game_id":440,"stv_port":27026,"stv_name":"Uncletopia | Montréal | 2 | All Maps | STV","players":null},{"server_id":302,"name":"Uncletopia | Montréal | 3 | All Maps","name_short":"mtl-3","host":"mtl-1.ca.uncletopia.com","port":27035,"enabled":true,"region":"us-east","cc":"ca","latitude":45.50889,"longitude":-73.56167,"reserved":0,"last_update":"0001-01-01T00:00:00Z","name_a2s":"Uncletopia | Montréal | 3 | All Maps","protocol":17,"map":"pl_borneo","folder":"tf","game":"Team Fortress","app_id":440,"player_count":0,"max_players":24,"Bots":0,"server_type":"Dedicated","server_os":"Linux","password":true,"vac":true,"version":"7757534","steam_id":85568392924500089,"keywords":["nocrits","nodmgspread","payload","uncletopia"],"game_id":440,"stv_port":27036,"stv_name":"Uncletopia | Montréal | 3 | All Maps | STV","players":null},{"server_id":303,"name":"Uncletopia | Montréal | 4 | No Payload","name_short":"mtl-4","host":"mtl-1.ca.uncletopia.com","port":27045,"enabled":true,"region":"us-east","cc":"ca","latitude":45.50889,"longitude":-73.56167,"reserved":0,"last_update":"0001-01-01T00:00:00Z","name_a2s":"Uncletopia | Montréal | 4 | No Payload","protocol":17,"map":"plr_nightfall_final","folder":"tf","game":"Team Fortress","app_id":440,"player_count":0,"max_players":24,"Bots":0,"server_type":"Dedicated","server_os":"Linux","password":true,"vac":true,"version":"7757534","steam_id":85568392924500090,"keywords":["nocrits","nodmgspread","payload","uncletopia"],"game_id":440,"stv_port":27046,"stv_name":"Uncletopia | Montréal | 4 | No Payload | STV","players":null},{"server_id":13,"name":"Uncletopia | New York City | 1 | All Maps","name_short":"nyc-1","host":"nyc-1.us.uncletopia.com","port":27015,"enabled":true,"region":"us-east","cc":"us","latitude":40.73061,"longitude":-73.93524,"reserved":0,"last_update":"0001-01-01T00:00:00Z","name_a2s":"Uncletopia | New York City | 1 | All Maps","protocol":17,"map":"cp_process_final","folder":"tf","game":"Team Fortress","app_id":440,"player_count":0,"max_players":24,"Bots":0,"server_type":"Dedicated","server_os":"Linux","password":true,"vac":true,"version":"7757534","steam_id":85568392924469993,"keywords":["cp","nocrits","nodmgspread","uncletopia"],"game_id":440,"stv_port":27016,"stv_name":"Uncletopia | New York City | 1 | All Maps | STV","players":null},{"server_id":14,"name":"Uncletopia | New York City | 2 | All Maps","name_short":"nyc-2","host":"nyc-1.us.uncletopia.com","port":27025,"enabled":true,"region":"us-east","cc":"us","latitude":40.73061,"longitude":-73.93524,"reserved":0,"last_update":"0001-01-01T00:00:00Z","name_a2s":"Uncletopia | New York City | 2 | All Maps","protocol":17,"map":"pl_borneo","folder":"tf","game":"Team Fortress","app_id":440,"player_count":0,"max_players":24,"Bots":0,"server_type":"Dedicated","server_os":"Linux","password":true,"vac":true,"version":"7757534","steam_id":85568392924469994,"keywords":["nocrits","nodmgspread","payload","uncletopia"],"game_id":440,"stv_port":27026,"stv_name":"Uncletopia | New York City | 2 | All Maps | STV","players":null},{"server_id":15,"name":"Uncletopia | New York City | 3 | Stopwatch Beta","name_short":"nyc-3","host":"nyc-1.us.uncletopia.com","port":27035,"enabled":true,"region":"us-east","cc":"us","latitude":40.73061,"longitude":-73.93524,"reserved":0,"last_update":"0001-01-01T00:00:00Z","name_a2s":"Uncletopia | New York City | 3 | Stopwatch Beta","protocol":17,"map":"koth_lakeside_final","folder":"tf","game":"Team Fortress","app_id":440,"player_count":0,"max_players":24,"Bots":0,"server_type":"Dedicated","server_os":"Linux","password":true,"vac":true,"version":"7757534","steam_id":85568392924742820,"keywords":["cp","nocrits","nodmgspread","uncletopia"],"game_id":440,"stv_port":27036,"stv_name":"Uncletopia | New York City | 3 | Stopwatch Beta | STV","players":null},{"server_id":16,"name":"Uncletopia | New York City | 4 | Community","name_short":"nyc-4","host":"nyc-1.us.uncletopia.com","port":27045,"enabled":true,"region":"us-east","cc":"us","latitude":40.73061,"longitude":-73.93524,"reserved":0,"last_update":"0001-01-01T00:00:00Z","name_a2s":"Uncletopia | New York City | 4 | Community","protocol":17,"map":"workshop/pl_cactuscanyon_redux_rc4b.ugc2579644293","folder":"tf","game":"Team Fortress","app_id":440,"player_count":0,"max_players":24,"Bots":0,"server_type":"Dedicated","server_os":"Linux","password":true,"vac":true,"version":"7757534","steam_id":85568392924742821,"keywords":["nocrits","nodmgspread","payload","uncletopia"],"game_id":440,"stv_port":27046,"stv_name":"Uncletopia | New York City | 4 | Community | STV","players":null},{"server_id":142,"name":"Uncletopia | São Paulo | 1 | All Maps","name_short":"sao-1","host":"sao-1.br.uncletopia.com","port":27015,"enabled":true,"region":"sa","cc":"br","latitude":-23.533773,"longitude":-46.62529,"reserved":0,"last_update":"0001-01-01T00:00:00Z","name_a2s":"Uncletopia | São Paulo | 1 | All Maps","protocol":17,"map":"koth_cascade","folder":"tf","game":"Team Fortress","app_id":440,"player_count":0,"max_players":24,"Bots":0,"server_type":"Dedicated","server_os":"Linux","password":true,"vac":true,"version":"7757534","steam_id":85568392924469996,"keywords":["cp","nocrits","nodmgspread","uncletopia"],"game_id":440,"stv_port":27016,"stv_name":"Uncletopia | São Paulo | 1 | All Maps | STV","players":null},{"server_id":143,"name":"Uncletopia | São Paulo | 2 | All Maps","name_short":"sao-2","host":"sao-2.br.uncletopia.com","port":27015,"enabled":true,"region":"sa","cc":"br","latitude":-23.533773,"longitude":-46.62529,"reserved":0,"last_update":"0001-01-01T00:00:00Z","name_a2s":"Uncletopia | São Paulo | 2 | All Maps","protocol":17,"map":"pl_snowycoast","folder":"tf","game":"Team Fortress","app_id":440,"player_count":0,"max_players":24,"Bots":0,"server_type":"Dedicated","server_os":"Linux","password":true,"vac":true,"version":"7757534","steam_id":85568392924485349,"keywords":["nocrits","nodmgspread","payload","uncletopia"],"game_id":440,"stv_port":27016,"stv_name":"Uncletopia | São Paulo | 2 | All Maps | STV","players":null},{"server_id":7,"name":"Uncletopia | Seattle | 1 | All Maps","name_short":"sea-1","host":"sea-1.us.uncletopia.com","port":27015,"enabled":true,"region":"us-west","cc":"us","latitude":47.608013,"longitude":-122.33517,"reserved":0,"last_update":"0001-01-01T00:00:00Z","name_a2s":"Uncletopia | Seattle | 1 | All Maps","protocol":17,"map":"pl_thundermountain","folder":"tf","game":"Team Fortress","app_id":440,"player_count":15,"max_players":24,"Bots":0,"server_type":"Dedicated","server_os":"Linux","password":true,"vac":true,"version":"7757534","steam_id":85568392924469997,"keywords":["nocrits","nodmgspread","payload","uncletopia"],"game_id":440,"stv_port":27016,"stv_name":"Uncletopia | Seattle | 1 | All Maps | STV","players":[{"user_id":472,"name":"Ayayahuasca","steam_id":76561199002906056,"connected_time":8396000000000,"state":"active","ping":45},{"user_id":566,"name":"Uranium Sanchez","steam_id":76561198129037091,"connected_time":524000000000,"state":"active","ping":210},{"user_id":559,"name":"Arsonist Goose","steam_id":76561198147441830,"connected_time":1181000000000,"state":"active","ping":63},{"user_id":560,"name":"minimoose","steam_id":76561199090012242,"connected_time":1137000000000,"state":"active","ping":65},{"user_id":565,"name":"Julien","steam_id":76561199389584938,"connected_time":721000000000,"state":"active","ping":42},{"user_id":410,"name":"rat gets the cheese","steam_id":76561198031234032,"connected_time":14939000000000,"state":"active","ping":99},{"user_id":567,"name":"two metre tall miku","steam_id":76561198337705174,"connected_time":291000000000,"state":"active","ping":74},{"user_id":534,"name":"gibbon","steam_id":76561198143796866,"connected_time":1946000000000,"state":"active","ping":37},{"user_id":562,"name":"Pyrolimited","steam_id":76561198195455657,"connected_time":1070000000000,"state":"active","ping":52},{"user_id":568,"name":"Ultrafire3","steam_id":76561198108274392,"connected_time":276000000000,"state":"active","ping":60},{"user_id":569,"name":"Peppy","steam_id":76561198866629645,"connected_time":204000000000,"state":"active","ping":56},{"user_id":552,"name":"Wafflemuscle","steam_id":76561198868628982,"connected_time":1415000000000,"state":"active","ping":42},{"user_id":564,"name":"ROGUE-PLANET","steam_id":76561198116023052,"connected_time":1006000000000,"state":"active","ping":68},{"user_id":570,"name":"legomanmi","steam_id":76561198185219241,"connected_time":147000000000,"state":"active","ping":114},{"user_id":572,"name":"dddd_420","steam_id":76561198100640133,"connected_time":27000000000,"state":"active","ping":83}]},{"server_id":119,"name":"Uncletopia | Seattle | 2 | All Maps","name_short":"sea-2","host":"sea-1.us.uncletopia.com","port":27025,"enabled":true,"region":"us-west","cc":"us","latitude":47.608013,"longitude":-122.33517,"reserved":0,"last_update":"0001-01-01T00:00:00Z","name_a2s":"Uncletopia | Seattle | 2 | All Maps","protocol":17,"map":"cp_mountainlab","folder":"tf","game":"Team Fortress","app_id":440,"player_count":13,"max_players":24,"Bots":0,"server_type":"Dedicated","server_os":"Linux","password":true,"vac":true,"version":"7757534","steam_id":85568392924469998,"keywords":["cp","nocrits","nodmgspread","uncletopia"],"game_id":440,"stv_port":27026,"stv_name":"Uncletopia | Seattle | 2 | All Maps | STV","players":[{"user_id":666,"name":"The Spanish Inquisition","steam_id":76561198031971596,"connected_time":2211000000000,"state":"active","ping":53},{"user_id":628,"name":"Wormy wants to RTV","steam_id":76561198054539200,"connected_time":5734000000000,"state":"active","ping":51},{"user_id":686,"name":"jordanddean2016","steam_id":76561198323772677,"connected_time":229000000000,"state":"active","ping":56},{"user_id":687,"name":"Mr.","steam_id":76561198071182339,"connected_time":217000000000,"state":"active","ping":99},{"user_id":660,"name":"Her Majesty's Secret Service","steam_id":76561198348770994,"connected_time":2620000000000,"state":"active","ping":105},{"user_id":679,"name":"Koyota","steam_id":76561198069878114,"connected_time":593000000000,"state":"active","ping":66},{"user_id":642,"name":"Google","steam_id":76561198857237473,"connected_time":4298000000000,"state":"active","ping":48},{"user_id":568,"name":"LazyRat","steam_id":76561198014066794,"connected_time":11251000000000,"state":"active","ping":77},{"user_id":640,"name":"The Population of Sweden","steam_id":76561198202201644,"connected_time":4437000000000,"state":"active","ping":46},{"user_id":680,"name":"reymundo","steam_id":76561197989412830,"connected_time":566000000000,"state":"active","ping":89},{"user_id":662,"name":"qt wavyz","steam_id":76561199060668138,"connected_time":2615000000000,"state":"active","ping":111},{"user_id":682,"name":"EyelessNeptune","steam_id":76561198201821401,"connected_time":452000000000,"state":"active","ping":68},{"user_id":684,"name":"doozy","steam_id":76561198033106776,"connected_time":345000000000,"state":"active","ping":77}]},{"server_id":406,"name":"Uncletopia | Seattle | 3 | Stopwatch Beta","name_short":"sea-3","host":"sea-1.us.uncletopia.com","port":27035,"enabled":true,"region":"us-west","cc":"us","latitude":47.608013,"longitude":-122.33517,"reserved":0,"last_update":"0001-01-01T00:00:00Z","name_a2s":"Uncletopia | Seattle | 3 | Stopwatch Beta","protocol":17,"map":"workshop/pl_badwater_pro_v12.ugc2142942074","folder":"tf","game":"Team Fortress","app_id":440,"player_count":0,"max_players":24,"Bots":0,"server_type":"Dedicated","server_os":"Linux","password":true,"vac":true,"version":"7757534","steam_id":85568392924515217,"keywords":["nocrits","nodmgspread","payload","uncletopia"],"game_id":440,"stv_port":27036,"stv_name":"Uncletopia | Seattle | 3 | Stopwatch Beta | STV","players":null},{"server_id":17,"name":"Uncletopia | San Francisco | 1 | All Maps","name_short":"sfo-1","host":"sfo-1.us.uncletopia.com","port":27015,"enabled":true,"region":"us-west","cc":"us","latitude":37.77397,"longitude":-122.4313,"reserved":0,"last_update":"0001-01-01T00:00:00Z","name_a2s":"Uncletopia | San Francisco | 1 | All Maps","protocol":17,"map":"koth_cascade","folder":"tf","game":"Team Fortress","app_id":440,"player_count":0,"max_players":24,"Bots":0,"server_type":"Dedicated","server_os":"Linux","password":true,"vac":true,"version":"7757534","steam_id":85568392924469999,"keywords":["cp","nocrits","nodmgspread","uncletopia"],"game_id":440,"stv_port":27016,"stv_name":"Uncletopia | San Francisco | 1 | All Maps | STV","players":null},{"server_id":18,"name":"Uncletopia | San Francisco | 2 | All Maps","name_short":"sfo-2","host":"sfo-1.us.uncletopia.com","port":27025,"enabled":true,"region":"us-west","cc":"us","latitude":37.77397,"longitude":-122.4313,"reserved":0,"last_update":"0001-01-01T00:00:00Z","name_a2s":"Uncletopia | San Francisco | 2 | All Maps","protocol":17,"map":"cp_dustbowl","folder":"tf","game":"Team Fortress","app_id":440,"player_count":24,"max_players":24,"Bots":0,"server_type":"Dedicated","server_os":"Linux","password":true,"vac":true,"version":"7757534","steam_id":85568392924470000,"keywords":["cp","nocrits","nodmgspread","uncletopia"],"game_id":440,"stv_port":27026,"stv_name":"Uncletopia | San Francisco | 2 | All Maps | STV","players":[{"user_id":76,"name":"Battery_Included","steam_id":76561198067164431,"connected_time":9483000000000,"state":"active","ping":54},{"user_id":194,"name":"fuzzorino","steam_id":76561198093146293,"connected_time":599000000000,"state":"active","ping":74},{"user_id":193,"name":"Alberto2104","steam_id":76561198094968873,"connected_time":993000000000,"state":"active","ping":65},{"user_id":195,"name":"heimdall","steam_id":76561198069380992,"connected_time":598000000000,"state":"active","ping":104},{"user_id":177,"name":"CumBob","steam_id":76561198168693975,"connected_time":2017000000000,"state":"active","ping":39},{"user_id":203,"name":"Grey Delilah","steam_id":76561198037923982,"connected_time":424000000000,"state":"active","ping":80},{"user_id":175,"name":"Forester","steam_id":76561198404782028,"connected_time":2075000000000,"state":"active","ping":124},{"user_id":198,"name":"da rotten orange","steam_id":76561198064374380,"connected_time":556000000000,"state":"active","ping":74},{"user_id":151,"name":"DarthJiggles","steam_id":76561198088383875,"connected_time":4165000000000,"state":"active","ping":44},{"user_id":205,"name":"Korn Dawg","steam_id":76561198026941076,"connected_time":212000000000,"state":"active","ping":71},{"user_id":171,"name":"BarelyAnimateObject","steam_id":76561198986264116,"connected_time":2683000000000,"state":"active","ping":49},{"user_id":185,"name":"Mr. Twister","steam_id":76561198016791916,"connected_time":1627000000000,"state":"active","ping":114},{"user_id":188,"name":"Nightwoo","steam_id":76561198056346847,"connected_time":1401000000000,"state":"active","ping":58},{"user_id":204,"name":"jubattz","steam_id":76561198044874072,"connected_time":385000000000,"state":"active","ping":112},{"user_id":206,"name":"fapasaurusrex","steam_id":76561197994951255,"connected_time":198000000000,"state":"active","ping":87},{"user_id":28,"name":"THE NUT","steam_id":76561198067813626,"connected_time":12169000000000,"state":"active","ping":61},{"user_id":115,"name":"G. Howard Dee","steam_id":76561198058382812,"connected_time":6352000000000,"state":"active","ping":67},{"user_id":202,"name":"MORE BOUNCE TO THE OUNCE","steam_id":76561198243399336,"connected_time":475000000000,"state":"active","ping":70},{"user_id":192,"name":"machomelon","steam_id":76561198043683564,"connected_time":1083000000000,"state":"active","ping":30},{"user_id":166,"name":"JaxiiRuff","steam_id":76561198093614882,"connected_time":3115000000000,"state":"active","ping":52},{"user_id":207,"name":"Funkyjello","steam_id":76561197987222312,"connected_time":189000000000,"state":"active","ping":49},{"user_id":208,"name":"angel","steam_id":76561198068772993,"connected_time":185000000000,"state":"active","ping":132},{"user_id":209,"name":"K.A.R.M.A.","steam_id":76561198240750142,"connected_time":140000000000,"state":"active","ping":50},{"user_id":210,"name":"A Copy of Sonic Adventure 2","steam_id":76561198847926281,"connected_time":133000000000,"state":"active","ping":46}]},{"server_id":19,"name":"Uncletopia | San Francisco | 3 | Stopwatch Beta","name_short":"sfo-3","host":"sfo-1.us.uncletopia.com","port":27035,"enabled":true,"region":"us-west","cc":"us","latitude":37.77397,"longitude":-122.4313,"reserved":0,"last_update":"0001-01-01T00:00:00Z","name_a2s":"Uncletopia | San Francisco | 3 | Stopwatch Beta","protocol":17,"map":"koth_viaduct","folder":"tf","game":"Team Fortress","app_id":440,"player_count":0,"max_players":24,"Bots":0,"server_type":"Dedicated","server_os":"Linux","password":true,"vac":true,"version":"7757534","steam_id":85568392924742824,"keywords":["cp","nocrits","nodmgspread","uncletopia"],"game_id":440,"stv_port":27036,"stv_name":"Uncletopia | San Francisco | 3 | Stopwatch Beta | STV","players":null},{"server_id":20,"name":"Uncletopia | San Francisco | 4 | Community","name_short":"sfo-4","host":"sfo-1.us.uncletopia.com","port":27045,"enabled":true,"region":"us-west","cc":"us","latitude":37.77397,"longitude":-122.4313,"reserved":0,"last_update":"0001-01-01T00:00:00Z","name_a2s":"Uncletopia | San Francisco | 4 | Community","protocol":17,"map":"workshop/koth_synthetic_rc6a.ugc1549817316","folder":"tf","game":"Team Fortress","app_id":440,"player_count":0,"max_players":24,"Bots":0,"server_type":"Dedicated","server_os":"Linux","password":true,"vac":true,"version":"7757534","steam_id":85568392924742826,"keywords":["cp","nocrits","nodmgspread","uncletopia"],"game_id":440,"stv_port":27046,"stv_name":"Uncletopia | San Francisco | 4 | Community | STV","players":null},{"server_id":141,"name":"Uncletopia | Sydney | 1 | All Maps","name_short":"syd-1","host":"syd-1.au.uncletopia.com","port":27015,"enabled":true,"region":"au","cc":"au","latitude":-33.865143,"longitude":151.2099,"reserved":0,"last_update":"0001-01-01T00:00:00Z","name_a2s":"Uncletopia | Sydney | 1 | All Maps","protocol":17,"map":"cp_sunshine","folder":"tf","game":"Team Fortress","app_id":440,"player_count":24,"max_players":24,"Bots":0,"server_type":"Dedicated","server_os":"Linux","password":true,"vac":true,"version":"7757534","steam_id":85568392924470001,"keywords":["cp","nocrits","nodmgspread","uncletopia"],"game_id":440,"stv_port":27016,"stv_name":"Uncletopia | Sydney | 1 | All Maps | STV","players":[{"user_id":190,"name":"RA RA","steam_id":76561198361139900,"connected_time":1231000000000,"state":"active","ping":59},{"user_id":182,"name":"voxii","steam_id":76561198099698281,"connected_time":1638000000000,"state":"active","ping":67},{"user_id":158,"name":"krandlez` (Any/All)","steam_id":76561198044839726,"connected_time":4096000000000,"state":"active","ping":39},{"user_id":200,"name":"CheeseFlag126","steam_id":76561199262769917,"connected_time":452000000000,"state":"active","ping":63},{"user_id":186,"name":"zen","steam_id":76561198302670452,"connected_time":1466000000000,"state":"active","ping":55},{"user_id":132,"name":"Greg","steam_id":76561198133966374,"connected_time":6435000000000,"state":"active","ping":51},{"user_id":181,"name":"Mouse Balls","steam_id":76561199037470627,"connected_time":1765000000000,"state":"active","ping":104},{"user_id":197,"name":"Adolf-Rizzler","steam_id":76561198884774033,"connected_time":801000000000,"state":"active","ping":53},{"user_id":191,"name":"samm","steam_id":76561198190525662,"connected_time":1215000000000,"state":"active","ping":49},{"user_id":198,"name":"Moist","steam_id":76561198110566656,"connected_time":553000000000,"state":"active","ping":58},{"user_id":196,"name":"riskybiznutz","steam_id":76561198040467549,"connected_time":829000000000,"state":"active","ping":51},{"user_id":188,"name":"Olivine","steam_id":76561198264087289,"connected_time":1326000000000,"state":"active","ping":59},{"user_id":199,"name":"ree boy","steam_id":76561199024189820,"connected_time":519000000000,"state":"active","ping":104},{"user_id":151,"name":"MaV","steam_id":76561198045682020,"connected_time":4799000000000,"state":"active","ping":67},{"user_id":123,"name":"Dr Barry Mundy PhD","steam_id":76561198034512686,"connected_time":7266000000000,"state":"active","ping":39},{"user_id":194,"name":"epi","steam_id":76561198057551248,"connected_time":1076000000000,"state":"active","ping":44},{"user_id":192,"name":"Satiscat","steam_id":76561198966851786,"connected_time":1177000000000,"state":"active","ping":53},{"user_id":84,"name":"KnowZero","steam_id":76561198095752015,"connected_time":8991000000000,"state":"active","ping":58},{"user_id":136,"name":"Snowy","steam_id":76561198255720598,"connected_time":6377000000000,"state":"active","ping":45},{"user_id":202,"name":"Batering","steam_id":76561198039849442,"connected_time":149000000000,"state":"active","ping":46},{"user_id":147,"name":"Mr.Deathclaw","steam_id":76561198025419320,"connected_time":5307000000000,"state":"active","ping":45},{"user_id":184,"name":"Piyo.","steam_id":76561197985114373,"connected_time":1603000000000,"state":"active","ping":70},{"user_id":97,"name":"ุbifcheg","steam_id":76561198319806610,"connected_time":8629000000000,"state":"active","ping":69},{"user_id":168,"name":"Catto","steam_id":76561197999111589,"connected_time":3134000000000,"state":"active","ping":43}]},{"server_id":123,"name":"Uncletopia | Sydney | 2 | All Maps","name_short":"syd-2","host":"syd-1.au.uncletopia.com","port":27025,"enabled":true,"region":"au","cc":"au","latitude":-33.865143,"longitude":151.2099,"reserved":0,"last_update":"0001-01-01T00:00:00Z","name_a2s":"Uncletopia | Sydney | 2 | All Maps","protocol":17,"map":"pl_upward","folder":"tf","game":"Team Fortress","app_id":440,"player_count":23,"max_players":24,"Bots":0,"server_type":"Dedicated","server_os":"Linux","password":true,"vac":true,"version":"7757534","steam_id":85568392924470002,"keywords":["nocrits","nodmgspread","payload","uncletopia"],"game_id":440,"stv_port":27026,"stv_name":"Uncletopia | Sydney | 2 | All Maps | STV","players":[{"user_id":234,"name":"Voncrumb","steam_id":76561198054076313,"connected_time":3069000000000,"state":"active","ping":48},{"user_id":235,"name":"Phoog","steam_id":76561198062734990,"connected_time":3025000000000,"state":"active","ping":66},{"user_id":239,"name":"MR Martian","steam_id":76561198157854561,"connected_time":2698000000000,"state":"active","ping":90},{"user_id":254,"name":"RanDot07","steam_id":76561198154295907,"connected_time":1984000000000,"state":"active","ping":64},{"user_id":284,"name":"Ser Fabulous","steam_id":76561198052258046,"connected_time":699000000000,"state":"active","ping":45},{"user_id":275,"name":"Jacob","steam_id":76561198059341907,"connected_time":1446000000000,"state":"active","ping":33},{"user_id":292,"name":"Kibryu","steam_id":76561198159852112,"connected_time":164000000000,"state":"active","ping":64},{"user_id":274,"name":"Wontch","steam_id":76561198225582960,"connected_time":1546000000000,"state":"active","ping":47},{"user_id":266,"name":"toblue","steam_id":76561198189137465,"connected_time":1753000000000,"state":"active","ping":98},{"user_id":255,"name":"The Cake Is A Pie","steam_id":76561198043068402,"connected_time":1968000000000,"state":"active","ping":78},{"user_id":280,"name":"Bakaiser","steam_id":76561198085312279,"connected_time":1052000000000,"state":"active","ping":57},{"user_id":272,"name":"KILLER WHALES","steam_id":76561198012422705,"connected_time":1611000000000,"state":"active","ping":55},{"user_id":286,"name":"Crimson Marshmello","steam_id":76561198311358321,"connected_time":584000000000,"state":"active","ping":59},{"user_id":285,"name":"Atlas","steam_id":76561198069332870,"connected_time":603000000000,"state":"active","ping":45},{"user_id":250,"name":"monocrumb","steam_id":76561199126588682,"connected_time":2234000000000,"state":"active","ping":61},{"user_id":288,"name":"lolwhat","steam_id":76561199387628765,"connected_time":470000000000,"state":"active","ping":182},{"user_id":293,"name":"iadlin","steam_id":76561197996215700,"connected_time":127000000000,"state":"active","ping":84},{"user_id":290,"name":"ljpaters","steam_id":76561198094354484,"connected_time":232000000000,"state":"active","ping":59},{"user_id":291,"name":"Pompadouraus","steam_id":76561198327530525,"connected_time":226000000000,"state":"active","ping":75},{"user_id":261,"name":"Crab","steam_id":76561198121717806,"connected_time":1844000000000,"state":"active","ping":69},{"user_id":268,"name":"Gotham's Finest","steam_id":76561198141754178,"connected_time":1733000000000,"state":"active","ping":75},{"user_id":265,"name":"doris","steam_id":76561198985688207,"connected_time":1793000000000,"state":"active","ping":57},{"user_id":283,"name":"mrjoker78","steam_id":76561198863586919,"connected_time":839000000000,"state":"active","ping":54}]},{"server_id":395,"name":"Uncletopia | Sydney | 3 | All Maps","name_short":"syd-3","host":"syd-1.au.uncletopia.com","port":27035,"enabled":true,"region":"au","cc":"au","latitude":-33.865143,"longitude":151.2099,"reserved":0,"last_update":"0001-01-01T00:00:00Z","name_a2s":"Uncletopia | Sydney | 3 | All Maps","protocol":17,"map":"koth_cascade","folder":"tf","game":"Team Fortress","app_id":440,"player_count":0,"max_players":24,"Bots":0,"server_type":"Dedicated","server_os":"Linux","password":true,"vac":true,"version":"7757534","steam_id":85568392925194467,"keywords":["cp","nocrits","nodmgspread","uncletopia"],"game_id":440,"stv_port":27036,"stv_name":"Uncletopia | Sydney | 3 | All Maps | STV","players":null},{"server_id":396,"name":"Uncletopia | Sydney | 4 | All Maps","name_short":"syd-4","host":"syd-1.au.uncletopia.com","port":27045,"enabled":true,"region":"au","cc":"au","latitude":-33.865143,"longitude":151.2099,"reserved":0,"last_update":"0001-01-01T00:00:00Z","name_a2s":"Uncletopia | Sydney | 4 | All Maps","protocol":17,"map":"pl_pier","folder":"tf","game":"Team Fortress","app_id":440,"player_count":0,"max_players":24,"Bots":0,"server_type":"Dedicated","server_os":"Linux","password":true,"vac":true,"version":"7757534","steam_id":85568392925397958,"keywords":["nocrits","nodmgspread","payload","uncletopia"],"game_id":440,"stv_port":27046,"stv_name":"Uncletopia | Sydney | 4 | All Maps | STV","players":null},{"server_id":58,"name":"Uncletopia | Sydney | 5 | Stopwatch Beta","name_short":"syd-5","host":"syd-1.au.uncletopia.com","port":27055,"enabled":true,"region":"au","cc":"au","latitude":-33.865143,"longitude":151.2099,"reserved":0,"last_update":"0001-01-01T00:00:00Z","name_a2s":"Uncletopia | Sydney | 5 | Stopwatch Beta","protocol":17,"map":"pl_barnblitz","folder":"tf","game":"Team Fortress","app_id":440,"player_count":0,"max_players":24,"Bots":0,"server_type":"Dedicated","server_os":"Linux","password":true,"vac":true,"version":"7757534","steam_id":85568392925397959,"keywords":["nocrits","nodmgspread","payload","uncletopia"],"game_id":440,"stv_port":27056,"stv_name":"Uncletopia | Sydney | 5 | Stopwatch Beta | STV","players":null},{"server_id":59,"name":"Uncletopia | Sydney | 6 | Community","name_short":"syd-6","host":"syd-1.au.uncletopia.com","port":27065,"enabled":true,"region":"au","cc":"au","latitude":-33.865143,"longitude":151.2099,"reserved":0,"last_update":"0001-01-01T00:00:00Z","name_a2s":"Uncletopia | Sydney | 6 | Community","protocol":17,"map":"workshop/koth_ashville_final.ugc2130459942","folder":"tf","game":"Team Fortress","app_id":440,"player_count":0,"max_players":24,"Bots":0,"server_type":"Dedicated","server_os":"Linux","password":true,"vac":true,"version":"7757534","steam_id":85568392925397960,"keywords":["cp","nocrits","nodmgspread","uncletopia"],"game_id":440,"stv_port":27066,"stv_name":"Uncletopia | Sydney | 6 | Community | STV","players":null},{"server_id":49,"name":"Uncletopia | Warsaw | 1 | All Maps","name_short":"waw-1","host":"waw-1.pl.uncletopia.com","port":27015,"enabled":true,"region":"eu","cc":"pl","latitude":52.2297,"longitude":21.017532,"reserved":0,"last_update":"0001-01-01T00:00:00Z","name_a2s":"","protocol":0,"map":"","folder":"","game":"","app_id":0,"player_count":0,"max_players":0,"Bots":0,"server_type":"","server_os":"","password":false,"vac":false,"version":"","steam_id":0,"keywords":null,"game_id":0,"stv_port":0,"stv_name":"","players":null},{"server_id":50,"name":"Uncletopia | Warsaw | 2 | All Maps","name_short":"waw-2","host":"waw-1.pl.uncletopia.com","port":27025,"enabled":true,"region":"eu","cc":"pl","latitude":52.2297,"longitude":21.017532,"reserved":0,"last_update":"0001-01-01T00:00:00Z","name_a2s":"Uncletopia | Warsaw | 2 | All Maps","protocol":17,"map":"cp_snakewater_final1","folder":"tf","game":"Team Fortress","app_id":440,"player_count":0,"max_players":24,"Bots":0,"server_type":"Dedicated","server_os":"Linux","password":true,"vac":true,"version":"7757534","steam_id":85568392925397851,"keywords":["cp","nocrits","nodmgspread","uncletopia"],"game_id":440,"stv_port":27026,"stv_name":"Uncletopia | Warsaw | 2 | All Maps | STV","players":null},{"server_id":51,"name":"Uncletopia | Warsaw | 3 | All Maps","name_short":"waw-3","host":"waw-1.pl.uncletopia.com","port":27035,"enabled":true,"region":"eu","cc":"pl","latitude":52.2297,"longitude":21.017532,"reserved":0,"last_update":"0001-01-01T00:00:00Z","name_a2s":"Uncletopia | Warsaw | 3 | All Maps","protocol":17,"map":"cp_sunshine","folder":"tf","game":"Team Fortress","app_id":440,"player_count":0,"max_players":24,"Bots":0,"server_type":"Dedicated","server_os":"Linux","password":true,"vac":true,"version":"7757534","steam_id":85568392925397852,"keywords":["cp","nocrits","nodmgspread","uncletopia"],"game_id":440,"stv_port":27036,"stv_name":"Uncletopia | Warsaw | 3 | All Maps | STV","players":null},{"server_id":52,"name":"Uncletopia | Warsaw | 4 | All Maps","name_short":"waw-4","host":"waw-1.pl.uncletopia.com","port":27045,"enabled":true,"region":"eu","cc":"pl","latitude":52.2297,"longitude":21.017532,"reserved":0,"last_update":"0001-01-01T00:00:00Z","name_a2s":"Uncletopia | Warsaw | 4 | All Maps","protocol":17,"map":"pl_borneo","folder":"tf","game":"Team Fortress","app_id":440,"player_count":0,"max_players":24,"Bots":0,"server_type":"Dedicated","server_os":"Linux","password":true,"vac":true,"version":"7757534","steam_id":85568392925397853,"keywords":["nocrits","nodmgspread","payload","uncletopia"],"game_id":440,"stv_port":27046,"stv_name":"Uncletopia | Warsaw | 4 | All Maps | STV","players":null},{"server_id":53,"name":"Uncletopia | Warsaw | 5 | Stopwatch Beta","name_short":"waw-5","host":"waw-1.pl.uncletopia.com","port":27055,"enabled":true,"region":"eu","cc":"pl","latitude":52.2297,"longitude":21.017532,"reserved":0,"last_update":"0001-01-01T00:00:00Z","name_a2s":"Uncletopia | Warsaw | 5 | Stopwatch Beta","protocol":17,"map":"pl_upward","folder":"tf","game":"Team Fortress","app_id":440,"player_count":0,"max_players":24,"Bots":0,"server_type":"Dedicated","server_os":"Linux","password":true,"vac":true,"version":"7757534","steam_id":85568392925397854,"keywords":["nocrits","nodmgspread","payload","uncletopia"],"game_id":440,"stv_port":27056,"stv_name":"Uncletopia | Warsaw | 5 | Stopwatch Beta | STV","players":null},{"server_id":54,"name":"Uncletopia | Warsaw | 6 | Community","name_short":"waw-6","host":"waw-1.pl.uncletopia.com","port":27065,"enabled":true,"region":"eu","cc":"pl","latitude":52.2297,"longitude":21.017532,"reserved":0,"last_update":"0001-01-01T00:00:00Z","name_a2s":"Uncletopia | Warsaw | 6 | Community","protocol":17,"map":"workshop/cp_logjam_rc12.ugc454812035","folder":"tf","game":"Team Fortress","app_id":440,"player_count":0,"max_players":24,"Bots":0,"server_type":"Dedicated","server_os":"Linux","password":true,"vac":true,"version":"7757534","steam_id":85568392925397856,"keywords":["cp","nocrits","nodmgspread","uncletopia"],"game_id":440,"stv_port":27066,"stv_name":"Uncletopia | Warsaw | 6 | Community | STV","players":null}]}