{"status":true,"message":"","result":[{"server_id":9,"name":"Uncletopia | Atlanta | 1 | All Maps","name_short":"atl-1","host":"atl-1.us.uncletopia.com","port":27015,"enabled":true,"region":"us-east","cc":"us","latitude":33.753746,"longitude":-84.38633,"reserved":0,"last_update":"0001-01-01T00:00:00Z","name_a2s":"Uncletopia | Atlanta | 1 | All Maps","protocol":17,"map":"koth_viaduct","folder":"tf","game":"Team Fortress","app_id":440,"player_count":0,"max_players":24,"Bots":0,"server_type":"Dedicated","server_os":"Linux","password":true,"vac":true,"version":"7882260","steam_id":85568392924469982,"keywords":["cp","nocrits","nodmgspread","uncletopia"],"game_id":440,"stv_port":27016,"stv_name":"Uncletopia | Atlanta | 1 | All Maps | STV","players":null},{"server_id":104,"name":"Uncletopia | Atlanta | 2 | All Maps","name_short":"atl-2","host":"atl-1.us.uncletopia.com","port":27025,"enabled":true,"region":"us-east","cc":"us","latitude":33.753746,"longitude":-84.38633,"reserved":0,"last_update":"0001-01-01T00:00:00Z","name_a2s":"Uncletopia | Atlanta | 2 | All Maps","protocol":17,"map":"pl_frontier_final","folder":"tf","game":"Team Fortress","app_id":440,"player_count":24,"max_players":24,"Bots":0,"server_type":"Dedicated","server_os":"Linux","password":true,"vac":true,"version":"7882260","steam_id":85568392924469983,"keywords":["nocrits","nodmgspread","payload","uncletopia"],"game_id":440,"stv_port":27026,"stv_name":"Uncletopia | Atlanta | 2 | All Maps | STV","players":[{"user_id":170,"name":"Chaotic Rushu","steam_id":76561198170054407,"connected_time":1354000000000,"state":"active","ping":69},{"user_id":154,"name":"SHADY SWEATER SALESMAN","steam_id":76561198014616865,"connected_time":3198000000000,"state":"active","ping":77},{"user_id":150,"name":"Mint Jelly","steam_id":76561197991286751,"connected_time":3278000000000,"state":"active","ping":60},{"user_id":147,"name":"throat_man","steam_id":76561199321657653,"connected_time":3400000000000,"state":"active","ping":114},{"user_id":156,"name":"amagicowl","steam_id":76561199060487814,"connected_time":3015000000000,"state":"active","ping":117},{"user_id":149,"name":"FWWM","steam_id":76561198387852168,"connected_time":3373000000000,"state":"active","ping":80},{"user_id":160,"name":"Shiro","steam_id":76561197979915878,"connected_time":2239000000000,"state":"active","ping":134},{"user_id":178,"name":"The Land Admiral","steam_id":76561198159356609,"connected_time":1073000000000,"state":"active","ping":72},{"user_id":85,"name":"BLANKE","steam_id":76561198129610485,"connected_time":8238000000000,"state":"active","ping":83},{"user_id":173,"name":"kingjeffry2012@hotmail.com","steam_id":76561198314104415,"connected_time":1335000000000,"state":"active","ping":55},{"user_id":86,"name":"younggflylyfe","steam_id":76561199477357832,"connected_time":8227000000000,"state":"active","ping":54},{"user_id":141,"name":"BuncusBeffer","steam_id":76561198285936616,"connected_time":4296000000000,"state":"active","ping":118},{"user_id":111,"name":"Jack Horner in a F-16","steam_id":76561198062438923,"connected_time":6675000000000,"state":"active","ping":87},{"user_id":176,"name":"hollybranches","steam_id":76561198251700328,"connected_time":1325000000000,"state":"active","ping":74},{"user_id":153,"name":"*‧˚kitsu ʚ♥ɞ","steam_id":76561198091741658,"connected_time":3216000000000,"state":"active","ping":76},{"user_id":167,"name":"thing","steam_id":76561197999666480,"connected_time":1399000000000,"state":"active","ping":111},{"user_id":182,"name":"Ganja Cat \u003c3","steam_id":76561198144629224,"connected_time":235000000000,"state":"active","ping":87},{"user_id":177,"name":"Glim Glam","steam_id":76561198043111286,"connected_time":1323000000000,"state":"active","ping":66},{"user_id":139,"name":"pt","steam_id":76561198143023330,"connected_time":4393000000000,"state":"active","ping":105},{"user_id":180,"name":"TIME TO DELIVER A PIZZA BALL!!!","steam_id":76561198178526673,"connected_time":806000000000,"state":"active","ping":79},{"user_id":169,"name":"Somsnosa","steam_id":76561198366299848,"connected_time":1362000000000,"state":"active","ping":53},{"user_id":163,"name":"Cruisin'","steam_id":76561199245457119,"connected_time":2036000000000,"state":"active","ping":83},{"user_id":175,"name":"Cannabis Cat \u003c3","steam_id":76561198148386650,"connected_time":1331000000000,"state":"active","ping":51},{"user_id":129,"name":"KFC Rat","steam_id":76561198135128086,"connected_time":4600000000000,"state":"active","ping":115}]},{"server_id":400,"name":"Uncletopia | Atlanta | 3 | Community","name_short":"atl-3","host":"atl-1.us.uncletopia.com","port":27035,"enabled":true,"region":"us-east","cc":"us","latitude":33.753746,"longitude":-84.38633,"reserved":0,"last_update":"0001-01-01T00:00:00Z","name_a2s":"Uncletopia | Atlanta | 3 | Community","protocol":17,"map":"cp_sunshine","folder":"tf","game":"Team Fortress","app_id":440,"player_count":0,"max_players":24,"Bots":0,"server_type":"Dedicated","server_os":"Linux","password":true,"vac":true,"version":"7882260","steam_id":85568392924515187,"keywords":["cp","nocrits","nodmgspread","uncletopia"],"game_id":440,"stv_port":27036,"stv_name":"Uncletopia | Atlanta | 3 | Community | STV","players":null},{"server_id":401,"name":"Uncletopia | Atlanta | 4 | No Payload","name_short":"atl-4","host":"atl-1.us.uncletopia.com","port":27045,"enabled":true,"region":"us-east","cc":"us","latitude":33.753746,"longitude":-84.38633,"reserved":0,"last_update":"0001-01-01T00:00:00Z","name_a2s":"","protocol":0,"map":"","folder":"","game":"","app_id":0,"player_count":0,"max_players":0,"Bots":0,"server_type":"","server_os":"","password":false,"vac":false,"version":"","steam_id":0,"keywords":null,"game_id":0,"stv_port":0,"stv_name":"","players":null},{"server_id":2,"name":"Uncletopia | Chicago | 1 | All Maps","name_short":"chi-1","host":"chi-1.us.uncletopia.com","port":27015,"enabled":true,"region":"us-central","cc":"us","latitude":41.881832,"longitude":-87.62318,"reserved":0,"last_update":"0001-01-01T00:00:00Z","name_a2s":"Uncletopia | Chicago | 1 | All Maps","protocol":17,"map":"pl_upward","folder":"tf","game":"Team Fortress","app_id":440,"player_count":24,"max_players":24,"Bots":0,"server_type":"Dedicated","server_os":"Linux","password":true,"vac":true,"version":"7882260","steam_id":85568392924469984,"keywords":["nocrits","nodmgspread","payload","uncletopia"],"game_id":440,"stv_port":27016,"stv_name":"Uncletopia | Chicago | 1 | All Maps | STV","players":[{"user_id":33,"name":"lego star wars on the psp","steam_id":76561198148014773,"connected_time":100000000000,"state":"active","ping":75},{"user_id":4,"name":"William Wallace","steam_id":76561199343316814,"connected_time":2427000000000,"state":"active","ping":71},{"user_id":5,"name":"Sputnix","steam_id":76561198236857310,"connected_time":2001000000000,"state":"active","ping":56},{"user_id":6,"name":"Big Man","steam_id":76561198353366625,"connected_time":1664000000000,"state":"active","ping":83},{"user_id":21,"name":"TJGSASQUATCH","steam_id":76561198077806921,"connected_time":718000000000,"state":"active","ping":68},{"user_id":14,"name":"Professional Brohamad","steam_id":76561198824025210,"connected_time":1009000000000,"state":"active","ping":45},{"user_id":9,"name":"i thought you were my friend","steam_id":76561198929646112,"connected_time":1421000000000,"state":"active","ping":69},{"user_id":12,"name":"ToasterWater","steam_id":76561198260121940,"connected_time":1159000000000,"state":"active","ping":69},{"user_id":15,"name":"Jimmy","steam_id":76561198133680783,"connected_time":965000000000,"state":"active","ping":155},{"user_id":32,"name":"The Team Handyman","steam_id":76561198294638028,"connected_time":400000000000,"state":"active","ping":61},{"user_id":17,"name":"FI LO","steam_id":76561198976530881,"connected_time":916000000000,"state":"active","ping":90},{"user_id":18,"name":"Corruptedplatypus","steam_id":76561198193537517,"connected_time":886000000000,"state":"active","ping":60},{"user_id":19,"name":"BIG HOG","steam_id":76561198079923652,"connected_time":842000000000,"state":"active","ping":77},{"user_id":20,"name":"Unfunny","steam_id":76561199091373431,"connected_time":825000000000,"state":"active","ping":97},{"user_id":22,"name":"Snow☆","steam_id":76561198031290573,"connected_time":710000000000,"state":"active","ping":58},{"user_id":23,"name":"nalezinik","steam_id":76561198030026119,"connected_time":623000000000,"state":"active","ping":57},{"user_id":24,"name":"TravTrav","steam_id":76561198840746216,"connected_time":613000000000,"state":"active","ping":84},{"user_id":25,"name":"VLC Media Player","steam_id":76561198103243847,"connected_time":598000000000,"state":"active","ping":119},{"user_id":26,"name":"fancyfreak","steam_id":76561198326466375,"connected_time":586000000000,"state":"active","ping":99},{"user_id":27,"name":"Grill Skills","steam_id":76561198053575147,"connected_time":565000000000,"state":"active","ping":108},{"user_id":28,"name":"Thinkpad X220","steam_id":76561198057076267,"connected_time":553000000000,"state":"active","ping":73},{"user_id":29,"name":"Flesh Eating Turtle","steam_id":76561198116742139,"connected_time":542000000000,"state":"active","ping":99},{"user_id":30,"name":"ror!","steam_id":76561198021227843,"connected_time":542000000000,"state":"active","ping":58},{"user_id":31,"name":"Kiwimpediment","steam_id":76561198322781400,"connected_time":491000000000,"state":"active","ping":74}]},{"server_id":106,"name":"Uncletopia | Chicago | 2 | All Maps","name_short":"chi-2","host":"chi-1.us.uncletopia.com","port":27025,"enabled":true,"region":"us-central","cc":"us","latitude":41.881832,"longitude":-87.62318,"reserved":0,"last_update":"0001-01-01T00:00:00Z","name_a2s":"Uncletopia | Chicago | 2 | All Maps","protocol":17,"map":"pl_frontier_final","folder":"tf","game":"Team Fortress","app_id":440,"player_count":0,"max_players":24,"Bots":0,"server_type":"Dedicated","server_os":"Linux","password":true,"vac":true,"version":"7882260","steam_id":85568392924469985,"keywords":["nocrits","nodmgspread","payload","uncletopia"],"game_id":440,"stv_port":27026,"stv_name":"Uncletopia | Chicago | 2 | All Maps | STV","players":null},{"server_id":402,"name":"Uncletopia | Chicago | 3 | All Maps","name_short":"chi-3","host":"chi-1.us.uncletopia.com","port":27035,"enabled":true,"region":"us-central","cc":"us","latitude":41.881832,"longitude":-87.62318,"reserved":0,"last_update":"0001-01-01T00:00:00Z","name_a2s":"Uncletopia | Chicago | 3 | All Maps","protocol":17,"map":"pl_snowycoast","folder":"tf","game":"Team Fortress","app_id":440,"player_count":0,"max_players":24,"Bots":0,"server_type":"Dedicated","server_os":"Linux","password":true,"vac":true,"version":"7882260","steam_id":85568392924515191,"keywords":["nocrits","nodmgspread","payload","uncletopia"],"game_id":440,"stv_port":27036,"stv_name":"Uncletopia | Chicago | 3 | All Maps | STV","players":null},{"server_id":403,"name":"Uncletopia | Chicago | 4 | All Maps","name_short":"chi-4","host":"chi-1.us.uncletopia.com","port":27045,"enabled":true,"region":"us-central","cc":"us","latitude":41.881832,"longitude":-87.62318,"reserved":0,"last_update":"0001-01-01T00:00:00Z","name_a2s":"Uncletopia | Chicago | 4 | All Maps","protocol":17,"map":"koth_cascade","folder":"tf","game":"Team Fortress","app_id":440,"player_count":0,"max_players":24,"Bots":0,"server_type":"Dedicated","server_os":"Linux","password":true,"vac":true,"version":"7882260","steam_id":85568392924515193,"keywords":["cp","nocrits","nodmgspread","uncletopia"],"game_id":440,"stv_port":27046,"stv_name":"Uncletopia | Chicago | 4 | All Maps | STV","players":null},{"server_id":36,"name":"Uncletopia | Chicago | 5 | All Maps","name_short":"chi-5","host":"chi-2.us.uncletopia.com","port":27015,"enabled":true,"region":"us-central","cc":"us","latitude":41.881832,"longitude":-87.62318,"reserved":0,"last_update":"0001-01-01T00:00:00Z","name_a2s":"Uncletopia | Chicago | 5 | All Maps","protocol":17,"map":"pl_badwater","folder":"tf","game":"Team Fortress","app_id":440,"player_count":0,"max_players":24,"Bots":0,"server_type":"Dedicated","server_os":"Linux","password":true,"vac":true,"version":"7882260","steam_id":85568392924866362,"keywords":["nocrits","nodmgspread","payload","uncletopia"],"game_id":440,"stv_port":27016,"stv_name":"Uncletopia | Chicago | 5 | All Maps | STV","players":null},{"server_id":37,"name":"Uncletopia | Chicago | 6 | All Maps","name_short":"chi-6","host":"chi-2.us.uncletopia.com","port":27025,"enabled":true,"region":"us-central","cc":"us","latitude":41.881832,"longitude":-87.62318,"reserved":0,"last_update":"0001-01-01T00:00:00Z","name_a2s":"Uncletopia | Chicago | 6 | All Maps","protocol":17,"map":"koth_cascade","folder":"tf","game":"Team Fortress","app_id":440,"player_count":0,"max_players":24,"Bots":0,"server_type":"Dedicated","server_os":"Linux","password":true,"vac":true,"version":"7882260","steam_id":85568392924866363,"keywords":["cp","nocrits","nodmgspread","uncletopia"],"game_id":440,"stv_port":27026,"stv_name":"Uncletopia | Chicago | 6 | All Maps | STV","players":null},{"server_id":38,"name":"Uncletopia | Chicago | 7 | Stopwatch Beta","name_short":"chi-7","host":"chi-2.us.uncletopia.com","port":27035,"enabled":true,"region":"us-central","cc":"us","latitude":41.881832,"longitude":-87.62318,"reserved":0,"last_update":"0001-01-01T00:00:00Z","name_a2s":"Uncletopia | Chicago | 7 | Stopwatch Beta","protocol":17,"map":"pl_borneo","folder":"tf","game":"Team Fortress","app_id":440,"player_count":0,"max_players":24,"Bots":0,"server_type":"Dedicated","server_os":"Linux","password":true,"vac":true,"version":"7882260","steam_id":85568392924866364,"keywords":["nocrits","nodmgspread","payload","uncletopia"],"game_id":440,"stv_port":27036,"stv_name":"Uncletopia | Chicago | 7 | Stopwatch Beta | STV","players":null},{"server_id":39,"name":"Uncletopia | Chicago | 8 | Community","name_short":"chi-8","host":"chi-2.us.uncletopia.com","port":27045,"enabled":true,"region":"us-central","cc":"us","latitude":41.881832,"longitude":-87.62318,"reserved":0,"last_update":"0001-01-01T00:00:00Z","name_a2s":"Uncletopia | Chicago | 8 | Community","protocol":17,"map":"cp_snakewater_final1","folder":"tf","game":"Team Fortress","app_id":440,"player_count":0,"max_players":24,"Bots":0,"server_type":"Dedicated","server_os":"Linux","password":true,"vac":true,"version":"7882260","steam_id":85568392924866365,"keywords":["cp","nocrits","nodmgspread","uncletopia"],"game_id":440,"stv_port":27046,"stv_name":"Uncletopia | Chicago | 8 | Community | STV","players":null},{"server_id":8,"name":"Uncletopia | Dallas | 1 | All Maps","name_short":"dal-1","host":"dal-1.us.uncletopia.com","port":27015,"enabled":true,"region":"us-central","cc":"us","latitude":32.779167,"longitude":-96.80889,"reserved":0,"last_update":"0001-01-01T00:00:00Z","name_a2s":"Uncletopia | Dallas | 1 | All Maps","protocol":17,"map":"pl_pier","folder":"tf","game":"Team Fortress","app_id":440,"player_count":0,"max_players":24,"Bots":0,"server_type":"Dedicated","server_os":"Linux","password":true,"vac":true,"version":"7882260","steam_id":85568392924469986,"keywords":["nocrits","nodmgspread","payload","uncletopia"],"game_id":440,"stv_port":27016,"stv_name":"Uncletopia | Dallas | 1 | All Maps | STV","players":null},{"server_id":108,"name":"Uncletopia | Dallas | 2 | All Maps","name_short":"dal-2","host":"dal-1.us.uncletopia.com","port":27025,"enabled":true,"region":"us-central","cc":"us","latitude":32.779167,"longitude":-96.80889,"reserved":0,"last_update":"0001-01-01T00:00:00Z","name_a2s":"Uncletopia | Dallas | 2 | All Maps","protocol":17,"map":"pl_frontier_final","folder":"tf","game":"Team Fortress","app_id":440,"player_count":0,"max_players":24,"Bots":0,"server_type":"Dedicated","server_os":"Linux","password":true,"vac":true,"version":"7882260","steam_id":85568392924469988,"keywords":["nocrits","nodmgspread","payload","uncletopia"],"game_id":440,"stv_port":27026,"stv_name":"Uncletopia | Dallas | 2 | All Maps | STV","players":null},{"server_id":5,"name":"Uncletopia | Frankfurt | 1 | All Maps","name_short":"frk-1","host":"frk-1.de.uncletopia.com","port":27015,"enabled":true,"region":"eu","cc":"de","latitude":50.110924,"longitude":8.682127,"reserved":0,"last_update":"0001-01-01T00:00:00Z","name_a2s":"Uncletopia | Frankfurt | 1 | All Maps","protocol":17,"map":"pl_frontier_final","folder":"tf","game":"Team Fortress","app_id":440,"player_count":24,"max_players":24,"Bots":0,"server_type":"Dedicated","server_os":"Linux","password":true,"vac":true,"version":"7882260","steam_id":85568392924469989,"keywords":["nocrits","nodmgspread","payload","uncletopia"],"game_id":440,"stv_port":27016,"stv_name":"Uncletopia | Frankfurt | 1 | All Maps | STV","players":[{"user_id":91,"name":"Nekoshironi","steam_id":76561198191124837,"connected_time":2021000000000,"state":"active","ping":69},{"user_id":104,"name":"Better Call Medic","steam_id":76561198939711234,"connected_time":1367000000000,"state":"active","ping":116},{"user_id":82,"name":"krutoy","steam_id":76561198042468577,"connected_time":2493000000000,"state":"active","ping":86},{"user_id":106,"name":"Kemalismus","steam_id":76561198394441106,"connected_time":701000000000,"state":"active","ping":109},{"user_id":92,"name":"Rahu 'Siebren' Godless","steam_id":76561198276259175,"connected_time":1918000000000,"state":"active","ping":98},{"user_id":71,"name":"petite mommy feet!","steam_id":76561197994492154,"connected_time":3080000000000,"state":"active","ping":72},{"user_id":113,"name":"cute face, violent heart","steam_id":76561198043836847,"connected_time":78000000000,"state":"active","ping":68},{"user_id":93,"name":"Kildon","steam_id":76561198134661558,"connected_time":1905000000000,"state":"active","ping":85},{"user_id":73,"name":"john fortress","steam_id":76561198013237629,"connected_time":3053000000000,"state":"active","ping":94},{"user_id":112,"name":"Edla","steam_id":76561198062815315,"connected_time":310000000000,"state":"active","ping":128},{"user_id":105,"name":"Chambersite","steam_id":76561198197022399,"connected_time":762000000000,"state":"active","ping":60},{"user_id":107,"name":"Españaa","steam_id":76561198879587832,"connected_time":689000000000,"state":"active","ping":85},{"user_id":96,"name":"The.Real.Genesis","steam_id":76561198999652040,"connected_time":1891000000000,"state":"active","ping":39},{"user_id":108,"name":"Vitamin Weee","steam_id":76561199183937747,"connected_time":640000000000,"state":"active","ping":82},{"user_id":89,"name":"Cyrell","steam_id":76561198158308194,"connected_time":2154000000000,"state":"active","ping":45},{"user_id":57,"name":"CAR DOOR","steam_id":76561198055283295,"connected_time":4269000000000,"state":"active","ping":44},{"user_id":98,"name":"{*R@MIRU$*}","steam_id":76561197989873986,"connected_time":1883000000000,"state":"active","ping":79},{"user_id":58,"name":"wardex","steam_id":76561198058776834,"connected_time":4263000000000,"state":"active","ping":45},{"user_id":90,"name":"wicked","steam_id":76561198164376035,"connected_time":2138000000000,"state":"active","ping":70},{"user_id":100,"name":"Microsoft PowerPoint","steam_id":76561198204290539,"connected_time":1831000000000,"state":"active","ping":63},{"user_id":69,"name":"svantezch","steam_id":76561198373831657,"connected_time":3467000000000,"state":"active","ping":82},{"user_id":50,"name":"hshs","steam_id":76561198314562513,"connected_time":4418000000000,"state":"active","ping":63},{"user_id":84,"name":"Hrodmund","steam_id":76561198024331014,"connected_time":2418000000000,"state":"active","ping":85},{"user_id":111,"name":"Säyu","steam_id":76561199275368237,"connected_time":406000000000,"state":"active","ping":85}]},{"server_id":110,"name":"Uncletopia | Frankfurt | 2 | All Maps","name_short":"frk-2","host":"frk-1.de.uncletopia.com","port":27025,"enabled":true,"region":"eu","cc":"de","latitude":50.110924,"longitude":8.682127,"reserved":0,"last_update":"0001-01-01T00:00:00Z","name_a2s":"Uncletopia | Frankfurt | 2 | All Maps","protocol":17,"map":"pl_snowycoast","folder":"tf","game":"Team Fortress","app_id":440,"player_count":24,"max_players":24,"Bots":0,"server_type":"Dedicated","server_os":"Linux","password":true,"vac":true,"version":"7882260","steam_id":85568392924469990,"keywords":["nocrits","nodmgspread","payload","uncletopia"],"game_id":440,"stv_port":27026,"stv_name":"Uncletopia | Frankfurt | 2 | All Maps | STV","players":[{"user_id":249,"name":"KlyneX","steam_id":76561198107459305,"connected_time":1740000000000,"state":"active","ping":74},{"user_id":209,"name":"Ankle Dane","steam_id":76561198134378108,"connected_time":6099000000000,"state":"active","ping":83},{"user_id":236,"name":"goo :o","steam_id":76561199478550805,"connected_time":3339000000000,"state":"active","ping":47},{"user_id":44,"name":"Rin-Nakaret","steam_id":76561197971051188,"connected_time":17185000000000,"state":"active","ping":72},{"user_id":263,"name":"One-Punch Retard","steam_id":76561198029932939,"connected_time":516000000000,"state":"active","ping":86},{"user_id":250,"name":"Oxitocin","steam_id":76561198119542899,"connected_time":1153000000000,"state":"active","ping":76},{"user_id":116,"name":"Ramzus","steam_id":76561198012385070,"connected_time":11327000000000,"state":"active","ping":84},{"user_id":185,"name":"El`Capitano Flex","steam_id":76561198061813730,"connected_time":7949000000000,"state":"active","ping":60},{"user_id":228,"name":"Eco","steam_id":76561199201938256,"connected_time":3725000000000,"state":"active","ping":96},{"user_id":268,"name":"Spilla","steam_id":76561198062344040,"connected_time":13000000000,"state":"active","ping":57},{"user_id":257,"name":"AleXandriX","steam_id":76561198035203950,"connected_time":934000000000,"state":"active","ping":59},{"user_id":253,"name":"HwK!","steam_id":76561198287835588,"connected_time":959000000000,"state":"active","ping":90},{"user_id":215,"name":"Vezage","steam_id":76561198064916164,"connected_time":5455000000000,"state":"active","ping":72},{"user_id":259,"name":"sam-","steam_id":76561198013770973,"connected_time":916000000000,"state":"active","ping":72},{"user_id":266,"name":"Slifer the Sky Dragon","steam_id":76561198062255803,"connected_time":45000000000,"state":"active","ping":196},{"user_id":239,"name":"beurgeur","steam_id":76561198872426314,"connected_time":3107000000000,"state":"active","ping":45},{"user_id":260,"name":"lettuce out of stock","steam_id":76561199401283123,"connected_time":912000000000,"state":"active","ping":66},{"user_id":269,"name":"Wafes","steam_id":76561198065625467,"connected_time":8000000000,"state":"spawning","ping":169},{"user_id":270,"name":"AidenJacks","steam_id":76561198263228457,"connected_time":5000000000,"state":"spawning","ping":88},{"user_id":245,"name":"Hooli","steam_id":76561198083632269,"connected_time":2060000000000,"state":"active","ping":97},{"user_id":264,"name":"..-.|..|.-..|..|.--.|","steam_id":76561198829879386,"connected_time":250000000000,"state":"active","ping":62},{"user_id":251,"name":"TonTon","steam_id":76561198145468895,"connected_time":972000000000,"state":"active","ping":54},{"user_id":216,"name":"Little Satan","steam_id":76561198083614760,"connected_time":5284000000000,"state":"active","ping":77},{"user_id":232,"name":"誰かが見ている","steam_id":76561198834913692,"connected_time":3545000000000,"state":"active","ping":66}]},{"server_id":308,"name":"Uncletopia | Frankfurt | 3 | All Maps","name_short":"frk-3","host":"frk-1.de.uncletopia.com","port":27035,"enabled":true,"region":"eu","cc":"de","latitude":50.110924,"longitude":8.682127,"reserved":0,"last_update":"0001-01-01T00:00:00Z","name_a2s":"Uncletopia | Frankfurt | 3 | All Maps","protocol":17,"map":"pl_pier","folder":"tf","game":"Team Fortress","app_id":440,"player_count":24,"max_players":24,"Bots":0,"server_type":"Dedicated","server_os":"Linux","password":true,"vac":true,"version":"7882260","steam_id":85568392924504274,"keywords":["nocrits","nodmgspread","payload","uncletopia"],"game_id":440,"stv_port":27036,"stv_name":"Uncletopia | Frankfurt | 3 | All Maps | STV","players":[{"user_id":596,"name":"akakez","steam_id":76561198095432821,"connected_time":489000000000,"state":"active","ping":118},{"user_id":597,"name":"Power | Lich Power","steam_id":76561198273180640,"connected_time":486000000000,"state":"active","ping":137},{"user_id":567,"name":"Tweedle","steam_id":76561198160141785,"connected_time":2118000000000,"state":"active","ping":49},{"user_id":566,"name":"Voks_","steam_id":76561198159687785,"connected_time":2217000000000,"state":"active","ping":71},{"user_id":598,"name":"Salih","steam_id":76561198287934839,"connected_time":477000000000,"state":"active","ping":53},{"user_id":590,"name":"Stu","steam_id":76561198131449281,"connected_time":847000000000,"state":"active","ping":39},{"user_id":591,"name":"goblin (real)","steam_id":76561198868286775,"connected_time":810000000000,"state":"active","ping":90},{"user_id":588,"name":"yusef","steam_id":76561198108481078,"connected_time":1051000000000,"state":"active","ping":116},{"user_id":601,"name":"ZaneMago","steam_id":76561198305019050,"connected_time":207000000000,"state":"active","ping":61},{"user_id":593,"name":"cof","steam_id":76561199128417805,"connected_time":612000000000,"state":"active","ping":70},{"user_id":594,"name":"Segra blw.tf","steam_id":76561198441974031,"connected_time":587000000000,"state":"active","ping":71},{"user_id":523,"name":"Sex Man TF2","steam_id":76561198798657045,"connected_time":6160000000000,"state":"active","ping":70},{"user_id":602,"name":"DeCypher \u003c3","steam_id":76561198171992619,"connected_time":87000000000,"state":"active","ping":67},{"user_id":563,"name":"Sh1n","steam_id":76561199012155377,"connected_time":2262000000000,"state":"active","ping":45},{"user_id":577,"name":"Critical Hit","steam_id":76561198028524029,"connected_time":1766000000000,"state":"active","ping":78},{"user_id":554,"name":"Douse","steam_id":76561198023702779,"connected_time":3656000000000,"state":"active","ping":111},{"user_id":498,"name":"Ran33","steam_id":76561197991474499,"connected_time":8041000000000,"state":"active","ping":86},{"user_id":599,"name":"Ale1199","steam_id":76561198994871986,"connected_time":379000000000,"state":"active","ping":78},{"user_id":583,"name":"Pizza_Jammies1345","steam_id":76561199228950246,"connected_time":1345000000000,"state":"active","ping":160},{"user_id":595,"name":"blz","steam_id":76561199232442508,"connected_time":558000000000,"state":"active","ping":79},{"user_id":586,"name":"Pixie","steam_id":76561198044038797,"connected_time":1227000000000,"state":"active","ping":87},{"user_id":574,"name":"metamikko","steam_id":76561198324704234,"connected_time":2053000000000,"state":"active","ping":101},{"user_id":600,"name":"Ataraxia","steam_id":76561198086654069,"connected_time":374000000000,"state":"active","ping":74},{"user_id":442,"name":"LasagneMan","steam_id":76561198971904377,"connected_time":10197000000000,"state":"active","ping":66}]},{"server_id":309,"name":"Uncletopia | Frankfurt | 4 | All Maps","name_short":"frk-4","host":"frk-1.de.uncletopia.com","port":27045,"enabled":true,"region":"eu","cc":"de","latitude":50.110924,"longitude":8.682127,"reserved":0,"last_update":"0001-01-01T00:00:00Z","name_a2s":"Uncletopia | Frankfurt | 4 | All Maps","protocol":17,"map":"cp_snakewater_final1","folder":"tf","game":"Team Fortress","app_id":440,"player_count":0,"max_players":24,"Bots":0,"server_type":"Dedicated","server_os":"Linux","password":true,"vac":true,"version":"7882260","steam_id":85568392924504275,"keywords":["cp","nocrits","nodmgspread","uncletopia"],"game_id":440,"stv_port":27046,"stv_name":"Uncletopia | Frankfurt | 4 | All Maps | STV","players":null},{"server_id":310,"name":"Uncletopia | Frankfurt | 5 | All Maps","name_short":"frk-5","host":"frk-1.de.uncletopia.com","port":27055,"enabled":true,"region":"eu","cc":"de","latitude":50.110924,"longitude":8.682127,"reserved":0,"last_update":"0001-01-01T00:00:00Z","name_a2s":"Uncletopia | Frankfurt | 5 | All Maps","protocol":17,"map":"pl_snowycoast","folder":"tf","game":"Team Fortress","app_id":440,"player_count":0,"max_players":24,"Bots":0,"server_type":"Dedicated","server_os":"Linux","password":true,"vac":true,"version":"7882260","steam_id":85568392924504277,"keywords":["nocrits","nodmgspread","payload","uncletopia"],"game_id":440,"stv_port":27056,"stv_name":"Uncletopia | Frankfurt | 5 | All Maps | STV","players":null},{"server_id":311,"name":"Uncletopia | Frankfurt | 6 | All Maps","name_short":"frk-6","host":"frk-1.de.uncletopia.com","port":27065,"enabled":true,"region":"eu","cc":"de","latitude":50.110924,"longitude":8.682127,"reserved":0,"last_update":"0001-01-01T00:00:00Z","name_a2s":"Uncletopia | Frankfurt | 6 | All Maps","protocol":17,"map":"cp_sunshine","folder":"tf","game":"Team Fortress","app_id":440,"player_count":0,"max_players":24,"Bots":0,"server_type":"Dedicated","server_os":"Linux","password":true,"vac":true,"version":"7882260","steam_id":85568392924504278,"keywords":["cp","nocrits","nodmgspread","uncletopia"],"game_id":440,"stv_port":27066,"stv_name":"Uncletopia | Frankfurt | 6 | All Maps | STV","players":null},{"server_id":23,"name":"Uncletopia | Frankfurt | 7 | Stopwatch Beta","name_short":"frk-7","host":"frk-1.de.uncletopia.com","port":27075,"enabled":true,"region":"eu","cc":"de","latitude":50.110924,"longitude":8.682127,"reserved":0,"last_update":"0001-01-01T00:00:00Z","name_a2s":"Uncletopia | Frankfurt | 7 | Stopwatch Beta","protocol":17,"map":"cp_dustbowl","folder":"tf","game":"Team Fortress","app_id":440,"player_count":0,"max_players":24,"Bots":0,"server_type":"Dedicated","server_os":"Linux","password":true,"vac":true,"version":"7882260","steam_id":85568392924742827,"keywords":["cp","nocrits","nodmgspread","uncletopia"],"game_id":440,"stv_port":27076,"stv_name":"Uncletopia | Frankfurt | 7 | Stopwatch Beta | STV","players":null},{"server_id":24,"name":"Uncletopia | Frankfurt | 8 | Community","name_short":"frk-8","host":"frk-1.de.uncletopia.com","port":27085,"enabled":true,"region":"eu","cc":"de","latitude":50.110924,"longitude":8.682127,"reserved":0,"last_update":"0001-01-01T00:00:00Z","name_a2s":"Uncletopia | Frankfurt | 8 | Community","protocol":17,"map":"koth_cascade","folder":"tf","game":"Team Fortress","app_id":440,"player_count":0,"max_players":24,"Bots":0,"server_type":"Dedicated","server_os":"Linux","password":true,"vac":true,"version":"7882260","steam_id":85568392924742828,"keywords":["cp","nocrits","nodmgspread","uncletopia"],"game_id":440,"stv_port":27086,"stv_name":"Uncletopia | Frankfurt | 8 | Community | STV","players":null},{"server_id":202,"name":"Uncletopia | Hong Kong | 1 | All Maps","name_short":"hgk-1","host":"hgk-1.hk.uncletopia.com","port":27015,"enabled":true,"region":"asia","cc":"hk","latitude":22.302711,"longitude":114.177216,"reserved":0,"last_update":"0001-01-01T00:00:00Z","name_a2s":"Uncletopia | Hong Kong | 1 | All Maps","protocol":17,"map":"cp_dustbowl","folder":"tf","game":"Team Fortress","app_id":440,"player_count":26,"max_players":24,"Bots":0,"server_type":"Dedicated","server_os":"Linux","password":true,"vac":true,"version":"7882260","steam_id":85568392924494504,"keywords":["cp","nocrits","nodmgspread","uncletopia"],"game_id":440,"stv_port":27016,"stv_name":"Uncletopia | Hong Kong | 1 | All Maps | STV","players":[{"user_id":339,"name":"This isn't Counter Strike","steam_id":76561199198665314,"connected_time":2627000000000,"state":"active","ping":81},{"user_id":395,"name":"NOPE","steam_id":76561199244543572,"connected_time":87000000000,"state":"active","ping":104},{"user_id":338,"name":"쿠키","steam_id":76561197997220367,"connected_time":2633000000000,"state":"active","ping":55},{"user_id":361,"name":"Prof Booster","steam_id":76561199148930929,"connected_time":1818000000000,"state":"active","ping":39},{"user_id":333,"name":"Beef Wellington","steam_id":76561197995635241,"connected_time":2684000000000,"state":"active","ping":116},{"user_id":404,"name":"JE","steam_id":76561198264819554,"connected_time":35000000000,"state":"active","ping":43},{"user_id":229,"name":"Vortex Medico","steam_id":76561198833527091,"connected_time":5632000000000,"state":"active","ping":96},{"user_id":343,"name":"Duck with a knife (what he gonn","steam_id":76561199092409364,"connected_time":2498000000000,"state":"active","ping":108},{"user_id":377,"name":"tyiskre","steam_id":76561199211786489,"connected_time":666000000000,"state":"active","ping":111},{"user_id":362,"name":"Edberg","steam_id":76561198411506431,"connected_time":1815000000000,"state":"active","ping":136},{"user_id":363,"name":"Sophia the librarian werewolf","steam_id":76561199131651798,"connected_time":1732000000000,"state":"active","ping":76},{"user_id":273,"name":"母の肉団子@hao123.com","steam_id":76561198069561896,"connected_time":3880000000000,"state":"active","ping":32},{"user_id":277,"name":"paper boat","steam_id":76561198046558051,"connected_time":3588000000000,"state":"active","ping":87},{"user_id":145,"name":"PocoLoco","steam_id":76561198834044246,"connected_time":9601000000000,"state":"active","ping":109},{"user_id":152,"name":"WhereAmai","steam_id":76561199122491157,"connected_time":8468000000000,"state":"active","ping":162},{"user_id":378,"name":"Ivy","steam_id":76561198400698408,"connected_time":566000000000,"state":"active","ping":90},{"user_id":330,"name":"yw","steam_id":76561199382726488,"connected_time":2708000000000,"state":"active","ping":48},{"user_id":342,"name":"screaming sniper","steam_id":76561199085568674,"connected_time":2549000000000,"state":"active","ping":78},{"user_id":331,"name":"TheChainsaw","steam_id":76561198312001455,"connected_time":2708000000000,"state":"active","ping":113},{"user_id":260,"name":"TomProPlayer","steam_id":76561199223292521,"connected_time":4064000000000,"state":"active","ping":110},{"user_id":332,"name":"Jackal Queenston","steam_id":76561199012678702,"connected_time":2699000000000,"state":"active","ping":76},{"user_id":337,"name":"P","steam_id":76561198304514505,"connected_time":2661000000000,"state":"active","ping":79},{"user_id":380,"name":"dax.","steam_id":76561198321885643,"connected_time":516000000000,"state":"active","ping":43},{"user_id":391,"name":"仙女头子于谦","steam_id":76561199031075505,"connected_time":129000000000,"state":"active","ping":88},{"user_id":227,"name":"TomCat","steam_id":76561198133744053,"connected_time":5664000000000,"state":"active","ping":118},{"user_id":406,"name":"MaieleiaM","steam_id":76561199153963083,"connected_time":16000000000,"state":"spawning","ping":135}]},{"server_id":1,"name":"Uncletopia | Los Angeles | 1 | All Maps","name_short":"lax-1","host":"lax-1.us.uncletopia.com","port":27015,"enabled":true,"region":"us-west","cc":"us","latitude":33.94279,"longitude":-118.41004,"reserved":0,"last_update":"0001-01-01T00:00:00Z","name_a2s":"Uncletopia | Los Angeles | 1 | All Maps","protocol":17,"map":"pl_pier","folder":"tf","game":"Team Fortress","app_id":440,"player_count":0,"max_players":24,"Bots":0,"server_type":"Dedicated","server_os":"Linux","password":true,"vac":true,"version":"7882260","steam_id":85568392924469991,"keywords":["nocrits","nodmgspread","payload","uncletopia"],"game_id":440,"stv_port":27016,"stv_name":"Uncletopia | Los Angeles | 1 | All Maps | STV","players":null},{"server_id":112,"name":"Uncletopia | Los Angeles | 2 | All Maps","name_short":"lax-2","host":"lax-1.us.uncletopia.com","port":27025,"enabled":true,"region":"us-west","cc":"us","latitude":33.94279,"longitude":-118.41004,"reserved":0,"last_update":"0001-01-01T00:00:00Z","name_a2s":"Uncletopia | Los Angeles | 2 | All Maps","protocol":17,"map":"pl_goldrush","folder":"tf","game":"Team Fortress","app_id":440,"player_count":24,"max_players":24,"Bots":0,"server_type":"Dedicated","server_os":"Linux","password":true,"vac":true,"version":"7882260","steam_id":85568392924469992,"keywords":["nocrits","nodmgspread","payload","uncletopia"],"game_id":440,"stv_port":27026,"stv_name":"Uncletopia | Los Angeles | 2 | All Maps | STV","players":[{"user_id":3,"name":"lol","steam_id":76561198026491738,"connected_time":3152000000000,"state":"active","ping":58},{"user_id":51,"name":"luisrafaelgta","steam_id":76561198216601611,"connected_time":151000000000,"state":"active","ping":151},{"user_id":5,"name":"zapato","steam_id":76561198142278437,"connected_time":3145000000000,"state":"active","ping":100},{"user_id":6,"name":"vλughn","steam_id":76561198144165856,"connected_time":3138000000000,"state":"active","ping":84},{"user_id":44,"name":"BattleWriter","steam_id":76561198059618706,"connected_time":1145000000000,"state":"active","ping":90},{"user_id":39,"name":"Vruk","steam_id":76561198116930332,"connected_time":1343000000000,"state":"active","ping":89},{"user_id":9,"name":"defbigsonicsbff","steam_id":76561199388617281,"connected_time":3101000000000,"state":"active","ping":47},{"user_id":11,"name":"Bacon Hoodie","steam_id":76561198843822629,"connected_time":3081000000000,"state":"active","ping":83},{"user_id":47,"name":"MonteJT","steam_id":76561198055409360,"connected_time":1074000000000,"state":"active","ping":75},{"user_id":14,"name":"spider_murphy","steam_id":76561198079057101,"connected_time":3044000000000,"state":"active","ping":82},{"user_id":16,"name":"Crunchy","steam_id":76561198240523882,"connected_time":2969000000000,"state":"active","ping":49},{"user_id":19,"name":"KooKooKachue","steam_id":76561198391195262,"connected_time":2854000000000,"state":"active","ping":115},{"user_id":18,"name":"Aiko","steam_id":76561198262395873,"connected_time":2918000000000,"state":"active","ping":55},{"user_id":40,"name":"beatrix","steam_id":76561199057103062,"connected_time":1337000000000,"state":"active","ping":60},{"user_id":22,"name":"PEPSI POWERED MAN","steam_id":76561198362668431,"connected_time":2781000000000,"state":"active","ping":147},{"user_id":50,"name":"Boredom2013","steam_id":76561198066426686,"connected_time":476000000000,"state":"active","ping":54},{"user_id":24,"name":"Joe","steam_id":76561199389283507,"connected_time":2660000000000,"state":"active","ping":131},{"user_id":25,"name":"FreonAddict9x19","steam_id":76561198060010824,"connected_time":2654000000000,"state":"active","ping":113},{"user_id":26,"name":"ShiverBorn","steam_id":76561198384811149,"connected_time":2611000000000,"state":"active","ping":138},{"user_id":48,"name":"Spencer","steam_id":76561198085128053,"connected_time":1019000000000,"state":"active","ping":182},{"user_id":29,"name":"DJThunderHeart","steam_id":76561198274197575,"connected_time":2383000000000,"state":"active","ping":115},{"user_id":46,"name":"IPlayGamez","steam_id":76561198041387508,"connected_time":1101000000000,"state":"active","ping":95},{"user_id":49,"name":"thedomterTTV","steam_id":76561198045169719,"connected_time":635000000000,"state":"active","ping":96},{"user_id":37,"name":"Drapph","steam_id":76561199384213314,"connected_time":1988000000000,"state":"active","ping":115}]},{"server_id":324,"name":"Uncletopia | Los Angeles | 3 | All Maps","name_short":"lax-3","host":"lax-1.us.uncletopia.com","port":27035,"enabled":true,"region":"us-west","cc":"us","latitude":33.94279,"longitude":-118.41004,"reserved":0,"last_update":"0001-01-01T00:00:00Z","name_a2s":"Uncletopia | Los Angeles | 3 | All Maps","protocol":17,"map":"pl_barnblitz","folder":"tf","game":"Team Fortress","app_id":440,"player_count":10,"max_players":24,"Bots":0,"server_type":"Dedicated","server_os":"Linux","password":true,"vac":true,"version":"7882260","steam_id":85568392924510198,"keywords":["nocrits","nodmgspread","payload","uncletopia"],"game_id":440,"stv_port":27036,"stv_name":"Uncletopia | Los Angeles | 3 | All Maps | STV","players":[{"user_id":15,"name":"A Suicidal Soldier","steam_id":76561198049570658,"connected_time":511000000000,"state":"active","ping":53},{"user_id":5,"name":"VERY STABLE GENIUS","steam_id":76561198079401635,"connected_time":3083000000000,"state":"active","ping":104},{"user_id":16,"name":"BONKster","steam_id":76561198170089663,"connected_time":303000000000,"state":"active","ping":123},{"user_id":9,"name":"ribbonborn","steam_id":76561198001195423,"connected_time":2027000000000,"state":"active","ping":99},{"user_id":10,"name":"FragmantizedLemon","steam_id":76561198313580674,"connected_time":1998000000000,"state":"active","ping":205},{"user_id":11,"name":"Ice Tray","steam_id":76561198156184504,"connected_time":1917000000000,"state":"active","ping":112},{"user_id":17,"name":"OKUYA5U","steam_id":76561198815127418,"connected_time":193000000000,"state":"active","ping":214},{"user_id":14,"name":"bobletoob","steam_id":76561199184464900,"connected_time":1308000000000,"state":"active","ping":56},{"user_id":18,"name":"_--Ashley--_","steam_id":76561198010624776,"connected_time":84000000000,"state":"active","ping":65},{"user_id":20,"name":"Tele Guardian","steam_id":76561198071790583,"connected_time":34000000000,"state":"spawning","ping":89}]},{"server_id":25,"name":"Uncletopia | Los Angeles | 4 | Stopwatch Beta","name_short":"lax-4","host":"lax-1.us.uncletopia.com","port":27045,"enabled":true,"region":"us-west","cc":"us","latitude":33.94279,"longitude":-118.41004,"reserved":0,"last_update":"0001-01-01T00:00:00Z","name_a2s":"Uncletopia | Los Angeles | 4 | Stopwatch Beta","protocol":17,"map":"cp_snakewater_final1","folder":"tf","game":"Team Fortress","app_id":440,"player_count":0,"max_players":24,"Bots":0,"server_type":"Dedicated","server_os":"Linux","password":true,"vac":true,"version":"7882260","steam_id":85568392924510199,"keywords":["cp","nocrits","nodmgspread","uncletopia"],"game_id":440,"stv_port":27046,"stv_name":"Uncletopia | Los Angeles | 4 | Stopwatch Beta | STV","players":null},{"server_id":11,"name":"Uncletopia | London | 1 | All Maps","name_short":"lon-1","host":"lon-1.uk.uncletopia.com","port":27015,"enabled":true,"region":"eu","cc":"gb","latitude":51.509865,"longitude":-0.118092,"reserved":0,"last_update":"0001-01-01T00:00:00Z","name_a2s":"Uncletopia | London | 1 | All Maps","protocol":17,"map":"pl_upward","folder":"tf","game":"Team Fortress","app_id":440,"player_count":24,"max_players":24,"Bots":0,"server_type":"Dedicated","server_os":"Linux","password":true,"vac":true,"version":"7882260","steam_id":85568392924367362,"keywords":["nocrits","nodmgspread","payload","uncletopia"],"game_id":440,"stv_port":27016,"stv_name":"Uncletopia | London | 1 | All Maps | STV","players":[{"user_id":388,"name":"Walter Griffin","steam_id":76561199415989636,"connected_time":592000000000,"state":"active","ping":98},{"user_id":389,"name":"Ferlo","steam_id":76561198095561504,"connected_time":587000000000,"state":"active","ping":45},{"user_id":374,"name":"no1","steam_id":76561198067524060,"connected_time":1748000000000,"state":"active","ping":74},{"user_id":390,"name":"true","steam_id":76561198031145243,"connected_time":576000000000,"state":"active","ping":84},{"user_id":386,"name":"wibe","steam_id":76561198002519060,"connected_time":1020000000000,"state":"active","ping":76},{"user_id":373,"name":"kentuckyfriedsocks","steam_id":76561198311122883,"connected_time":1824000000000,"state":"active","ping":143},{"user_id":301,"name":"jt7","steam_id":76561198073655162,"connected_time":6117000000000,"state":"active","ping":71},{"user_id":375,"name":"R0mulone","steam_id":76561198352513792,"connected_time":1732000000000,"state":"active","ping":63},{"user_id":278,"name":"night.s","steam_id":76561198326287823,"connected_time":7131000000000,"state":"active","ping":70},{"user_id":387,"name":"MEDiUM","steam_id":76561198112328561,"connected_time":672000000000,"state":"active","ping":86},{"user_id":391,"name":"Accident","steam_id":76561198115160396,"connected_time":575000000000,"state":"active","ping":77},{"user_id":392,"name":"dimitrij_6ix_god","steam_id":76561199023275543,"connected_time":554000000000,"state":"active","ping":84},{"user_id":382,"name":"Destinys","steam_id":76561198056132894,"connected_time":1198000000000,"state":"active","ping":69},{"user_id":385,"name":"Welder","steam_id":76561198355300561,"connected_time":1118000000000,"state":"active","ping":73},{"user_id":398,"name":"Бravo","steam_id":76561198259340310,"connected_time":209000000000,"state":"active","ping":63},{"user_id":399,"name":"BatemanPatrick","steam_id":76561198393691611,"connected_time":135000000000,"state":"active","ping":58},{"user_id":394,"name":"leminsc8","steam_id":76561198825084995,"connected_time":517000000000,"state":"active","ping":54},{"user_id":395,"name":"Gavum","steam_id":76561198996889761,"connected_time":509000000000,"state":"active","ping":43},{"user_id":400,"name":"gojoel","steam_id":76561198251181946,"connected_time":31000000000,"state":"active","ping":43},{"user_id":377,"name":"Minimi","steam_id":76561198873850443,"connected_time":1594000000000,"state":"active","ping":40},{"user_id":363,"name":"Abhorrent","steam_id":76561198056338288,"connected_time":2608000000000,"state":"active","ping":45},{"user_id":396,"name":"strahphic","steam_id":76561199279295106,"connected_time":493000000000,"state":"active","ping":114},{"user_id":313,"name":"sneaky pete","steam_id":76561198066287297,"connected_time":5368000000000,"state":"active","ping":54},{"user_id":332,"name":"✪ qua ✪","steam_id":76561198066408333,"connected_time":4284000000000,"state":"active","ping":86}]},{"server_id":114,"name":"Uncletopia | London | 2 | All Maps","name_short":"lon-2","host":"lon-1.uk.uncletopia.com","port":27025,"enabled":true,"region":"eu","cc":"gb","latitude":51.509865,"longitude":-0.118092,"reserved":0,"last_update":"0001-01-01T00:00:00Z","name_a2s":"Uncletopia | London | 2 | All Maps","protocol":17,"map":"pl_swiftwater_final1","folder":"tf","game":"Team Fortress","app_id":440,"player_count":0,"max_players":24,"Bots":0,"server_type":"Dedicated","server_os":"Linux","password":true,"vac":true,"version":"7882260","steam_id":85568392924470941,"keywords":["nocrits","nodmgspread","payload","uncletopia"],"game_id":440,"stv_port":27026,"stv_name":"Uncletopia | London | 2 | All Maps | STV","players":null},{"server_id":320,"name":"Uncletopia | London | 3 | All Maps","name_short":"lon-3","host":"lon-1.uk.uncletopia.com","port":27035,"enabled":true,"region":"eu","cc":"gb","latitude":51.509865,"longitude":-0.118092,"reserved":0,"last_update":"0001-01-01T00:00:00Z","name_a2s":"Uncletopia | London | 3 | All Maps","protocol":17,"map":"koth_highpass","folder":"tf","game":"Team Fortress","app_id":440,"player_count":0,"max_players":24,"Bots":0,"server_type":"Dedicated","server_os":"Linux","password":true,"vac":true,"version":"7882260","steam_id":85568392924510192,"keywords":["cp","nocrits","nodmgspread","uncletopia"],"game_id":440,"stv_port":27036,"stv_name":"Uncletopia | London | 3 | All Maps | STV","players":null},{"server_id":321,"name":"Uncletopia | London | 4 | All Maps","name_short":"lon-4","host":"lon-1.uk.uncletopia.com","port":27045,"enabled":true,"region":"eu","cc":"gb","latitude":51.509865,"longitude":-0.118092,"reserved":0,"last_update":"0001-01-01T00:00:00Z","name_a2s":"Uncletopia | London | 4 | All Maps","protocol":17,"map":"pl_barnblitz","folder":"tf","game":"Team Fortress","app_id":440,"player_count":24,"max_players":24,"Bots":0,"server_type":"Dedicated","server_os":"Linux","password":true,"vac":true,"version":"7882260","steam_id":85568392924510193,"keywords":["nocrits","nodmgspread","payload","uncletopia"],"game_id":440,"stv_port":27046,"stv_name":"Uncletopia | London | 4 | All Maps | STV","players":[{"user_id":268,"name":"Star in a pond","steam_id":76561198205501279,"connected_time":1474000000000,"state":"active","ping":104},{"user_id":264,"name":"combat collin","steam_id":76561198011450253,"connected_time":1944000000000,"state":"active","ping":45},{"user_id":267,"name":"lulu","steam_id":76561199147764133,"connected_time":1513000000000,"state":"active","ping":72},{"user_id":281,"name":"dog","steam_id":76561198063919822,"connected_time":144000000000,"state":"active","ping":39},{"user_id":258,"name":"robotiq","steam_id":76561198084218622,"connected_time":2434000000000,"state":"active","ping":150},{"user_id":280,"name":"Krabs","steam_id":76561198161679477,"connected_time":160000000000,"state":"active","ping":86},{"user_id":217,"name":"Sylvanas","steam_id":76561198154904165,"connected_time":5571000000000,"state":"active","ping":100},{"user_id":235,"name":"red broom","steam_id":76561198211967715,"connected_time":4286000000000,"state":"active","ping":103},{"user_id":269,"name":"clunk","steam_id":76561198836460767,"connected_time":1460000000000,"state":"active","ping":71},{"user_id":245,"name":"OwOreo // fckputin","steam_id":76561197995314793,"connected_time":3870000000000,"state":"active","ping":50},{"user_id":270,"name":"shr1mple","steam_id":76561198173537027,"connected_time":1459000000000,"state":"active","ping":45},{"user_id":167,"name":"I have aids","steam_id":76561198860347851,"connected_time":7724000000000,"state":"active","ping":124},{"user_id":216,"name":"Obama Turtle","steam_id":76561199125473062,"connected_time":5768000000000,"state":"active","ping":109},{"user_id":278,"name":"Zerfesh","steam_id":76561198117534358,"connected_time":624000000000,"state":"active","ping":102},{"user_id":185,"name":"s a i","steam_id":76561197970379754,"connected_time":7412000000000,"state":"active","ping":61},{"user_id":282,"name":"Destroy TF2","steam_id":76561198055389492,"connected_time":26000000000,"state":"active","ping":109},{"user_id":246,"name":"Hans","steam_id":76561198030061999,"connected_time":3812000000000,"state":"active","ping":79},{"user_id":192,"name":"-Boomer-","steam_id":76561197970798571,"connected_time":6892000000000,"state":"active","ping":73},{"user_id":271,"name":"Ecy","steam_id":76561198110756682,"connected_time":1457000000000,"state":"active","ping":52},{"user_id":279,"name":"Monday","steam_id":76561198348366085,"connected_time":268000000000,"state":"active","ping":77},{"user_id":275,"name":"ramirez","steam_id":76561198117060048,"connected_time":1206000000000,"state":"active","ping":62},{"user_id":252,"name":"eros","steam_id":76561198799113946,"connected_time":3034000000000,"state":"active","ping":48},{"user_id":276,"name":"Kiz","steam_id":76561198811732820,"connected_time":715000000000,"state":"active","ping":74},{"user_id":273,"name":"honzajspv","steam_id":76561198434476343,"connected_time":1416000000000,"state":"active","ping":59}]},{"server_id":21,"name":"Uncletopia | London | 5 | All Maps","name_short":"lon-5","host":"lon-1.uk.uncletopia.com","port":27055,"enabled":true,"region":"eu","cc":"gb","latitude":51.509865,"longitude":-0.118092,"reserved":0,"last_update":"0001-01-01T00:00:00Z","name_a2s":"Uncletopia | London | 5 | All Maps","protocol":17,"map":"pl_frontier_final","folder":"tf","game":"Team Fortress","app_id":440,"player_count":0,"max_players":24,"Bots":0,"server_type":"Dedicated","server_os":"Linux","password":true,"vac":true,"version":"7882260","steam_id":85568392924742829,"keywords":["nocrits","nodmgspread","payload","uncletopia"],"game_id":440,"stv_port":27056,"stv_name":"Uncletopia | London | 5 | All Maps | STV","players":null},{"server_id":22,"name":"Uncletopia | London | 6 | All Maps","name_short":"lon-6","host":"lon-1.uk.uncletopia.com","port":27065,"enabled":true,"region":"eu","cc":"gb","latitude":51.509865,"longitude":-0.118092,"reserved":0,"last_update":"0001-01-01T00:00:00Z","name_a2s":"Uncletopia | London | 6 | All Maps","protocol":17,"map":"cp_altitude","folder":"tf","game":"Team Fortress","app_id":440,"player_count":0,"max_players":24,"Bots":0,"server_type":"Dedicated","server_os":"Linux","password":true,"vac":true,"version":"7882260","steam_id":85568392924742830,"keywords":["cp","nocrits","nodmgspread","uncletopia"],"game_id":440,"stv_port":27066,"stv_name":"Uncletopia | London | 6 | All Maps | STV","players":null},{"server_id":40,"name":"Uncletopia | London | 7 | No Payload","name_short":"lon-7","host":"lon-1.uk.uncletopia.com","port":27075,"enabled":true,"region":"eu","cc":"gb","latitude":51.509865,"longitude":-0.118092,"reserved":0,"last_update":"0001-01-01T00:00:00Z","name_a2s":"Uncletopia | London | 7 | No Payload","protocol":17,"map":"cp_steel","folder":"tf","game":"Team Fortress","app_id":440,"player_count":15,"max_players":24,"Bots":0,"server_type":"Dedicated","server_os":"Linux","password":true,"vac":true,"version":"7882260","steam_id":85568392924964314,"keywords":["cp","nocrits","nodmgspread","uncletopia"],"game_id":440,"stv_port":27076,"stv_name":"Uncletopia | London | 7 | No Payload | STV","players":[{"user_id":23,"name":"Uhrgg h mmhg brainrot","steam_id":76561198311044984,"connected_time":594000000000,"state":"active","ping":60},{"user_id":14,"name":"Max the Mentlegen","steam_id":76561197999182201,"connected_time":1221000000000,"state":"active","ping":118},{"user_id":15,"name":"funkliner","steam_id":76561198436902492,"connected_time":1214000000000,"state":"active","ping":108},{"user_id":20,"name":"SerialKILLA!","steam_id":76561198804885060,"connected_time":744000000000,"state":"active","ping":66},{"user_id":17,"name":"RavingTwain","steam_id":76561198113805198,"connected_time":1135000000000,"state":"active","ping":65},{"user_id":21,"name":"kanelsnurr :3 \u003e///\u003c","steam_id":76561198163615254,"connected_time":715000000000,"state":"active","ping":72},{"user_id":19,"name":"Sulatejuusto","steam_id":76561198063971856,"connected_time":1085000000000,"state":"active","ping":89},{"user_id":22,"name":"blåhaj","steam_id":76561198094268619,"connected_time":672000000000,"state":"active","ping":74},{"user_id":24,"name":"IMG | TFC | R . P . G","steam_id":76561199000317805,"connected_time":482000000000,"state":"active","ping":126},{"user_id":25,"name":"los jeezos","steam_id":76561198123592400,"connected_time":440000000000,"state":"active","ping":97},{"user_id":26,"name":"tummaluppo taivaltaja","steam_id":76561198093458326,"connected_time":410000000000,"state":"active","ping":69},{"user_id":27,"name":"Devaizter","steam_id":76561198105298135,"connected_time":398000000000,"state":"active","ping":102},{"user_id":29,"name":"hourglass","steam_id":76561198166613799,"connected_time":119000000000,"state":"active","ping":75},{"user_id":30,"name":"MrRedDynamite","steam_id":76561198255311543,"connected_time":99000000000,"state":"active","ping":130},{"user_id":31,"name":"Kenaga","steam_id":76561198052927473,"connected_time":49000000000,"state":"spawning","ping":90}]},{"server_id":41,"name":"Uncletopia | London | 8 | Community","name_short":"lon-8","host":"lon-1.uk.uncletopia.com","port":27085,"enabled":true,"region":"eu","cc":"gb","latitude":51.509865,"longitude":-0.118092,"reserved":0,"last_update":"0001-01-01T00:00:00Z","name_a2s":"Uncletopia | London | 8 | Community","protocol":17,"map":"workshop/cp_sulfur_rc2.ugc619869471","folder":"tf","game":"Team Fortress","app_id":440,"player_count":0,"max_players":24,"Bots":0,"server_type":"Dedicated","server_os":"Linux","password":true,"vac":true,"version":"7882260","steam_id":85568392924964315,"keywords":["cp","nocrits","nodmgspread","uncletopia"],"game_id":440,"stv_port":27086,"stv_name":"Uncletopia | London | 8 | Community | STV","players":null},{"server_id":300,"name":"Uncletopia | Montréal | 1 | All Maps","name_short":"mtl-1","host":"mtl-1.ca.uncletopia.com","port":27015,"enabled":true,"region":"us-east","cc":"ca","latitude":45.50889,"longitude":-73.56167,"reserved":0,"last_update":"0001-01-01T00:00:00Z","name_a2s":"Uncletopia | Montréal | 1 | All Maps","protocol":17,"map":"pl_snowycoast","folder":"tf","game":"Team Fortress","app_id":440,"player_count":0,"max_players":24,"Bots":0,"server_type":"Dedicated","server_os":"Linux","password":true,"vac":true,"version":"7882260","steam_id":85568392924500087,"keywords":["nocrits","nodmgspread","payload","uncletopia"],"game_id":440,"stv_port":27016,"stv_name":"Uncletopia | Montréal | 1 | All Maps | STV","players":null},{"server_id":301,"name":"Uncletopia | Montréal | 2 | All Maps","name_short":"mtl-2","host":"mtl-1.ca.uncletopia.com","port":27025,"enabled":true,"region":"us-east","cc":"ca","latitude":45.50889,"longitude":-73.56167,"reserved":0,"last_update":"0001-01-01T00:00:00Z","name_a2s":"Uncletopia | Montréal | 2 | All Maps","protocol":17,"map":"cp_sunshine","folder":"tf","game":"Team Fortress","app_id":440,"player_count":0,"max_players":24,"Bots":0,"server_type":"Dedicated","server_os":"Linux","password":true,"vac":true,"version":"7882260","steam_id":85568392924500088,"keywords":["cp","nocrits","nodmgspread","uncletopia"],"game_id":440,"stv_port":27026,"stv_name":"Uncletopia | Montréal | 2 | All Maps | STV","players":null},{"server_id":302,"name":"Uncletopia | Montréal | 3 | All Maps","name_short":"mtl-3","host":"mtl-1.ca.uncletopia.com","port":27035,"enabled":true,"region":"us-east","cc":"ca","latitude":45.50889,"longitude":-73.56167,"reserved":0,"last_update":"0001-01-01T00:00:00Z","name_a2s":"Uncletopia | Montréal | 3 | All Maps","protocol":17,"map":"pl_borneo","folder":"tf","game":"Team Fortress","app_id":440,"player_count":0,"max_players":24,"Bots":0,"server_type":"Dedicated","server_os":"Linux","password":true,"vac":true,"version":"7882260","steam_id":85568392924500089,"keywords":["nocrits","nodmgspread","payload","uncletopia"],"game_id":440,"stv_port":27036,"stv_name":"Uncletopia | Montréal | 3 | All Maps | STV","players":null},{"server_id":303,"name":"Uncletopia | Montréal | 4 | No Payload","name_short":"mtl-4","host":"mtl-1.ca.uncletopia.com","port":27045,"enabled":true,"region":"us-east","cc":"ca","latitude":45.50889,"longitude":-73.56167,"reserved":0,"last_update":"0001-01-01T00:00:00Z","name_a2s":"Uncletopia | Montréal | 4 | No Payload","protocol":17,"map":"cp_altitude","folder":"tf","game":"Team Fortress","app_id":440,"player_count":0,"max_players":24,"Bots":0,"server_type":"Dedicated","server_os":"Linux","password":true,"vac":true,"version":"7882260","steam_id":85568392924500090,"keywords":["cp","nocrits","nodmgspread","uncletopia"],"game_id":440,"stv_port":27046,"stv_name":"Uncletopia | Montréal | 4 | No Payload | STV","players":null},{"server_id":13,"name":"Uncletopia | New York City | 1 | All Maps","name_short":"nyc-1","host":"nyc-1.us.uncletopia.com","port":27015,"enabled":true,"region":"us-east","cc":"us","latitude":40.73061,"longitude":-73.93524,"reserved":0,"last_update":"0001-01-01T00:00:00Z","name_a2s":"Uncletopia | New York City | 1 | All Maps","protocol":17,"map":"pl_borneo","folder":"tf","game":"Team Fortress","app_id":440,"player_count":0,"max_players":24,"Bots":0,"server_type":"Dedicated","server_os":"Linux","password":true,"vac":true,"version":"7882260","steam_id":85568392924469993,"keywords":["nocrits","nodmgspread","payload","uncletopia"],"game_id":440,"stv_port":27016,"stv_name":"Uncletopia | New York City | 1 | All Maps | STV","players":null},{"server_id":14,"name":"Uncletopia | New York City | 2 | All Maps","name_short":"nyc-2","host":"nyc-1.us.uncletopia.com","port":27025,"enabled":true,"region":"us-east","cc":"us","latitude":40.73061,"longitude":-73.93524,"reserved":0,"last_update":"0001-01-01T00:00:00Z","name_a2s":"Uncletopia | New York City | 2 | All Maps","protocol":17,"map":"pl_badwater","folder":"tf","game":"Team Fortress","app_id":440,"player_count":0,"max_players":24,"Bots":0,"server_type":"Dedicated","server_os":"Linux","password":true,"vac":true,"version":"7882260","steam_id":85568392924469994,"keywords":["nocrits","nodmgspread","payload","uncletopia"],"game_id":440,"stv_port":27026,"stv_name":"Uncletopia | New York City | 2 | All Maps | STV","players":null},{"server_id":15,"name":"Uncletopia | New York City | 3 | Stopwatch Beta","name_short":"nyc-3","host":"nyc-1.us.uncletopia.com","port":27035,"enabled":true,"region":"us-east","cc":"us","latitude":40.73061,"longitude":-73.93524,"reserved":0,"last_update":"0001-01-01T00:00:00Z","name_a2s":"Uncletopia | New York City | 3 | Stopwatch Beta","protocol":17,"map":"koth_lakeside_final","folder":"tf","game":"Team Fortress","app_id":440,"player_count":0,"max_players":24,"Bots":0,"server_type":"Dedicated","server_os":"Linux","password":true,"vac":true,"version":"7882260","steam_id":85568392924742820,"keywords":["cp","nocrits","nodmgspread","uncletopia"],"game_id":440,"stv_port":27036,"stv_name":"Uncletopia | New York City | 3 | Stopwatch Beta | STV","players":null},{"server_id":16,"name":"Uncletopia | New York City | 4 | Community","name_short":"nyc-4","host":"nyc-1.us.uncletopia.com","port":27045,"enabled":true,"region":"us-east","cc":"us","latitude":40.73061,"longitude":-73.93524,"reserved":0,"last_update":"0001-01-01T00:00:00Z","name_a2s":"Uncletopia | New York City | 4 | Community","protocol":17,"map":"pl_badwater","folder":"tf","game":"Team Fortress","app_id":440,"player_count":0,"max_players":24,"Bots":0,"server_type":"Dedicated","server_os":"Linux","password":true,"vac":true,"version":"7882260","steam_id":85568392924742821,"keywords":["nocrits","nodmgspread","payload","uncletopia"],"game_id":440,"stv_port":27046,"stv_name":"Uncletopia | New York City | 4 | Community | STV","players":null},{"server_id":142,"name":"Uncletopia | São Paulo | 1 | All Maps","name_short":"sao-1","host":"sao-1.br.uncletopia.com","port":27015,"enabled":true,"region":"sa","cc":"br","latitude":-23.533773,"longitude":-46.62529,"reserved":0,"last_update":"0001-01-01T00:00:00Z","name_a2s":"Uncletopia | São Paulo | 1 | All Maps","protocol":17,"map":"cp_process_final","folder":"tf","game":"Team Fortress","app_id":440,"player_count":0,"max_players":24,"Bots":0,"server_type":"Dedicated","server_os":"Linux","password":true,"vac":true,"version":"7882260","steam_id":85568392924469996,"keywords":["cp","nocrits","nodmgspread","uncletopia"],"game_id":440,"stv_port":27016,"stv_name":"Uncletopia | São Paulo | 1 | All Maps | STV","players":null},{"server_id":143,"name":"Uncletopia | São Paulo | 2 | All Maps","name_short":"sao-2","host":"sao-2.br.uncletopia.com","port":27015,"enabled":true,"region":"sa","cc":"br","latitude":-23.533773,"longitude":-46.62529,"reserved":0,"last_update":"0001-01-01T00:00:00Z","name_a2s":"Uncletopia | São Paulo | 2 | All Maps","protocol":17,"map":"pl_pier","folder":"tf","game":"Team Fortress","app_id":440,"player_count":0,"max_players":24,"Bots":0,"server_type":"Dedicated","server_os":"Linux","password":true,"vac":true,"version":"7882260","steam_id":85568392924485349,"keywords":["nocrits","nodmgspread","payload","uncletopia"],"game_id":440,"stv_port":27016,"stv_name":"Uncletopia | São Paulo | 2 | All Maps | STV","players":null},{"server_id":7,"name":"Uncletopia | Seattle | 1 | All Maps","name_short":"sea-1","host":"sea-1.us.uncletopia.com","port":27015,"enabled":true,"region":"us-west","cc":"us","latitude":47.608013,"longitude":-122.33517,"reserved":0,"last_update":"0001-01-01T00:00:00Z","name_a2s":"Uncletopia | Seattle | 1 | All Maps","protocol":17,"map":"pl_frontier_final","folder":"tf","game":"Team Fortress","app_id":440,"player_count":1,"max_players":24,"Bots":0,"server_type":"Dedicated","server_os":"Linux","password":true,"vac":true,"version":"7882260","steam_id":85568392924469997,"keywords":["nocrits","nodmgspread","payload","uncletopia"],"game_id":440,"stv_port":27016,"stv_name":"Uncletopia | Seattle | 1 | All Maps | STV","players":[{"user_id":3,"name":"Alpharius","steam_id":76561197996284353,"connected_time":603000000000,"state":"active","ping":57}]},{"server_id":119,"name":"Uncletopia | Seattle | 2 | All Maps","name_short":"sea-2","host":"sea-1.us.uncletopia.com","port":27025,"enabled":true,"region":"us-west","cc":"us","latitude":47.608013,"longitude":-122.33517,"reserved":0,"last_update":"0001-01-01T00:00:00Z","name_a2s":"Uncletopia | Seattle | 2 | All Maps","protocol":17,"map":"koth_highpass","folder":"tf","game":"Team Fortress","app_id":440,"player_count":0,"max_players":24,"Bots":0,"server_type":"Dedicated","server_os":"Linux","password":true,"vac":true,"version":"7882260","steam_id":85568392924469998,"keywords":["cp","nocrits","nodmgspread","uncletopia"],"game_id":440,"stv_port":27026,"stv_name":"Uncletopia | Seattle | 2 | All Maps | STV","players":null},{"server_id":406,"name":"Uncletopia | Seattle | 3 | Stopwatch Beta","name_short":"sea-3","host":"sea-1.us.uncletopia.com","port":27035,"enabled":true,"region":"us-west","cc":"us","latitude":47.608013,"longitude":-122.33517,"reserved":0,"last_update":"0001-01-01T00:00:00Z","name_a2s":"Uncletopia | Seattle | 3 | Stopwatch Beta","protocol":17,"map":"cp_mountainlab","folder":"tf","game":"Team Fortress","app_id":440,"player_count":0,"max_players":24,"Bots":0,"server_type":"Dedicated","server_os":"Linux","password":true,"vac":true,"version":"7882260","steam_id":85568392924515217,"keywords":["cp","nocrits","nodmgspread","uncletopia"],"game_id":440,"stv_port":27036,"stv_name":"Uncletopia | Seattle | 3 | Stopwatch Beta | STV","players":null},{"server_id":17,"name":"Uncletopia | San Francisco | 1 | All Maps","name_short":"sfo-1","host":"sfo-1.us.uncletopia.com","port":27015,"enabled":true,"region":"us-west","cc":"us","latitude":37.77397,"longitude":-122.4313,"reserved":0,"last_update":"0001-01-01T00:00:00Z","name_a2s":"Uncletopia | San Francisco | 1 | All Maps","protocol":17,"map":"cp_process_final","folder":"tf","game":"Team Fortress","app_id":440,"player_count":0,"max_players":24,"Bots":0,"server_type":"Dedicated","server_os":"Linux","password":true,"vac":true,"version":"7757534","steam_id":85568392924469999,"keywords":["cp","nocrits","nodmgspread","uncletopia"],"game_id":440,"stv_port":27016,"stv_name":"Uncletopia | San Francisco | 1 | All Maps | STV","players":null},{"server_id":18,"name":"Uncletopia | San Francisco | 2 | All Maps","name_short":"sfo-2","host":"sfo-1.us.uncletopia.com","port":27025,"enabled":true,"region":"us-west","cc":"us","latitude":37.77397,"longitude":-122.4313,"reserved":0,"last_update":"0001-01-01T00:00:00Z","name_a2s":"Uncletopia | San Francisco | 2 | All Maps","protocol":17,"map":"koth_highpass","folder":"tf","game":"Team Fortress","app_id":440,"player_count":0,"max_players":24,"Bots":0,"server_type":"Dedicated","server_os":"Linux","password":true,"vac":true,"version":"7757534","steam_id":85568392924470000,"keywords":["cp","nocrits","nodmgspread","uncletopia"],"game_id":440,"stv_port":27026,"stv_name":"Uncletopia | San Francisco | 2 | All Maps | STV","players":null},{"server_id":19,"name":"Uncletopia | San Francisco | 3 | Stopwatch Beta","name_short":"sfo-3","host":"sfo-1.us.uncletopia.com","port":27035,"enabled":true,"region":"us-west","cc":"us","latitude":37.77397,"longitude":-122.4313,"reserved":0,"last_update":"0001-01-01T00:00:00Z","name_a2s":"Uncletopia | San Francisco | 3 | Stopwatch Beta","protocol":17,"map":"koth_lakeside_final","folder":"tf","game":"Team Fortress","app_id":440,"player_count":0,"max_players":24,"Bots":0,"server_type":"Dedicated","server_os":"Linux","password":true,"vac":true,"version":"7757534","steam_id":85568392924742824,"keywords":["cp","nocrits","nodmgspread","uncletopia"],"game_id":440,"stv_port":27036,"stv_name":"Uncletopia | San Francisco | 3 | Stopwatch Beta | STV","players":null},{"server_id":20,"name":"Uncletopia | San Francisco | 4 | Community","name_short":"sfo-4","host":"sfo-1.us.uncletopia.com","port":27045,"enabled":true,"region":"us-west","cc":"us","latitude":37.77397,"longitude":-122.4313,"reserved":0,"last_update":"0001-01-01T00:00:00Z","name_a2s":"Uncletopia | San Francisco | 4 | Community","protocol":17,"map":"cp_altitude","folder":"tf","game":"Team Fortress","app_id":440,"player_count":0,"max_players":24,"Bots":0,"server_type":"Dedicated","server_os":"Linux","password":true,"vac":true,"version":"7757534","steam_id":85568392924742826,"keywords":["cp","nocrits","nodmgspread","uncletopia"],"game_id":440,"stv_port":27046,"stv_name":"Uncletopia | San Francisco | 4 | Community | STV","players":null},{"server_id":141,"name":"Uncletopia | Sydney | 1 | All Maps","name_short":"syd-1","host":"syd-1.au.uncletopia.com","port":27015,"enabled":true,"region":"au","cc":"au","latitude":-33.865143,"longitude":151.2099,"reserved":0,"last_update":"0001-01-01T00:00:00Z","name_a2s":"Uncletopia | Sydney | 1 | All Maps","protocol":17,"map":"pl_badwater","folder":"tf","game":"Team Fortress","app_id":440,"player_count":0,"max_players":24,"Bots":0,"server_type":"Dedicated","server_os":"Linux","password":true,"vac":true,"version":"7882260","steam_id":85568392924470001,"keywords":["nocrits","nodmgspread","payload","uncletopia"],"game_id":440,"stv_port":27016,"stv_name":"Uncletopia | Sydney | 1 | All Maps | STV","players":null},{"server_id":123,"name":"Uncletopia | Sydney | 2 | All Maps","name_short":"syd-2","host":"syd-1.au.uncletopia.com","port":27025,"enabled":true,"region":"au","cc":"au","latitude":-33.865143,"longitude":151.2099,"reserved":0,"last_update":"0001-01-01T00:00:00Z","name_a2s":"Uncletopia | Sydney | 2 | All Maps","protocol":17,"map":"koth_highpass","folder":"tf","game":"Team Fortress","app_id":440,"player_count":2,"max_players":24,"Bots":0,"server_type":"Dedicated","server_os":"Linux","password":true,"vac":true,"version":"7882260","steam_id":85568392924470002,"keywords":["cp","nocrits","nodmgspread","uncletopia"],"game_id":440,"stv_port":27026,"stv_name":"Uncletopia | Sydney | 2 | All Maps | STV","players":[{"user_id":259,"name":"SakoMako","steam_id":76561199110920655,"connected_time":724000000000,"state":"active","ping":338},{"user_id":260,"name":"lumisgix","steam_id":76561199380447391,"connected_time":711000000000,"state":"active","ping":329}]},{"server_id":395,"name":"Uncletopia | Sydney | 3 | All Maps","name_short":"syd-3","host":"syd-1.au.uncletopia.com","port":27035,"enabled":true,"region":"au","cc":"au","latitude":-33.865143,"longitude":151.2099,"reserved":0,"last_update":"0001-01-01T00:00:00Z","name_a2s":"Uncletopia | Sydney | 3 | All Maps","protocol":17,"map":"koth_brazil","folder":"tf","game":"Team Fortress","app_id":440,"player_count":0,"max_players":24,"Bots":0,"server_type":"Dedicated","server_os":"Linux","password":true,"vac":true,"version":"7882260","steam_id":85568392925194467,"keywords":["cp","nocrits","nodmgspread","uncletopia"],"game_id":440,"stv_port":27036,"stv_name":"Uncletopia | Sydney | 3 | All Maps | STV","players":null},{"server_id":396,"name":"Uncletopia | Sydney | 4 | All Maps","name_short":"syd-4","host":"syd-1.au.uncletopia.com","port":27045,"enabled":true,"region":"au","cc":"au","latitude":-33.865143,"longitude":151.2099,"reserved":0,"last_update":"0001-01-01T00:00:00Z","name_a2s":"Uncletopia | Sydney | 4 | All Maps","protocol":17,"map":"pl_badwater","folder":"tf","game":"Team Fortress","app_id":440,"player_count":0,"max_players":24,"Bots":0,"server_type":"Dedicated","server_os":"Linux","password":true,"vac":true,"version":"7882260","steam_id":85568392925397958,"keywords":["nocrits","nodmgspread","payload","uncletopia"],"game_id":440,"stv_port":27046,"stv_name":"Uncletopia | Sydney | 4 | All Maps | STV","players":null},{"server_id":58,"name":"Uncletopia | Sydney | 5 | Stopwatch Beta","name_short":"syd-5","host":"syd-1.au.uncletopia.com","port":27055,"enabled":true,"region":"au","cc":"au","latitude":-33.865143,"longitude":151.2099,"reserved":0,"last_update":"0001-01-01T00:00:00Z","name_a2s":"Uncletopia | Sydney | 5 | Stopwatch Beta","protocol":17,"map":"workshop/pl_summercoast_rc8e.ugc1761528829","folder":"tf","game":"Team Fortress","app_id":440,"player_count":0,"max_players":24,"Bots":0,"server_type":"Dedicated","server_os":"Linux","password":true,"vac":true,"version":"7882260","steam_id":85568392925397959,"keywords":["nocrits","nodmgspread","payload","uncletopia"],"game_id":440,"stv_port":27056,"stv_name":"Uncletopia | Sydney | 5 | Stopwatch Beta | STV","players":null},{"server_id":59,"name":"Uncletopia | Sydney | 6 | Community","name_short":"syd-6","host":"syd-1.au.uncletopia.com","port":27065,"enabled":true,"region":"au","cc":"au","latitude":-33.865143,"longitude":151.2099,"reserved":0,"last_update":"0001-01-01T00:00:00Z","name_a2s":"Uncletopia | Sydney | 6 | Community","protocol":17,"map":"workshop/cp_indulge.ugc528106646","folder":"tf","game":"Team Fortress","app_id":440,"player_count":0,"max_players":24,"Bots":0,"server_type":"Dedicated","server_os":"Linux","password":true,"vac":true,"version":"7882260","steam_id":85568392925397960,"keywords":["cp","nocrits","nodmgspread","uncletopia"],"game_id":440,"stv_port":27066,"stv_name":"Uncletopia | Sydney | 6 | Community | STV","players":null},{"server_id":49,"name":"Uncletopia | Warsaw | 1 | All Maps","name_short":"waw-1","host":"waw-1.pl.uncletopia.com","port":27015,"enabled":true,"region":"eu","cc":"pl","latitude":52.2297,"longitude":21.017532,"reserved":0,"last_update":"0001-01-01T00:00:00Z","name_a2s":"","protocol":0,"map":"","folder":"","game":"","app_id":0,"player_count":0,"max_players":0,"Bots":0,"server_type":"","server_os":"","password":false,"vac":false,"version":"","steam_id":0,"keywords":null,"game_id":0,"stv_port":0,"stv_name":"","players":null},{"server_id":50,"name":"Uncletopia | Warsaw | 2 | All Maps","name_short":"waw-2","host":"waw-1.pl.uncletopia.com","port":27025,"enabled":true,"region":"eu","cc":"pl","latitude":52.2297,"longitude":21.017532,"reserved":0,"last_update":"0001-01-01T00:00:00Z","name_a2s":"Uncletopia | Warsaw | 2 | All Maps","protocol":17,"map":"koth_lakeside_final","folder":"tf","game":"Team Fortress","app_id":440,"player_count":0,"max_players":24,"Bots":0,"server_type":"Dedicated","server_os":"Linux","password":true,"vac":true,"version":"7882260","steam_id":85568392925397851,"keywords":["cp","nocrits","nodmgspread","uncletopia"],"game_id":440,"stv_port":27026,"stv_name":"Uncletopia | Warsaw | 2 | All Maps | STV","players":null},{"server_id":51,"name":"Uncletopia | Warsaw | 3 | All Maps","name_short":"waw-3","host":"waw-1.pl.uncletopia.com","port":27035,"enabled":true,"region":"eu","cc":"pl","latitude":52.2297,"longitude":21.017532,"reserved":0,"last_update":"0001-01-01T00:00:00Z","name_a2s":"Uncletopia | Warsaw | 3 | All Maps","protocol":17,"map":"koth_viaduct","folder":"tf","game":"Team Fortress","app_id":440,"player_count":0,"max_players":24,"Bots":0,"server_type":"Dedicated","server_os":"Linux","password":true,"vac":true,"version":"7882260","steam_id":85568392925397852,"keywords":["cp","nocrits","nodmgspread","uncletopia"],"game_id":440,"stv_port":27036,"stv_name":"Uncletopia | Warsaw | 3 | All Maps | STV","players":null},{"server_id":52,"name":"Uncletopia | Warsaw | 4 | All Maps","name_short":"waw-4","host":"waw-1.pl.uncletopia.com","port":27045,"enabled":true,"region":"eu","cc":"pl","latitude":52.2297,"longitude":21.017532,"reserved":0,"last_update":"0001-01-01T00:00:00Z","name_a2s":"Uncletopia | Warsaw | 4 | All Maps","protocol":17,"map":"koth_highpass","folder":"tf","game":"Team Fortress","app_id":440,"player_count":0,"max_players":24,"Bots":0,"server_type":"Dedicated","server_os":"Linux","password":true,"vac":true,"version":"7882260","steam_id":85568392925397853,"keywords":["cp","nocrits","nodmgspread","uncletopia"],"game_id":440,"stv_port":27046,"stv_name":"Uncletopia | Warsaw | 4 | All Maps | STV","players":null},{"server_id":53,"name":"Uncletopia | Warsaw | 5 | Stopwatch Beta","name_short":"waw-5","host":"waw-1.pl.uncletopia.com","port":27055,"enabled":true,"region":"eu","cc":"pl","latitude":52.2297,"longitude":21.017532,"reserved":0,"last_update":"0001-01-01T00:00:00Z","name_a2s":"Uncletopia | Warsaw | 5 | Stopwatch Beta","protocol":17,"map":"cp_mountainlab","folder":"tf","game":"Team Fortress","app_id":440,"player_count":0,"max_players":24,"Bots":0,"server_type":"Dedicated","server_os":"Linux","password":true,"vac":true,"version":"7882260","steam_id":85568392925397854,"keywords":["cp","nocrits","nodmgspread","uncletopia"],"game_id":440,"stv_port":27056,"stv_name":"Uncletopia | Warsaw | 5 | Stopwatch Beta | STV","players":null},{"server_id":54,"name":"Uncletopia | Warsaw | 6 | Community","name_short":"waw-6","host":"waw-1.pl.uncletopia.com","port":27065,"enabled":true,"region":"eu","cc":"pl","latitude":52.2297,"longitude":21.017532,"reserved":0,"last_update":"0001-01-01T00:00:00Z","name_a2s":"Uncletopia | Warsaw | 6 | Community","protocol":17,"map":"koth_viaduct","folder":"tf","game":"Team Fortress","app_id":440,"player_count":0,"max_players":24,"Bots":0,"server_type":"Dedicated","server_os":"Linux","password":true,"vac":true,"version":"7882260","steam_id":85568392925397856,"keywords":["cp","nocrits","nodmgspread","uncletopia"],"game_id":440,"stv_port":27066,"stv_name":"Uncletopia | Warsaw | 6 | Community | STV","players":null}]}