{"status":true,"message":"","result":[{"server_id":9,"name":"Uncletopia | Atlanta | 1 | All Maps","name_short":"atl-1","host":"atl-1.us.uncletopia.com","port":27015,"enabled":true,"region":"us-east","cc":"us","latitude":33.753746,"longitude":-84.38633,"reserved":0,"last_update":"0001-01-01T00:00:00Z","name_a2s":"Uncletopia | Atlanta | 1 | All Maps","protocol":17,"map":"pl_borneo","folder":"tf","game":"Team Fortress","app_id":440,"player_count":24,"max_players":24,"Bots":0,"server_type":"Dedicated","server_os":"Linux","password":true,"vac":true,"version":"7723704","steam_id":85568392924469982,"keywords":["nocrits","nodmgspread","payload","uncletopia"],"game_id":440,"stv_port":27016,"stv_name":"Uncletopia | Atlanta | 1 | All Maps | STV","players":[{"user_id":443,"name":"That One Guy","steam_id":76561198945646560,"connected_time":5455000000000,"state":"active","ping":123},{"user_id":490,"name":"ATL6 Wingm4n","steam_id":76561198064127012,"connected_time":621000000000,"state":"active","ping":61},{"user_id":488,"name":"BORN IN GOOP RAISED IN POOP","steam_id":76561198095909397,"connected_time":1241000000000,"state":"active","ping":49},{"user_id":491,"name":"Terrafryer","steam_id":76561198211738732,"connected_time":566000000000,"state":"active","ping":73},{"user_id":470,"name":"Spy_Is_Pye","steam_id":76561199439622967,"connected_time":2689000000000,"state":"active","ping":64},{"user_id":497,"name":"Bottle O' Glue","steam_id":76561199176772833,"connected_time":172000000000,"state":"active","ping":55},{"user_id":476,"name":"DarkenedPolarity","steam_id":76561199073099596,"connected_time":2144000000000,"state":"active","ping":62},{"user_id":458,"name":"Manrage","steam_id":76561198043798397,"connected_time":4201000000000,"state":"active","ping":53},{"user_id":478,"name":"Dannnnnn","steam_id":76561198442700385,"connected_time":2046000000000,"state":"active","ping":149},{"user_id":475,"name":"FancyBones","steam_id":76561198180198885,"connected_time":2165000000000,"state":"active","ping":72},{"user_id":474,"name":"ash","steam_id":76561198127890645,"connected_time":2170000000000,"state":"active","ping":70},{"user_id":493,"name":"sera sera","steam_id":76561198115556074,"connected_time":509000000000,"state":"active","ping":61},{"user_id":487,"name":"Dr. Birb","steam_id":76561198141939154,"connected_time":1486000000000,"state":"active","ping":72},{"user_id":457,"name":"Granny Krissy","steam_id":76561197960848174,"connected_time":4205000000000,"state":"active","ping":64},{"user_id":494,"name":"Koishi","steam_id":76561198054541054,"connected_time":486000000000,"state":"active","ping":60},{"user_id":495,"name":"viscodolante","steam_id":76561198013650292,"connected_time":464000000000,"state":"active","ping":93},{"user_id":484,"name":"Chipmunk Gaming","steam_id":76561198251851220,"connected_time":1754000000000,"state":"active","ping":48},{"user_id":421,"name":"nalezinik","steam_id":76561198030026119,"connected_time":7094000000000,"state":"active","ping":83},{"user_id":481,"name":"the grunch","steam_id":76561199013160273,"connected_time":1910000000000,"state":"active","ping":52},{"user_id":496,"name":"Boop","steam_id":76561198376703875,"connected_time":352000000000,"state":"active","ping":70},{"user_id":498,"name":"I CAN AND I WILL","steam_id":76561198337692867,"connected_time":2000000000,"state":"spawning","ping":93},{"user_id":455,"name":"Nyle","steam_id":76561198045652639,"connected_time":4221000000000,"state":"active","ping":117},{"user_id":473,"name":"Dave5744","steam_id":76561198117207566,"connected_time":2174000000000,"state":"active","ping":57},{"user_id":453,"name":"Quiggles lft","steam_id":76561199177247655,"connected_time":4437000000000,"state":"active","ping":59}]},{"server_id":400,"name":"Uncletopia | Atlanta | 3 | Stopwatch Beta","name_short":"atl-3","host":"atl-1.us.uncletopia.com","port":27035,"enabled":true,"region":"us-east","cc":"us","latitude":33.753746,"longitude":-84.38633,"reserved":0,"last_update":"0001-01-01T00:00:00Z","name_a2s":"Uncletopia | Atlanta | 3 | Stopwatch Beta","protocol":17,"map":"koth_cascade","folder":"tf","game":"Team Fortress","app_id":440,"player_count":0,"max_players":24,"Bots":0,"server_type":"Dedicated","server_os":"Linux","password":true,"vac":true,"version":"7723704","steam_id":85568392924515187,"keywords":["cp","nocrits","nodmgspread","uncletopia"],"game_id":440,"stv_port":27036,"stv_name":"Uncletopia | Atlanta | 3 | Stopwatch Beta | STV","players":null},{"server_id":401,"name":"Uncletopia | Atlanta | 4 | No Payload","name_short":"atl-4","host":"atl-1.us.uncletopia.com","port":27045,"enabled":true,"region":"us-east","cc":"us","latitude":33.753746,"longitude":-84.38633,"reserved":0,"last_update":"0001-01-01T00:00:00Z","name_a2s":"Uncletopia | Atlanta | 4 | No Payload","protocol":17,"map":"pl_pier","folder":"tf","game":"Team Fortress","app_id":440,"player_count":0,"max_players":24,"Bots":0,"server_type":"Dedicated","server_os":"Linux","password":true,"vac":true,"version":"7723704","steam_id":85568392924515188,"keywords":["nocrits","nodmgspread","payload","uncletopia"],"game_id":440,"stv_port":27046,"stv_name":"Uncletopia | Atlanta | 4 | No Payload | STV","players":null},{"server_id":2,"name":"Uncletopia | Chicago | 1 | All Maps","name_short":"chi-1","host":"chi-1.us.uncletopia.com","port":27015,"enabled":true,"region":"us-central","cc":"us","latitude":41.881832,"longitude":-87.62318,"reserved":0,"last_update":"0001-01-01T00:00:00Z","name_a2s":"Uncletopia | Chicago | 1 | All Maps","protocol":17,"map":"pl_swiftwater_final1","folder":"tf","game":"Team Fortress","app_id":440,"player_count":24,"max_players":24,"Bots":0,"server_type":"Dedicated","server_os":"Linux","password":true,"vac":true,"version":"7723704","steam_id":85568392924469984,"keywords":["nocrits","nodmgspread","payload","uncletopia"],"game_id":440,"stv_port":27016,"stv_name":"Uncletopia | Chicago | 1 | All Maps | STV","players":[{"user_id":233,"name":"|WS| Don't_Taze_Me_Bro","steam_id":76561198043289495,"connected_time":3045000000000,"state":"active","ping":74},{"user_id":256,"name":"Smuggs","steam_id":76561197999456003,"connected_time":604000000000,"state":"active","ping":134},{"user_id":255,"name":"Verathragna","steam_id":76561198067215453,"connected_time":827000000000,"state":"active","ping":66},{"user_id":228,"name":"BuckShotBarva","steam_id":76561198170425169,"connected_time":3717000000000,"state":"active","ping":46},{"user_id":238,"name":"Hylic","steam_id":76561199051314589,"connected_time":2554000000000,"state":"active","ping":63},{"user_id":246,"name":"Cyanwarrior","steam_id":76561199160532701,"connected_time":1753000000000,"state":"active","ping":72},{"user_id":240,"name":"BeeMoe","steam_id":76561198002100697,"connected_time":2429000000000,"state":"active","ping":53},{"user_id":230,"name":"Dukelol323","steam_id":76561198009815330,"connected_time":3647000000000,"state":"active","ping":61},{"user_id":251,"name":"MazapanCabon28","steam_id":76561199243339919,"connected_time":958000000000,"state":"active","ping":89},{"user_id":163,"name":"des","steam_id":76561198079226634,"connected_time":7032000000000,"state":"active","ping":72},{"user_id":150,"name":"TheToastingToaster","steam_id":76561198439391966,"connected_time":7580000000000,"state":"active","ping":60},{"user_id":241,"name":"Yoshimelon","steam_id":76561198253054325,"connected_time":2334000000000,"state":"active","ping":75},{"user_id":236,"name":"[slug]","steam_id":76561197989592178,"connected_time":2575000000000,"state":"active","ping":67},{"user_id":252,"name":"Draconic Ballad","steam_id":76561198027191515,"connected_time":951000000000,"state":"active","ping":48},{"user_id":242,"name":"konrad","steam_id":76561198065356081,"connected_time":2328000000000,"state":"active","ping":107},{"user_id":203,"name":"Daksuki","steam_id":76561198084127751,"connected_time":4825000000000,"state":"active","ping":75},{"user_id":260,"name":"CAdaverOusPRophet","steam_id":76561198045304110,"connected_time":84000000000,"state":"active","ping":48},{"user_id":244,"name":"-Enter Name Here-","steam_id":76561198040358938,"connected_time":1999000000000,"state":"active","ping":78},{"user_id":253,"name":"spinglebarp","steam_id":76561198091472345,"connected_time":903000000000,"state":"active","ping":78},{"user_id":250,"name":"Danny Dongvito","steam_id":76561198050594512,"connected_time":1257000000000,"state":"active","ping":73},{"user_id":254,"name":"·πΩ‚ßâ cookie","steam_id":76561197998884823,"connected_time":872000000000,"state":"active","ping":68},{"user_id":247,"name":"Apetometrist","steam_id":76561198045391635,"connected_time":1749000000000,"state":"active","ping":63},{"user_id":259,"name":"Rein","steam_id":76561198300340427,"connected_time":125000000000,"state":"active","ping":62},{"user_id":226,"name":"poopass","steam_id":76561197988226228,"connected_time":3996000000000,"state":"active","ping":50}]},{"server_id":106,"name":"Uncletopia | Chicago | 2 | All Maps","name_short":"chi-2","host":"chi-1.us.uncletopia.com","port":27025,"enabled":true,"region":"us-central","cc":"us","latitude":41.881832,"longitude":-87.62318,"reserved":0,"last_update":"0001-01-01T00:00:00Z","name_a2s":"Uncletopia | Chicago | 2 | All Maps","protocol":17,"map":"koth_highpass","folder":"tf","game":"Team Fortress","app_id":440,"player_count":0,"max_players":24,"Bots":0,"server_type":"Dedicated","server_os":"Linux","password":true,"vac":true,"version":"7723704","steam_id":85568392924469985,"keywords":["cp","nocrits","nodmgspread","uncletopia"],"game_id":440,"stv_port":27026,"stv_name":"Uncletopia | Chicago | 2 | All Maps | STV","players":null},{"server_id":402,"name":"Uncletopia | Chicago | 3 | All Maps","name_short":"chi-3","host":"chi-1.us.uncletopia.com","port":27035,"enabled":true,"region":"us-central","cc":"us","latitude":41.881832,"longitude":-87.62318,"reserved":0,"last_update":"0001-01-01T00:00:00Z","name_a2s":"Uncletopia | Chicago | 3 | All Maps","protocol":17,"map":"pl_borneo","folder":"tf","game":"Team Fortress","app_id":440,"player_count":0,"max_players":24,"Bots":0,"server_type":"Dedicated","server_os":"Linux","password":true,"vac":true,"version":"7723704","steam_id":85568392924515191,"keywords":["nocrits","nodmgspread","payload","uncletopia"],"game_id":440,"stv_port":27036,"stv_name":"Uncletopia | Chicago | 3 | All Maps | STV","players":null},{"server_id":403,"name":"Uncletopia | Chicago | 4 | All Maps","name_short":"chi-4","host":"chi-1.us.uncletopia.com","port":27045,"enabled":true,"region":"us-central","cc":"us","latitude":41.881832,"longitude":-87.62318,"reserved":0,"last_update":"0001-01-01T00:00:00Z","name_a2s":"Uncletopia | Chicago | 4 | All Maps","protocol":17,"map":"koth_lakeside_final","folder":"tf","game":"Team Fortress","app_id":440,"player_count":24,"max_players":24,"Bots":0,"server_type":"Dedicated","server_os":"Linux","password":true,"vac":true,"version":"7723704","steam_id":85568392924515193,"keywords":["cp","nocrits","nodmgspread","uncletopia"],"game_id":440,"stv_port":27046,"stv_name":"Uncletopia | Chicago | 4 | All Maps | STV","players":[{"user_id":24,"name":"McGangBang","steam_id":76561198862379865,"connected_time":1445000000000,"state":"active","ping":57},{"user_id":57,"name":"LordGonk","steam_id":76561199087836761,"connected_time":150000000000,"state":"active","ping":73},{"user_id":16,"name":"META.exe","steam_id":76561199067098696,"connected_time":1906000000000,"state":"active","ping":71},{"user_id":23,"name":"sprite at 9 am","steam_id":76561198064632642,"connected_time":1527000000000,"state":"active","ping":71},{"user_id":58,"name":"Seru","steam_id":76561199219827214,"connected_time":138000000000,"state":"active","ping":95},{"user_id":54,"name":"Vobo","steam_id":76561199159418598,"connected_time":273000000000,"state":"active","ping":138},{"user_id":48,"name":"Goku","steam_id":76561198064143198,"connected_time":484000000000,"state":"active","ping":51},{"user_id":17,"name":"Challenger Charles","steam_id":76561198005576553,"connected_time":1847000000000,"state":"active","ping":83},{"user_id":61,"name":"Kibeca the Weird","steam_id":76561198116534133,"connected_time":71000000000,"state":"active","ping":71},{"user_id":19,"name":"Krow Lyngin (she/her)","steam_id":76561198085410622,"connected_time":1737000000000,"state":"active","ping":101},{"user_id":25,"name":"Guardian014","steam_id":76561198048017528,"connected_time":1419000000000,"state":"active","ping":66},{"user_id":34,"name":"Vem","steam_id":76561198117273112,"connected_time":980000000000,"state":"active","ping":67},{"user_id":49,"name":"Lia_Rein TTV","steam_id":76561198151569597,"connected_time":477000000000,"state":"active","ping":177},{"user_id":31,"name":"ice spice","steam_id":76561198072657891,"connected_time":1141000000000,"state":"active","ping":52},{"user_id":60,"name":"Super Noob","steam_id":76561199179611350,"connected_time":80000000000,"state":"active","ping":51},{"user_id":50,"name":"daffodil","steam_id":76561198049480053,"connected_time":456000000000,"state":"active","ping":58},{"user_id":52,"name":"Jello","steam_id":76561198890633732,"connected_time":367000000000,"state":"active","ping":77},{"user_id":53,"name":"Hubba","steam_id":76561199447136263,"connected_time":351000000000,"state":"active","ping":168},{"user_id":37,"name":"[SAW] Lost Darkrai","steam_id":76561198021034873,"connected_time":879000000000,"state":"active","ping":68},{"user_id":59,"name":"DoodleCultist","steam_id":76561198306927279,"connected_time":135000000000,"state":"active","ping":74},{"user_id":55,"name":"Sexual Butt","steam_id":76561198102241399,"connected_time":251000000000,"state":"active","ping":56},{"user_id":40,"name":"Stormartillery","steam_id":76561198408982577,"connected_time":814000000000,"state":"active","ping":68},{"user_id":42,"name":"nosebleed","steam_id":76561198194471251,"connected_time":780000000000,"state":"active","ping":58},{"user_id":44,"name":"CoryBaxterWH","steam_id":76561198060041823,"connected_time":772000000000,"state":"active","ping":69}]},{"server_id":36,"name":"Uncletopia | Chicago | 5 | All Maps","name_short":"chi-5","host":"chi-2.us.uncletopia.com","port":27015,"enabled":true,"region":"us-central","cc":"us","latitude":41.881832,"longitude":-87.62318,"reserved":0,"last_update":"0001-01-01T00:00:00Z","name_a2s":"Uncletopia | Chicago | 5 | All Maps","protocol":17,"map":"koth_cascade","folder":"tf","game":"Team Fortress","app_id":440,"player_count":0,"max_players":24,"Bots":0,"server_type":"Dedicated","server_os":"Linux","password":true,"vac":true,"version":"7723704","steam_id":85568392924866362,"keywords":["cp","nocrits","nodmgspread","uncletopia"],"game_id":440,"stv_port":27016,"stv_name":"Uncletopia | Chicago | 5 | All Maps | STV","players":null},{"server_id":37,"name":"Uncletopia | Chicago | 6 | All Maps","name_short":"chi-6","host":"chi-2.us.uncletopia.com","port":27025,"enabled":true,"region":"us-central","cc":"us","latitude":41.881832,"longitude":-87.62318,"reserved":0,"last_update":"0001-01-01T00:00:00Z","name_a2s":"Uncletopia | Chicago | 6 | All Maps","protocol":17,"map":"pl_swiftwater_final1","folder":"tf","game":"Team Fortress","app_id":440,"player_count":0,"max_players":24,"Bots":0,"server_type":"Dedicated","server_os":"Linux","password":true,"vac":true,"version":"7723704","steam_id":85568392924866363,"keywords":["nocrits","nodmgspread","payload","uncletopia"],"game_id":440,"stv_port":27026,"stv_name":"Uncletopia | Chicago | 6 | All Maps | STV","players":null},{"server_id":38,"name":"Uncletopia | Chicago | 7 | Stopwatch Beta","name_short":"chi-7","host":"chi-2.us.uncletopia.com","port":27035,"enabled":true,"region":"us-central","cc":"us","latitude":41.881832,"longitude":-87.62318,"reserved":0,"last_update":"0001-01-01T00:00:00Z","name_a2s":"Uncletopia | Chicago | 7 | Stopwatch Beta","protocol":17,"map":"workshop/koth_clearcut_b15.ugc2107050255","folder":"tf","game":"Team Fortress","app_id":440,"player_count":1,"max_players":24,"Bots":0,"server_type":"Dedicated","server_os":"Linux","password":true,"vac":true,"version":"7723704","steam_id":85568392924866364,"keywords":["cp","nocrits","nodmgspread","uncletopia"],"game_id":440,"stv_port":27036,"stv_name":"Uncletopia | Chicago | 7 | Stopwatch Beta | STV","players":[{"user_id":209,"name":"RedHelmet38","steam_id":76561199033936286,"connected_time":1000000000,"state":"spawning","ping":94}]},{"server_id":39,"name":"Uncletopia | Chicago | 8 | Community","name_short":"chi-8","host":"chi-2.us.uncletopia.com","port":27045,"enabled":true,"region":"us-central","cc":"us","latitude":41.881832,"longitude":-87.62318,"reserved":0,"last_update":"0001-01-01T00:00:00Z","name_a2s":"Uncletopia | Chicago | 8 | Community","protocol":17,"map":"pl_frontier_final","folder":"tf","game":"Team Fortress","app_id":440,"player_count":0,"max_players":24,"Bots":0,"server_type":"Dedicated","server_os":"Linux","password":true,"vac":true,"version":"7723704","steam_id":85568392924866365,"keywords":["nocrits","nodmgspread","payload","uncletopia"],"game_id":440,"stv_port":27046,"stv_name":"Uncletopia | Chicago | 8 | Community | STV","players":null},{"server_id":8,"name":"Uncletopia | Dallas | 1 | All Maps","name_short":"dal-1","host":"dal-1.us.uncletopia.com","port":27015,"enabled":true,"region":"us-central","cc":"us","latitude":32.779167,"longitude":-96.80889,"reserved":0,"last_update":"0001-01-01T00:00:00Z","name_a2s":"Uncletopia | Dallas | 1 | All Maps","protocol":17,"map":"pl_thundermountain","folder":"tf","game":"Team Fortress","app_id":440,"player_count":24,"max_players":24,"Bots":0,"server_type":"Dedicated","server_os":"Linux","password":true,"vac":true,"version":"7723704","steam_id":85568392924469986,"keywords":["nocrits","nodmgspread","payload","uncletopia"],"game_id":440,"stv_port":27016,"stv_name":"Uncletopia | Dallas | 1 | All Maps | STV","players":[{"user_id":170,"name":"Sheembs","steam_id":76561199010524390,"connected_time":222000000000,"state":"active","ping":70},{"user_id":168,"name":"Fanta","steam_id":76561199004512348,"connected_time":294000000000,"state":"active","ping":45},{"user_id":167,"name":"Chinese Eggroll","steam_id":76561198119577056,"connected_time":432000000000,"state":"active","ping":78},{"user_id":147,"name":"R","steam_id":76561198309760791,"connected_time":2196000000000,"state":"active","ping":120},{"user_id":161,"name":"Joe SMS From Progressive","steam_id":76561198336597038,"connected_time":1203000000000,"state":"active","ping":61},{"user_id":162,"name":"davidwake2120","steam_id":76561199236238636,"connected_time":1198000000000,"state":"active","ping":72},{"user_id":131,"name":"KaiaDoggy","steam_id":76561197997096301,"connected_time":3411000000000,"state":"active","ping":50},{"user_id":172,"name":"hellohello","steam_id":76561198094058177,"connected_time":113000000000,"state":"active","ping":74},{"user_id":158,"name":"happy man!!! :D!!!!","steam_id":76561198128468316,"connected_time":1561000000000,"state":"active","ping":65},{"user_id":154,"name":"Gel electrophoresis railgun","steam_id":76561198032259680,"connected_time":1992000000000,"state":"active","ping":95},{"user_id":115,"name":"I AM A TWERKER","steam_id":76561198800324957,"connected_time":4953000000000,"state":"active","ping":58},{"user_id":87,"name":"Eightyy  Fourr","steam_id":76561197960374225,"connected_time":6983000000000,"state":"active","ping":49},{"user_id":143,"name":"HeroOfTime","steam_id":76561199096218001,"connected_time":2638000000000,"state":"active","ping":107},{"user_id":112,"name":"Fishstall","steam_id":76561198038126034,"connected_time":5161000000000,"state":"active","ping":71},{"user_id":151,"name":"Satori Komeiji","steam_id":76561198158211423,"connected_time":2126000000000,"state":"active","ping":74},{"user_id":171,"name":"Goretron","steam_id":76561198001320198,"connected_time":218000000000,"state":"active","ping":135},{"user_id":165,"name":"TheHarmacist","steam_id":76561198068249096,"connected_time":678000000000,"state":"active","ping":85},{"user_id":157,"name":"MerlinTheWizard","steam_id":76561198171472393,"connected_time":1773000000000,"state":"active","ping":70},{"user_id":145,"name":"SpycyNoodles","steam_id":76561198309439750,"connected_time":2489000000000,"state":"active","ping":75},{"user_id":153,"name":"Arizona","steam_id":76561198113748347,"connected_time":2057000000000,"state":"active","ping":63},{"user_id":164,"name":"Doctorcardio","steam_id":76561198438030767,"connected_time":929000000000,"state":"active","ping":115},{"user_id":116,"name":"The Squid Gamer‚Ñ¢","steam_id":76561198340621517,"connected_time":4913000000000,"state":"active","ping":94},{"user_id":138,"name":"pinglefingle","steam_id":76561198216580197,"connected_time":3189000000000,"state":"active","ping":63}]},{"server_id":108,"name":"Uncletopia | Dallas | 2 | All Maps","name_short":"dal-2","host":"dal-1.us.uncletopia.com","port":27025,"enabled":true,"region":"us-central","cc":"us","latitude":32.779167,"longitude":-96.80889,"reserved":0,"last_update":"0001-01-01T00:00:00Z","name_a2s":"Uncletopia | Dallas | 2 | All Maps","protocol":17,"map":"pl_upward","folder":"tf","game":"Team Fortress","app_id":440,"player_count":24,"max_players":24,"Bots":0,"server_type":"Dedicated","server_os":"Linux","password":true,"vac":true,"version":"7723704","steam_id":85568392924469988,"keywords":["nocrits","nodmgspread","payload","uncletopia"],"game_id":440,"stv_port":27026,"stv_name":"Uncletopia | Dallas | 2 | All Maps | STV","players":[{"user_id":58,"name":"submackeen","steam_id":76561198799855913,"connected_time":1977000000000,"state":"active","ping":65},{"user_id":75,"name":"swooce","steam_id":76561198156232484,"connected_time":1758000000000,"state":"active","ping":79},{"user_id":48,"name":"Cthulwho?","steam_id":76561198165550810,"connected_time":3322000000000,"state":"active","ping":79},{"user_id":60,"name":"give me your baby faces blaster","steam_id":76561199013442982,"connected_time":1954000000000,"state":"active","ping":90},{"user_id":50,"name":"I like cheese (real)","steam_id":76561198882837408,"connected_time":3290000000000,"state":"active","ping":92},{"user_id":40,"name":"That Dude","steam_id":76561198980486227,"connected_time":3792000000000,"state":"active","ping":82},{"user_id":61,"name":"Shmoseph","steam_id":76561198354689252,"connected_time":1954000000000,"state":"active","ping":57},{"user_id":17,"name":"Deno! Í∞ÑÎ∂Ä","steam_id":76561198041113335,"connected_time":4809000000000,"state":"active","ping":103},{"user_id":69,"name":"CBTgaeming","steam_id":76561199089290128,"connected_time":1823000000000,"state":"active","ping":152},{"user_id":77,"name":"ajplays28","steam_id":76561199023537026,"connected_time":1656000000000,"state":"active","ping":97},{"user_id":70,"name":"Turtle","steam_id":76561198262110064,"connected_time":1816000000000,"state":"active","ping":70},{"user_id":81,"name":"LasagnaLary","steam_id":76561198051016438,"connected_time":973000000000,"state":"active","ping":80},{"user_id":88,"name":"Void","steam_id":76561198048359020,"connected_time":310000000000,"state":"active","ping":135},{"user_id":85,"name":"Squatchamo","steam_id":76561198012968239,"connected_time":579000000000,"state":"active","ping":92},{"user_id":91,"name":"Volkan, Pervert Extraordinaire","steam_id":76561198004569575,"connected_time":244000000000,"state":"active","ping":93},{"user_id":92,"name":"sasiawastaken","steam_id":76561198127316391,"connected_time":233000000000,"state":"active","ping":64},{"user_id":51,"name":"Antidisestablishmentarianism","steam_id":76561198958460901,"connected_time":3268000000000,"state":"active","ping":64},{"user_id":29,"name":"Lord Scrubling","steam_id":76561198263744445,"connected_time":4490000000000,"state":"active","ping":48},{"user_id":67,"name":"Winter the Witchie","steam_id":76561198151971178,"connected_time":1836000000000,"state":"active","ping":88},{"user_id":68,"name":"Brandino!","steam_id":76561198000446932,"connected_time":1829000000000,"state":"active","ping":100},{"user_id":84,"name":"jennco","steam_id":76561198212421513,"connected_time":746000000000,"state":"active","ping":75},{"user_id":72,"name":"ThyVibeGamer","steam_id":76561199047720183,"connected_time":1807000000000,"state":"active","ping":70},{"user_id":74,"name":"OrangeShoes","steam_id":76561197971249940,"connected_time":1796000000000,"state":"active","ping":72},{"user_id":93,"name":"tf2 spy","steam_id":76561199095937300,"connected_time":233000000000,"state":"active","ping":95}]},{"server_id":5,"name":"Uncletopia | Frankfurt | 1 | All Maps","name_short":"frk-1","host":"frk-1.de.uncletopia.com","port":27015,"enabled":true,"region":"eu","cc":"de","latitude":50.110924,"longitude":8.682127,"reserved":0,"last_update":"0001-01-01T00:00:00Z","name_a2s":"Uncletopia | Frankfurt | 1 | All Maps","protocol":17,"map":"pl_barnblitz","folder":"tf","game":"Team Fortress","app_id":440,"player_count":24,"max_players":24,"Bots":0,"server_type":"Dedicated","server_os":"Linux","password":true,"vac":true,"version":"7723704","steam_id":85568392924469989,"keywords":["nocrits","nodmgspread","payload","uncletopia"],"game_id":440,"stv_port":27016,"stv_name":"Uncletopia | Frankfurt | 1 | All Maps | STV","players":[{"user_id":315,"name":"OrangeBanana","steam_id":76561199230233875,"connected_time":833000000000,"state":"active","ping":55},{"user_id":333,"name":"kul","steam_id":76561198065179630,"connected_time":276000000000,"state":"active","ping":52},{"user_id":317,"name":"Hunt_er#SaveTf2","steam_id":76561198325350546,"connected_time":769000000000,"state":"active","ping":173},{"user_id":309,"name":"hamude.alsarhan2011","steam_id":76561199259727736,"connected_time":1285000000000,"state":"active","ping":51},{"user_id":311,"name":"SealDealer","steam_id":76561198310852145,"connected_time":1219000000000,"state":"active","ping":75},{"user_id":312,"name":"Kitsune | uWu","steam_id":76561199051966564,"connected_time":1166000000000,"state":"active","ping":60},{"user_id":318,"name":"Derpanium","steam_id":76561198072557804,"connected_time":716000000000,"state":"active","ping":60},{"user_id":320,"name":"blue_axolotl64","steam_id":76561199121285443,"connected_time":704000000000,"state":"active","ping":133},{"user_id":321,"name":"King Nugget","steam_id":76561198134037464,"connected_time":702000000000,"state":"active","ping":65},{"user_id":322,"name":"Max","steam_id":76561198001690759,"connected_time":667000000000,"state":"active","ping":162},{"user_id":323,"name":"Itai","steam_id":76561198804555329,"connected_time":614000000000,"state":"active","ping":98},{"user_id":324,"name":"VioBeeyo","steam_id":76561198066258544,"connected_time":586000000000,"state":"active","ping":49},{"user_id":325,"name":"Dark_Prelate","steam_id":76561199065671442,"connected_time":554000000000,"state":"active","ping":57},{"user_id":326,"name":"That Emoji","steam_id":76561198280539356,"connected_time":543000000000,"state":"active","ping":70},{"user_id":327,"name":"JackDegle","steam_id":76561198427027677,"connected_time":524000000000,"state":"active","ping":70},{"user_id":328,"name":"Alich","steam_id":76561198054110232,"connected_time":493000000000,"state":"active","ping":85},{"user_id":329,"name":"Ancient Mariner","steam_id":76561198209101861,"connected_time":408000000000,"state":"active","ping":68},{"user_id":330,"name":"MeBandae","steam_id":76561198910770432,"connected_time":392000000000,"state":"active","ping":72},{"user_id":331,"name":"Typical","steam_id":76561199009805172,"connected_time":343000000000,"state":"active","ping":54},{"user_id":335,"name":"The all seeing four eye","steam_id":76561198372971096,"connected_time":247000000000,"state":"active","ping":82},{"user_id":334,"name":"Milk","steam_id":76561198125876588,"connected_time":275000000000,"state":"active","ping":61},{"user_id":303,"name":"vi hava en usel regering","steam_id":76561198037978654,"connected_time":2353000000000,"state":"active","ping":66},{"user_id":337,"name":"Mr.Schnittlauch","steam_id":76561198295868113,"connected_time":156000000000,"state":"active","ping":57},{"user_id":286,"name":"romaingallo","steam_id":76561198268112907,"connected_time":3118000000000,"state":"active","ping":53}]},{"server_id":110,"name":"Uncletopia | Frankfurt | 2 | All Maps","name_short":"frk-2","host":"frk-1.de.uncletopia.com","port":27025,"enabled":true,"region":"eu","cc":"de","latitude":50.110924,"longitude":8.682127,"reserved":0,"last_update":"0001-01-01T00:00:00Z","name_a2s":"Uncletopia | Frankfurt | 2 | All Maps","protocol":17,"map":"pl_pier","folder":"tf","game":"Team Fortress","app_id":440,"player_count":24,"max_players":24,"Bots":0,"server_type":"Dedicated","server_os":"Linux","password":true,"vac":true,"version":"7723704","steam_id":85568392924469990,"keywords":["nocrits","nodmgspread","payload","uncletopia"],"game_id":440,"stv_port":27026,"stv_name":"Uncletopia | Frankfurt | 2 | All Maps | STV","players":[{"user_id":288,"name":"Clumsy ‚ô•","steam_id":76561199049413586,"connected_time":892000000000,"state":"active","ping":74},{"user_id":265,"name":"freemantel30","steam_id":76561198065669800,"connected_time":2407000000000,"state":"active","ping":49},{"user_id":302,"name":"Rega Macist","steam_id":76561198446797116,"connected_time":312000000000,"state":"active","ping":82},{"user_id":285,"name":"Boki","steam_id":76561198044553351,"connected_time":1350000000000,"state":"active","ping":74},{"user_id":293,"name":"witxes","steam_id":76561199442579490,"connected_time":521000000000,"state":"active","ping":50},{"user_id":294,"name":"Madd Ladd","steam_id":76561198194976553,"connected_time":513000000000,"state":"active","ping":97},{"user_id":262,"name":"C0d3s","steam_id":76561198093907544,"connected_time":2601000000000,"state":"active","ping":95},{"user_id":263,"name":"CAF_Semppo (The M is silent)","steam_id":76561198284961533,"connected_time":2431000000000,"state":"active","ping":82},{"user_id":295,"name":"GamingElek","steam_id":76561198253639367,"connected_time":499000000000,"state":"active","ping":62},{"user_id":168,"name":"Rappin' Sebastian","steam_id":76561198453928256,"connected_time":10311000000000,"state":"active","ping":76},{"user_id":301,"name":"darkwater","steam_id":76561197986978738,"connected_time":386000000000,"state":"active","ping":60},{"user_id":264,"name":"Bromoneto","steam_id":76561198876695014,"connected_time":2430000000000,"state":"active","ping":84},{"user_id":289,"name":"radu","steam_id":76561199232442508,"connected_time":728000000000,"state":"active","ping":74},{"user_id":299,"name":"Psycho","steam_id":76561198084918608,"connected_time":452000000000,"state":"active","ping":53},{"user_id":199,"name":"Coac","steam_id":76561198085265740,"connected_time":8568000000000,"state":"active","ping":75},{"user_id":303,"name":"0","steam_id":76561198335304615,"connected_time":309000000000,"state":"active","ping":69},{"user_id":276,"name":"CAF_Jahoth3","steam_id":76561198372187865,"connected_time":2184000000000,"state":"active","ping":103},{"user_id":296,"name":"Cocaine bear","steam_id":76561199213901239,"connected_time":482000000000,"state":"active","ping":68},{"user_id":297,"name":"Dondonz","steam_id":76561198111407893,"connected_time":480000000000,"state":"active","ping":65},{"user_id":284,"name":"waluigi","steam_id":76561198215809251,"connected_time":1885000000000,"state":"active","ping":55},{"user_id":277,"name":"giclure :;","steam_id":76561197986362828,"connected_time":2177000000000,"state":"active","ping":86},{"user_id":304,"name":"Rygiel","steam_id":76561198119136863,"connected_time":256000000000,"state":"active","ping":87},{"user_id":280,"name":"CAF_Zerkku","steam_id":76561198216102419,"connected_time":2146000000000,"state":"active","ping":81},{"user_id":247,"name":"Tomato Jesus (official)","steam_id":76561198374199420,"connected_time":3895000000000,"state":"active","ping":85}]},{"server_id":308,"name":"Uncletopia | Frankfurt | 3 | All Maps","name_short":"frk-3","host":"frk-1.de.uncletopia.com","port":27035,"enabled":true,"region":"eu","cc":"de","latitude":50.110924,"longitude":8.682127,"reserved":0,"last_update":"0001-01-01T00:00:00Z","name_a2s":"Uncletopia | Frankfurt | 3 | All Maps","protocol":17,"map":"pl_thundermountain","folder":"tf","game":"Team Fortress","app_id":440,"player_count":24,"max_players":24,"Bots":0,"server_type":"Dedicated","server_os":"Linux","password":true,"vac":true,"version":"7723704","steam_id":85568392924504274,"keywords":["nocrits","nodmgspread","payload","uncletopia"],"game_id":440,"stv_port":27036,"stv_name":"Uncletopia | Frankfurt | 3 | All Maps | STV","players":[{"user_id":515,"name":"loveless","steam_id":76561198142256651,"connected_time":183000000000,"state":"active","ping":73},{"user_id":506,"name":"Shane Rizz","steam_id":76561198402363748,"connected_time":368000000000,"state":"active","ping":47},{"user_id":507,"name":"Abe Lincoln","steam_id":76561198075232017,"connected_time":354000000000,"state":"active","ping":45},{"user_id":514,"name":"loolman/T.I.D.K.","steam_id":76561199104188934,"connected_time":209000000000,"state":"active","ping":66},{"user_id":467,"name":"Evisnodim","steam_id":76561198210616983,"connected_time":4002000000000,"state":"active","ping":127},{"user_id":512,"name":"CKenny.js","steam_id":76561198063245962,"connected_time":226000000000,"state":"active","ping":103},{"user_id":451,"name":"Yony","steam_id":76561199070569941,"connected_time":5831000000000,"state":"active","ping":62},{"user_id":516,"name":"Malik794","steam_id":76561198967164437,"connected_time":131000000000,"state":"active","ping":101},{"user_id":478,"name":"Cippo95","steam_id":76561198255311582,"connected_time":2720000000000,"state":"active","ping":75},{"user_id":489,"name":"≈Ωgr√¶√êek113","steam_id":76561198306883632,"connected_time":2360000000000,"state":"active","ping":63},{"user_id":492,"name":"rx","steam_id":76561198111834139,"connected_time":2100000000000,"state":"active","ping":65},{"user_id":517,"name":"MomoInTheBox","steam_id":76561197994150695,"connected_time":111000000000,"state":"active","ping":75},{"user_id":502,"name":"Arcader","steam_id":76561198109860110,"connected_time":869000000000,"state":"active","ping":56},{"user_id":481,"name":"Pudd of The Pompous Tophats","steam_id":76561198014468443,"connected_time":2694000000000,"state":"active","ping":76},{"user_id":486,"name":"Octoblue64","steam_id":76561198388997283,"connected_time":2631000000000,"state":"active","ping":62},{"user_id":495,"name":"Mayor Wank from Wanker Town","steam_id":76561197998253588,"connected_time":1356000000000,"state":"active","ping":52},{"user_id":493,"name":"Sweat Plantation","steam_id":76561198025086883,"connected_time":1700000000000,"state":"active","ping":79},{"user_id":487,"name":"Lord of the Lockerroom","steam_id":76561198080619697,"connected_time":2446000000000,"state":"active","ping":90},{"user_id":494,"name":"Crossy","steam_id":76561198091702315,"connected_time":1475000000000,"state":"active","ping":75},{"user_id":425,"name":"Fales","steam_id":76561198126124929,"connected_time":7463000000000,"state":"active","ping":62},{"user_id":499,"name":"hellrunner","steam_id":76561198205309695,"connected_time":1203000000000,"state":"active","ping":88},{"user_id":513,"name":"Davide360","steam_id":76561199003892562,"connected_time":215000000000,"state":"spawning","ping":273},{"user_id":509,"name":"Fredfredfood","steam_id":76561198072824802,"connected_time":338000000000,"state":"active","ping":157},{"user_id":503,"name":"mmlock","steam_id":76561198069516191,"connected_time":688000000000,"state":"active","ping":50}]},{"server_id":309,"name":"Uncletopia | Frankfurt | 4 | All Maps","name_short":"frk-4","host":"frk-1.de.uncletopia.com","port":27045,"enabled":true,"region":"eu","cc":"de","latitude":50.110924,"longitude":8.682127,"reserved":0,"last_update":"0001-01-01T00:00:00Z","name_a2s":"Uncletopia | Frankfurt | 4 | All Maps","protocol":17,"map":"koth_suijin","folder":"tf","game":"Team Fortress","app_id":440,"player_count":24,"max_players":24,"Bots":0,"server_type":"Dedicated","server_os":"Linux","password":true,"vac":true,"version":"7723704","steam_id":85568392924504275,"keywords":["cp","nocrits","nodmgspread","uncletopia"],"game_id":440,"stv_port":27046,"stv_name":"Uncletopia | Frankfurt | 4 | All Maps | STV","players":[{"user_id":263,"name":"a bag of cement on mars","steam_id":76561198019402537,"connected_time":875000000000,"state":"active","ping":84},{"user_id":268,"name":"Hati","steam_id":76561198135520039,"connected_time":296000000000,"state":"active","ping":66},{"user_id":266,"name":"Carry Krypl","steam_id":76561198136938121,"connected_time":506000000000,"state":"active","ping":38},{"user_id":236,"name":"pinball rizzard","steam_id":76561198045347066,"connected_time":2448000000000,"state":"active","ping":74},{"user_id":231,"name":"kilo","steam_id":76561198015641339,"connected_time":2888000000000,"state":"active","ping":73},{"user_id":259,"name":"YILK","steam_id":76561198077913307,"connected_time":1086000000000,"state":"active","ping":50},{"user_id":253,"name":"the rizzard of oz","steam_id":76561198066631833,"connected_time":1585000000000,"state":"active","ping":83},{"user_id":260,"name":"Firevell","steam_id":76561198154813359,"connected_time":1022000000000,"state":"active","ping":55},{"user_id":251,"name":"tealoverr.190","steam_id":76561199028497703,"connected_time":1596000000000,"state":"active","ping":104},{"user_id":254,"name":"zero","steam_id":76561198055365234,"connected_time":1568000000000,"state":"active","ping":72},{"user_id":240,"name":"No talk to me, me angy","steam_id":76561198250257780,"connected_time":2349000000000,"state":"active","ping":159},{"user_id":218,"name":"jingleboob","steam_id":76561198097507847,"connected_time":3871000000000,"state":"active","ping":74},{"user_id":267,"name":"An unnecessary Jojo reference","steam_id":76561198121764825,"connected_time":440000000000,"state":"active","ping":50},{"user_id":245,"name":"Fran","steam_id":76561199070516960,"connected_time":2206000000000,"state":"active","ping":61},{"user_id":198,"name":"Yelowchy","steam_id":76561198199416121,"connected_time":4693000000000,"state":"active","ping":109},{"user_id":255,"name":"iHateDying","steam_id":76561198321790697,"connected_time":1567000000000,"state":"active","ping":161},{"user_id":210,"name":"Gver3113","steam_id":76561198118659012,"connected_time":4054000000000,"state":"active","ping":66},{"user_id":219,"name":"The Notorious B.I.O.","steam_id":76561198170609049,"connected_time":3862000000000,"state":"active","ping":62},{"user_id":232,"name":"FadenMir","steam_id":76561198132749249,"connected_time":2788000000000,"state":"active","ping":108},{"user_id":185,"name":"oz","steam_id":76561198060762216,"connected_time":5427000000000,"state":"active","ping":81},{"user_id":262,"name":"DeNilson","steam_id":76561197972535376,"connected_time":1014000000000,"state":"active","ping":82},{"user_id":271,"name":"cotton headed ninny muggins","steam_id":76561198241082898,"connected_time":113000000000,"state":"active","ping":157},{"user_id":222,"name":"Jingleboob's 1# Elf","steam_id":76561198067204908,"connected_time":3820000000000,"state":"active","ping":70},{"user_id":228,"name":"W+M1","steam_id":76561198418538887,"connected_time":3253000000000,"state":"active","ping":91}]},{"server_id":310,"name":"Uncletopia | Frankfurt | 5 | All Maps","name_short":"frk-5","host":"frk-1.de.uncletopia.com","port":27055,"enabled":true,"region":"eu","cc":"de","latitude":50.110924,"longitude":8.682127,"reserved":0,"last_update":"0001-01-01T00:00:00Z","name_a2s":"Uncletopia | Frankfurt | 5 | All Maps","protocol":17,"map":"pl_barnblitz","folder":"tf","game":"Team Fortress","app_id":440,"player_count":24,"max_players":24,"Bots":0,"server_type":"Dedicated","server_os":"Linux","password":true,"vac":true,"version":"7723704","steam_id":85568392924504277,"keywords":["nocrits","nodmgspread","payload","uncletopia"],"game_id":440,"stv_port":27056,"stv_name":"Uncletopia | Frankfurt | 5 | All Maps | STV","players":[{"user_id":296,"name":"W+m1 scout","steam_id":76561198371068409,"connected_time":2005000000000,"state":"active","ping":64},{"user_id":308,"name":"uNem0_","steam_id":76561198836442412,"connected_time":1298000000000,"state":"active","ping":95},{"user_id":263,"name":"M76030","steam_id":76561198046651252,"connected_time":4702000000000,"state":"active","ping":51},{"user_id":331,"name":"Random Main \u003c3","steam_id":76561198341428449,"connected_time":27000000000,"state":"active","ping":64},{"user_id":300,"name":"ToniGAM3S","steam_id":76561198128605351,"connected_time":1494000000000,"state":"active","ping":58},{"user_id":322,"name":"Cheeb","steam_id":76561199111365454,"connected_time":833000000000,"state":"active","ping":58},{"user_id":311,"name":"HanhiGaming","steam_id":76561198877007477,"connected_time":1216000000000,"state":"active","ping":91},{"user_id":312,"name":"Heisenbones (real)","steam_id":76561198097519748,"connected_time":1207000000000,"state":"active","ping":53},{"user_id":265,"name":"Recurracy","steam_id":76561197993421597,"connected_time":4614000000000,"state":"active","ping":48},{"user_id":317,"name":"X-tis","steam_id":76561198043837480,"connected_time":1032000000000,"state":"active","ping":72},{"user_id":327,"name":"VK2124 :D","steam_id":76561198111130688,"connected_time":719000000000,"state":"active","ping":50},{"user_id":302,"name":"Joe Fishington","steam_id":76561198261250961,"connected_time":1471000000000,"state":"active","ping":97},{"user_id":328,"name":"Milosz52","steam_id":76561199060940204,"connected_time":625000000000,"state":"active","ping":76},{"user_id":313,"name":"Daddy Donovan","steam_id":76561198140938904,"connected_time":1199000000000,"state":"active","ping":87},{"user_id":314,"name":"Mr. Gaming","steam_id":76561198159360685,"connected_time":1194000000000,"state":"active","ping":76},{"user_id":304,"name":"Frazzles","steam_id":76561199228009586,"connected_time":1397000000000,"state":"active","ping":64},{"user_id":329,"name":"generic alias","steam_id":76561198271607226,"connected_time":172000000000,"state":"active","ping":86},{"user_id":330,"name":"Elon Ma cs.deals","steam_id":76561199018053264,"connected_time":163000000000,"state":"active","ping":51},{"user_id":306,"name":"tristan","steam_id":76561198096097448,"connected_time":1378000000000,"state":"active","ping":56},{"user_id":264,"name":"Appelflap64","steam_id":76561198012819017,"connected_time":4697000000000,"state":"active","ping":65},{"user_id":319,"name":"Dr.Sees [F2P]","steam_id":76561199219233587,"connected_time":1016000000000,"state":"active","ping":85},{"user_id":323,"name":"[T]aKer","steam_id":76561198001778013,"connected_time":829000000000,"state":"active","ping":57},{"user_id":325,"name":"Sunkerdink","steam_id":76561197996757446,"connected_time":764000000000,"state":"active","ping":64},{"user_id":294,"name":"invitation to death","steam_id":76561198854358215,"connected_time":2058000000000,"state":"active","ping":53}]},{"server_id":311,"name":"Uncletopia | Frankfurt | 6 | All Maps","name_short":"frk-6","host":"frk-1.de.uncletopia.com","port":27065,"enabled":true,"region":"eu","cc":"de","latitude":50.110924,"longitude":8.682127,"reserved":0,"last_update":"0001-01-01T00:00:00Z","name_a2s":"Uncletopia | Frankfurt | 6 | All Maps","protocol":17,"map":"pl_snowycoast","folder":"tf","game":"Team Fortress","app_id":440,"player_count":24,"max_players":24,"Bots":0,"server_type":"Dedicated","server_os":"Linux","password":true,"vac":true,"version":"7723704","steam_id":85568392924504278,"keywords":["nocrits","nodmgspread","payload","uncletopia"],"game_id":440,"stv_port":27066,"stv_name":"Uncletopia | Frankfurt | 6 | All Maps | STV","players":[{"user_id":511,"name":"Carpe diem.","steam_id":76561199065917088,"connected_time":4566000000000,"state":"active","ping":67},{"user_id":553,"name":"Meladoom2","steam_id":76561198086845387,"connected_time":1490000000000,"state":"active","ping":82},{"user_id":551,"name":"Economic crisis","steam_id":76561198063562843,"connected_time":1597000000000,"state":"active","ping":53},{"user_id":526,"name":":(","steam_id":76561198044465070,"connected_time":3674000000000,"state":"active","ping":90},{"user_id":563,"name":"allegro","steam_id":76561198971389390,"connected_time":395000000000,"state":"active","ping":73},{"user_id":538,"name":"Jin","steam_id":76561198248878364,"connected_time":2605000000000,"state":"active","ping":47},{"user_id":477,"name":"busy busy bee :D","steam_id":76561198128222331,"connected_time":6532000000000,"state":"active","ping":150},{"user_id":554,"name":"Nier0x","steam_id":76561198092041526,"connected_time":1484000000000,"state":"active","ping":106},{"user_id":565,"name":"Suzi aka üçÜSexSymbolüçë","steam_id":76561198205350645,"connected_time":92000000000,"state":"active","ping":82},{"user_id":539,"name":"Velarowo","steam_id":76561198349373445,"connected_time":2595000000000,"state":"active","ping":62},{"user_id":552,"name":"Festive Mythril","steam_id":76561198028488773,"connected_time":1590000000000,"state":"active","ping":132},{"user_id":536,"name":"Farmercy","steam_id":76561198000038039,"connected_time":2896000000000,"state":"active","ping":58},{"user_id":505,"name":"ivanmixo","steam_id":76561198160213989,"connected_time":5140000000000,"state":"active","ping":75},{"user_id":549,"name":"duckels","steam_id":76561198127790695,"connected_time":1705000000000,"state":"active","ping":45},{"user_id":555,"name":"Sedoy","steam_id":76561198390666516,"connected_time":1479000000000,"state":"active","ping":90},{"user_id":428,"name":"girth gremlin","steam_id":76561198436424012,"connected_time":8521000000000,"state":"active","ping":53},{"user_id":564,"name":"PotatoeChisps","steam_id":76561198142556383,"connected_time":335000000000,"state":"active","ping":189},{"user_id":559,"name":"WhenSheSuccinUrNuts AndUaGangst","steam_id":76561199063168110,"connected_time":1377000000000,"state":"active","ping":102},{"user_id":494,"name":"Irbynx","steam_id":76561197980421195,"connected_time":5715000000000,"state":"active","ping":88},{"user_id":547,"name":"netti","steam_id":76561198125873692,"connected_time":1803000000000,"state":"active","ping":76},{"user_id":566,"name":"–ò–Ω—Å–ø–µ–∫—Ç–æ—Ä –ê—Ç–∞—Å","steam_id":76561199175688390,"connected_time":61000000000,"state":"active","ping":84},{"user_id":562,"name":"tshirt","steam_id":76561198040757844,"connected_time":697000000000,"state":"active","ping":84},{"user_id":558,"name":"Zombi3","steam_id":76561198326290621,"connected_time":1452000000000,"state":"active","ping":73},{"user_id":542,"name":"freezy099","steam_id":76561198118364690,"connected_time":2442000000000,"state":"active","ping":65}]},{"server_id":23,"name":"Uncletopia | Frankfurt | 7 | Stopwatch Beta","name_short":"frk-7","host":"frk-1.de.uncletopia.com","port":27075,"enabled":true,"region":"eu","cc":"de","latitude":50.110924,"longitude":8.682127,"reserved":0,"last_update":"0001-01-01T00:00:00Z","name_a2s":"Uncletopia | Frankfurt | 7 | Stopwatch Beta","protocol":17,"map":"workshop/pl_barnblitz_pro7.ugc582280235","folder":"tf","game":"Team Fortress","app_id":440,"player_count":0,"max_players":24,"Bots":0,"server_type":"Dedicated","server_os":"Linux","password":true,"vac":true,"version":"7723704","steam_id":85568392924742827,"keywords":["nocrits","nodmgspread","payload","uncletopia"],"game_id":440,"stv_port":27076,"stv_name":"Uncletopia | Frankfurt | 7 | Stopwatch Beta | STV","players":null},{"server_id":24,"name":"Uncletopia | Frankfurt | 8 | Community","name_short":"frk-8","host":"frk-1.de.uncletopia.com","port":27085,"enabled":true,"region":"eu","cc":"de","latitude":50.110924,"longitude":8.682127,"reserved":0,"last_update":"0001-01-01T00:00:00Z","name_a2s":"Uncletopia | Frankfurt | 8 | Community","protocol":17,"map":"workshop/cp_sulfur_rc2.ugc619869471","folder":"tf","game":"Team Fortress","app_id":440,"player_count":1,"max_players":24,"Bots":0,"server_type":"Dedicated","server_os":"Linux","password":true,"vac":true,"version":"7723704","steam_id":85568392924742828,"keywords":["cp","nocrits","nodmgspread","uncletopia"],"game_id":440,"stv_port":27086,"stv_name":"Uncletopia | Frankfurt | 8 | Community | STV","players":[{"user_id":68,"name":"Feelin' Supersonic","steam_id":76561198005738407,"connected_time":5295000000000,"state":"active","ping":57}]},{"server_id":202,"name":"Uncletopia | Hong Kong | 1 | All Maps","name_short":"hgk-1","host":"hgk-1.hk.uncletopia.com","port":27015,"enabled":true,"region":"asia","cc":"hk","latitude":22.302711,"longitude":114.177216,"reserved":0,"last_update":"0001-01-01T00:00:00Z","name_a2s":"Uncletopia | Hong Kong | 1 | All Maps","protocol":17,"map":"ctf_2fort","folder":"tf","game":"Team Fortress","app_id":440,"player_count":0,"max_players":24,"Bots":0,"server_type":"Dedicated","server_os":"Linux","password":true,"vac":true,"version":"7723704","steam_id":85568392924494504,"keywords":["ctf","nocrits","nodmgspread","uncletopia"],"game_id":440,"stv_port":27016,"stv_name":"Uncletopia | Hong Kong | 1 | All Maps | STV","players":null},{"server_id":1,"name":"Uncletopia | Los Angeles | 1 | All Maps","name_short":"lax-1","host":"lax-1.us.uncletopia.com","port":27015,"enabled":true,"region":"us-west","cc":"us","latitude":33.94279,"longitude":-118.41004,"reserved":0,"last_update":"0001-01-01T00:00:00Z","name_a2s":"Uncletopia | Los Angeles | 1 | All Maps","protocol":17,"map":"pl_pier","folder":"tf","game":"Team Fortress","app_id":440,"player_count":0,"max_players":24,"Bots":0,"server_type":"Dedicated","server_os":"Linux","password":true,"vac":true,"version":"7723704","steam_id":85568392924469991,"keywords":["nocrits","nodmgspread","payload","uncletopia"],"game_id":440,"stv_port":27016,"stv_name":"Uncletopia | Los Angeles | 1 | All Maps | STV","players":null},{"server_id":112,"name":"Uncletopia | Los Angeles | 2 | All Maps","name_short":"lax-2","host":"lax-1.us.uncletopia.com","port":27025,"enabled":true,"region":"us-west","cc":"us","latitude":33.94279,"longitude":-118.41004,"reserved":0,"last_update":"0001-01-01T00:00:00Z","name_a2s":"Uncletopia | Los Angeles | 2 | All Maps","protocol":17,"map":"koth_viaduct","folder":"tf","game":"Team Fortress","app_id":440,"player_count":0,"max_players":24,"Bots":0,"server_type":"Dedicated","server_os":"Linux","password":true,"vac":true,"version":"7723704","steam_id":85568392924469992,"keywords":["cp","nocrits","nodmgspread","uncletopia"],"game_id":440,"stv_port":27026,"stv_name":"Uncletopia | Los Angeles | 2 | All Maps | STV","players":null},{"server_id":324,"name":"Uncletopia | Los Angeles | 3 | All Maps","name_short":"lax-3","host":"lax-1.us.uncletopia.com","port":27035,"enabled":true,"region":"us-west","cc":"us","latitude":33.94279,"longitude":-118.41004,"reserved":0,"last_update":"0001-01-01T00:00:00Z","name_a2s":"Uncletopia | Los Angeles | 3 | All Maps","protocol":17,"map":"koth_viaduct","folder":"tf","game":"Team Fortress","app_id":440,"player_count":0,"max_players":24,"Bots":0,"server_type":"Dedicated","server_os":"Linux","password":true,"vac":true,"version":"7723704","steam_id":85568392924510198,"keywords":["cp","nocrits","nodmgspread","uncletopia"],"game_id":440,"stv_port":27036,"stv_name":"Uncletopia | Los Angeles | 3 | All Maps | STV","players":null},{"server_id":25,"name":"Uncletopia | Los Angeles | 4 | Stopwatch Beta","name_short":"lax-4","host":"lax-1.us.uncletopia.com","port":27045,"enabled":true,"region":"us-west","cc":"us","latitude":33.94279,"longitude":-118.41004,"reserved":0,"last_update":"0001-01-01T00:00:00Z","name_a2s":"Uncletopia | Los Angeles | 4 | Stopwatch Beta","protocol":17,"map":"cp_sunshine","folder":"tf","game":"Team Fortress","app_id":440,"player_count":0,"max_players":24,"Bots":0,"server_type":"Dedicated","server_os":"Linux","password":true,"vac":true,"version":"7723704","steam_id":85568392924510199,"keywords":["cp","nocrits","nodmgspread","uncletopia"],"game_id":440,"stv_port":27046,"stv_name":"Uncletopia | Los Angeles | 4 | Stopwatch Beta | STV","players":null},{"server_id":11,"name":"Uncletopia | London | 1 | All Maps","name_short":"lon-1","host":"lon-1.uk.uncletopia.com","port":27015,"enabled":true,"region":"eu","cc":"gb","latitude":51.509865,"longitude":-0.118092,"reserved":0,"last_update":"0001-01-01T00:00:00Z","name_a2s":"Uncletopia | London | 1 | All Maps","protocol":17,"map":"pl_badwater","folder":"tf","game":"Team Fortress","app_id":440,"player_count":24,"max_players":24,"Bots":0,"server_type":"Dedicated","server_os":"Linux","password":true,"vac":true,"version":"7723704","steam_id":85568392924367362,"keywords":["nocrits","nodmgspread","payload","uncletopia"],"game_id":440,"stv_port":27016,"stv_name":"Uncletopia | London | 1 | All Maps | STV","players":[{"user_id":576,"name":"Bones","steam_id":76561198065081225,"connected_time":3167000000000,"state":"active","ping":42},{"user_id":585,"name":"Luk3","steam_id":76561198340519063,"connected_time":2073000000000,"state":"active","ping":60},{"user_id":590,"name":"gnarly business","steam_id":76561198832688767,"connected_time":1092000000000,"state":"active","ping":52},{"user_id":577,"name":"femcel larper","steam_id":76561198166827208,"connected_time":3163000000000,"state":"active","ping":180},{"user_id":554,"name":"lulu","steam_id":76561199147764133,"connected_time":6029000000000,"state":"active","ping":84},{"user_id":575,"name":"whimsy.","steam_id":76561198878171763,"connected_time":3700000000000,"state":"active","ping":58},{"user_id":603,"name":"Hexagon","steam_id":76561198151205758,"connected_time":268000000000,"state":"active","ping":56},{"user_id":599,"name":"markiplier 0","steam_id":76561198379362481,"connected_time":319000000000,"state":"active","ping":66},{"user_id":558,"name":"Largo","steam_id":76561198844368927,"connected_time":5390000000000,"state":"active","ping":75},{"user_id":583,"name":"BX","steam_id":76561197962889211,"connected_time":2115000000000,"state":"active","ping":53},{"user_id":596,"name":"MrXtr","steam_id":76561198966247397,"connected_time":345000000000,"state":"active","ping":70},{"user_id":604,"name":"f√©nix","steam_id":76561198083199151,"connected_time":104000000000,"state":"active","ping":57},{"user_id":597,"name":"plaz","steam_id":76561198394017103,"connected_time":337000000000,"state":"active","ping":52},{"user_id":605,"name":"MAJAX","steam_id":76561198254828632,"connected_time":42000000000,"state":"active","ping":55},{"user_id":601,"name":"Green","steam_id":76561198183580019,"connected_time":297000000000,"state":"active","ping":74},{"user_id":594,"name":"‚ô•‡∂ûlily‡∂û‚ô•merry mongus!\ufffd\ufffd","steam_id":76561198049840460,"connected_time":547000000000,"state":"active","ping":57},{"user_id":562,"name":"Mango","steam_id":76561198139555709,"connected_time":4674000000000,"state":"active","ping":61},{"user_id":581,"name":"your opinion \u003c my shit after a ","steam_id":76561198152620745,"connected_time":2966000000000,"state":"active","ping":48},{"user_id":591,"name":".quickfast.","steam_id":76561199438900919,"connected_time":1012000000000,"state":"active","ping":51},{"user_id":504,"name":"‚ú™ J","steam_id":76561198094911581,"connected_time":9580000000000,"state":"active","ping":51},{"user_id":593,"name":"Hermitcrack","steam_id":76561198149216441,"connected_time":771000000000,"state":"active","ping":76},{"user_id":602,"name":"Mr. Mundy","steam_id":76561198132008918,"connected_time":296000000000,"state":"active","ping":89},{"user_id":582,"name":"eggslut","steam_id":76561198010752241,"connected_time":2701000000000,"state":"active","ping":66},{"user_id":584,"name":"tomo","steam_id":76561199015097595,"connected_time":2113000000000,"state":"active","ping":45}]},{"server_id":114,"name":"Uncletopia | London | 2 | All Maps","name_short":"lon-2","host":"lon-1.uk.uncletopia.com","port":27025,"enabled":true,"region":"eu","cc":"gb","latitude":51.509865,"longitude":-0.118092,"reserved":0,"last_update":"0001-01-01T00:00:00Z","name_a2s":"Uncletopia | London | 2 | All Maps","protocol":17,"map":"pl_borneo","folder":"tf","game":"Team Fortress","app_id":440,"player_count":24,"max_players":24,"Bots":0,"server_type":"Dedicated","server_os":"Linux","password":true,"vac":true,"version":"7723704","steam_id":85568392924470941,"keywords":["nocrits","nodmgspread","payload","uncletopia"],"game_id":440,"stv_port":27026,"stv_name":"Uncletopia | London | 2 | All Maps | STV","players":[{"user_id":545,"name":"Twin Fantasy (Mirror To Mirror)","steam_id":76561198397024973,"connected_time":112000000000,"state":"active","ping":31},{"user_id":547,"name":"Yaire","steam_id":76561198017343510,"connected_time":61000000000,"state":"active","ping":56},{"user_id":507,"name":"Blyatwork","steam_id":76561198825379598,"connected_time":3308000000000,"state":"active","ping":57},{"user_id":548,"name":"Ged","steam_id":76561198079288943,"connected_time":16000000000,"state":"spawning","ping":115},{"user_id":530,"name":"Yos","steam_id":76561199056318258,"connected_time":1245000000000,"state":"active","ping":95},{"user_id":534,"name":"rlty","steam_id":76561198009395055,"connected_time":1157000000000,"state":"active","ping":120},{"user_id":541,"name":"Chocopenguin","steam_id":76561198247470284,"connected_time":863000000000,"state":"active","ping":50},{"user_id":539,"name":"[Sheep] Tomco","steam_id":76561198388549261,"connected_time":988000000000,"state":"active","ping":51},{"user_id":544,"name":"ShoobyDooby","steam_id":76561198118473910,"connected_time":224000000000,"state":"active","ping":52},{"user_id":520,"name":"hi wassup","steam_id":76561198811216100,"connected_time":2643000000000,"state":"active","ping":42},{"user_id":532,"name":"MyFirstTimeeeeelel","steam_id":76561199235376543,"connected_time":1238000000000,"state":"active","ping":74},{"user_id":546,"name":"Barack Hussein Obama","steam_id":76561198285509527,"connected_time":108000000000,"state":"active","ping":127},{"user_id":549,"name":"Ecton","steam_id":76561198025103720,"connected_time":8000000000,"state":"spawning","ping":70},{"user_id":435,"name":"Zwphyr | TourBot.TF","steam_id":76561198160772793,"connected_time":7557000000000,"state":"active","ping":50},{"user_id":528,"name":"ashley","steam_id":76561198448551449,"connected_time":1512000000000,"state":"active","ping":54},{"user_id":536,"name":"lite.","steam_id":76561198036750896,"connected_time":1090000000000,"state":"active","ping":66},{"user_id":511,"name":"Pruff","steam_id":76561198377084417,"connected_time":3160000000000,"state":"active","ping":72},{"user_id":537,"name":"AshieTheVixen","steam_id":76561199061018034,"connected_time":1072000000000,"state":"active","ping":90},{"user_id":485,"name":"Miss Bari","steam_id":76561198365286092,"connected_time":4664000000000,"state":"active","ping":40},{"user_id":538,"name":"mordecai.nmc","steam_id":76561197997223851,"connected_time":1056000000000,"state":"active","ping":46},{"user_id":526,"name":"Grote piemel","steam_id":76561198166357571,"connected_time":1876000000000,"state":"active","ping":54},{"user_id":498,"name":"Sza","steam_id":76561198022132105,"connected_time":4185000000000,"state":"active","ping":64},{"user_id":527,"name":"waizukaan","steam_id":76561198119210003,"connected_time":1866000000000,"state":"active","ping":92},{"user_id":542,"name":"Furious Frenchman","steam_id":76561198082076952,"connected_time":736000000000,"state":"active","ping":63}]},{"server_id":320,"name":"Uncletopia | London | 3 | All Maps","name_short":"lon-3","host":"lon-1.uk.uncletopia.com","port":27035,"enabled":true,"region":"eu","cc":"gb","latitude":51.509865,"longitude":-0.118092,"reserved":0,"last_update":"0001-01-01T00:00:00Z","name_a2s":"Uncletopia | London | 3 | All Maps","protocol":17,"map":"pl_enclosure_final","folder":"tf","game":"Team Fortress","app_id":440,"player_count":24,"max_players":24,"Bots":0,"server_type":"Dedicated","server_os":"Linux","password":true,"vac":true,"version":"7723704","steam_id":85568392924510192,"keywords":["nocrits","nodmgspread","payload","uncletopia"],"game_id":440,"stv_port":27036,"stv_name":"Uncletopia | London | 3 | All Maps | STV","players":[{"user_id":403,"name":"BenteBent","steam_id":76561198297920637,"connected_time":1755000000000,"state":"active","ping":75},{"user_id":399,"name":"JugoTopia","steam_id":76561197996067209,"connected_time":2112000000000,"state":"active","ping":113},{"user_id":416,"name":"w√∂rb","steam_id":76561198159517104,"connected_time":804000000000,"state":"active","ping":73},{"user_id":426,"name":"Windows Vista Cruiser","steam_id":76561198064102233,"connected_time":527000000000,"state":"active","ping":67},{"user_id":406,"name":"ZOGG FearLand","steam_id":76561198352683491,"connected_time":1471000000000,"state":"active","ping":40},{"user_id":392,"name":"Not that good","steam_id":76561199286851783,"connected_time":2510000000000,"state":"active","ping":62},{"user_id":389,"name":"Nedge","steam_id":76561197963549701,"connected_time":3063000000000,"state":"active","ping":49},{"user_id":409,"name":"Osman","steam_id":76561198046914925,"connected_time":1311000000000,"state":"active","ping":105},{"user_id":427,"name":"i am bread","steam_id":76561199180277321,"connected_time":460000000000,"state":"active","ping":43},{"user_id":393,"name":"fucking","steam_id":76561198112986842,"connected_time":2497000000000,"state":"active","ping":58},{"user_id":411,"name":"DrExplosive","steam_id":76561198063678579,"connected_time":1057000000000,"state":"active","ping":42},{"user_id":410,"name":"-rikeOo-","steam_id":76561198303995379,"connected_time":1128000000000,"state":"active","ping":78},{"user_id":395,"name":"noquieronitengo","steam_id":76561198108020034,"connected_time":2475000000000,"state":"active","ping":75},{"user_id":423,"name":"Baconater","steam_id":76561199002315210,"connected_time":571000000000,"state":"active","ping":34},{"user_id":424,"name":"oh hi mark","steam_id":76561197971981807,"connected_time":549000000000,"state":"active","ping":79},{"user_id":420,"name":"michael","steam_id":76561198030911232,"connected_time":693000000000,"state":"active","ping":86},{"user_id":428,"name":"tori_spring #savetf2","steam_id":76561199375975842,"connected_time":380000000000,"state":"active","ping":45},{"user_id":425,"name":"Tal Tal","steam_id":76561198342547469,"connected_time":548000000000,"state":"active","ping":91},{"user_id":388,"name":"British Disapproval","steam_id":76561198001375260,"connected_time":3200000000000,"state":"active","ping":63},{"user_id":396,"name":"hmscole09","steam_id":76561198811362788,"connected_time":2465000000000,"state":"active","ping":48},{"user_id":429,"name":"quinneroni","steam_id":76561198868096146,"connected_time":197000000000,"state":"active","ping":109},{"user_id":419,"name":"Random Rock","steam_id":76561199013795985,"connected_time":731000000000,"state":"active","ping":36},{"user_id":414,"name":"W*","steam_id":76561197972244657,"connected_time":916000000000,"state":"active","ping":57},{"user_id":422,"name":"Small Goodman","steam_id":76561198881753718,"connected_time":628000000000,"state":"active","ping":81}]},{"server_id":321,"name":"Uncletopia | London | 4 | All Maps","name_short":"lon-4","host":"lon-1.uk.uncletopia.com","port":27045,"enabled":true,"region":"eu","cc":"gb","latitude":51.509865,"longitude":-0.118092,"reserved":0,"last_update":"0001-01-01T00:00:00Z","name_a2s":"Uncletopia | London | 4 | All Maps","protocol":17,"map":"cp_sunshine","folder":"tf","game":"Team Fortress","app_id":440,"player_count":24,"max_players":24,"Bots":0,"server_type":"Dedicated","server_os":"Linux","password":true,"vac":true,"version":"7723704","steam_id":85568392924510193,"keywords":["cp","nocrits","nodmgspread","uncletopia"],"game_id":440,"stv_port":27046,"stv_name":"Uncletopia | London | 4 | All Maps | STV","players":[{"user_id":36,"name":"NiceBird","steam_id":76561198072118644,"connected_time":4492000000000,"state":"active","ping":40},{"user_id":34,"name":"shoplifter","steam_id":76561198311044984,"connected_time":4575000000000,"state":"active","ping":71},{"user_id":35,"name":"ROBERTAIM","steam_id":76561198271798194,"connected_time":4560000000000,"state":"active","ping":73},{"user_id":55,"name":"mt","steam_id":76561197961319303,"connected_time":3447000000000,"state":"active","ping":60},{"user_id":97,"name":"Astyloblatta","steam_id":76561199222909666,"connected_time":670000000000,"state":"active","ping":67},{"user_id":86,"name":"Cookoo","steam_id":76561197999127438,"connected_time":1444000000000,"state":"active","ping":53},{"user_id":65,"name":"Foxyz","steam_id":76561198040642992,"connected_time":3157000000000,"state":"active","ping":96},{"user_id":84,"name":"Jar","steam_id":76561198156384007,"connected_time":1455000000000,"state":"active","ping":52},{"user_id":87,"name":"Mex","steam_id":76561198108279631,"connected_time":1438000000000,"state":"active","ping":73},{"user_id":96,"name":"Adam Sandler","steam_id":76561198310408309,"connected_time":752000000000,"state":"active","ping":48},{"user_id":45,"name":"Pauler le one","steam_id":76561198398152855,"connected_time":3755000000000,"state":"active","ping":93},{"user_id":56,"name":"Mr.O #deletesniper","steam_id":76561198039567498,"connected_time":3432000000000,"state":"active","ping":65},{"user_id":91,"name":"Poodle","steam_id":76561198015483504,"connected_time":1359000000000,"state":"active","ping":81},{"user_id":83,"name":"Mr. Hunts","steam_id":76561197981910397,"connected_time":1499000000000,"state":"active","ping":61},{"user_id":95,"name":"Maranhadas","steam_id":76561198152856761,"connected_time":956000000000,"state":"active","ping":157},{"user_id":98,"name":"TheFirstGlueBender","steam_id":76561199387319886,"connected_time":382000000000,"state":"active","ping":34},{"user_id":93,"name":"EsquireXDD","steam_id":76561198264159754,"connected_time":1149000000000,"state":"active","ping":126},{"user_id":68,"name":"Barb√Ätrou","steam_id":76561199439141531,"connected_time":2979000000000,"state":"active","ping":47},{"user_id":57,"name":"F","steam_id":76561199149462792,"connected_time":3424000000000,"state":"active","ping":60},{"user_id":81,"name":"bocian2703","steam_id":76561198134203031,"connected_time":1867000000000,"state":"active","ping":65},{"user_id":75,"name":"Miedzan","steam_id":76561198405250516,"connected_time":2564000000000,"state":"active","ping":82},{"user_id":82,"name":"LOBZIK","steam_id":76561198114830120,"connected_time":1599000000000,"state":"active","ping":84},{"user_id":85,"name":"Flyffmario","steam_id":76561198044770177,"connected_time":1448000000000,"state":"active","ping":82},{"user_id":90,"name":"Senator Palpaprotein","steam_id":76561198081980254,"connected_time":1397000000000,"state":"active","ping":45}]},{"server_id":21,"name":"Uncletopia | London | 5 | All Maps","name_short":"lon-5","host":"lon-1.uk.uncletopia.com","port":27055,"enabled":true,"region":"eu","cc":"gb","latitude":51.509865,"longitude":-0.118092,"reserved":0,"last_update":"0001-01-01T00:00:00Z","name_a2s":"Uncletopia | London | 5 | All Maps","protocol":17,"map":"cp_mountainlab","folder":"tf","game":"Team Fortress","app_id":440,"player_count":0,"max_players":24,"Bots":0,"server_type":"Dedicated","server_os":"Linux","password":true,"vac":true,"version":"7723704","steam_id":85568392924742829,"keywords":["cp","nocrits","nodmgspread","uncletopia"],"game_id":440,"stv_port":27056,"stv_name":"Uncletopia | London | 5 | All Maps | STV","players":null},{"server_id":22,"name":"Uncletopia | London | 6 | All Maps","name_short":"lon-6","host":"lon-1.uk.uncletopia.com","port":27065,"enabled":true,"region":"eu","cc":"gb","latitude":51.509865,"longitude":-0.118092,"reserved":0,"last_update":"0001-01-01T00:00:00Z","name_a2s":"Uncletopia | London | 6 | All Maps","protocol":17,"map":"koth_lakeside_final","folder":"tf","game":"Team Fortress","app_id":440,"player_count":0,"max_players":24,"Bots":0,"server_type":"Dedicated","server_os":"Linux","password":true,"vac":true,"version":"7723704","steam_id":85568392924742830,"keywords":["cp","nocrits","nodmgspread","uncletopia"],"game_id":440,"stv_port":27066,"stv_name":"Uncletopia | London | 6 | All Maps | STV","players":null},{"server_id":40,"name":"Uncletopia | London | 7 | No Payload","name_short":"lon-7","host":"lon-1.uk.uncletopia.com","port":27075,"enabled":true,"region":"eu","cc":"gb","latitude":51.509865,"longitude":-0.118092,"reserved":0,"last_update":"0001-01-01T00:00:00Z","name_a2s":"Uncletopia | London | 7 | No Payload","protocol":17,"map":"cp_foundry","folder":"tf","game":"Team Fortress","app_id":440,"player_count":0,"max_players":24,"Bots":0,"server_type":"Dedicated","server_os":"Linux","password":true,"vac":true,"version":"7723704","steam_id":85568392924964314,"keywords":["cp","nocrits","nodmgspread","uncletopia"],"game_id":440,"stv_port":27076,"stv_name":"Uncletopia | London | 7 | No Payload | STV","players":null},{"server_id":41,"name":"Uncletopia | London | 8 | Community","name_short":"lon-8","host":"lon-1.uk.uncletopia.com","port":27085,"enabled":true,"region":"eu","cc":"gb","latitude":51.509865,"longitude":-0.118092,"reserved":0,"last_update":"0001-01-01T00:00:00Z","name_a2s":"Uncletopia | London | 8 | Community","protocol":17,"map":"workshop/koth_bagel_rc5.ugc2514036946","folder":"tf","game":"Team Fortress","app_id":440,"player_count":0,"max_players":24,"Bots":0,"server_type":"Dedicated","server_os":"Linux","password":true,"vac":true,"version":"7723704","steam_id":85568392924964315,"keywords":["cp","nocrits","nodmgspread","uncletopia"],"game_id":440,"stv_port":27086,"stv_name":"Uncletopia | London | 8 | Community | STV","players":null},{"server_id":300,"name":"Uncletopia | Montr√©al | 1 | All Maps","name_short":"mtl-1","host":"mtl-1.ca.uncletopia.com","port":27015,"enabled":true,"region":"us-east","cc":"ca","latitude":45.50889,"longitude":-73.56167,"reserved":0,"last_update":"0001-01-01T00:00:00Z","name_a2s":"Uncletopia | Montr√©al | 1 | All Maps","protocol":17,"map":"pl_snowycoast","folder":"tf","game":"Team Fortress","app_id":440,"player_count":0,"max_players":24,"Bots":0,"server_type":"Dedicated","server_os":"Linux","password":true,"vac":true,"version":"7723704","steam_id":85568392924500087,"keywords":["nocrits","nodmgspread","payload","uncletopia"],"game_id":440,"stv_port":27016,"stv_name":"Uncletopia | Montr√©al | 1 | All Maps | STV","players":null},{"server_id":301,"name":"Uncletopia | Montr√©al | 2 | All Maps","name_short":"mtl-2","host":"mtl-1.ca.uncletopia.com","port":27025,"enabled":true,"region":"us-east","cc":"ca","latitude":45.50889,"longitude":-73.56167,"reserved":0,"last_update":"0001-01-01T00:00:00Z","name_a2s":"Uncletopia | Montr√©al | 2 | All Maps","protocol":17,"map":"cp_process_final","folder":"tf","game":"Team Fortress","app_id":440,"player_count":0,"max_players":24,"Bots":0,"server_type":"Dedicated","server_os":"Linux","password":true,"vac":true,"version":"7723704","steam_id":85568392924500088,"keywords":["cp","nocrits","nodmgspread","uncletopia"],"game_id":440,"stv_port":27026,"stv_name":"Uncletopia | Montr√©al | 2 | All Maps | STV","players":null},{"server_id":302,"name":"Uncletopia | Montr√©al | 3 | All Maps","name_short":"mtl-3","host":"mtl-1.ca.uncletopia.com","port":27035,"enabled":true,"region":"us-east","cc":"ca","latitude":45.50889,"longitude":-73.56167,"reserved":0,"last_update":"0001-01-01T00:00:00Z","name_a2s":"Uncletopia | Montr√©al | 3 | All Maps","protocol":17,"map":"pl_barnblitz","folder":"tf","game":"Team Fortress","app_id":440,"player_count":0,"max_players":24,"Bots":0,"server_type":"Dedicated","server_os":"Linux","password":true,"vac":true,"version":"7723704","steam_id":85568392924500089,"keywords":["nocrits","nodmgspread","payload","uncletopia"],"game_id":440,"stv_port":27036,"stv_name":"Uncletopia | Montr√©al | 3 | All Maps | STV","players":null},{"server_id":303,"name":"Uncletopia | Montr√©al | 4 | No Payload","name_short":"mtl-4","host":"mtl-1.ca.uncletopia.com","port":27045,"enabled":true,"region":"us-east","cc":"ca","latitude":45.50889,"longitude":-73.56167,"reserved":0,"last_update":"0001-01-01T00:00:00Z","name_a2s":"Uncletopia | Montr√©al | 4 | No Payload","protocol":17,"map":"koth_cascade","folder":"tf","game":"Team Fortress","app_id":440,"player_count":0,"max_players":24,"Bots":0,"server_type":"Dedicated","server_os":"Linux","password":true,"vac":true,"version":"7723704","steam_id":85568392924500090,"keywords":["cp","nocrits","nodmgspread","uncletopia"],"game_id":440,"stv_port":27046,"stv_name":"Uncletopia | Montr√©al | 4 | No Payload | STV","players":null},{"server_id":13,"name":"Uncletopia | New York City | 1 | All Maps","name_short":"nyc-1","host":"nyc-1.us.uncletopia.com","port":27015,"enabled":true,"region":"us-east","cc":"us","latitude":40.73061,"longitude":-73.93524,"reserved":0,"last_update":"0001-01-01T00:00:00Z","name_a2s":"Uncletopia | New York City | 1 | All Maps","protocol":17,"map":"cp_mountainlab","folder":"tf","game":"Team Fortress","app_id":440,"player_count":0,"max_players":24,"Bots":0,"server_type":"Dedicated","server_os":"Linux","password":true,"vac":true,"version":"7723704","steam_id":85568392924469993,"keywords":["cp","nocrits","nodmgspread","uncletopia"],"game_id":440,"stv_port":27016,"stv_name":"Uncletopia | New York City | 1 | All Maps | STV","players":null},{"server_id":14,"name":"Uncletopia | New York City | 2 | All Maps","name_short":"nyc-2","host":"nyc-1.us.uncletopia.com","port":27025,"enabled":true,"region":"us-east","cc":"us","latitude":40.73061,"longitude":-73.93524,"reserved":0,"last_update":"0001-01-01T00:00:00Z","name_a2s":"Uncletopia | New York City | 2 | All Maps","protocol":17,"map":"pl_pier","folder":"tf","game":"Team Fortress","app_id":440,"player_count":0,"max_players":24,"Bots":0,"server_type":"Dedicated","server_os":"Linux","password":true,"vac":true,"version":"7723704","steam_id":85568392924469994,"keywords":["nocrits","nodmgspread","payload","uncletopia"],"game_id":440,"stv_port":27026,"stv_name":"Uncletopia | New York City | 2 | All Maps | STV","players":null},{"server_id":15,"name":"Uncletopia | New York City | 3 | Stopwatch Beta","name_short":"nyc-3","host":"nyc-1.us.uncletopia.com","port":27035,"enabled":true,"region":"us-east","cc":"us","latitude":40.73061,"longitude":-73.93524,"reserved":0,"last_update":"0001-01-01T00:00:00Z","name_a2s":"Uncletopia | New York City | 3 | Stopwatch Beta","protocol":17,"map":"cp_sunshine","folder":"tf","game":"Team Fortress","app_id":440,"player_count":0,"max_players":24,"Bots":0,"server_type":"Dedicated","server_os":"Linux","password":true,"vac":true,"version":"7723704","steam_id":85568392924742820,"keywords":["cp","nocrits","nodmgspread","uncletopia"],"game_id":440,"stv_port":27036,"stv_name":"Uncletopia | New York City | 3 | Stopwatch Beta | STV","players":null},{"server_id":16,"name":"Uncletopia | New York City | 4 | Community","name_short":"nyc-4","host":"nyc-1.us.uncletopia.com","port":27045,"enabled":true,"region":"us-east","cc":"us","latitude":40.73061,"longitude":-73.93524,"reserved":0,"last_update":"0001-01-01T00:00:00Z","name_a2s":"Uncletopia | New York City | 4 | Community","protocol":17,"map":"workshop/pl_vigil_rc9.ugc1266210012","folder":"tf","game":"Team Fortress","app_id":440,"player_count":20,"max_players":24,"Bots":0,"server_type":"Dedicated","server_os":"Linux","password":true,"vac":true,"version":"7723704","steam_id":85568392924742821,"keywords":["nocrits","nodmgspread","payload","uncletopia"],"game_id":440,"stv_port":27046,"stv_name":"Uncletopia | New York City | 4 | Community | STV","players":[{"user_id":56,"name":"Bull-Frog","steam_id":76561198260868601,"connected_time":488000000000,"state":"active","ping":78},{"user_id":6,"name":"McNamJam","steam_id":76561198028128686,"connected_time":3590000000000,"state":"active","ping":114},{"user_id":42,"name":"Robotis","steam_id":76561198255786250,"connected_time":1196000000000,"state":"active","ping":72},{"user_id":58,"name":"Luucyf3r","steam_id":76561198141820085,"connected_time":321000000000,"state":"active","ping":66},{"user_id":9,"name":"Captain Red","steam_id":76561198191587983,"connected_time":3570000000000,"state":"active","ping":94},{"user_id":10,"name":"Tarkus","steam_id":76561198115938777,"connected_time":3566000000000,"state":"active","ping":158},{"user_id":55,"name":"jerma enthusiast","steam_id":76561198359466264,"connected_time":532000000000,"state":"active","ping":78},{"user_id":53,"name":"Barry","steam_id":76561198371953939,"connected_time":663000000000,"state":"active","ping":49},{"user_id":57,"name":"fiber1","steam_id":76561198095518320,"connected_time":485000000000,"state":"active","ping":82},{"user_id":18,"name":"2019","steam_id":76561198129785792,"connected_time":3276000000000,"state":"active","ping":122},{"user_id":47,"name":"skulll","steam_id":76561198194530175,"connected_time":887000000000,"state":"active","ping":50},{"user_id":54,"name":"Enforcer Enjoyer","steam_id":76561198018654093,"connected_time":603000000000,"state":"active","ping":46},{"user_id":59,"name":"CassandraRC7 (She/her)","steam_id":76561198094123940,"connected_time":210000000000,"state":"active","ping":55},{"user_id":44,"name":"Dr. Nobotnik","steam_id":76561198357339092,"connected_time":1104000000000,"state":"active","ping":81},{"user_id":60,"name":"JUNCTION LOVER!!!!!","steam_id":76561198871755761,"connected_time":179000000000,"state":"active","ping":47},{"user_id":52,"name":"HotLatinoMale","steam_id":76561198272335425,"connected_time":667000000000,"state":"active","ping":45},{"user_id":31,"name":"robbob","steam_id":76561198137375391,"connected_time":2391000000000,"state":"active","ping":154},{"user_id":61,"name":"The Real Jetpack Jackson","steam_id":76561199009471455,"connected_time":164000000000,"state":"active","ping":102},{"user_id":62,"name":"Banana Patrick","steam_id":76561198258067237,"connected_time":123000000000,"state":"active","ping":48},{"user_id":63,"name":"PadrePockets","steam_id":76561197993251606,"connected_time":61000000000,"state":"active","ping":54}]},{"server_id":142,"name":"Uncletopia | S√£o Paulo | 1 | All Maps","name_short":"sao-1","host":"sao-1.br.uncletopia.com","port":27015,"enabled":true,"region":"sa","cc":"br","latitude":-23.533773,"longitude":-46.62529,"reserved":0,"last_update":"0001-01-01T00:00:00Z","name_a2s":"Uncletopia | S√£o Paulo | 1 | All Maps","protocol":17,"map":"pl_pier","folder":"tf","game":"Team Fortress","app_id":440,"player_count":0,"max_players":24,"Bots":0,"server_type":"Dedicated","server_os":"Linux","password":true,"vac":true,"version":"7723704","steam_id":85568392924469996,"keywords":["nocrits","nodmgspread","payload","uncletopia"],"game_id":440,"stv_port":27016,"stv_name":"Uncletopia | S√£o Paulo | 1 | All Maps | STV","players":null},{"server_id":143,"name":"Uncletopia | S√£o Paulo | 2 | All Maps","name_short":"sao-2","host":"sao-2.br.uncletopia.com","port":27015,"enabled":true,"region":"sa","cc":"br","latitude":-23.533773,"longitude":-46.62529,"reserved":0,"last_update":"0001-01-01T00:00:00Z","name_a2s":"Uncletopia | S√£o Paulo | 2 | All Maps","protocol":17,"map":"koth_viaduct","folder":"tf","game":"Team Fortress","app_id":440,"player_count":0,"max_players":24,"Bots":0,"server_type":"Dedicated","server_os":"Linux","password":true,"vac":true,"version":"7723704","steam_id":85568392924485349,"keywords":["cp","nocrits","nodmgspread","uncletopia"],"game_id":440,"stv_port":27016,"stv_name":"Uncletopia | S√£o Paulo | 2 | All Maps | STV","players":null},{"server_id":7,"name":"Uncletopia | Seattle | 1 | All Maps","name_short":"sea-1","host":"sea-1.us.uncletopia.com","port":27015,"enabled":true,"region":"us-west","cc":"us","latitude":47.608013,"longitude":-122.33517,"reserved":0,"last_update":"0001-01-01T00:00:00Z","name_a2s":"Uncletopia | Seattle | 1 | All Maps","protocol":17,"map":"cp_egypt_final","folder":"tf","game":"Team Fortress","app_id":440,"player_count":24,"max_players":24,"Bots":0,"server_type":"Dedicated","server_os":"Linux","password":true,"vac":true,"version":"7723704","steam_id":85568392924469997,"keywords":["cp","nocrits","nodmgspread","uncletopia"],"game_id":440,"stv_port":27016,"stv_name":"Uncletopia | Seattle | 1 | All Maps | STV","players":[{"user_id":240,"name":"oo","steam_id":76561198119626492,"connected_time":4790000000000,"state":"active","ping":78},{"user_id":290,"name":"SesataPomang","steam_id":76561198145133059,"connected_time":952000000000,"state":"active","ping":92},{"user_id":259,"name":"natem51","steam_id":76561198325006142,"connected_time":2989000000000,"state":"active","ping":62},{"user_id":220,"name":"mafu","steam_id":76561198028028045,"connected_time":5720000000000,"state":"active","ping":75},{"user_id":279,"name":"\u003c3","steam_id":76561198196829267,"connected_time":1575000000000,"state":"active","ping":78},{"user_id":296,"name":"huiei","steam_id":76561198073763735,"connected_time":731000000000,"state":"active","ping":65},{"user_id":299,"name":"Sol","steam_id":76561198803824764,"connected_time":588000000000,"state":"active","ping":72},{"user_id":275,"name":"Orange bench","steam_id":76561198191269339,"connected_time":1948000000000,"state":"active","ping":85},{"user_id":267,"name":"Trivia","steam_id":76561198889862851,"connected_time":2354000000000,"state":"active","ping":179},{"user_id":294,"name":"That Sounds Serious","steam_id":76561198247719128,"connected_time":779000000000,"state":"active","ping":90},{"user_id":293,"name":"MidgetFeats","steam_id":76561198044248113,"connected_time":879000000000,"state":"active","ping":43},{"user_id":298,"name":"Taste the Pain","steam_id":76561198081617990,"connected_time":686000000000,"state":"active","ping":112},{"user_id":297,"name":"Chimpish","steam_id":76561199263493270,"connected_time":718000000000,"state":"active","ping":134},{"user_id":300,"name":"Neowudan","steam_id":76561198136850867,"connected_time":576000000000,"state":"active","ping":105},{"user_id":258,"name":"Risky","steam_id":76561198231029328,"connected_time":2994000000000,"state":"active","ping":54},{"user_id":256,"name":"Sir Loincloth","steam_id":76561198033073991,"connected_time":3006000000000,"state":"active","ping":74},{"user_id":301,"name":"Buckytr","steam_id":76561198096335025,"connected_time":561000000000,"state":"active","ping":65},{"user_id":286,"name":"mu","steam_id":76561197997530228,"connected_time":1235000000000,"state":"active","ping":65},{"user_id":283,"name":"HanakoToast","steam_id":76561198045233131,"connected_time":1522000000000,"state":"active","ping":94},{"user_id":302,"name":"The Potato Romancer","steam_id":76561198204197648,"connected_time":512000000000,"state":"active","ping":82},{"user_id":288,"name":"Cuno Doesn't Care!","steam_id":76561198007372782,"connected_time":1197000000000,"state":"active","ping":70},{"user_id":270,"name":"roln","steam_id":76561198041066271,"connected_time":2276000000000,"state":"active","ping":84},{"user_id":295,"name":"Serene Salamander","steam_id":76561198001094770,"connected_time":776000000000,"state":"active","ping":87},{"user_id":303,"name":"ElShaggy","steam_id":76561198148870214,"connected_time":493000000000,"state":"active","ping":81}]},{"server_id":119,"name":"Uncletopia | Seattle | 2 | All Maps","name_short":"sea-2","host":"sea-1.us.uncletopia.com","port":27025,"enabled":true,"region":"us-west","cc":"us","latitude":47.608013,"longitude":-122.33517,"reserved":0,"last_update":"0001-01-01T00:00:00Z","name_a2s":"Uncletopia | Seattle | 2 | All Maps","protocol":17,"map":"cp_mountainlab","folder":"tf","game":"Team Fortress","app_id":440,"player_count":0,"max_players":24,"Bots":0,"server_type":"Dedicated","server_os":"Linux","password":true,"vac":true,"version":"7723704","steam_id":85568392924469998,"keywords":["cp","nocrits","nodmgspread","uncletopia"],"game_id":440,"stv_port":27026,"stv_name":"Uncletopia | Seattle | 2 | All Maps | STV","players":null},{"server_id":406,"name":"Uncletopia | Seattle | 3 | Stopwatch Beta","name_short":"sea-3","host":"sea-1.us.uncletopia.com","port":27035,"enabled":true,"region":"us-west","cc":"us","latitude":47.608013,"longitude":-122.33517,"reserved":0,"last_update":"0001-01-01T00:00:00Z","name_a2s":"Uncletopia | Seattle | 3 | Stopwatch Beta","protocol":17,"map":"cp_altitude","folder":"tf","game":"Team Fortress","app_id":440,"player_count":0,"max_players":24,"Bots":0,"server_type":"Dedicated","server_os":"Linux","password":true,"vac":false,"version":"7723704","steam_id":0,"keywords":["cp","nocrits","nodmgspread","uncletopia"],"game_id":440,"stv_port":27036,"stv_name":"Uncletopia | Seattle | 3 | Stopwatch Beta | STV","players":null},{"server_id":17,"name":"Uncletopia | San Francisco | 1 | All Maps","name_short":"sfo-1","host":"sfo-1.us.uncletopia.com","port":27015,"enabled":true,"region":"us-west","cc":"us","latitude":37.77397,"longitude":-122.4313,"reserved":0,"last_update":"0001-01-01T00:00:00Z","name_a2s":"Uncletopia | San Francisco | 1 | All Maps","protocol":17,"map":"pl_swiftwater_final1","folder":"tf","game":"Team Fortress","app_id":440,"player_count":0,"max_players":24,"Bots":0,"server_type":"Dedicated","server_os":"Linux","password":true,"vac":true,"version":"7723704","steam_id":85568392924469999,"keywords":["nocrits","nodmgspread","payload","uncletopia"],"game_id":440,"stv_port":27016,"stv_name":"Uncletopia | San Francisco | 1 | All Maps | STV","players":null},{"server_id":18,"name":"Uncletopia | San Francisco | 2 | All Maps","name_short":"sfo-2","host":"sfo-1.us.uncletopia.com","port":27025,"enabled":true,"region":"us-west","cc":"us","latitude":37.77397,"longitude":-122.4313,"reserved":0,"last_update":"0001-01-01T00:00:00Z","name_a2s":"Uncletopia | San Francisco | 2 | All Maps","protocol":17,"map":"koth_viaduct","folder":"tf","game":"Team Fortress","app_id":440,"player_count":3,"max_players":24,"Bots":0,"server_type":"Dedicated","server_os":"Linux","password":true,"vac":true,"version":"7723704","steam_id":85568392924470000,"keywords":["cp","nocrits","nodmgspread","uncletopia"],"game_id":440,"stv_port":27026,"stv_name":"Uncletopia | San Francisco | 2 | All Maps | STV","players":[{"user_id":12,"name":"The Gremlin","steam_id":76561198419066993,"connected_time":247000000000,"state":"active","ping":72},{"user_id":13,"name":"asm_ghost","steam_id":76561199205363547,"connected_time":223000000000,"state":"active","ping":59},{"user_id":14,"name":"laggy mcstab","steam_id":76561198106379962,"connected_time":168000000000,"state":"active","ping":61}]},{"server_id":19,"name":"Uncletopia | San Francisco | 3 | Stopwatch Beta","name_short":"sfo-3","host":"sfo-1.us.uncletopia.com","port":27035,"enabled":true,"region":"us-west","cc":"us","latitude":37.77397,"longitude":-122.4313,"reserved":0,"last_update":"0001-01-01T00:00:00Z","name_a2s":"Uncletopia | San Francisco | 3 | Stopwatch Beta","protocol":17,"map":"pl_pier","folder":"tf","game":"Team Fortress","app_id":440,"player_count":0,"max_players":24,"Bots":0,"server_type":"Dedicated","server_os":"Linux","password":true,"vac":true,"version":"7723704","steam_id":85568392924742824,"keywords":["nocrits","nodmgspread","payload","uncletopia"],"game_id":440,"stv_port":27036,"stv_name":"Uncletopia | San Francisco | 3 | Stopwatch Beta | STV","players":null},{"server_id":20,"name":"Uncletopia | San Francisco | 4 | Community","name_short":"sfo-4","host":"sfo-1.us.uncletopia.com","port":27045,"enabled":true,"region":"us-west","cc":"us","latitude":37.77397,"longitude":-122.4313,"reserved":0,"last_update":"0001-01-01T00:00:00Z","name_a2s":"Uncletopia | San Francisco | 4 | Community","protocol":17,"map":"koth_cascade","folder":"tf","game":"Team Fortress","app_id":440,"player_count":0,"max_players":24,"Bots":0,"server_type":"Dedicated","server_os":"Linux","password":true,"vac":true,"version":"7723704","steam_id":85568392924742826,"keywords":["cp","nocrits","nodmgspread","uncletopia"],"game_id":440,"stv_port":27046,"stv_name":"Uncletopia | San Francisco | 4 | Community | STV","players":null},{"server_id":141,"name":"Uncletopia | Sydney | 1 | All Maps","name_short":"syd-1","host":"syd-1.au.uncletopia.com","port":27015,"enabled":true,"region":"au","cc":"au","latitude":-33.865143,"longitude":151.2099,"reserved":0,"last_update":"0001-01-01T00:00:00Z","name_a2s":"","protocol":0,"map":"","folder":"","game":"","app_id":0,"player_count":0,"max_players":0,"Bots":0,"server_type":"","server_os":"","password":false,"vac":false,"version":"","steam_id":0,"keywords":null,"game_id":0,"stv_port":0,"stv_name":"","players":null},{"server_id":123,"name":"Uncletopia | Sydney | 2 | All Maps","name_short":"syd-2","host":"syd-1.au.uncletopia.com","port":27025,"enabled":true,"region":"au","cc":"au","latitude":-33.865143,"longitude":151.2099,"reserved":0,"last_update":"0001-01-01T00:00:00Z","name_a2s":"","protocol":0,"map":"","folder":"","game":"","app_id":0,"player_count":0,"max_players":0,"Bots":0,"server_type":"","server_os":"","password":false,"vac":false,"version":"","steam_id":0,"keywords":null,"game_id":0,"stv_port":0,"stv_name":"","players":null},{"server_id":395,"name":"Uncletopia | Sydney | 3 | All Maps","name_short":"syd-3","host":"syd-1.au.uncletopia.com","port":27035,"enabled":true,"region":"au","cc":"au","latitude":-33.865143,"longitude":151.2099,"reserved":0,"last_update":"0001-01-01T00:00:00Z","name_a2s":"","protocol":0,"map":"","folder":"","game":"","app_id":0,"player_count":0,"max_players":0,"Bots":0,"server_type":"","server_os":"","password":false,"vac":false,"version":"","steam_id":0,"keywords":null,"game_id":0,"stv_port":0,"stv_name":"","players":null},{"server_id":396,"name":"Uncletopia | Sydney | 4 | All Maps","name_short":"syd-4","host":"syd-1.au.uncletopia.com","port":27045,"enabled":true,"region":"au","cc":"au","latitude":-33.865143,"longitude":151.2099,"reserved":0,"last_update":"0001-01-01T00:00:00Z","name_a2s":"","protocol":0,"map":"","folder":"","game":"","app_id":0,"player_count":0,"max_players":0,"Bots":0,"server_type":"","server_os":"","password":false,"vac":false,"version":"","steam_id":0,"keywords":null,"game_id":0,"stv_port":0,"stv_name":"","players":null},{"server_id":58,"name":"Uncletopia | Sydney | 5 | Stopwatch Beta","name_short":"syd-5","host":"syd-1.au.uncletopia.com","port":27055,"enabled":true,"region":"au","cc":"au","latitude":-33.865143,"longitude":151.2099,"reserved":0,"last_update":"0001-01-01T00:00:00Z","name_a2s":"","protocol":0,"map":"","folder":"","game":"","app_id":0,"player_count":0,"max_players":0,"Bots":0,"server_type":"","server_os":"","password":false,"vac":false,"version":"","steam_id":0,"keywords":null,"game_id":0,"stv_port":0,"stv_name":"","players":null},{"server_id":59,"name":"Uncletopia | Sydney | 6 | Community","name_short":"syd-6","host":"syd-1.au.uncletopia.com","port":27065,"enabled":true,"region":"au","cc":"au","latitude":-33.865143,"longitude":151.2099,"reserved":0,"last_update":"0001-01-01T00:00:00Z","name_a2s":"","protocol":0,"map":"","folder":"","game":"","app_id":0,"player_count":0,"max_players":0,"Bots":0,"server_type":"","server_os":"","password":false,"vac":false,"version":"","steam_id":0,"keywords":null,"game_id":0,"stv_port":0,"stv_name":"","players":null},{"server_id":49,"name":"Uncletopia | Warsaw | 1 | All Maps","name_short":"waw-1","host":"waw-1.pl.uncletopia.com","port":27015,"enabled":true,"region":"eu","cc":"pl","latitude":52.2297,"longitude":21.017532,"reserved":0,"last_update":"0001-01-01T00:00:00Z","name_a2s":"Uncletopia | Warsaw | 1 | All Maps","protocol":17,"map":"koth_cascade","folder":"tf","game":"Team Fortress","app_id":440,"player_count":0,"max_players":24,"Bots":0,"server_type":"Dedicated","server_os":"Linux","password":true,"vac":true,"version":"7723704","steam_id":85568392925397850,"keywords":["cp","nocrits","nodmgspread","uncletopia"],"game_id":440,"stv_port":27016,"stv_name":"Uncletopia | Warsaw | 1 | All Maps | STV","players":null},{"server_id":50,"name":"Uncletopia | Warsaw | 2 | All Maps","name_short":"waw-2","host":"waw-1.pl.uncletopia.com","port":27025,"enabled":true,"region":"eu","cc":"pl","latitude":52.2297,"longitude":21.017532,"reserved":0,"last_update":"0001-01-01T00:00:00Z","name_a2s":"Uncletopia | Warsaw | 2 | All Maps","protocol":17,"map":"koth_viaduct","folder":"tf","game":"Team Fortress","app_id":440,"player_count":0,"max_players":24,"Bots":0,"server_type":"Dedicated","server_os":"Linux","password":true,"vac":true,"version":"7723704","steam_id":85568392925397851,"keywords":["cp","nocrits","nodmgspread","uncletopia"],"game_id":440,"stv_port":27026,"stv_name":"Uncletopia | Warsaw | 2 | All Maps | STV","players":null},{"server_id":51,"name":"Uncletopia | Warsaw | 3 | All Maps","name_short":"waw-3","host":"waw-1.pl.uncletopia.com","port":27035,"enabled":true,"region":"eu","cc":"pl","latitude":52.2297,"longitude":21.017532,"reserved":0,"last_update":"0001-01-01T00:00:00Z","name_a2s":"Uncletopia | Warsaw | 3 | All Maps","protocol":17,"map":"koth_viaduct","folder":"tf","game":"Team Fortress","app_id":440,"player_count":0,"max_players":24,"Bots":0,"server_type":"Dedicated","server_os":"Linux","password":true,"vac":true,"version":"7723704","steam_id":85568392925397852,"keywords":["cp","nocrits","nodmgspread","uncletopia"],"game_id":440,"stv_port":27036,"stv_name":"Uncletopia | Warsaw | 3 | All Maps | STV","players":null},{"server_id":52,"name":"Uncletopia | Warsaw | 4 | All Maps","name_short":"waw-4","host":"waw-1.pl.uncletopia.com","port":27045,"enabled":true,"region":"eu","cc":"pl","latitude":52.2297,"longitude":21.017532,"reserved":0,"last_update":"0001-01-01T00:00:00Z","name_a2s":"Uncletopia | Warsaw | 4 | All Maps","protocol":17,"map":"cp_mountainlab","folder":"tf","game":"Team Fortress","app_id":440,"player_count":0,"max_players":24,"Bots":0,"server_type":"Dedicated","server_os":"Linux","password":true,"vac":true,"version":"7723704","steam_id":85568392925397853,"keywords":["cp","nocrits","nodmgspread","uncletopia"],"game_id":440,"stv_port":27046,"stv_name":"Uncletopia | Warsaw | 4 | All Maps | STV","players":null},{"server_id":53,"name":"Uncletopia | Warsaw | 5 | Stopwatch Beta","name_short":"waw-5","host":"waw-1.pl.uncletopia.com","port":27055,"enabled":true,"region":"eu","cc":"pl","latitude":52.2297,"longitude":21.017532,"reserved":0,"last_update":"0001-01-01T00:00:00Z","name_a2s":"Uncletopia | Warsaw | 5 | Stopwatch Beta","protocol":17,"map":"cp_sunshine","folder":"tf","game":"Team Fortress","app_id":440,"player_count":0,"max_players":24,"Bots":0,"server_type":"Dedicated","server_os":"Linux","password":true,"vac":true,"version":"7723704","steam_id":85568392925397854,"keywords":["cp","nocrits","nodmgspread","uncletopia"],"game_id":440,"stv_port":27056,"stv_name":"Uncletopia | Warsaw | 5 | Stopwatch Beta | STV","players":null},{"server_id":54,"name":"Uncletopia | Warsaw | 6 | Community","name_short":"waw-6","host":"waw-1.pl.uncletopia.com","port":27065,"enabled":true,"region":"eu","cc":"pl","latitude":52.2297,"longitude":21.017532,"reserved":0,"last_update":"0001-01-01T00:00:00Z","name_a2s":"Uncletopia | Warsaw | 6 | Community","protocol":17,"map":"workshop/koth_slaughter_rc1.ugc1712845210","folder":"tf","game":"Team Fortress","app_id":440,"player_count":0,"max_players":24,"Bots":0,"server_type":"Dedicated","server_os":"Linux","password":true,"vac":true,"version":"7723704","steam_id":85568392925397856,"keywords":["cp","nocrits","nodmgspread","uncletopia"],"game_id":440,"stv_port":27066,"stv_name":"Uncletopia | Warsaw | 6 | Community | STV","players":null}]}