{"status":true,"message":"","result":[{"server_id":9,"name":"Uncletopia | Atlanta | 1 | All Maps","name_short":"atl-1","host":"atl-1.us.uncletopia.com","port":27015,"enabled":true,"region":"us-east","cc":"us","latitude":33.753746,"longitude":-84.38633,"reserved":0,"last_update":"0001-01-01T00:00:00Z","name_a2s":"Uncletopia | Atlanta | 1 | All Maps","protocol":17,"map":"pl_frontier_final","folder":"tf","game":"Team Fortress","app_id":440,"player_count":24,"max_players":24,"Bots":0,"server_type":"Dedicated","server_os":"Linux","password":true,"vac":true,"version":"7742253","steam_id":85568392924469982,"keywords":["nocrits","nodmgspread","payload","uncletopia"],"game_id":440,"stv_port":27016,"stv_name":"Uncletopia | Atlanta | 1 | All Maps | STV","players":[{"user_id":168,"name":"Pennis the Menace","steam_id":76561198254878037,"connected_time":2129000000000,"state":"active","ping":81},{"user_id":169,"name":"bee gamer","steam_id":76561198092135570,"connected_time":2110000000000,"state":"active","ping":60},{"user_id":192,"name":"woman ‚Åß‚Åß gaming","steam_id":76561198169010634,"connected_time":567000000000,"state":"active","ping":77},{"user_id":159,"name":"rainingmudkips","steam_id":76561198018010854,"connected_time":2863000000000,"state":"active","ping":89},{"user_id":104,"name":"yomokha lft","steam_id":76561198063175935,"connected_time":9516000000000,"state":"active","ping":58},{"user_id":194,"name":"Assitins","steam_id":76561198041572892,"connected_time":332000000000,"state":"active","ping":71},{"user_id":161,"name":"ATL1 | SparkStorm","steam_id":76561198095817025,"connected_time":2813000000000,"state":"active","ping":37},{"user_id":158,"name":"Lost (15)","steam_id":76561198093713427,"connected_time":2869000000000,"state":"active","ping":81},{"user_id":156,"name":"the-willy12","steam_id":76561199145029672,"connected_time":3399000000000,"state":"active","ping":87},{"user_id":187,"name":"Samuel Adams Miller Lite","steam_id":76561198112188509,"connected_time":902000000000,"state":"active","ping":69},{"user_id":181,"name":"greengun","steam_id":76561198134373465,"connected_time":1298000000000,"state":"active","ping":70},{"user_id":179,"name":"ATL1 | Lancer Fan Club","steam_id":76561198355495948,"connected_time":1426000000000,"state":"active","ping":83},{"user_id":177,"name":"Mage","steam_id":76561198285026879,"connected_time":1474000000000,"state":"active","ping":76},{"user_id":172,"name":"Uung","steam_id":76561198183956731,"connected_time":1935000000000,"state":"active","ping":76},{"user_id":193,"name":"ATL1 | Vee (very holly \u0026 jolly)","steam_id":76561198330432889,"connected_time":383000000000,"state":"active","ping":62},{"user_id":142,"name":"‚òÖ‚òÖ‚òÜ‚òÜ‚òÜ","steam_id":76561198198984282,"connected_time":5347000000000,"state":"active","ping":78},{"user_id":144,"name":"hi","steam_id":76561199441787165,"connected_time":4409000000000,"state":"active","ping":75},{"user_id":173,"name":"Alkivo","steam_id":76561198315999766,"connected_time":1896000000000,"state":"active","ping":81},{"user_id":167,"name":"Mania13","steam_id":76561198334886955,"connected_time":2220000000000,"state":"active","ping":90},{"user_id":124,"name":"boobies.","steam_id":76561198197058638,"connected_time":6532000000000,"state":"active","ping":64},{"user_id":184,"name":"GiddyCanada","steam_id":76561198329295909,"connected_time":945000000000,"state":"active","ping":76},{"user_id":195,"name":"DRSZRG","steam_id":76561198838757422,"connected_time":250000000000,"state":"active","ping":79},{"user_id":113,"name":"new year new personality","steam_id":76561198016121536,"connected_time":7988000000000,"state":"active","ping":82},{"user_id":165,"name":"srv","steam_id":76561198026589960,"connected_time":2526000000000,"state":"active","ping":70}]},{"server_id":400,"name":"Uncletopia | Atlanta | 3 | Stopwatch Beta","name_short":"atl-3","host":"atl-1.us.uncletopia.com","port":27035,"enabled":true,"region":"us-east","cc":"us","latitude":33.753746,"longitude":-84.38633,"reserved":0,"last_update":"0001-01-01T00:00:00Z","name_a2s":"Uncletopia | Atlanta | 3 | Stopwatch Beta","protocol":17,"map":"workshop/pl_badwater_pro_v12.ugc2142942074","folder":"tf","game":"Team Fortress","app_id":440,"player_count":0,"max_players":24,"Bots":0,"server_type":"Dedicated","server_os":"Linux","password":true,"vac":true,"version":"7742253","steam_id":85568392924515187,"keywords":["nocrits","nodmgspread","payload","uncletopia"],"game_id":440,"stv_port":27036,"stv_name":"Uncletopia | Atlanta | 3 | Stopwatch Beta | STV","players":null},{"server_id":401,"name":"Uncletopia | Atlanta | 4 | No Payload","name_short":"atl-4","host":"atl-1.us.uncletopia.com","port":27045,"enabled":true,"region":"us-east","cc":"us","latitude":33.753746,"longitude":-84.38633,"reserved":0,"last_update":"0001-01-01T00:00:00Z","name_a2s":"Uncletopia | Atlanta | 4 | No Payload","protocol":17,"map":"pl_pier","folder":"tf","game":"Team Fortress","app_id":440,"player_count":0,"max_players":24,"Bots":0,"server_type":"Dedicated","server_os":"Linux","password":true,"vac":true,"version":"7723704","steam_id":85568392924515188,"keywords":["nocrits","nodmgspread","payload","uncletopia"],"game_id":440,"stv_port":27046,"stv_name":"Uncletopia | Atlanta | 4 | No Payload | STV","players":null},{"server_id":2,"name":"Uncletopia | Chicago | 1 | All Maps","name_short":"chi-1","host":"chi-1.us.uncletopia.com","port":27015,"enabled":true,"region":"us-central","cc":"us","latitude":41.881832,"longitude":-87.62318,"reserved":0,"last_update":"0001-01-01T00:00:00Z","name_a2s":"Uncletopia | Chicago | 1 | All Maps","protocol":17,"map":"pl_barnblitz","folder":"tf","game":"Team Fortress","app_id":440,"player_count":24,"max_players":24,"Bots":0,"server_type":"Dedicated","server_os":"Linux","password":true,"vac":true,"version":"7742253","steam_id":85568392924469984,"keywords":["nocrits","nodmgspread","payload","uncletopia"],"game_id":440,"stv_port":27016,"stv_name":"Uncletopia | Chicago | 1 | All Maps | STV","players":[{"user_id":326,"name":"new years forecast","steam_id":76561198042243083,"connected_time":874000000000,"state":"active","ping":62},{"user_id":333,"name":"Chuburn","steam_id":76561199078803862,"connected_time":535000000000,"state":"active","ping":67},{"user_id":340,"name":"Papyrus","steam_id":76561198848930174,"connected_time":103000000000,"state":"active","ping":71},{"user_id":322,"name":"Mr. Call You Back","steam_id":76561198025172811,"connected_time":1056000000000,"state":"active","ping":102},{"user_id":312,"name":"I sometimes play pyro","steam_id":76561198421760112,"connected_time":1286000000000,"state":"active","ping":53},{"user_id":314,"name":"Yonn","steam_id":76561198274242643,"connected_time":1264000000000,"state":"active","ping":67},{"user_id":336,"name":"The Krinkler","steam_id":76561198020308956,"connected_time":318000000000,"state":"active","ping":61},{"user_id":308,"name":"Sentry Gun (Festive American)","steam_id":76561198313770809,"connected_time":1999000000000,"state":"active","ping":52},{"user_id":315,"name":"Yimi","steam_id":76561198097984345,"connected_time":1243000000000,"state":"active","ping":86},{"user_id":341,"name":"pim","steam_id":76561198095163441,"connected_time":99000000000,"state":"active","ping":72},{"user_id":320,"name":"Crayfry","steam_id":76561198146525237,"connected_time":1193000000000,"state":"active","ping":55},{"user_id":335,"name":"Mr. Ruckus","steam_id":76561198339566190,"connected_time":473000000000,"state":"active","ping":81},{"user_id":303,"name":"SomeCozyKid","steam_id":76561198086113234,"connected_time":2131000000000,"state":"active","ping":52},{"user_id":342,"name":"Quansen","steam_id":76561198151594550,"connected_time":97000000000,"state":"active","ping":58},{"user_id":310,"name":"pickup truck with huge honks","steam_id":76561198111447214,"connected_time":1535000000000,"state":"active","ping":68},{"user_id":309,"name":"Rukks","steam_id":76561197993918954,"connected_time":1711000000000,"state":"active","ping":70},{"user_id":321,"name":"DuckKey","steam_id":76561198904477889,"connected_time":1193000000000,"state":"active","ping":58},{"user_id":332,"name":"TallBit","steam_id":76561199059748976,"connected_time":578000000000,"state":"active","ping":56},{"user_id":295,"name":"Terium","steam_id":76561198331234327,"connected_time":2863000000000,"state":"active","ping":42},{"user_id":329,"name":"Kiss Master","steam_id":76561198289572271,"connected_time":823000000000,"state":"active","ping":68},{"user_id":331,"name":"CAdaverOusPRophet","steam_id":76561198045304110,"connected_time":641000000000,"state":"active","ping":46},{"user_id":297,"name":"Merchants of Misery","steam_id":76561199188142396,"connected_time":2590000000000,"state":"active","ping":82},{"user_id":318,"name":"Blue Collar","steam_id":76561198354781722,"connected_time":1210000000000,"state":"active","ping":91},{"user_id":338,"name":"[slug]","steam_id":76561197989592178,"connected_time":124000000000,"state":"active","ping":66}]},{"server_id":106,"name":"Uncletopia | Chicago | 2 | All Maps","name_short":"chi-2","host":"chi-1.us.uncletopia.com","port":27025,"enabled":true,"region":"us-central","cc":"us","latitude":41.881832,"longitude":-87.62318,"reserved":0,"last_update":"0001-01-01T00:00:00Z","name_a2s":"Uncletopia | Chicago | 2 | All Maps","protocol":17,"map":"pl_wutville_event","folder":"tf","game":"Team Fortress","app_id":440,"player_count":24,"max_players":24,"Bots":0,"server_type":"Dedicated","server_os":"Linux","password":true,"vac":true,"version":"7742253","steam_id":85568392924469985,"keywords":["nocrits","nodmgspread","payload","uncletopia"],"game_id":440,"stv_port":27026,"stv_name":"Uncletopia | Chicago | 2 | All Maps | STV","players":[{"user_id":59,"name":"Bobato Chaps","steam_id":76561198065103552,"connected_time":14587000000000,"state":"active","ping":51},{"user_id":172,"name":"A Successful Businessman","steam_id":76561198031611806,"connected_time":4828000000000,"state":"active","ping":61},{"user_id":243,"name":"vdub63","steam_id":76561198093443689,"connected_time":44000000000,"state":"active","ping":80},{"user_id":174,"name":"WhippedHook","steam_id":76561198069581138,"connected_time":4780000000000,"state":"active","ping":65},{"user_id":210,"name":"Snow‚òÜ","steam_id":76561198031290573,"connected_time":2011000000000,"state":"active","ping":56},{"user_id":231,"name":"SussusAmogus","steam_id":76561198870275051,"connected_time":795000000000,"state":"active","ping":62},{"user_id":219,"name":"Tele Co","steam_id":76561198041909269,"connected_time":1677000000000,"state":"active","ping":91},{"user_id":182,"name":"bad dragon Lube","steam_id":76561199068636836,"connected_time":4421000000000,"state":"active","ping":49},{"user_id":230,"name":"Unionized Gnoll","steam_id":76561198005577021,"connected_time":896000000000,"state":"active","ping":78},{"user_id":232,"name":"Shhh Whisper","steam_id":76561198046027406,"connected_time":789000000000,"state":"active","ping":75},{"user_id":240,"name":"Menace to Sobriety","steam_id":76561198245103000,"connected_time":206000000000,"state":"active","ping":61},{"user_id":191,"name":"Rex","steam_id":76561198138365053,"connected_time":3616000000000,"state":"active","ping":132},{"user_id":145,"name":"Furry Saul Goodman","steam_id":76561198069580305,"connected_time":6477000000000,"state":"active","ping":47},{"user_id":238,"name":"summerof69","steam_id":76561198069049410,"connected_time":249000000000,"state":"active","ping":46},{"user_id":202,"name":"Ronin Grinch","steam_id":76561198041439581,"connected_time":2514000000000,"state":"active","ping":69},{"user_id":244,"name":"Room","steam_id":76561199174579733,"connected_time":4000000000,"state":"spawning","ping":69},{"user_id":225,"name":"kablong","steam_id":76561199094392047,"connected_time":1246000000000,"state":"active","ping":77},{"user_id":241,"name":"brian 2023","steam_id":76561198109901138,"connected_time":205000000000,"state":"active","ping":66},{"user_id":195,"name":"ÔºîÔºê Ôº¶Ôº∞Ôº≥","steam_id":76561198272394965,"connected_time":3044000000000,"state":"active","ping":145},{"user_id":242,"name":"Bassman","steam_id":76561198083440914,"connected_time":188000000000,"state":"active","ping":74},{"user_id":236,"name":"YellerImp","steam_id":76561199221805167,"connected_time":437000000000,"state":"active","ping":42},{"user_id":198,"name":"catboy phroliax","steam_id":76561198207075529,"connected_time":2960000000000,"state":"active","ping":94},{"user_id":167,"name":"Ether","steam_id":76561198054806528,"connected_time":5222000000000,"state":"active","ping":58},{"user_id":217,"name":"jstn","steam_id":76561198845283665,"connected_time":1747000000000,"state":"active","ping":71}]},{"server_id":402,"name":"Uncletopia | Chicago | 3 | All Maps","name_short":"chi-3","host":"chi-1.us.uncletopia.com","port":27035,"enabled":true,"region":"us-central","cc":"us","latitude":41.881832,"longitude":-87.62318,"reserved":0,"last_update":"0001-01-01T00:00:00Z","name_a2s":"Uncletopia | Chicago | 3 | All Maps","protocol":17,"map":"pl_upward","folder":"tf","game":"Team Fortress","app_id":440,"player_count":22,"max_players":24,"Bots":0,"server_type":"Dedicated","server_os":"Linux","password":true,"vac":true,"version":"7742253","steam_id":85568392924515191,"keywords":["nocrits","nodmgspread","payload","uncletopia"],"game_id":440,"stv_port":27036,"stv_name":"Uncletopia | Chicago | 3 | All Maps | STV","players":[{"user_id":132,"name":"kametro4","steam_id":76561198835430429,"connected_time":2007000000000,"state":"active","ping":88},{"user_id":111,"name":"Gravee","steam_id":76561197999283582,"connected_time":2885000000000,"state":"active","ping":35},{"user_id":157,"name":"LerN","steam_id":76561198083463877,"connected_time":124000000000,"state":"active","ping":46},{"user_id":159,"name":"brn","steam_id":76561198118211523,"connected_time":30000000000,"state":"active","ping":58},{"user_id":153,"name":"Do Moose go Moo?","steam_id":76561198073550620,"connected_time":455000000000,"state":"active","ping":49},{"user_id":154,"name":"Grayo","steam_id":76561198059652623,"connected_time":431000000000,"state":"active","ping":58},{"user_id":112,"name":"Jrodmpeg","steam_id":76561198046574236,"connected_time":2880000000000,"state":"active","ping":63},{"user_id":123,"name":"Hogan's Castle","steam_id":76561199158397833,"connected_time":2592000000000,"state":"active","ping":70},{"user_id":144,"name":"Sigiferd","steam_id":76561198148788110,"connected_time":1161000000000,"state":"active","ping":123},{"user_id":58,"name":"Assilio","steam_id":76561198371102414,"connected_time":8135000000000,"state":"active","ping":67},{"user_id":152,"name":"WhiteRushinBear","steam_id":76561198037953834,"connected_time":510000000000,"state":"active","ping":60},{"user_id":148,"name":"The Escaper","steam_id":76561198850419297,"connected_time":710000000000,"state":"active","ping":67},{"user_id":135,"name":"Antifa Alligator","steam_id":76561197988170816,"connected_time":1607000000000,"state":"active","ping":47},{"user_id":75,"name":"Horus","steam_id":76561198166215370,"connected_time":5555000000000,"state":"active","ping":94},{"user_id":145,"name":"caption cool","steam_id":76561197990612056,"connected_time":1077000000000,"state":"active","ping":47},{"user_id":134,"name":"Heroofchaos","steam_id":76561199106660090,"connected_time":1970000000000,"state":"active","ping":69},{"user_id":147,"name":"bon gripper","steam_id":76561198090074621,"connected_time":886000000000,"state":"active","ping":64},{"user_id":158,"name":"‚àÄ…ê","steam_id":76561198139718219,"connected_time":66000000000,"state":"active","ping":66},{"user_id":160,"name":"womp","steam_id":76561198180951431,"connected_time":8000000000,"state":"active","ping":104},{"user_id":141,"name":"GuyGoom","steam_id":76561198254522178,"connected_time":1205000000000,"state":"active","ping":56},{"user_id":156,"name":"self sufficient kitten","steam_id":76561197960592612,"connected_time":245000000000,"state":"active","ping":90},{"user_id":143,"name":"ChebJeb","steam_id":76561198981377081,"connected_time":1196000000000,"state":"active","ping":65}]},{"server_id":403,"name":"Uncletopia | Chicago | 4 | All Maps","name_short":"chi-4","host":"chi-1.us.uncletopia.com","port":27045,"enabled":true,"region":"us-central","cc":"us","latitude":41.881832,"longitude":-87.62318,"reserved":0,"last_update":"0001-01-01T00:00:00Z","name_a2s":"Uncletopia | Chicago | 4 | All Maps","protocol":17,"map":"koth_lakeside_final","folder":"tf","game":"Team Fortress","app_id":440,"player_count":0,"max_players":24,"Bots":0,"server_type":"Dedicated","server_os":"Linux","password":true,"vac":true,"version":"7742253","steam_id":85568392924515193,"keywords":["cp","nocrits","nodmgspread","uncletopia"],"game_id":440,"stv_port":27046,"stv_name":"Uncletopia | Chicago | 4 | All Maps | STV","players":null},{"server_id":36,"name":"Uncletopia | Chicago | 5 | All Maps","name_short":"chi-5","host":"chi-2.us.uncletopia.com","port":27015,"enabled":true,"region":"us-central","cc":"us","latitude":41.881832,"longitude":-87.62318,"reserved":0,"last_update":"0001-01-01T00:00:00Z","name_a2s":"Uncletopia | Chicago | 5 | All Maps","protocol":17,"map":"koth_highpass","folder":"tf","game":"Team Fortress","app_id":440,"player_count":1,"max_players":24,"Bots":0,"server_type":"Dedicated","server_os":"Linux","password":true,"vac":true,"version":"7742253","steam_id":85568392924866362,"keywords":["cp","nocrits","nodmgspread","uncletopia"],"game_id":440,"stv_port":27016,"stv_name":"Uncletopia | Chicago | 5 | All Maps | STV","players":[{"user_id":8,"name":"mintongryphon","steam_id":76561199427146067,"connected_time":205000000000,"state":"active","ping":64}]},{"server_id":37,"name":"Uncletopia | Chicago | 6 | All Maps","name_short":"chi-6","host":"chi-2.us.uncletopia.com","port":27025,"enabled":true,"region":"us-central","cc":"us","latitude":41.881832,"longitude":-87.62318,"reserved":0,"last_update":"0001-01-01T00:00:00Z","name_a2s":"Uncletopia | Chicago | 6 | All Maps","protocol":17,"map":"pl_pier","folder":"tf","game":"Team Fortress","app_id":440,"player_count":24,"max_players":24,"Bots":0,"server_type":"Dedicated","server_os":"Linux","password":true,"vac":true,"version":"7742253","steam_id":85568392924866363,"keywords":["nocrits","nodmgspread","payload","uncletopia"],"game_id":440,"stv_port":27026,"stv_name":"Uncletopia | Chicago | 6 | All Maps | STV","players":[{"user_id":32,"name":"Friend","steam_id":76561198156746320,"connected_time":3322000000000,"state":"active","ping":43},{"user_id":58,"name":"the bailey","steam_id":76561198273513257,"connected_time":574000000000,"state":"active","ping":48},{"user_id":19,"name":"GW4D","steam_id":76561198268791283,"connected_time":3571000000000,"state":"active","ping":105},{"user_id":13,"name":"Zin","steam_id":76561198079763004,"connected_time":3852000000000,"state":"active","ping":75},{"user_id":15,"name":"Weshmek","steam_id":76561198009950743,"connected_time":3739000000000,"state":"active","ping":58},{"user_id":16,"name":"AmirKhaan","steam_id":76561198992403254,"connected_time":3710000000000,"state":"active","ping":73},{"user_id":17,"name":"catgirl giantess in heat","steam_id":76561198439042583,"connected_time":3633000000000,"state":"active","ping":84},{"user_id":18,"name":"Kinbo2487","steam_id":76561198184714198,"connected_time":3607000000000,"state":"active","ping":72},{"user_id":20,"name":"Sticky","steam_id":76561198031581547,"connected_time":3470000000000,"state":"active","ping":90},{"user_id":40,"name":"malkshake, flattener","steam_id":76561198031977478,"connected_time":2944000000000,"state":"active","ping":57},{"user_id":55,"name":"The Jouch","steam_id":76561198199003522,"connected_time":904000000000,"state":"active","ping":69},{"user_id":53,"name":"Phantom_03","steam_id":76561198217929829,"connected_time":1048000000000,"state":"active","ping":99},{"user_id":44,"name":"Spazzls","steam_id":76561198075224361,"connected_time":2568000000000,"state":"active","ping":76},{"user_id":60,"name":"BirdsEatSeeds","steam_id":76561198216002355,"connected_time":287000000000,"state":"active","ping":79},{"user_id":39,"name":"blink_137","steam_id":76561198375970016,"connected_time":3043000000000,"state":"active","ping":85},{"user_id":49,"name":"Kyot","steam_id":76561198059297868,"connected_time":1978000000000,"state":"active","ping":60},{"user_id":62,"name":"moodi catgirl","steam_id":76561198124028045,"connected_time":81000000000,"state":"active","ping":67},{"user_id":61,"name":"nhbiker","steam_id":76561198081277675,"connected_time":209000000000,"state":"active","ping":55},{"user_id":46,"name":"Cap N' Crunch","steam_id":76561198917309036,"connected_time":2227000000000,"state":"active","ping":56},{"user_id":50,"name":"MR.meeseeks","steam_id":76561198294943420,"connected_time":1888000000000,"state":"active","ping":79},{"user_id":54,"name":"Drakehalo1","steam_id":76561198091670687,"connected_time":1032000000000,"state":"active","ping":79},{"user_id":59,"name":"shadow6","steam_id":76561197979807910,"connected_time":478000000000,"state":"active","ping":163},{"user_id":63,"name":"Quietsharp","steam_id":76561198277968438,"connected_time":53000000000,"state":"active","ping":106}]},{"server_id":38,"name":"Uncletopia | Chicago | 7 | Stopwatch Beta","name_short":"chi-7","host":"chi-2.us.uncletopia.com","port":27035,"enabled":true,"region":"us-central","cc":"us","latitude":41.881832,"longitude":-87.62318,"reserved":0,"last_update":"0001-01-01T00:00:00Z","name_a2s":"Uncletopia | Chicago | 7 | Stopwatch Beta","protocol":17,"map":"workshop/koth_ashville_final.ugc2130459942","folder":"tf","game":"Team Fortress","app_id":440,"player_count":0,"max_players":24,"Bots":0,"server_type":"Dedicated","server_os":"Linux","password":true,"vac":true,"version":"7742253","steam_id":85568392924866364,"keywords":["cp","nocrits","nodmgspread","uncletopia"],"game_id":440,"stv_port":27036,"stv_name":"Uncletopia | Chicago | 7 | Stopwatch Beta | STV","players":null},{"server_id":39,"name":"Uncletopia | Chicago | 8 | Community","name_short":"chi-8","host":"chi-2.us.uncletopia.com","port":27045,"enabled":true,"region":"us-central","cc":"us","latitude":41.881832,"longitude":-87.62318,"reserved":0,"last_update":"0001-01-01T00:00:00Z","name_a2s":"Uncletopia | Chicago | 8 | Community","protocol":17,"map":"workshop/cp_reckoner_rc6.ugc674719999","folder":"tf","game":"Team Fortress","app_id":440,"player_count":22,"max_players":24,"Bots":0,"server_type":"Dedicated","server_os":"Linux","password":true,"vac":true,"version":"7742253","steam_id":85568392924866365,"keywords":["cp","nocrits","nodmgspread","uncletopia"],"game_id":440,"stv_port":27046,"stv_name":"Uncletopia | Chicago | 8 | Community | STV","players":[{"user_id":15,"name":"retro_bit[|87 f.s.","steam_id":76561199070926075,"connected_time":1165000000000,"state":"active","ping":88},{"user_id":6,"name":"Mirari","steam_id":76561198126889358,"connected_time":2053000000000,"state":"active","ping":65},{"user_id":28,"name":"the gun spy master","steam_id":76561199151014787,"connected_time":408000000000,"state":"active","ping":153},{"user_id":10,"name":"AB24","steam_id":76561199080017254,"connected_time":1602000000000,"state":"active","ping":84},{"user_id":20,"name":"Redbows22","steam_id":76561199452479390,"connected_time":907000000000,"state":"active","ping":80},{"user_id":46,"name":"Kzjytsugn","steam_id":76561198130241974,"connected_time":28000000000,"state":"active","ping":103},{"user_id":33,"name":"Inevitable","steam_id":76561198210050169,"connected_time":351000000000,"state":"active","ping":60},{"user_id":17,"name":"Missing Minus","steam_id":76561198120822928,"connected_time":1145000000000,"state":"active","ping":60},{"user_id":18,"name":"0fxsdfgp","steam_id":76561199082610233,"connected_time":1112000000000,"state":"active","ping":57},{"user_id":24,"name":"INKED!","steam_id":76561198208926572,"connected_time":460000000000,"state":"active","ping":72},{"user_id":23,"name":"Zoro01","steam_id":76561198407989540,"connected_time":699000000000,"state":"active","ping":108},{"user_id":25,"name":"MashFox","steam_id":76561198050924127,"connected_time":452000000000,"state":"active","ping":110},{"user_id":26,"name":"Im fast as fuck Boi ( ¬∞‚ñ°¬∞)","steam_id":76561199068745281,"connected_time":449000000000,"state":"active","ping":131},{"user_id":27,"name":"MintyPawz","steam_id":76561198111430103,"connected_time":435000000000,"state":"active","ping":83},{"user_id":29,"name":"uhooter","steam_id":76561198007829078,"connected_time":369000000000,"state":"active","ping":55},{"user_id":34,"name":"jr_rusty","steam_id":76561198313937899,"connected_time":244000000000,"state":"active","ping":181},{"user_id":45,"name":"TV","steam_id":76561198177326926,"connected_time":74000000000,"state":"active","ping":93},{"user_id":32,"name":"Sieglinde","steam_id":76561199195104977,"connected_time":356000000000,"state":"active","ping":77},{"user_id":41,"name":"Fivestar165","steam_id":76561198119491452,"connected_time":128000000000,"state":"active","ping":103},{"user_id":38,"name":"Blitzy","steam_id":76561198149472890,"connected_time":169000000000,"state":"active","ping":72},{"user_id":40,"name":"üÖúüÖîüÖîüÖöüÖ¢üÖ£üÖî\ufffd\ufffd\ufffd","steam_id":76561197999748343,"connected_time":161000000000,"state":"active","ping":65},{"user_id":44,"name":"Andrew","steam_id":76561198070615190,"connected_time":106000000000,"state":"active","ping":60}]},{"server_id":8,"name":"Uncletopia | Dallas | 1 | All Maps","name_short":"dal-1","host":"dal-1.us.uncletopia.com","port":27015,"enabled":true,"region":"us-central","cc":"us","latitude":32.779167,"longitude":-96.80889,"reserved":0,"last_update":"0001-01-01T00:00:00Z","name_a2s":"Uncletopia | Dallas | 1 | All Maps","protocol":17,"map":"cp_steel","folder":"tf","game":"Team Fortress","app_id":440,"player_count":24,"max_players":24,"Bots":0,"server_type":"Dedicated","server_os":"Linux","password":true,"vac":true,"version":"7742253","steam_id":85568392924469986,"keywords":["cp","nocrits","nodmgspread","uncletopia"],"game_id":440,"stv_port":27016,"stv_name":"Uncletopia | Dallas | 1 | All Maps | STV","players":[{"user_id":195,"name":"Dogburn","steam_id":76561198832459732,"connected_time":440000000000,"state":"active","ping":53},{"user_id":162,"name":"The Prankster‚Ñ¢","steam_id":76561199123285878,"connected_time":2601000000000,"state":"active","ping":83},{"user_id":165,"name":"Furious George","steam_id":76561198405111646,"connected_time":2296000000000,"state":"active","ping":75},{"user_id":198,"name":"Large Man","steam_id":76561198880396651,"connected_time":113000000000,"state":"active","ping":86},{"user_id":163,"name":"Faust main","steam_id":76561198971799149,"connected_time":2305000000000,"state":"active","ping":73},{"user_id":177,"name":"Vivzen","steam_id":76561198972619900,"connected_time":1349000000000,"state":"active","ping":45},{"user_id":194,"name":"mbell1199","steam_id":76561198827517736,"connected_time":523000000000,"state":"active","ping":47},{"user_id":168,"name":"Mad Cow‚Äª","steam_id":76561198132498594,"connected_time":1656000000000,"state":"active","ping":73},{"user_id":181,"name":"roll of duct tape","steam_id":76561198248148760,"connected_time":840000000000,"state":"active","ping":80},{"user_id":178,"name":"‡∂ûprofessional lesbian cowgirl","steam_id":76561199172206856,"connected_time":1187000000000,"state":"active","ping":42},{"user_id":184,"name":"deech","steam_id":76561198066429444,"connected_time":762000000000,"state":"active","ping":86},{"user_id":180,"name":"Manly Emerald","steam_id":76561198245838476,"connected_time":1076000000000,"state":"active","ping":56},{"user_id":166,"name":"Goretron","steam_id":76561198001320198,"connected_time":2284000000000,"state":"active","ping":130},{"user_id":153,"name":"cdoy","steam_id":76561198847749278,"connected_time":3426000000000,"state":"active","ping":45},{"user_id":185,"name":"KatyAnna","steam_id":76561197992684543,"connected_time":761000000000,"state":"active","ping":79},{"user_id":191,"name":"anthonyperez6543","steam_id":76561199367988161,"connected_time":567000000000,"state":"active","ping":232},{"user_id":186,"name":"Fierian","steam_id":76561198132771619,"connected_time":760000000000,"state":"active","ping":81},{"user_id":169,"name":"G. Howard Dee","steam_id":76561198058382812,"connected_time":1645000000000,"state":"active","ping":69},{"user_id":172,"name":"Polpetta777","steam_id":76561198044331477,"connected_time":1598000000000,"state":"active","ping":86},{"user_id":175,"name":"Marth","steam_id":76561198079462516,"connected_time":1526000000000,"state":"active","ping":83},{"user_id":187,"name":"Merconium","steam_id":76561197960551851,"connected_time":741000000000,"state":"active","ping":78},{"user_id":188,"name":"Elias","steam_id":76561198106431732,"connected_time":738000000000,"state":"active","ping":78},{"user_id":115,"name":"Mcfighter2","steam_id":76561198168073956,"connected_time":5085000000000,"state":"active","ping":72},{"user_id":197,"name":"Braixen","steam_id":76561198354314389,"connected_time":283000000000,"state":"active","ping":84}]},{"server_id":108,"name":"Uncletopia | Dallas | 2 | All Maps","name_short":"dal-2","host":"dal-1.us.uncletopia.com","port":27025,"enabled":true,"region":"us-central","cc":"us","latitude":32.779167,"longitude":-96.80889,"reserved":0,"last_update":"0001-01-01T00:00:00Z","name_a2s":"Uncletopia | Dallas | 2 | All Maps","protocol":17,"map":"pl_borneo","folder":"tf","game":"Team Fortress","app_id":440,"player_count":24,"max_players":24,"Bots":0,"server_type":"Dedicated","server_os":"Linux","password":true,"vac":true,"version":"7742253","steam_id":85568392924469988,"keywords":["nocrits","nodmgspread","payload","uncletopia"],"game_id":440,"stv_port":27026,"stv_name":"Uncletopia | Dallas | 2 | All Maps | STV","players":[{"user_id":108,"name":"Derply","steam_id":76561198871211642,"connected_time":2508000000000,"state":"active","ping":110},{"user_id":149,"name":"TastyWheat","steam_id":76561198855061918,"connected_time":471000000000,"state":"active","ping":108},{"user_id":139,"name":"Frost","steam_id":76561198272014381,"connected_time":1568000000000,"state":"active","ping":83},{"user_id":128,"name":"Harufloofer","steam_id":76561199084506827,"connected_time":1865000000000,"state":"active","ping":33},{"user_id":161,"name":"pablo","steam_id":76561198395577807,"connected_time":49000000000,"state":"active","ping":79},{"user_id":151,"name":"Wolfman","steam_id":76561198095264646,"connected_time":399000000000,"state":"active","ping":66},{"user_id":147,"name":"Glanderson booper","steam_id":76561198021223747,"connected_time":682000000000,"state":"active","ping":116},{"user_id":118,"name":"Mr.blonde","steam_id":76561198876922914,"connected_time":2003000000000,"state":"active","ping":154},{"user_id":152,"name":"FightyPNW","steam_id":76561198981808810,"connected_time":325000000000,"state":"active","ping":102},{"user_id":153,"name":"mr.edderkopper","steam_id":76561198152614478,"connected_time":236000000000,"state":"active","ping":102},{"user_id":140,"name":"YungKeet","steam_id":76561198293854963,"connected_time":1523000000000,"state":"active","ping":59},{"user_id":154,"name":"Orc_estrion","steam_id":76561198210943347,"connected_time":231000000000,"state":"active","ping":75},{"user_id":155,"name":"TATARA","steam_id":76561199098759517,"connected_time":228000000000,"state":"active","ping":135},{"user_id":145,"name":"‚ú∑sœÅ—èŒπn–∫l—î—ï‚ú∑","steam_id":76561198055388785,"connected_time":863000000000,"state":"active","ping":84},{"user_id":142,"name":"Void","steam_id":76561198308290211,"connected_time":1201000000000,"state":"active","ping":92},{"user_id":86,"name":"The Punk","steam_id":76561198079451856,"connected_time":4288000000000,"state":"active","ping":72},{"user_id":143,"name":"ink biscuit","steam_id":76561198927983566,"connected_time":1198000000000,"state":"active","ping":173},{"user_id":156,"name":"amnyak","steam_id":76561198165831950,"connected_time":222000000000,"state":"active","ping":88},{"user_id":157,"name":"Soggy.burrito14","steam_id":76561198066249669,"connected_time":205000000000,"state":"active","ping":84},{"user_id":125,"name":"plot4a_plan","steam_id":76561199165158814,"connected_time":1938000000000,"state":"active","ping":54},{"user_id":158,"name":"-W3E- grim10465","steam_id":76561198045698581,"connected_time":171000000000,"state":"active","ping":75},{"user_id":160,"name":"Sushee","steam_id":76561197997031233,"connected_time":101000000000,"state":"active","ping":78},{"user_id":134,"name":"Matt","steam_id":76561198008108521,"connected_time":1793000000000,"state":"active","ping":108},{"user_id":138,"name":"Zek","steam_id":76561198014574925,"connected_time":1667000000000,"state":"active","ping":103}]},{"server_id":5,"name":"Uncletopia | Frankfurt | 1 | All Maps","name_short":"frk-1","host":"frk-1.de.uncletopia.com","port":27015,"enabled":true,"region":"eu","cc":"de","latitude":50.110924,"longitude":8.682127,"reserved":0,"last_update":"0001-01-01T00:00:00Z","name_a2s":"Uncletopia | Frankfurt | 1 | All Maps","protocol":17,"map":"pl_badwater","folder":"tf","game":"Team Fortress","app_id":440,"player_count":24,"max_players":24,"Bots":0,"server_type":"Dedicated","server_os":"Linux","password":true,"vac":true,"version":"7742253","steam_id":85568392924469989,"keywords":["nocrits","nodmgspread","payload","uncletopia"],"game_id":440,"stv_port":27016,"stv_name":"Uncletopia | Frankfurt | 1 | All Maps | STV","players":[{"user_id":555,"name":"Wocide","steam_id":76561198118188352,"connected_time":151000000000,"state":"active","ping":60},{"user_id":541,"name":"Fridge","steam_id":76561198071665589,"connected_time":1453000000000,"state":"active","ping":117},{"user_id":529,"name":"beeb","steam_id":76561198033460021,"connected_time":2034000000000,"state":"active","ping":87},{"user_id":530,"name":"The Fish","steam_id":76561198303615348,"connected_time":2030000000000,"state":"active","ping":90},{"user_id":557,"name":"woosh (poopy joe)","steam_id":76561198061127604,"connected_time":106000000000,"state":"active","ping":45},{"user_id":546,"name":"Yassine","steam_id":76561198140565712,"connected_time":1090000000000,"state":"active","ping":56},{"user_id":535,"name":"eggslut","steam_id":76561198010752241,"connected_time":1850000000000,"state":"active","ping":68},{"user_id":558,"name":"Ozy","steam_id":76561198257359584,"connected_time":100000000000,"state":"active","ping":70},{"user_id":531,"name":"mt","steam_id":76561197961319303,"connected_time":2027000000000,"state":"active","ping":48},{"user_id":533,"name":"LordTrap.exe","steam_id":76561198318089716,"connected_time":1970000000000,"state":"active","ping":56},{"user_id":553,"name":"ZyZ 2.0","steam_id":76561199178204775,"connected_time":260000000000,"state":"active","ping":111},{"user_id":551,"name":"101 000 tuns of democracy","steam_id":76561198218257120,"connected_time":406000000000,"state":"active","ping":74},{"user_id":491,"name":"FJADL","steam_id":76561198237008214,"connected_time":3915000000000,"state":"active","ping":58},{"user_id":539,"name":"Baki „ÉÑ","steam_id":76561198193615529,"connected_time":1493000000000,"state":"active","ping":57},{"user_id":485,"name":"!raven","steam_id":76561198320336543,"connected_time":4216000000000,"state":"active","ping":94},{"user_id":518,"name":"Landsknecht","steam_id":76561199293036742,"connected_time":2894000000000,"state":"active","ping":54},{"user_id":549,"name":"manKe","steam_id":76561198008564860,"connected_time":838000000000,"state":"active","ping":57},{"user_id":559,"name":"HanhiGaming","steam_id":76561198877007477,"connected_time":73000000000,"state":"active","ping":95},{"user_id":442,"name":"Keelan","steam_id":76561198013665543,"connected_time":8132000000000,"state":"active","ping":81},{"user_id":514,"name":"Carol Olston","steam_id":76561198080257273,"connected_time":3350000000000,"state":"active","ping":55},{"user_id":554,"name":"Shlyk","steam_id":76561198333387103,"connected_time":195000000000,"state":"active","ping":96},{"user_id":528,"name":"balanced diet","steam_id":76561198240320806,"connected_time":2225000000000,"state":"active","ping":71},{"user_id":560,"name":"kaczx_***********","steam_id":76561199123449299,"connected_time":52000000000,"state":"active","ping":83},{"user_id":509,"name":"Mr.Fosty","steam_id":76561198045212783,"connected_time":3532000000000,"state":"active","ping":84}]},{"server_id":110,"name":"Uncletopia | Frankfurt | 2 | All Maps","name_short":"frk-2","host":"frk-1.de.uncletopia.com","port":27025,"enabled":true,"region":"eu","cc":"de","latitude":50.110924,"longitude":8.682127,"reserved":0,"last_update":"0001-01-01T00:00:00Z","name_a2s":"Uncletopia | Frankfurt | 2 | All Maps","protocol":17,"map":"pl_thundermountain","folder":"tf","game":"Team Fortress","app_id":440,"player_count":23,"max_players":24,"Bots":0,"server_type":"Dedicated","server_os":"Linux","password":true,"vac":true,"version":"7742253","steam_id":85568392924469990,"keywords":["nocrits","nodmgspread","payload","uncletopia"],"game_id":440,"stv_port":27026,"stv_name":"Uncletopia | Frankfurt | 2 | All Maps | STV","players":[{"user_id":445,"name":"Mayor Wank from Wanker Town","steam_id":76561197998253588,"connected_time":2109000000000,"state":"active","ping":53},{"user_id":452,"name":"Silent Person","steam_id":76561198107763537,"connected_time":1174000000000,"state":"active","ping":78},{"user_id":463,"name":"Naginacz","steam_id":76561199099232534,"connected_time":538000000000,"state":"active","ping":65},{"user_id":439,"name":"Gyt","steam_id":76561198014431968,"connected_time":2186000000000,"state":"active","ping":78},{"user_id":431,"name":"Alin","steam_id":76561198059679991,"connected_time":3350000000000,"state":"active","ping":92},{"user_id":380,"name":"triangle","steam_id":76561198046838168,"connected_time":7327000000000,"state":"active","ping":50},{"user_id":438,"name":"Windows Vista Cruiser","steam_id":76561198064102233,"connected_time":2202000000000,"state":"active","ping":66},{"user_id":464,"name":"Loading","steam_id":76561198201981190,"connected_time":487000000000,"state":"active","ping":73},{"user_id":406,"name":"Clitorina","steam_id":76561198077570815,"connected_time":5635000000000,"state":"active","ping":58},{"user_id":435,"name":"Taskyy","steam_id":76561198134901175,"connected_time":2939000000000,"state":"active","ping":79},{"user_id":466,"name":"lloyd christmas","steam_id":76561197995856532,"connected_time":350000000000,"state":"active","ping":66},{"user_id":395,"name":"Gordon Birdman","steam_id":76561198013382324,"connected_time":6836000000000,"state":"active","ping":75},{"user_id":460,"name":"ÊÇ™","steam_id":76561198095879087,"connected_time":873000000000,"state":"active","ping":60},{"user_id":400,"name":"dansci","steam_id":76561198269530717,"connected_time":6055000000000,"state":"active","ping":163},{"user_id":456,"name":"Remyie","steam_id":76561198131031404,"connected_time":939000000000,"state":"active","ping":103},{"user_id":443,"name":"MrBeast Official","steam_id":76561198081369150,"connected_time":2117000000000,"state":"active","ping":93},{"user_id":465,"name":"Rockfire","steam_id":76561198014117679,"connected_time":458000000000,"state":"active","ping":60},{"user_id":383,"name":"‚úß Luigi Time ‚úß","steam_id":76561198026903673,"connected_time":7227000000000,"state":"active","ping":62},{"user_id":467,"name":"hus","steam_id":76561199041784872,"connected_time":98000000000,"state":"active","ping":119},{"user_id":328,"name":"ÍßÅ‡ºíXenon‡ºíÍßÇ","steam_id":76561198120502313,"connected_time":11429000000000,"state":"active","ping":78},{"user_id":458,"name":"Pfenny'S","steam_id":76561198069943092,"connected_time":905000000000,"state":"active","ping":48},{"user_id":436,"name":"Uselss Joe","steam_id":76561198275853629,"connected_time":2343000000000,"state":"active","ping":58},{"user_id":448,"name":"NiKoRo","steam_id":76561197963686614,"connected_time":2076000000000,"state":"active","ping":87}]},{"server_id":308,"name":"Uncletopia | Frankfurt | 3 | All Maps","name_short":"frk-3","host":"frk-1.de.uncletopia.com","port":27035,"enabled":true,"region":"eu","cc":"de","latitude":50.110924,"longitude":8.682127,"reserved":0,"last_update":"0001-01-01T00:00:00Z","name_a2s":"Uncletopia | Frankfurt | 3 | All Maps","protocol":17,"map":"pl_borneo","folder":"tf","game":"Team Fortress","app_id":440,"player_count":24,"max_players":24,"Bots":0,"server_type":"Dedicated","server_os":"Linux","password":true,"vac":true,"version":"7742253","steam_id":85568392924504274,"keywords":["nocrits","nodmgspread","payload","uncletopia"],"game_id":440,"stv_port":27036,"stv_name":"Uncletopia | Frankfurt | 3 | All Maps | STV","players":[{"user_id":245,"name":"20BB Raxor","steam_id":76561198239927434,"connected_time":876000000000,"state":"active","ping":90},{"user_id":244,"name":"risco1bolota","steam_id":76561198323074603,"connected_time":890000000000,"state":"active","ping":82},{"user_id":216,"name":"manliest tf2 player","steam_id":76561198209360887,"connected_time":2559000000000,"state":"active","ping":60},{"user_id":243,"name":"2004 Kanye","steam_id":76561198189000841,"connected_time":938000000000,"state":"active","ping":82},{"user_id":240,"name":"–ù—ñ–∫—ñ—Ç—Ä–æ–Ω","steam_id":76561198044401080,"connected_time":1126000000000,"state":"active","ping":57},{"user_id":183,"name":"Allmathaur","steam_id":76561199405602290,"connected_time":4694000000000,"state":"active","ping":96},{"user_id":182,"name":"Gempooh","steam_id":76561198098463950,"connected_time":4721000000000,"state":"active","ping":89},{"user_id":242,"name":"R0X","steam_id":76561198047876624,"connected_time":1119000000000,"state":"active","ping":50},{"user_id":247,"name":"Saint","steam_id":76561198303326214,"connected_time":458000000000,"state":"active","ping":68},{"user_id":234,"name":"moser23","steam_id":76561197960543171,"connected_time":1421000000000,"state":"active","ping":43},{"user_id":249,"name":"SoulDipper","steam_id":76561199099298530,"connected_time":298000000000,"state":"active","ping":140},{"user_id":246,"name":"Coolboi02496","steam_id":76561199382243093,"connected_time":742000000000,"state":"active","ping":43},{"user_id":218,"name":"PieTer","steam_id":76561198001999422,"connected_time":2466000000000,"state":"active","ping":71},{"user_id":179,"name":"FaceShackle","steam_id":76561198038371397,"connected_time":4739000000000,"state":"active","ping":43},{"user_id":235,"name":"B≈Å√§ck..","steam_id":76561198300644952,"connected_time":1366000000000,"state":"active","ping":69},{"user_id":236,"name":"Martial Autist","steam_id":76561198392067162,"connected_time":1364000000000,"state":"active","ping":66},{"user_id":248,"name":"kotamine","steam_id":76561198068907991,"connected_time":434000000000,"state":"active","ping":69},{"user_id":171,"name":"telecaster cowboy","steam_id":76561198030155915,"connected_time":5154000000000,"state":"active","ping":76},{"user_id":231,"name":"G6 sherlock","steam_id":76561198802967796,"connected_time":1486000000000,"state":"active","ping":120},{"user_id":214,"name":"WinsomeYapper9","steam_id":76561199275285546,"connected_time":3139000000000,"state":"active","ping":100},{"user_id":239,"name":"spy gaming","steam_id":76561198410955546,"connected_time":1314000000000,"state":"active","ping":88},{"user_id":237,"name":"AwterSix","steam_id":76561198042561678,"connected_time":1360000000000,"state":"active","ping":52},{"user_id":233,"name":"walking plane","steam_id":76561198146779559,"connected_time":1439000000000,"state":"active","ping":90},{"user_id":225,"name":"R8N - Obismal","steam_id":76561198007482714,"connected_time":1559000000000,"state":"active","ping":75}]},{"server_id":309,"name":"Uncletopia | Frankfurt | 4 | All Maps","name_short":"frk-4","host":"frk-1.de.uncletopia.com","port":27045,"enabled":true,"region":"eu","cc":"de","latitude":50.110924,"longitude":8.682127,"reserved":0,"last_update":"0001-01-01T00:00:00Z","name_a2s":"Uncletopia | Frankfurt | 4 | All Maps","protocol":17,"map":"cp_dustbowl","folder":"tf","game":"Team Fortress","app_id":440,"player_count":21,"max_players":24,"Bots":0,"server_type":"Dedicated","server_os":"Linux","password":true,"vac":true,"version":"7742253","steam_id":85568392924504275,"keywords":["cp","nocrits","nodmgspread","uncletopia"],"game_id":440,"stv_port":27046,"stv_name":"Uncletopia | Frankfurt | 4 | All Maps | STV","players":[{"user_id":314,"name":"Dachowiec","steam_id":76561198195408281,"connected_time":280000000000,"state":"active","ping":61},{"user_id":318,"name":"big hoops","steam_id":76561198004703799,"connected_time":6000000000,"state":"spawning","ping":60},{"user_id":283,"name":"Vidrox #savetf2","steam_id":76561199217854983,"connected_time":1927000000000,"state":"active","ping":75},{"user_id":253,"name":"hulluheppu1","steam_id":76561198093458326,"connected_time":2875000000000,"state":"active","ping":65},{"user_id":261,"name":"TMDBLV","steam_id":76561198352246218,"connected_time":2712000000000,"state":"active","ping":142},{"user_id":311,"name":"KingDumm79","steam_id":76561199242337520,"connected_time":465000000000,"state":"active","ping":38},{"user_id":134,"name":"/HartBeet/","steam_id":76561198321785662,"connected_time":11460000000000,"state":"active","ping":74},{"user_id":316,"name":"Mr.O #deletesniper","steam_id":76561198039567498,"connected_time":179000000000,"state":"active","ping":60},{"user_id":187,"name":"chicanery","steam_id":76561198130794936,"connected_time":8394000000000,"state":"active","ping":75},{"user_id":306,"name":"Potconundrum","steam_id":76561198040291704,"connected_time":687000000000,"state":"active","ping":137},{"user_id":193,"name":"SkippityScopity","steam_id":76561198801187351,"connected_time":7119000000000,"state":"active","ping":51},{"user_id":276,"name":"citronous","steam_id":76561198093290934,"connected_time":2331000000000,"state":"active","ping":51},{"user_id":303,"name":"God¬¥s Cock","steam_id":76561198058947923,"connected_time":910000000000,"state":"active","ping":56},{"user_id":305,"name":"Envystall","steam_id":76561198134901747,"connected_time":769000000000,"state":"active","ping":47},{"user_id":313,"name":"install gentoo","steam_id":76561198185257982,"connected_time":290000000000,"state":"active","ping":75},{"user_id":200,"name":"MSPaintbrush","steam_id":76561198119987705,"connected_time":6861000000000,"state":"active","ping":66},{"user_id":312,"name":"Gordon Freeman.","steam_id":76561199346032095,"connected_time":434000000000,"state":"active","ping":63},{"user_id":256,"name":"H A P P Y","steam_id":76561198310047963,"connected_time":2830000000000,"state":"active","ping":55},{"user_id":307,"name":"Pygarque00fr","steam_id":76561198048432227,"connected_time":685000000000,"state":"active","ping":50},{"user_id":258,"name":"‚òÉ Kkasper ‚òÉ","steam_id":76561199121845047,"connected_time":2808000000000,"state":"active","ping":60},{"user_id":293,"name":"Zach #SaveTF2","steam_id":76561198336885684,"connected_time":1646000000000,"state":"active","ping":71}]},{"server_id":310,"name":"Uncletopia | Frankfurt | 5 | All Maps","name_short":"frk-5","host":"frk-1.de.uncletopia.com","port":27055,"enabled":true,"region":"eu","cc":"de","latitude":50.110924,"longitude":8.682127,"reserved":0,"last_update":"0001-01-01T00:00:00Z","name_a2s":"Uncletopia | Frankfurt | 5 | All Maps","protocol":17,"map":"pl_pier","folder":"tf","game":"Team Fortress","app_id":440,"player_count":24,"max_players":24,"Bots":0,"server_type":"Dedicated","server_os":"Linux","password":true,"vac":true,"version":"7742253","steam_id":85568392924504277,"keywords":["nocrits","nodmgspread","payload","uncletopia"],"game_id":440,"stv_port":27056,"stv_name":"Uncletopia | Frankfurt | 5 | All Maps | STV","players":[{"user_id":419,"name":"ChesseKnight","steam_id":76561198102476339,"connected_time":1152000000000,"state":"active","ping":84},{"user_id":441,"name":"FlawlessAlias #SaveTF2","steam_id":76561198159703164,"connected_time":158000000000,"state":"active","ping":83},{"user_id":434,"name":"„ÉÜ„Ç§„É´„Çπ","steam_id":76561198022403271,"connected_time":460000000000,"state":"active","ping":45},{"user_id":442,"name":"Duarte‚Ñ¢","steam_id":76561198131456324,"connected_time":22000000000,"state":"spawning","ping":96},{"user_id":410,"name":"MAJAX","steam_id":76561198254828632,"connected_time":1282000000000,"state":"active","ping":51},{"user_id":435,"name":"etc","steam_id":76561197998394797,"connected_time":446000000000,"state":"active","ping":59},{"user_id":436,"name":"Tataffe","steam_id":76561198042048259,"connected_time":318000000000,"state":"active","ping":61},{"user_id":381,"name":"Doriian","steam_id":76561198071438810,"connected_time":3717000000000,"state":"active","ping":75},{"user_id":376,"name":"bubblojoe","steam_id":76561198044534119,"connected_time":3826000000000,"state":"active","ping":65},{"user_id":438,"name":"dinger","steam_id":76561198038748489,"connected_time":278000000000,"state":"active","ping":66},{"user_id":402,"name":"Veve25","steam_id":76561198070755176,"connected_time":1949000000000,"state":"active","ping":58},{"user_id":424,"name":"typicalcrimson","steam_id":76561198295439747,"connected_time":917000000000,"state":"active","ping":65},{"user_id":423,"name":"chinglao","steam_id":76561198126595103,"connected_time":1068000000000,"state":"active","ping":58},{"user_id":440,"name":"Saul Goodsex","steam_id":76561198173218318,"connected_time":168000000000,"state":"active","ping":53},{"user_id":328,"name":"A Succulent Chinese Meal","steam_id":76561198069472440,"connected_time":7121000000000,"state":"active","ping":95},{"user_id":360,"name":"Kotlet schabowy","steam_id":76561198048983509,"connected_time":4832000000000,"state":"active","ping":73},{"user_id":414,"name":"Garlic","steam_id":76561198169843213,"connected_time":1261000000000,"state":"active","ping":64},{"user_id":430,"name":"That Emoji","steam_id":76561198280539356,"connected_time":737000000000,"state":"active","ping":77},{"user_id":431,"name":"Bentley","steam_id":76561197978252169,"connected_time":727000000000,"state":"active","ping":75},{"user_id":366,"name":"pepper","steam_id":76561198059782462,"connected_time":4412000000000,"state":"active","ping":49},{"user_id":432,"name":"I was good before.","steam_id":76561198187045217,"connected_time":688000000000,"state":"active","ping":74},{"user_id":425,"name":"Echo of Abyss","steam_id":76561198981841782,"connected_time":812000000000,"state":"active","ping":66},{"user_id":422,"name":"non_ai","steam_id":76561198270951938,"connected_time":1130000000000,"state":"active","ping":135},{"user_id":439,"name":"Caz","steam_id":76561198033412140,"connected_time":272000000000,"state":"active","ping":73}]},{"server_id":311,"name":"Uncletopia | Frankfurt | 6 | All Maps","name_short":"frk-6","host":"frk-1.de.uncletopia.com","port":27065,"enabled":true,"region":"eu","cc":"de","latitude":50.110924,"longitude":8.682127,"reserved":0,"last_update":"0001-01-01T00:00:00Z","name_a2s":"Uncletopia | Frankfurt | 6 | All Maps","protocol":17,"map":"pl_badwater","folder":"tf","game":"Team Fortress","app_id":440,"player_count":24,"max_players":24,"Bots":0,"server_type":"Dedicated","server_os":"Linux","password":true,"vac":true,"version":"7742253","steam_id":85568392924504278,"keywords":["nocrits","nodmgspread","payload","uncletopia"],"game_id":440,"stv_port":27066,"stv_name":"Uncletopia | Frankfurt | 6 | All Maps | STV","players":[{"user_id":317,"name":"h__","steam_id":76561198869327973,"connected_time":840000000000,"state":"active","ping":62},{"user_id":328,"name":"6onions","steam_id":76561198039313199,"connected_time":150000000000,"state":"active","ping":53},{"user_id":308,"name":"John_TEafOrT2","steam_id":76561198355520616,"connected_time":1501000000000,"state":"active","ping":52},{"user_id":267,"name":"Toasty5050","steam_id":76561198073540881,"connected_time":3996000000000,"state":"active","ping":47},{"user_id":318,"name":"Yessirskiii","steam_id":76561198179324075,"connected_time":829000000000,"state":"active","ping":75},{"user_id":329,"name":"Nyarley","steam_id":76561197961152751,"connected_time":30000000000,"state":"spawning","ping":97},{"user_id":320,"name":"78","steam_id":76561198208328357,"connected_time":811000000000,"state":"active","ping":77},{"user_id":325,"name":"hinfort","steam_id":76561198046354794,"connected_time":622000000000,"state":"active","ping":56},{"user_id":288,"name":"Uriri","steam_id":76561198085588686,"connected_time":3083000000000,"state":"active","ping":70},{"user_id":321,"name":"Zelmor","steam_id":76561197997708311,"connected_time":777000000000,"state":"active","ping":66},{"user_id":278,"name":"SirNeeco \u003c3","steam_id":76561198103014203,"connected_time":3472000000000,"state":"active","ping":62},{"user_id":330,"name":"tictak211","steam_id":76561198128091924,"connected_time":23000000000,"state":"active","ping":75},{"user_id":271,"name":"Rimx","steam_id":76561198053034840,"connected_time":3912000000000,"state":"active","ping":91},{"user_id":275,"name":"Himbeermilch","steam_id":76561198303198090,"connected_time":3597000000000,"state":"active","ping":48},{"user_id":302,"name":"Poodle","steam_id":76561198015483504,"connected_time":2053000000000,"state":"active","ping":69},{"user_id":324,"name":"lusik","steam_id":76561199239168617,"connected_time":705000000000,"state":"active","ping":59},{"user_id":306,"name":"blurst of times","steam_id":76561197972325640,"connected_time":1679000000000,"state":"active","ping":52},{"user_id":180,"name":"doubletwist","steam_id":76561198062571317,"connected_time":10424000000000,"state":"active","ping":89},{"user_id":315,"name":"Homicidal Tendencies","steam_id":76561198828681043,"connected_time":1039000000000,"state":"active","ping":55},{"user_id":313,"name":"clouds","steam_id":76561198111134021,"connected_time":1134000000000,"state":"active","ping":94},{"user_id":316,"name":"Û†Ä°Û†Ä°","steam_id":76561198015585266,"connected_time":1039000000000,"state":"active","ping":69},{"user_id":307,"name":"silenk","steam_id":76561198367689055,"connected_time":1651000000000,"state":"active","ping":67},{"user_id":323,"name":"hinkeczg","steam_id":76561198202007378,"connected_time":773000000000,"state":"active","ping":71},{"user_id":326,"name":"Your friend (maybe)","steam_id":76561198240278328,"connected_time":599000000000,"state":"active","ping":71}]},{"server_id":23,"name":"Uncletopia | Frankfurt | 7 | Stopwatch Beta","name_short":"frk-7","host":"frk-1.de.uncletopia.com","port":27075,"enabled":true,"region":"eu","cc":"de","latitude":50.110924,"longitude":8.682127,"reserved":0,"last_update":"0001-01-01T00:00:00Z","name_a2s":"Uncletopia | Frankfurt | 7 | Stopwatch Beta","protocol":17,"map":"workshop/koth_ramjam_rc1.ugc459778887","folder":"tf","game":"Team Fortress","app_id":440,"player_count":0,"max_players":24,"Bots":0,"server_type":"Dedicated","server_os":"Linux","password":true,"vac":true,"version":"7742253","steam_id":85568392924742827,"keywords":["cp","nocrits","nodmgspread","uncletopia"],"game_id":440,"stv_port":27076,"stv_name":"Uncletopia | Frankfurt | 7 | Stopwatch Beta | STV","players":null},{"server_id":24,"name":"Uncletopia | Frankfurt | 8 | Community","name_short":"frk-8","host":"frk-1.de.uncletopia.com","port":27085,"enabled":true,"region":"eu","cc":"de","latitude":50.110924,"longitude":8.682127,"reserved":0,"last_update":"0001-01-01T00:00:00Z","name_a2s":"Uncletopia | Frankfurt | 8 | Community","protocol":17,"map":"workshop/pl_cactuscanyon_redux_rc4b.ugc2579644293","folder":"tf","game":"Team Fortress","app_id":440,"player_count":19,"max_players":24,"Bots":0,"server_type":"Dedicated","server_os":"Linux","password":true,"vac":true,"version":"7742253","steam_id":85568392924742828,"keywords":["nocrits","nodmgspread","payload","uncletopia"],"game_id":440,"stv_port":27086,"stv_name":"Uncletopia | Frankfurt | 8 | Community | STV","players":[{"user_id":153,"name":"Vel0city","steam_id":76561198049687798,"connected_time":5441000000000,"state":"active","ping":50},{"user_id":236,"name":"YO MAMA(CZ)","steam_id":76561198057308825,"connected_time":770000000000,"state":"active","ping":60},{"user_id":172,"name":"Fat Pigeon","steam_id":76561198817940142,"connected_time":3979000000000,"state":"active","ping":51},{"user_id":242,"name":"htraB","steam_id":76561198043122677,"connected_time":453000000000,"state":"active","ping":60},{"user_id":217,"name":"frosty","steam_id":76561198094560834,"connected_time":1929000000000,"state":"active","ping":62},{"user_id":233,"name":"ÈªíÁöáÂ∏ù / black emperor","steam_id":76561198980729208,"connected_time":1308000000000,"state":"active","ping":49},{"user_id":223,"name":"Dedu","steam_id":76561198132191324,"connected_time":1684000000000,"state":"active","ping":46},{"user_id":243,"name":"el Rix.","steam_id":76561197993219378,"connected_time":394000000000,"state":"active","ping":47},{"user_id":237,"name":"RedByte","steam_id":76561198056303045,"connected_time":713000000000,"state":"active","ping":75},{"user_id":244,"name":"Stragnov‚òÜ","steam_id":76561198074702465,"connected_time":358000000000,"state":"active","ping":51},{"user_id":245,"name":"ender45","steam_id":76561198840955715,"connected_time":288000000000,"state":"active","ping":45},{"user_id":229,"name":"Avoonix","steam_id":76561198186954897,"connected_time":1591000000000,"state":"active","ping":69},{"user_id":225,"name":"Gebagemid","steam_id":76561198003684717,"connected_time":1641000000000,"state":"active","ping":64},{"user_id":238,"name":"X-tis","steam_id":76561198043837480,"connected_time":678000000000,"state":"active","ping":78},{"user_id":208,"name":"the joy of recycling","steam_id":76561198138509827,"connected_time":2370000000000,"state":"active","ping":86},{"user_id":231,"name":"brokenphilip","steam_id":76561198080960604,"connected_time":1427000000000,"state":"active","ping":87},{"user_id":248,"name":"Arizona Ranger","steam_id":76561198859118707,"connected_time":201000000000,"state":"active","ping":61},{"user_id":213,"name":"the rizzler","steam_id":76561198070664114,"connected_time":2085000000000,"state":"active","ping":61},{"user_id":230,"name":"Preyzen","steam_id":76561199043448824,"connected_time":1577000000000,"state":"active","ping":59}]},{"server_id":202,"name":"Uncletopia | Hong Kong | 1 | All Maps","name_short":"hgk-1","host":"hgk-1.hk.uncletopia.com","port":27015,"enabled":true,"region":"asia","cc":"hk","latitude":22.302711,"longitude":114.177216,"reserved":0,"last_update":"0001-01-01T00:00:00Z","name_a2s":"Uncletopia | Hong Kong | 1 | All Maps","protocol":17,"map":"plr_hightower","folder":"tf","game":"Team Fortress","app_id":440,"player_count":0,"max_players":24,"Bots":0,"server_type":"Dedicated","server_os":"Linux","password":true,"vac":true,"version":"7742253","steam_id":85568392924494504,"keywords":["nocrits","nodmgspread","payload","uncletopia"],"game_id":440,"stv_port":27016,"stv_name":"Uncletopia | Hong Kong | 1 | All Maps | STV","players":null},{"server_id":1,"name":"Uncletopia | Los Angeles | 1 | All Maps","name_short":"lax-1","host":"lax-1.us.uncletopia.com","port":27015,"enabled":true,"region":"us-west","cc":"us","latitude":33.94279,"longitude":-118.41004,"reserved":0,"last_update":"0001-01-01T00:00:00Z","name_a2s":"Uncletopia | Los Angeles | 1 | All Maps","protocol":17,"map":"pl_snowycoast","folder":"tf","game":"Team Fortress","app_id":440,"player_count":0,"max_players":24,"Bots":0,"server_type":"Dedicated","server_os":"Linux","password":true,"vac":true,"version":"7742253","steam_id":85568392924469991,"keywords":["nocrits","nodmgspread","payload","uncletopia"],"game_id":440,"stv_port":27016,"stv_name":"Uncletopia | Los Angeles | 1 | All Maps | STV","players":null},{"server_id":112,"name":"Uncletopia | Los Angeles | 2 | All Maps","name_short":"lax-2","host":"lax-1.us.uncletopia.com","port":27025,"enabled":true,"region":"us-west","cc":"us","latitude":33.94279,"longitude":-118.41004,"reserved":0,"last_update":"0001-01-01T00:00:00Z","name_a2s":"Uncletopia | Los Angeles | 2 | All Maps","protocol":17,"map":"pl_snowycoast","folder":"tf","game":"Team Fortress","app_id":440,"player_count":0,"max_players":24,"Bots":0,"server_type":"Dedicated","server_os":"Linux","password":true,"vac":true,"version":"7742253","steam_id":85568392924469992,"keywords":["nocrits","nodmgspread","payload","uncletopia"],"game_id":440,"stv_port":27026,"stv_name":"Uncletopia | Los Angeles | 2 | All Maps | STV","players":null},{"server_id":324,"name":"Uncletopia | Los Angeles | 3 | All Maps","name_short":"lax-3","host":"lax-1.us.uncletopia.com","port":27035,"enabled":true,"region":"us-west","cc":"us","latitude":33.94279,"longitude":-118.41004,"reserved":0,"last_update":"0001-01-01T00:00:00Z","name_a2s":"Uncletopia | Los Angeles | 3 | All Maps","protocol":17,"map":"cp_snakewater_final1","folder":"tf","game":"Team Fortress","app_id":440,"player_count":0,"max_players":24,"Bots":0,"server_type":"Dedicated","server_os":"Linux","password":true,"vac":true,"version":"7742253","steam_id":85568392924510198,"keywords":["cp","nocrits","nodmgspread","uncletopia"],"game_id":440,"stv_port":27036,"stv_name":"Uncletopia | Los Angeles | 3 | All Maps | STV","players":null},{"server_id":25,"name":"Uncletopia | Los Angeles | 4 | Stopwatch Beta","name_short":"lax-4","host":"lax-1.us.uncletopia.com","port":27045,"enabled":true,"region":"us-west","cc":"us","latitude":33.94279,"longitude":-118.41004,"reserved":0,"last_update":"0001-01-01T00:00:00Z","name_a2s":"Uncletopia | Los Angeles | 4 | Stopwatch Beta","protocol":17,"map":"workshop/koth_product_final.ugc454272353","folder":"tf","game":"Team Fortress","app_id":440,"player_count":0,"max_players":24,"Bots":0,"server_type":"Dedicated","server_os":"Linux","password":true,"vac":true,"version":"7742253","steam_id":85568392924510199,"keywords":["cp","nocrits","nodmgspread","uncletopia"],"game_id":440,"stv_port":27046,"stv_name":"Uncletopia | Los Angeles | 4 | Stopwatch Beta | STV","players":null},{"server_id":11,"name":"Uncletopia | London | 1 | All Maps","name_short":"lon-1","host":"lon-1.uk.uncletopia.com","port":27015,"enabled":true,"region":"eu","cc":"gb","latitude":51.509865,"longitude":-0.118092,"reserved":0,"last_update":"0001-01-01T00:00:00Z","name_a2s":"Uncletopia | London | 1 | All Maps","protocol":17,"map":"pl_swiftwater_final1","folder":"tf","game":"Team Fortress","app_id":440,"player_count":23,"max_players":24,"Bots":0,"server_type":"Dedicated","server_os":"Linux","password":true,"vac":true,"version":"7742253","steam_id":85568392924367362,"keywords":["nocrits","nodmgspread","payload","uncletopia"],"game_id":440,"stv_port":27016,"stv_name":"Uncletopia | London | 1 | All Maps | STV","players":[{"user_id":572,"name":"VEH-DEH-VEH","steam_id":76561198010978989,"connected_time":1308000000000,"state":"active","ping":77},{"user_id":589,"name":"Biscuits Jackson","steam_id":76561198024843489,"connected_time":855000000000,"state":"active","ping":50},{"user_id":598,"name":"Louki","steam_id":76561198150080041,"connected_time":94000000000,"state":"active","ping":61},{"user_id":592,"name":"Venomous ÈáéÂøÉ","steam_id":76561198135450525,"connected_time":517000000000,"state":"active","ping":40},{"user_id":575,"name":"d3ad","steam_id":76561198432937497,"connected_time":1118000000000,"state":"active","ping":88},{"user_id":590,"name":"Milca_11","steam_id":76561198848650365,"connected_time":787000000000,"state":"active","ping":115},{"user_id":595,"name":"SunZi","steam_id":76561198139243535,"connected_time":367000000000,"state":"active","ping":70},{"user_id":594,"name":"Hetmanych","steam_id":76561198870926865,"connected_time":486000000000,"state":"active","ping":39},{"user_id":587,"name":"saml","steam_id":76561198040716257,"connected_time":906000000000,"state":"active","ping":83},{"user_id":570,"name":"Farmer Maggots Crop","steam_id":76561198838856746,"connected_time":1862000000000,"state":"active","ping":42},{"user_id":601,"name":"Biscuitbox","steam_id":76561198448396620,"connected_time":10000000000,"state":"active","ping":45},{"user_id":599,"name":"DOMAIN","steam_id":76561199095640319,"connected_time":57000000000,"state":"active","ping":92},{"user_id":600,"name":"kamu","steam_id":76561198367337443,"connected_time":45000000000,"state":"active","ping":115},{"user_id":581,"name":"holykyckling","steam_id":76561198040661615,"connected_time":1014000000000,"state":"active","ping":76},{"user_id":582,"name":"ryft","steam_id":76561198429138254,"connected_time":1006000000000,"state":"active","ping":75},{"user_id":596,"name":"Maragil","steam_id":76561197999616076,"connected_time":201000000000,"state":"active","ping":56},{"user_id":583,"name":"gio","steam_id":76561198219185620,"connected_time":1003000000000,"state":"active","ping":90},{"user_id":558,"name":"Bumblebee","steam_id":76561198033551105,"connected_time":3150000000000,"state":"active","ping":67},{"user_id":530,"name":"nudjura","steam_id":76561198281986139,"connected_time":5249000000000,"state":"active","ping":44},{"user_id":602,"name":"purplecan","steam_id":76561199208283508,"connected_time":2000000000,"state":"spawning","ping":75},{"user_id":563,"name":"InsectKing","steam_id":76561199013519071,"connected_time":2333000000000,"state":"active","ping":44},{"user_id":584,"name":"Hero8171","steam_id":76561199239824271,"connected_time":996000000000,"state":"active","ping":145},{"user_id":513,"name":"Jakearooney","steam_id":76561198137205424,"connected_time":6022000000000,"state":"active","ping":57}]},{"server_id":114,"name":"Uncletopia | London | 2 | All Maps","name_short":"lon-2","host":"lon-1.uk.uncletopia.com","port":27025,"enabled":true,"region":"eu","cc":"gb","latitude":51.509865,"longitude":-0.118092,"reserved":0,"last_update":"0001-01-01T00:00:00Z","name_a2s":"Uncletopia | London | 2 | All Maps","protocol":17,"map":"pl_borneo","folder":"tf","game":"Team Fortress","app_id":440,"player_count":22,"max_players":24,"Bots":0,"server_type":"Dedicated","server_os":"Linux","password":true,"vac":true,"version":"7742253","steam_id":85568392924470941,"keywords":["nocrits","nodmgspread","payload","uncletopia"],"game_id":440,"stv_port":27026,"stv_name":"Uncletopia | London | 2 | All Maps | STV","players":[{"user_id":370,"name":"Penis Contortionist","steam_id":76561198073663784,"connected_time":506000000000,"state":"active","ping":65},{"user_id":384,"name":"my mom","steam_id":76561199225201569,"connected_time":184000000000,"state":"active","ping":123},{"user_id":363,"name":"Arcticpyro","steam_id":76561198010708923,"connected_time":594000000000,"state":"active","ping":50},{"user_id":369,"name":"Blyatwork","steam_id":76561198825379598,"connected_time":549000000000,"state":"active","ping":46},{"user_id":383,"name":"Rz!","steam_id":76561198364380889,"connected_time":203000000000,"state":"active","ping":120},{"user_id":329,"name":"Mr_Pulse_","steam_id":76561198095001602,"connected_time":4913000000000,"state":"active","ping":104},{"user_id":368,"name":"VORTEX(COMMS OPEN)","steam_id":76561199074746528,"connected_time":580000000000,"state":"active","ping":71},{"user_id":296,"name":"Mono","steam_id":76561198114569493,"connected_time":7332000000000,"state":"active","ping":42},{"user_id":377,"name":"Abby","steam_id":76561198170528489,"connected_time":347000000000,"state":"active","ping":59},{"user_id":332,"name":"Dominus.","steam_id":76561199065917088,"connected_time":4403000000000,"state":"active","ping":61},{"user_id":307,"name":"Noob_with_source","steam_id":76561198870362103,"connected_time":6360000000000,"state":"active","ping":53},{"user_id":373,"name":"i have kids in my basement","steam_id":76561199226128663,"connected_time":445000000000,"state":"active","ping":94},{"user_id":318,"name":"dogwater69","steam_id":76561198058366676,"connected_time":6080000000000,"state":"active","ping":85},{"user_id":360,"name":"Sauce","steam_id":76561198021946959,"connected_time":955000000000,"state":"active","ping":82},{"user_id":362,"name":"Ôº≤ ÔºØ Ôº¢ Ôº¢ Ôº• Ôº≤ Ôº¥","steam_id":76561198134404830,"connected_time":614000000000,"state":"active","ping":125},{"user_id":264,"name":"rat performance","steam_id":76561198065854668,"connected_time":9813000000000,"state":"active","ping":45},{"user_id":301,"name":"Matth3wksy","steam_id":76561199028063968,"connected_time":7091000000000,"state":"active","ping":43},{"user_id":378,"name":"Talent","steam_id":76561198153880354,"connected_time":331000000000,"state":"active","ping":48},{"user_id":375,"name":"UNDORA","steam_id":76561198852456692,"connected_time":407000000000,"state":"active","ping":88},{"user_id":379,"name":"Ounuo","steam_id":76561199013538498,"connected_time":285000000000,"state":"active","ping":62},{"user_id":387,"name":"panakid","steam_id":76561198364121077,"connected_time":148000000000,"state":"active","ping":94},{"user_id":314,"name":"jorogumo","steam_id":76561198838277022,"connected_time":6191000000000,"state":"active","ping":77}]},{"server_id":320,"name":"Uncletopia | London | 3 | All Maps","name_short":"lon-3","host":"lon-1.uk.uncletopia.com","port":27035,"enabled":true,"region":"eu","cc":"gb","latitude":51.509865,"longitude":-0.118092,"reserved":0,"last_update":"0001-01-01T00:00:00Z","name_a2s":"Uncletopia | London | 3 | All Maps","protocol":17,"map":"cp_dustbowl","folder":"tf","game":"Team Fortress","app_id":440,"player_count":23,"max_players":24,"Bots":0,"server_type":"Dedicated","server_os":"Linux","password":true,"vac":true,"version":"7742253","steam_id":85568392924510192,"keywords":["cp","nocrits","nodmgspread","uncletopia"],"game_id":440,"stv_port":27036,"stv_name":"Uncletopia | London | 3 | All Maps | STV","players":[{"user_id":390,"name":"lyra","steam_id":76561198043601838,"connected_time":11493000000000,"state":"active","ping":63},{"user_id":523,"name":"LegoKatt","steam_id":76561198064536870,"connected_time":1500000000000,"state":"active","ping":97},{"user_id":392,"name":"breakfast","steam_id":76561198106049954,"connected_time":11436000000000,"state":"active","ping":77},{"user_id":532,"name":"illegal invocation","steam_id":76561199011496812,"connected_time":1127000000000,"state":"active","ping":77},{"user_id":520,"name":"ShoobyDooby","steam_id":76561198118473910,"connected_time":1521000000000,"state":"active","ping":56},{"user_id":499,"name":"StabbyKnife","steam_id":76561198094010004,"connected_time":3466000000000,"state":"active","ping":84},{"user_id":539,"name":"pepy","steam_id":76561198140477044,"connected_time":158000000000,"state":"active","ping":48},{"user_id":505,"name":"rolling_tim","steam_id":76561198373668332,"connected_time":3050000000000,"state":"active","ping":65},{"user_id":515,"name":"renken","steam_id":76561198050277272,"connected_time":2158000000000,"state":"active","ping":43},{"user_id":526,"name":"Jimortal","steam_id":76561198342426856,"connected_time":1449000000000,"state":"active","ping":55},{"user_id":466,"name":"Joel!","steam_id":76561198155422742,"connected_time":6145000000000,"state":"active","ping":38},{"user_id":471,"name":"ECS","steam_id":76561198058910121,"connected_time":5869000000000,"state":"active","ping":48},{"user_id":538,"name":"adam","steam_id":76561199024816404,"connected_time":244000000000,"state":"active","ping":92},{"user_id":537,"name":"U F Onion","steam_id":76561198843305350,"connected_time":279000000000,"state":"active","ping":88},{"user_id":536,"name":"Don Quixote","steam_id":76561197999454313,"connected_time":509000000000,"state":"active","ping":76},{"user_id":506,"name":"disposablesuperbread","steam_id":76561199074703607,"connected_time":3043000000000,"state":"active","ping":96},{"user_id":500,"name":"Lunar","steam_id":76561199077495290,"connected_time":3433000000000,"state":"active","ping":72},{"user_id":535,"name":"pumpkin spice go.ggez.ro","steam_id":76561198449957490,"connected_time":570000000000,"state":"active","ping":88},{"user_id":517,"name":"Catnip Smoker","steam_id":76561198284519569,"connected_time":1615000000000,"state":"active","ping":76},{"user_id":525,"name":"imperia400","steam_id":76561199036095993,"connected_time":1495000000000,"state":"active","ping":90},{"user_id":503,"name":"TheBeardedM1G","steam_id":76561198040208946,"connected_time":3097000000000,"state":"active","ping":46},{"user_id":527,"name":"Batunga","steam_id":76561198174496709,"connected_time":1432000000000,"state":"active","ping":60},{"user_id":534,"name":"Soloman","steam_id":76561199212054667,"connected_time":826000000000,"state":"active","ping":45}]},{"server_id":321,"name":"Uncletopia | London | 4 | All Maps","name_short":"lon-4","host":"lon-1.uk.uncletopia.com","port":27045,"enabled":true,"region":"eu","cc":"gb","latitude":51.509865,"longitude":-0.118092,"reserved":0,"last_update":"0001-01-01T00:00:00Z","name_a2s":"Uncletopia | London | 4 | All Maps","protocol":17,"map":"pl_upward","folder":"tf","game":"Team Fortress","app_id":440,"player_count":24,"max_players":24,"Bots":0,"server_type":"Dedicated","server_os":"Linux","password":true,"vac":true,"version":"7742253","steam_id":85568392924510193,"keywords":["nocrits","nodmgspread","payload","uncletopia"],"game_id":440,"stv_port":27046,"stv_name":"Uncletopia | London | 4 | All Maps | STV","players":[{"user_id":349,"name":"Andy","steam_id":76561198046918834,"connected_time":916000000000,"state":"active","ping":59},{"user_id":318,"name":"–∏–≤–∞–Ω","steam_id":76561198072730591,"connected_time":3511000000000,"state":"active","ping":61},{"user_id":321,"name":"Festive Benn","steam_id":76561199024168373,"connected_time":2597000000000,"state":"active","ping":59},{"user_id":343,"name":"Nnyllazxz","steam_id":76561198247797436,"connected_time":1240000000000,"state":"active","ping":121},{"user_id":337,"name":"videogame06","steam_id":76561198202887735,"connected_time":1537000000000,"state":"active","ping":166},{"user_id":328,"name":"Steven Universe ‚ô¶","steam_id":76561198162858633,"connected_time":2386000000000,"state":"active","ping":77},{"user_id":339,"name":"Dithmarschen","steam_id":76561198068917140,"connected_time":1518000000000,"state":"active","ping":100},{"user_id":353,"name":"Sheerluck Holmes","steam_id":76561198051161936,"connected_time":687000000000,"state":"active","ping":46},{"user_id":357,"name":"Eimantas","steam_id":76561198041701187,"connected_time":514000000000,"state":"active","ping":43},{"user_id":334,"name":"p","steam_id":76561198059174917,"connected_time":1876000000000,"state":"active","ping":87},{"user_id":324,"name":"geese","steam_id":76561198944578383,"connected_time":2591000000000,"state":"active","ping":97},{"user_id":336,"name":"Skoll","steam_id":76561198022805106,"connected_time":1729000000000,"state":"active","ping":55},{"user_id":354,"name":"s a i","steam_id":76561197970379754,"connected_time":656000000000,"state":"active","ping":69},{"user_id":345,"name":"TylowStar","steam_id":76561198357107806,"connected_time":1218000000000,"state":"active","ping":75},{"user_id":310,"name":"–ò–Ω—Å–ø–µ–∫—Ç–æ—Ä –ê—Ç–∞—Å","steam_id":76561199175688390,"connected_time":4140000000000,"state":"active","ping":90},{"user_id":346,"name":"Kosher Twink","steam_id":76561198397024973,"connected_time":1186000000000,"state":"active","ping":45},{"user_id":348,"name":"haah waaw","steam_id":76561197997807016,"connected_time":966000000000,"state":"active","ping":95},{"user_id":265,"name":"HudRud","steam_id":76561198048378956,"connected_time":6447000000000,"state":"active","ping":87},{"user_id":290,"name":"average f2p","steam_id":76561199136308055,"connected_time":4976000000000,"state":"active","ping":46},{"user_id":352,"name":"Mandel","steam_id":76561199183213205,"connected_time":811000000000,"state":"active","ping":91},{"user_id":356,"name":"kwasny","steam_id":76561199033981024,"connected_time":611000000000,"state":"active","ping":52},{"user_id":326,"name":"‚âß‚ó†·¥•‚ó†‚â¶","steam_id":76561198054386822,"connected_time":2576000000000,"state":"active","ping":100},{"user_id":327,"name":"benvescovi08","steam_id":76561199199040387,"connected_time":2562000000000,"state":"active","ping":63},{"user_id":331,"name":"PGAndy","steam_id":76561199218070297,"connected_time":2328000000000,"state":"active","ping":94}]},{"server_id":21,"name":"Uncletopia | London | 5 | All Maps","name_short":"lon-5","host":"lon-1.uk.uncletopia.com","port":27055,"enabled":true,"region":"eu","cc":"gb","latitude":51.509865,"longitude":-0.118092,"reserved":0,"last_update":"0001-01-01T00:00:00Z","name_a2s":"Uncletopia | London | 5 | All Maps","protocol":17,"map":"pl_pier","folder":"tf","game":"Team Fortress","app_id":440,"player_count":24,"max_players":24,"Bots":0,"server_type":"Dedicated","server_os":"Linux","password":true,"vac":true,"version":"7742253","steam_id":85568392924742829,"keywords":["nocrits","nodmgspread","payload","uncletopia"],"game_id":440,"stv_port":27056,"stv_name":"Uncletopia | London | 5 | All Maps | STV","players":[{"user_id":73,"name":"davin","steam_id":76561198374183422,"connected_time":570000000000,"state":"active","ping":60},{"user_id":74,"name":"jovi_","steam_id":76561198449280552,"connected_time":556000000000,"state":"active","ping":51},{"user_id":17,"name":"jovan","steam_id":76561199122101910,"connected_time":2391000000000,"state":"active","ping":62},{"user_id":61,"name":"333res","steam_id":76561198148106704,"connected_time":1397000000000,"state":"active","ping":92},{"user_id":69,"name":"reddiamond1611","steam_id":76561198447425891,"connected_time":1048000000000,"state":"active","ping":57},{"user_id":45,"name":"British Disapproval","steam_id":76561198001375260,"connected_time":1949000000000,"state":"active","ping":53},{"user_id":75,"name":"neb","steam_id":76561198812042085,"connected_time":534000000000,"state":"active","ping":54},{"user_id":76,"name":"cowboy","steam_id":76561198080361351,"connected_time":501000000000,"state":"active","ping":60},{"user_id":66,"name":"–ú–ò–õ–ê–Ø –ê–ù–ò–ú–ï–®–ù–ò–¶–ê","steam_id":76561198448154229,"connected_time":1149000000000,"state":"active","ping":90},{"user_id":67,"name":"Nex","steam_id":76561199223747483,"connected_time":1133000000000,"state":"active","ping":54},{"user_id":36,"name":"michael","steam_id":76561198030911232,"connected_time":2189000000000,"state":"active","ping":98},{"user_id":77,"name":"badass mafia toolbars","steam_id":76561198259668029,"connected_time":188000000000,"state":"active","ping":52},{"user_id":78,"name":"dunduu","steam_id":76561198875240717,"connected_time":157000000000,"state":"active","ping":77},{"user_id":48,"name":"Crafty Kobold","steam_id":76561197970546264,"connected_time":1890000000000,"state":"active","ping":53},{"user_id":80,"name":"AHHHHHHHHHHHHHHHHHHHHH","steam_id":76561199142504017,"connected_time":25000000000,"state":"active","ping":56},{"user_id":79,"name":"glyph","steam_id":76561197980736364,"connected_time":104000000000,"state":"active","ping":85},{"user_id":49,"name":"Scarlet","steam_id":76561198075966579,"connected_time":1885000000000,"state":"active","ping":45},{"user_id":30,"name":"***** ***","steam_id":76561198048037379,"connected_time":2226000000000,"state":"active","ping":89},{"user_id":32,"name":"GrzMik","steam_id":76561198061951968,"connected_time":2217000000000,"state":"active","ping":93},{"user_id":33,"name":"Tal","steam_id":76561198342547469,"connected_time":2213000000000,"state":"active","ping":84},{"user_id":64,"name":"gojoel","steam_id":76561198251181946,"connected_time":1224000000000,"state":"active","ping":44},{"user_id":39,"name":".bRdyyy","steam_id":76561198057256978,"connected_time":2174000000000,"state":"active","ping":59},{"user_id":50,"name":"KFC Enjoyer","steam_id":76561198840259819,"connected_time":1871000000000,"state":"active","ping":60},{"user_id":72,"name":"Narvhal√∏","steam_id":76561198147495474,"connected_time":913000000000,"state":"active","ping":46}]},{"server_id":22,"name":"Uncletopia | London | 6 | All Maps","name_short":"lon-6","host":"lon-1.uk.uncletopia.com","port":27065,"enabled":true,"region":"eu","cc":"gb","latitude":51.509865,"longitude":-0.118092,"reserved":0,"last_update":"0001-01-01T00:00:00Z","name_a2s":"Uncletopia | London | 6 | All Maps","protocol":17,"map":"koth_lakeside_final","folder":"tf","game":"Team Fortress","app_id":440,"player_count":5,"max_players":24,"Bots":0,"server_type":"Dedicated","server_os":"Linux","password":true,"vac":true,"version":"7742253","steam_id":85568392924742830,"keywords":["cp","nocrits","nodmgspread","uncletopia"],"game_id":440,"stv_port":27066,"stv_name":"Uncletopia | London | 6 | All Maps | STV","players":[{"user_id":14,"name":"Rickadoo","steam_id":76561198068226740,"connected_time":909000000000,"state":"active","ping":54},{"user_id":15,"name":"Colbat","steam_id":76561198045798299,"connected_time":870000000000,"state":"active","ping":45},{"user_id":16,"name":"BonnieDrag","steam_id":76561199149216429,"connected_time":635000000000,"state":"active","ping":83},{"user_id":17,"name":"Frank","steam_id":76561198086672774,"connected_time":600000000000,"state":"active","ping":47},{"user_id":18,"name":"Merchantenous","steam_id":76561199245494472,"connected_time":493000000000,"state":"active","ping":71}]},{"server_id":40,"name":"Uncletopia | London | 7 | No Payload","name_short":"lon-7","host":"lon-1.uk.uncletopia.com","port":27075,"enabled":true,"region":"eu","cc":"gb","latitude":51.509865,"longitude":-0.118092,"reserved":0,"last_update":"0001-01-01T00:00:00Z","name_a2s":"Uncletopia | London | 7 | No Payload","protocol":17,"map":"koth_badlands","folder":"tf","game":"Team Fortress","app_id":440,"player_count":0,"max_players":24,"Bots":0,"server_type":"Dedicated","server_os":"Linux","password":true,"vac":true,"version":"7742253","steam_id":85568392924964314,"keywords":["cp","nocrits","nodmgspread","uncletopia"],"game_id":440,"stv_port":27076,"stv_name":"Uncletopia | London | 7 | No Payload | STV","players":null},{"server_id":41,"name":"Uncletopia | London | 8 | Community","name_short":"lon-8","host":"lon-1.uk.uncletopia.com","port":27085,"enabled":true,"region":"eu","cc":"gb","latitude":51.509865,"longitude":-0.118092,"reserved":0,"last_update":"0001-01-01T00:00:00Z","name_a2s":"Uncletopia | London | 8 | Community","protocol":17,"map":"workshop/pl_vigil_rc9.ugc1266210012","folder":"tf","game":"Team Fortress","app_id":440,"player_count":0,"max_players":24,"Bots":0,"server_type":"Dedicated","server_os":"Linux","password":true,"vac":true,"version":"7742253","steam_id":85568392924964315,"keywords":["nocrits","nodmgspread","payload","uncletopia"],"game_id":440,"stv_port":27086,"stv_name":"Uncletopia | London | 8 | Community | STV","players":null},{"server_id":300,"name":"Uncletopia | Montr√©al | 1 | All Maps","name_short":"mtl-1","host":"mtl-1.ca.uncletopia.com","port":27015,"enabled":true,"region":"us-east","cc":"ca","latitude":45.50889,"longitude":-73.56167,"reserved":0,"last_update":"0001-01-01T00:00:00Z","name_a2s":"Uncletopia | Montr√©al | 1 | All Maps","protocol":17,"map":"cp_dustbowl","folder":"tf","game":"Team Fortress","app_id":440,"player_count":7,"max_players":24,"Bots":0,"server_type":"Dedicated","server_os":"Linux","password":true,"vac":true,"version":"7742253","steam_id":85568392924500087,"keywords":["cp","nocrits","nodmgspread","uncletopia"],"game_id":440,"stv_port":27016,"stv_name":"Uncletopia | Montr√©al | 1 | All Maps | STV","players":[{"user_id":14,"name":"JACOB","steam_id":76561198211874895,"connected_time":452000000000,"state":"active","ping":60},{"user_id":16,"name":"The Real Jetpack Jackson","steam_id":76561199009471455,"connected_time":204000000000,"state":"active","ping":107},{"user_id":11,"name":"moonmistt","steam_id":76561198160308874,"connected_time":870000000000,"state":"active","ping":156},{"user_id":12,"name":"FunneGal","steam_id":76561198274006925,"connected_time":803000000000,"state":"active","ping":102},{"user_id":17,"name":"starfungus","steam_id":76561198158312789,"connected_time":121000000000,"state":"active","ping":68},{"user_id":18,"name":"faythwalkerjr","steam_id":76561199230023978,"connected_time":115000000000,"state":"active","ping":79},{"user_id":19,"name":"[Scout_Training] SNOW_TRAINING","steam_id":76561198026701863,"connected_time":18000000000,"state":"spawning","ping":65}]},{"server_id":301,"name":"Uncletopia | Montr√©al | 2 | All Maps","name_short":"mtl-2","host":"mtl-1.ca.uncletopia.com","port":27025,"enabled":true,"region":"us-east","cc":"ca","latitude":45.50889,"longitude":-73.56167,"reserved":0,"last_update":"0001-01-01T00:00:00Z","name_a2s":"Uncletopia | Montr√©al | 2 | All Maps","protocol":17,"map":"koth_highpass","folder":"tf","game":"Team Fortress","app_id":440,"player_count":0,"max_players":24,"Bots":0,"server_type":"Dedicated","server_os":"Linux","password":true,"vac":true,"version":"7742253","steam_id":85568392924500088,"keywords":["cp","nocrits","nodmgspread","uncletopia"],"game_id":440,"stv_port":27026,"stv_name":"Uncletopia | Montr√©al | 2 | All Maps | STV","players":null},{"server_id":302,"name":"Uncletopia | Montr√©al | 3 | All Maps","name_short":"mtl-3","host":"mtl-1.ca.uncletopia.com","port":27035,"enabled":true,"region":"us-east","cc":"ca","latitude":45.50889,"longitude":-73.56167,"reserved":0,"last_update":"0001-01-01T00:00:00Z","name_a2s":"Uncletopia | Montr√©al | 3 | All Maps","protocol":17,"map":"pl_barnblitz","folder":"tf","game":"Team Fortress","app_id":440,"player_count":2,"max_players":24,"Bots":0,"server_type":"Dedicated","server_os":"Linux","password":true,"vac":true,"version":"7742253","steam_id":85568392924500089,"keywords":["nocrits","nodmgspread","payload","uncletopia"],"game_id":440,"stv_port":27036,"stv_name":"Uncletopia | Montr√©al | 3 | All Maps | STV","players":[{"user_id":3,"name":"FrostSnail","steam_id":76561197989859175,"connected_time":764000000000,"state":"active","ping":131},{"user_id":4,"name":"Lasse Kron√©r","steam_id":76561198001491292,"connected_time":747000000000,"state":"active","ping":138}]},{"server_id":303,"name":"Uncletopia | Montr√©al | 4 | No Payload","name_short":"mtl-4","host":"mtl-1.ca.uncletopia.com","port":27045,"enabled":true,"region":"us-east","cc":"ca","latitude":45.50889,"longitude":-73.56167,"reserved":0,"last_update":"0001-01-01T00:00:00Z","name_a2s":"Uncletopia | Montr√©al | 4 | No Payload","protocol":17,"map":"cp_snakewater_final1","folder":"tf","game":"Team Fortress","app_id":440,"player_count":0,"max_players":24,"Bots":0,"server_type":"Dedicated","server_os":"Linux","password":true,"vac":true,"version":"7742253","steam_id":85568392924500090,"keywords":["cp","nocrits","nodmgspread","uncletopia"],"game_id":440,"stv_port":27046,"stv_name":"Uncletopia | Montr√©al | 4 | No Payload | STV","players":null},{"server_id":13,"name":"Uncletopia | New York City | 1 | All Maps","name_short":"nyc-1","host":"nyc-1.us.uncletopia.com","port":27015,"enabled":true,"region":"us-east","cc":"us","latitude":40.73061,"longitude":-73.93524,"reserved":0,"last_update":"0001-01-01T00:00:00Z","name_a2s":"Uncletopia | New York City | 1 | All Maps","protocol":17,"map":"pl_snowycoast","folder":"tf","game":"Team Fortress","app_id":440,"player_count":24,"max_players":24,"Bots":0,"server_type":"Dedicated","server_os":"Linux","password":true,"vac":true,"version":"7742253","steam_id":85568392924469993,"keywords":["nocrits","nodmgspread","payload","uncletopia"],"game_id":440,"stv_port":27016,"stv_name":"Uncletopia | New York City | 1 | All Maps | STV","players":[{"user_id":188,"name":"Halcyon","steam_id":76561197999409268,"connected_time":133000000000,"state":"active","ping":58},{"user_id":158,"name":"F0rest","steam_id":76561199112458876,"connected_time":2596000000000,"state":"active","ping":37},{"user_id":148,"name":"Weird","steam_id":76561199082362722,"connected_time":3071000000000,"state":"active","ping":93},{"user_id":167,"name":"Gaming on a 14 year old Mac","steam_id":76561198019476636,"connected_time":1902000000000,"state":"active","ping":56},{"user_id":163,"name":"Dr. Game and Watch","steam_id":76561197999615565,"connected_time":2152000000000,"state":"active","ping":52},{"user_id":173,"name":"Any Femboys In Chat?","steam_id":76561198253462393,"connected_time":1478000000000,"state":"active","ping":83},{"user_id":183,"name":"Toallin","steam_id":76561198028961479,"connected_time":1065000000000,"state":"active","ping":115},{"user_id":171,"name":"Repo Clam","steam_id":76561198198217573,"connected_time":1649000000000,"state":"active","ping":63},{"user_id":168,"name":"Vaultin' Veluza!","steam_id":76561198155872356,"connected_time":1889000000000,"state":"active","ping":35},{"user_id":142,"name":"jnv1013","steam_id":76561198965549228,"connected_time":3201000000000,"state":"active","ping":52},{"user_id":152,"name":"VixianUwU","steam_id":76561198948815060,"connected_time":2928000000000,"state":"active","ping":98},{"user_id":136,"name":"vortexgamer","steam_id":76561197999435527,"connected_time":3657000000000,"state":"active","ping":83},{"user_id":182,"name":"Apple...","steam_id":76561198072746515,"connected_time":1164000000000,"state":"active","ping":59},{"user_id":189,"name":"emcclana02","steam_id":76561198348051406,"connected_time":49000000000,"state":"active","ping":83},{"user_id":185,"name":"Herr Doktor","steam_id":76561198025473302,"connected_time":852000000000,"state":"active","ping":86},{"user_id":155,"name":"Toygar","steam_id":76561198023679830,"connected_time":2863000000000,"state":"active","ping":73},{"user_id":140,"name":"B. Comet","steam_id":76561198058235498,"connected_time":3293000000000,"state":"active","ping":165},{"user_id":186,"name":"Beelzebub","steam_id":76561198990699576,"connected_time":852000000000,"state":"active","ping":102},{"user_id":190,"name":"Monster Manthing","steam_id":76561198124196490,"connected_time":13000000000,"state":"spawning","ping":69},{"user_id":178,"name":"Horse","steam_id":76561199112075552,"connected_time":1354000000000,"state":"active","ping":53},{"user_id":131,"name":"PizzaPasta","steam_id":76561199125109082,"connected_time":4085000000000,"state":"active","ping":62},{"user_id":181,"name":"Ob_Duke","steam_id":76561199122140327,"connected_time":1252000000000,"state":"active","ping":77},{"user_id":184,"name":"Apollo","steam_id":76561198257683872,"connected_time":871000000000,"state":"active","ping":85},{"user_id":187,"name":"‚ùÑÔ∏èChili‚ùÑ","steam_id":76561198042942046,"connected_time":253000000000,"state":"active","ping":87}]},{"server_id":14,"name":"Uncletopia | New York City | 2 | All Maps","name_short":"nyc-2","host":"nyc-1.us.uncletopia.com","port":27025,"enabled":true,"region":"us-east","cc":"us","latitude":40.73061,"longitude":-73.93524,"reserved":0,"last_update":"0001-01-01T00:00:00Z","name_a2s":"Uncletopia | New York City | 2 | All Maps","protocol":17,"map":"pl_borneo","folder":"tf","game":"Team Fortress","app_id":440,"player_count":24,"max_players":24,"Bots":0,"server_type":"Dedicated","server_os":"Linux","password":true,"vac":true,"version":"7742253","steam_id":85568392924469994,"keywords":["nocrits","nodmgspread","payload","uncletopia"],"game_id":440,"stv_port":27026,"stv_name":"Uncletopia | New York City | 2 | All Maps | STV","players":[{"user_id":122,"name":"Barnasaurus","steam_id":76561199211707794,"connected_time":1096000000000,"state":"active","ping":74},{"user_id":97,"name":"Nuts","steam_id":76561198066494938,"connected_time":2386000000000,"state":"active","ping":47},{"user_id":46,"name":"Sleepy Billy","steam_id":76561198083798918,"connected_time":5650000000000,"state":"active","ping":58},{"user_id":129,"name":"Gordon From White Castle (real)","steam_id":76561198364172677,"connected_time":502000000000,"state":"active","ping":83},{"user_id":130,"name":"Kablooie","steam_id":76561198856151453,"connected_time":336000000000,"state":"active","ping":59},{"user_id":84,"name":"Monsterjessy","steam_id":76561198035630985,"connected_time":3008000000000,"state":"active","ping":71},{"user_id":131,"name":"Beanbag","steam_id":76561198101393625,"connected_time":254000000000,"state":"active","ping":91},{"user_id":23,"name":"crunchy and spicy wasp snack","steam_id":76561199322728703,"connected_time":6824000000000,"state":"active","ping":59},{"user_id":132,"name":"NoShen","steam_id":76561198147434663,"connected_time":251000000000,"state":"active","ping":75},{"user_id":125,"name":"mel","steam_id":76561198215559840,"connected_time":901000000000,"state":"active","ping":62},{"user_id":48,"name":"BrotherGrowly","steam_id":76561198086663043,"connected_time":5566000000000,"state":"active","ping":95},{"user_id":100,"name":"LalitoTV","steam_id":76561198334302951,"connected_time":2369000000000,"state":"active","ping":129},{"user_id":49,"name":"Soup Dumpling","steam_id":76561197971352904,"connected_time":5545000000000,"state":"active","ping":45},{"user_id":133,"name":"PeopleOrderOurPatties","steam_id":76561198323144922,"connected_time":244000000000,"state":"active","ping":88},{"user_id":118,"name":"The Undead Knight","steam_id":76561198010654500,"connected_time":1309000000000,"state":"active","ping":101},{"user_id":124,"name":"Stimm","steam_id":76561198119033986,"connected_time":1050000000000,"state":"active","ping":49},{"user_id":69,"name":"Sean","steam_id":76561198011422340,"connected_time":4318000000000,"state":"active","ping":91},{"user_id":51,"name":"TheWallaby","steam_id":76561198948037546,"connected_time":5489000000000,"state":"active","ping":55},{"user_id":120,"name":"Greenbean_Casserole","steam_id":76561199059555169,"connected_time":1244000000000,"state":"active","ping":79},{"user_id":106,"name":"Pink haired slut enjoyer","steam_id":76561198080775103,"connected_time":2244000000000,"state":"active","ping":90},{"user_id":53,"name":"NotAChanceLmao","steam_id":76561199466717297,"connected_time":5313000000000,"state":"active","ping":74},{"user_id":91,"name":"ttv/ghadilli LFT :)","steam_id":76561198045838834,"connected_time":2420000000000,"state":"active","ping":79},{"user_id":112,"name":"Snake Handler","steam_id":76561198027198306,"connected_time":1950000000000,"state":"active","ping":74},{"user_id":127,"name":"Squid121","steam_id":76561198038832034,"connected_time":825000000000,"state":"active","ping":113}]},{"server_id":15,"name":"Uncletopia | New York City | 3 | Stopwatch Beta","name_short":"nyc-3","host":"nyc-1.us.uncletopia.com","port":27035,"enabled":true,"region":"us-east","cc":"us","latitude":40.73061,"longitude":-73.93524,"reserved":0,"last_update":"0001-01-01T00:00:00Z","name_a2s":"Uncletopia | New York City | 3 | Stopwatch Beta","protocol":17,"map":"pl_pier","folder":"tf","game":"Team Fortress","app_id":440,"player_count":0,"max_players":24,"Bots":0,"server_type":"Dedicated","server_os":"Linux","password":true,"vac":true,"version":"7742253","steam_id":85568392924742820,"keywords":["nocrits","nodmgspread","payload","uncletopia"],"game_id":440,"stv_port":27036,"stv_name":"Uncletopia | New York City | 3 | Stopwatch Beta | STV","players":null},{"server_id":16,"name":"Uncletopia | New York City | 4 | Community","name_short":"nyc-4","host":"nyc-1.us.uncletopia.com","port":27045,"enabled":true,"region":"us-east","cc":"us","latitude":40.73061,"longitude":-73.93524,"reserved":0,"last_update":"0001-01-01T00:00:00Z","name_a2s":"Uncletopia | New York City | 4 | Community","protocol":17,"map":"workshop/koth_ashville_final.ugc2130459942","folder":"tf","game":"Team Fortress","app_id":440,"player_count":0,"max_players":24,"Bots":0,"server_type":"Dedicated","server_os":"Linux","password":true,"vac":true,"version":"7742253","steam_id":85568392924742821,"keywords":["cp","nocrits","nodmgspread","uncletopia"],"game_id":440,"stv_port":27046,"stv_name":"Uncletopia | New York City | 4 | Community | STV","players":null},{"server_id":142,"name":"Uncletopia | S√£o Paulo | 1 | All Maps","name_short":"sao-1","host":"sao-1.br.uncletopia.com","port":27015,"enabled":true,"region":"sa","cc":"br","latitude":-23.533773,"longitude":-46.62529,"reserved":0,"last_update":"0001-01-01T00:00:00Z","name_a2s":"Uncletopia | S√£o Paulo | 1 | All Maps","protocol":17,"map":"koth_viaduct","folder":"tf","game":"Team Fortress","app_id":440,"player_count":0,"max_players":24,"Bots":0,"server_type":"Dedicated","server_os":"Linux","password":true,"vac":true,"version":"7742253","steam_id":85568392924469996,"keywords":["cp","nocrits","nodmgspread","uncletopia"],"game_id":440,"stv_port":27016,"stv_name":"Uncletopia | S√£o Paulo | 1 | All Maps | STV","players":null},{"server_id":143,"name":"Uncletopia | S√£o Paulo | 2 | All Maps","name_short":"sao-2","host":"sao-2.br.uncletopia.com","port":27015,"enabled":true,"region":"sa","cc":"br","latitude":-23.533773,"longitude":-46.62529,"reserved":0,"last_update":"0001-01-01T00:00:00Z","name_a2s":"Uncletopia | S√£o Paulo | 2 | All Maps","protocol":17,"map":"koth_viaduct","folder":"tf","game":"Team Fortress","app_id":440,"player_count":0,"max_players":24,"Bots":0,"server_type":"Dedicated","server_os":"Linux","password":true,"vac":true,"version":"7742253","steam_id":85568392924485349,"keywords":["cp","nocrits","nodmgspread","uncletopia"],"game_id":440,"stv_port":27016,"stv_name":"Uncletopia | S√£o Paulo | 2 | All Maps | STV","players":null},{"server_id":7,"name":"Uncletopia | Seattle | 1 | All Maps","name_short":"sea-1","host":"sea-1.us.uncletopia.com","port":27015,"enabled":true,"region":"us-west","cc":"us","latitude":47.608013,"longitude":-122.33517,"reserved":0,"last_update":"0001-01-01T00:00:00Z","name_a2s":"Uncletopia | Seattle | 1 | All Maps","protocol":17,"map":"cp_mountainlab","folder":"tf","game":"Team Fortress","app_id":440,"player_count":20,"max_players":24,"Bots":0,"server_type":"Dedicated","server_os":"Linux","password":true,"vac":true,"version":"7742253","steam_id":85568392924469997,"keywords":["cp","nocrits","nodmgspread","uncletopia"],"game_id":440,"stv_port":27016,"stv_name":"Uncletopia | Seattle | 1 | All Maps | STV","players":[{"user_id":162,"name":"2 Point Tom","steam_id":76561198087617008,"connected_time":24000000000,"state":"active","ping":47},{"user_id":148,"name":"Robert E.T.","steam_id":76561197986439371,"connected_time":908000000000,"state":"active","ping":43},{"user_id":163,"name":"Maddox777","steam_id":76561199197204782,"connected_time":3000000000,"state":"spawning","ping":120},{"user_id":141,"name":"no vc no c","steam_id":76561197989503095,"connected_time":1640000000000,"state":"active","ping":161},{"user_id":159,"name":"Bag of Chips","steam_id":76561198057374871,"connected_time":382000000000,"state":"active","ping":105},{"user_id":157,"name":"MonteJT","steam_id":76561198055409360,"connected_time":521000000000,"state":"active","ping":146},{"user_id":156,"name":"JimmySquid","steam_id":76561198254242530,"connected_time":573000000000,"state":"active","ping":80},{"user_id":164,"name":"blue turtleneck femscout","steam_id":76561198050192689,"connected_time":2000000000,"state":"spawning","ping":77},{"user_id":131,"name":"Bowl of Soup","steam_id":76561198114255273,"connected_time":2667000000000,"state":"active","ping":55},{"user_id":145,"name":"rat gets the cheese","steam_id":76561198031234032,"connected_time":1188000000000,"state":"active","ping":93},{"user_id":144,"name":"Soviet Potato","steam_id":76561198068546113,"connected_time":1268000000000,"state":"active","ping":81},{"user_id":120,"name":"alice's adventures in pyroland","steam_id":76561198325306660,"connected_time":3131000000000,"state":"active","ping":55},{"user_id":149,"name":"Indecisive Papaya","steam_id":76561198314692652,"connected_time":905000000000,"state":"active","ping":86},{"user_id":161,"name":"oo","steam_id":76561198119626492,"connected_time":135000000000,"state":"active","ping":81},{"user_id":147,"name":"local engineer sweat","steam_id":76561198262573311,"connected_time":953000000000,"state":"active","ping":98},{"user_id":160,"name":"Nolan","steam_id":76561198169648081,"connected_time":233000000000,"state":"active","ping":93},{"user_id":128,"name":"sara","steam_id":76561198283462369,"connected_time":2831000000000,"state":"active","ping":75},{"user_id":154,"name":"Fh","steam_id":76561198000903511,"connected_time":625000000000,"state":"active","ping":70},{"user_id":151,"name":"ohkuuuuuurt","steam_id":76561198079474904,"connected_time":901000000000,"state":"active","ping":60},{"user_id":91,"name":"General Fisticuffs","steam_id":76561198255721392,"connected_time":4759000000000,"state":"active","ping":107}]},{"server_id":119,"name":"Uncletopia | Seattle | 2 | All Maps","name_short":"sea-2","host":"sea-1.us.uncletopia.com","port":27025,"enabled":true,"region":"us-west","cc":"us","latitude":47.608013,"longitude":-122.33517,"reserved":0,"last_update":"0001-01-01T00:00:00Z","name_a2s":"Uncletopia | Seattle | 2 | All Maps","protocol":17,"map":"cp_dustbowl","folder":"tf","game":"Team Fortress","app_id":440,"player_count":23,"max_players":24,"Bots":0,"server_type":"Dedicated","server_os":"Linux","password":true,"vac":true,"version":"7742253","steam_id":85568392924469998,"keywords":["cp","nocrits","nodmgspread","uncletopia"],"game_id":440,"stv_port":27026,"stv_name":"Uncletopia | Seattle | 2 | All Maps | STV","players":[{"user_id":14,"name":"steelborg","steam_id":76561198427292802,"connected_time":1314000000000,"state":"active","ping":137},{"user_id":22,"name":"twitch.tv/ladyloki_ch","steam_id":76561198280150602,"connected_time":892000000000,"state":"active","ping":53},{"user_id":13,"name":"ShidFard|RayWilliamJohnsonGamin","steam_id":76561198207800784,"connected_time":1347000000000,"state":"active","ping":32},{"user_id":15,"name":"dust","steam_id":76561198045218909,"connected_time":1181000000000,"state":"active","ping":45},{"user_id":19,"name":"HighOnCrackPyro","steam_id":76561199201099781,"connected_time":964000000000,"state":"active","ping":118},{"user_id":26,"name":"soulcantspeech","steam_id":76561198186690945,"connected_time":630000000000,"state":"active","ping":42},{"user_id":23,"name":"Loyf","steam_id":76561198051831496,"connected_time":803000000000,"state":"active","ping":74},{"user_id":24,"name":"Flyingcat9000","steam_id":76561198179561797,"connected_time":683000000000,"state":"active","ping":45},{"user_id":21,"name":"afeel5004","steam_id":76561199273696662,"connected_time":916000000000,"state":"active","ping":65},{"user_id":25,"name":"connorhull92807","steam_id":76561199097058659,"connected_time":666000000000,"state":"active","ping":70},{"user_id":27,"name":"horse plinko","steam_id":76561198433345421,"connected_time":611000000000,"state":"active","ping":82},{"user_id":28,"name":"memekarp","steam_id":76561198103231213,"connected_time":563000000000,"state":"active","ping":49},{"user_id":38,"name":"Angstrom Boli","steam_id":76561198025670585,"connected_time":113000000000,"state":"active","ping":104},{"user_id":31,"name":"LAzar M0Nke","steam_id":76561199083035892,"connected_time":517000000000,"state":"active","ping":67},{"user_id":32,"name":"Cat Pog","steam_id":76561198304243946,"connected_time":499000000000,"state":"active","ping":86},{"user_id":33,"name":"Jeff Pesos","steam_id":76561198086379892,"connected_time":418000000000,"state":"active","ping":126},{"user_id":34,"name":"klevin","steam_id":76561198799106535,"connected_time":402000000000,"state":"active","ping":114},{"user_id":35,"name":"mu","steam_id":76561197997530228,"connected_time":397000000000,"state":"active","ping":60},{"user_id":36,"name":"dosimeter","steam_id":76561198039608940,"connected_time":371000000000,"state":"active","ping":52},{"user_id":40,"name":"Purpl","steam_id":76561198049695851,"connected_time":25000000000,"state":"active","ping":75},{"user_id":41,"name":"uncle_komrade","steam_id":76561198050310748,"connected_time":18000000000,"state":"spawning","ping":120},{"user_id":42,"name":"HaSuAuA","steam_id":76561198401705158,"connected_time":13000000000,"state":"spawning","ping":355},{"user_id":43,"name":"Erica","steam_id":76561198716139545,"connected_time":6000000000,"state":"spawning","ping":60}]},{"server_id":406,"name":"Uncletopia | Seattle | 3 | Stopwatch Beta","name_short":"sea-3","host":"sea-1.us.uncletopia.com","port":27035,"enabled":true,"region":"us-west","cc":"us","latitude":47.608013,"longitude":-122.33517,"reserved":0,"last_update":"0001-01-01T00:00:00Z","name_a2s":"Uncletopia | Seattle | 3 | Stopwatch Beta","protocol":17,"map":"workshop/koth_ramjam_rc1.ugc459778887","folder":"tf","game":"Team Fortress","app_id":440,"player_count":0,"max_players":24,"Bots":0,"server_type":"Dedicated","server_os":"Linux","password":true,"vac":true,"version":"7742253","steam_id":85568392924515217,"keywords":["cp","nocrits","nodmgspread","uncletopia"],"game_id":440,"stv_port":27036,"stv_name":"Uncletopia | Seattle | 3 | Stopwatch Beta | STV","players":null},{"server_id":17,"name":"Uncletopia | San Francisco | 1 | All Maps","name_short":"sfo-1","host":"sfo-1.us.uncletopia.com","port":27015,"enabled":true,"region":"us-west","cc":"us","latitude":37.77397,"longitude":-122.4313,"reserved":0,"last_update":"0001-01-01T00:00:00Z","name_a2s":"Uncletopia | San Francisco | 1 | All Maps","protocol":17,"map":"pl_snowycoast","folder":"tf","game":"Team Fortress","app_id":440,"player_count":0,"max_players":24,"Bots":0,"server_type":"Dedicated","server_os":"Linux","password":true,"vac":true,"version":"7742253","steam_id":85568392924469999,"keywords":["nocrits","nodmgspread","payload","uncletopia"],"game_id":440,"stv_port":27016,"stv_name":"Uncletopia | San Francisco | 1 | All Maps | STV","players":null},{"server_id":18,"name":"Uncletopia | San Francisco | 2 | All Maps","name_short":"sfo-2","host":"sfo-1.us.uncletopia.com","port":27025,"enabled":true,"region":"us-west","cc":"us","latitude":37.77397,"longitude":-122.4313,"reserved":0,"last_update":"0001-01-01T00:00:00Z","name_a2s":"Uncletopia | San Francisco | 2 | All Maps","protocol":17,"map":"pl_borneo","folder":"tf","game":"Team Fortress","app_id":440,"player_count":0,"max_players":24,"Bots":0,"server_type":"Dedicated","server_os":"Linux","password":true,"vac":true,"version":"7742253","steam_id":85568392924470000,"keywords":["nocrits","nodmgspread","payload","uncletopia"],"game_id":440,"stv_port":27026,"stv_name":"Uncletopia | San Francisco | 2 | All Maps | STV","players":null},{"server_id":19,"name":"Uncletopia | San Francisco | 3 | Stopwatch Beta","name_short":"sfo-3","host":"sfo-1.us.uncletopia.com","port":27035,"enabled":true,"region":"us-west","cc":"us","latitude":37.77397,"longitude":-122.4313,"reserved":0,"last_update":"0001-01-01T00:00:00Z","name_a2s":"Uncletopia | San Francisco | 3 | Stopwatch Beta","protocol":17,"map":"cp_snakewater_final1","folder":"tf","game":"Team Fortress","app_id":440,"player_count":0,"max_players":24,"Bots":0,"server_type":"Dedicated","server_os":"Linux","password":true,"vac":true,"version":"7742253","steam_id":85568392924742824,"keywords":["cp","nocrits","nodmgspread","uncletopia"],"game_id":440,"stv_port":27036,"stv_name":"Uncletopia | San Francisco | 3 | Stopwatch Beta | STV","players":null},{"server_id":20,"name":"Uncletopia | San Francisco | 4 | Community","name_short":"sfo-4","host":"sfo-1.us.uncletopia.com","port":27045,"enabled":true,"region":"us-west","cc":"us","latitude":37.77397,"longitude":-122.4313,"reserved":0,"last_update":"0001-01-01T00:00:00Z","name_a2s":"Uncletopia | San Francisco | 4 | Community","protocol":17,"map":"workshop/koth_bagel_rc5.ugc2514036946","folder":"tf","game":"Team Fortress","app_id":440,"player_count":0,"max_players":24,"Bots":0,"server_type":"Dedicated","server_os":"Linux","password":true,"vac":true,"version":"7742253","steam_id":85568392924742826,"keywords":["cp","nocrits","nodmgspread","uncletopia"],"game_id":440,"stv_port":27046,"stv_name":"Uncletopia | San Francisco | 4 | Community | STV","players":null},{"server_id":141,"name":"Uncletopia | Sydney | 1 | All Maps","name_short":"syd-1","host":"syd-1.au.uncletopia.com","port":27015,"enabled":true,"region":"au","cc":"au","latitude":-33.865143,"longitude":151.2099,"reserved":0,"last_update":"0001-01-01T00:00:00Z","name_a2s":"Uncletopia | Sydney | 1 | All Maps","protocol":17,"map":"koth_lakeside_final","folder":"tf","game":"Team Fortress","app_id":440,"player_count":0,"max_players":24,"Bots":0,"server_type":"Dedicated","server_os":"Linux","password":true,"vac":true,"version":"7742253","steam_id":85568392924470001,"keywords":["cp","nocrits","nodmgspread","uncletopia"],"game_id":440,"stv_port":27016,"stv_name":"Uncletopia | Sydney | 1 | All Maps | STV","players":null},{"server_id":123,"name":"Uncletopia | Sydney | 2 | All Maps","name_short":"syd-2","host":"syd-1.au.uncletopia.com","port":27025,"enabled":true,"region":"au","cc":"au","latitude":-33.865143,"longitude":151.2099,"reserved":0,"last_update":"0001-01-01T00:00:00Z","name_a2s":"Uncletopia | Sydney | 2 | All Maps","protocol":17,"map":"pl_badwater","folder":"tf","game":"Team Fortress","app_id":440,"player_count":0,"max_players":24,"Bots":0,"server_type":"Dedicated","server_os":"Linux","password":true,"vac":true,"version":"7742253","steam_id":85568392924470002,"keywords":["nocrits","nodmgspread","payload","uncletopia"],"game_id":440,"stv_port":27026,"stv_name":"Uncletopia | Sydney | 2 | All Maps | STV","players":null},{"server_id":395,"name":"Uncletopia | Sydney | 3 | All Maps","name_short":"syd-3","host":"syd-1.au.uncletopia.com","port":27035,"enabled":true,"region":"au","cc":"au","latitude":-33.865143,"longitude":151.2099,"reserved":0,"last_update":"0001-01-01T00:00:00Z","name_a2s":"Uncletopia | Sydney | 3 | All Maps","protocol":17,"map":"koth_viaduct","folder":"tf","game":"Team Fortress","app_id":440,"player_count":0,"max_players":24,"Bots":0,"server_type":"Dedicated","server_os":"Linux","password":true,"vac":true,"version":"7742253","steam_id":85568392925194467,"keywords":["cp","nocrits","nodmgspread","uncletopia"],"game_id":440,"stv_port":27036,"stv_name":"Uncletopia | Sydney | 3 | All Maps | STV","players":null},{"server_id":396,"name":"Uncletopia | Sydney | 4 | All Maps","name_short":"syd-4","host":"syd-1.au.uncletopia.com","port":27045,"enabled":true,"region":"au","cc":"au","latitude":-33.865143,"longitude":151.2099,"reserved":0,"last_update":"0001-01-01T00:00:00Z","name_a2s":"Uncletopia | Sydney | 4 | All Maps","protocol":17,"map":"pl_frontier_final","folder":"tf","game":"Team Fortress","app_id":440,"player_count":0,"max_players":24,"Bots":0,"server_type":"Dedicated","server_os":"Linux","password":true,"vac":true,"version":"7742253","steam_id":85568392925397958,"keywords":["nocrits","nodmgspread","payload","uncletopia"],"game_id":440,"stv_port":27046,"stv_name":"Uncletopia | Sydney | 4 | All Maps | STV","players":null},{"server_id":58,"name":"Uncletopia | Sydney | 5 | Stopwatch Beta","name_short":"syd-5","host":"syd-1.au.uncletopia.com","port":27055,"enabled":true,"region":"au","cc":"au","latitude":-33.865143,"longitude":151.2099,"reserved":0,"last_update":"0001-01-01T00:00:00Z","name_a2s":"Uncletopia | Sydney | 5 | Stopwatch Beta","protocol":17,"map":"cp_sunshine","folder":"tf","game":"Team Fortress","app_id":440,"player_count":0,"max_players":24,"Bots":0,"server_type":"Dedicated","server_os":"Linux","password":true,"vac":true,"version":"7742253","steam_id":85568392925397959,"keywords":["cp","nocrits","nodmgspread","uncletopia"],"game_id":440,"stv_port":27056,"stv_name":"Uncletopia | Sydney | 5 | Stopwatch Beta | STV","players":null},{"server_id":59,"name":"Uncletopia | Sydney | 6 | Community","name_short":"syd-6","host":"syd-1.au.uncletopia.com","port":27065,"enabled":true,"region":"au","cc":"au","latitude":-33.865143,"longitude":151.2099,"reserved":0,"last_update":"0001-01-01T00:00:00Z","name_a2s":"Uncletopia | Sydney | 6 | Community","protocol":17,"map":"cp_dustbowl","folder":"tf","game":"Team Fortress","app_id":440,"player_count":0,"max_players":24,"Bots":0,"server_type":"Dedicated","server_os":"Linux","password":true,"vac":true,"version":"7742253","steam_id":85568392925397960,"keywords":["cp","nocrits","nodmgspread","uncletopia"],"game_id":440,"stv_port":27066,"stv_name":"Uncletopia | Sydney | 6 | Community | STV","players":null},{"server_id":49,"name":"Uncletopia | Warsaw | 1 | All Maps","name_short":"waw-1","host":"waw-1.pl.uncletopia.com","port":27015,"enabled":true,"region":"eu","cc":"pl","latitude":52.2297,"longitude":21.017532,"reserved":0,"last_update":"0001-01-01T00:00:00Z","name_a2s":"","protocol":0,"map":"","folder":"","game":"","app_id":0,"player_count":0,"max_players":0,"Bots":0,"server_type":"","server_os":"","password":false,"vac":false,"version":"","steam_id":0,"keywords":null,"game_id":0,"stv_port":0,"stv_name":"","players":null},{"server_id":50,"name":"Uncletopia | Warsaw | 2 | All Maps","name_short":"waw-2","host":"waw-1.pl.uncletopia.com","port":27025,"enabled":true,"region":"eu","cc":"pl","latitude":52.2297,"longitude":21.017532,"reserved":0,"last_update":"0001-01-01T00:00:00Z","name_a2s":"Uncletopia | Warsaw | 2 | All Maps","protocol":17,"map":"koth_lakeside_final","folder":"tf","game":"Team Fortress","app_id":440,"player_count":1,"max_players":24,"Bots":0,"server_type":"Dedicated","server_os":"Linux","password":true,"vac":true,"version":"7742253","steam_id":85568392925397851,"keywords":["cp","nocrits","nodmgspread","uncletopia"],"game_id":440,"stv_port":27026,"stv_name":"Uncletopia | Warsaw | 2 | All Maps | STV","players":[{"user_id":6,"name":"SilentStorm27","steam_id":76561199037242199,"connected_time":74000000000,"state":"active","ping":157}]},{"server_id":51,"name":"Uncletopia | Warsaw | 3 | All Maps","name_short":"waw-3","host":"waw-1.pl.uncletopia.com","port":27035,"enabled":true,"region":"eu","cc":"pl","latitude":52.2297,"longitude":21.017532,"reserved":0,"last_update":"0001-01-01T00:00:00Z","name_a2s":"Uncletopia | Warsaw | 3 | All Maps","protocol":17,"map":"koth_lakeside_final","folder":"tf","game":"Team Fortress","app_id":440,"player_count":0,"max_players":24,"Bots":0,"server_type":"Dedicated","server_os":"Linux","password":true,"vac":true,"version":"7742253","steam_id":85568392925397852,"keywords":["cp","nocrits","nodmgspread","uncletopia"],"game_id":440,"stv_port":27036,"stv_name":"Uncletopia | Warsaw | 3 | All Maps | STV","players":null},{"server_id":52,"name":"Uncletopia | Warsaw | 4 | All Maps","name_short":"waw-4","host":"waw-1.pl.uncletopia.com","port":27045,"enabled":true,"region":"eu","cc":"pl","latitude":52.2297,"longitude":21.017532,"reserved":0,"last_update":"0001-01-01T00:00:00Z","name_a2s":"Uncletopia | Warsaw | 4 | All Maps","protocol":17,"map":"pl_badwater","folder":"tf","game":"Team Fortress","app_id":440,"player_count":20,"max_players":24,"Bots":0,"server_type":"Dedicated","server_os":"Linux","password":true,"vac":true,"version":"7742253","steam_id":85568392925397853,"keywords":["nocrits","nodmgspread","payload","uncletopia"],"game_id":440,"stv_port":27046,"stv_name":"Uncletopia | Warsaw | 4 | All Maps | STV","players":[{"user_id":167,"name":"_zipfile","steam_id":76561198066133808,"connected_time":757000000000,"state":"connecting","ping":84},{"user_id":174,"name":"JoJo","steam_id":76561198296920548,"connected_time":392000000000,"state":"connecting","ping":217},{"user_id":179,"name":"markus #Hindiboys","steam_id":76561198186791643,"connected_time":41000000000,"state":"connecting","ping":113},{"user_id":157,"name":"LOBZIK","steam_id":76561198114830120,"connected_time":1428000000000,"state":"connecting","ping":64},{"user_id":105,"name":"sucha dupa(the calm one)","steam_id":76561198329452971,"connected_time":6466000000000,"state":"connecting","ping":73},{"user_id":160,"name":"QuestionMark","steam_id":76561199020079040,"connected_time":1132000000000,"state":"connecting","ping":175},{"user_id":115,"name":"Monsteh","steam_id":76561198325898181,"connected_time":5706000000000,"state":"connecting","ping":98},{"user_id":175,"name":"mex :3","steam_id":76561198091083324,"connected_time":329000000000,"state":"connecting","ping":79},{"user_id":147,"name":"makema","steam_id":76561198066919135,"connected_time":2243000000000,"state":"connecting","ping":111},{"user_id":176,"name":"The Big J","steam_id":76561198158202901,"connected_time":320000000000,"state":"connecting","ping":63},{"user_id":136,"name":"engie?","steam_id":76561198331852832,"connected_time":3932000000000,"state":"connecting","ping":143},{"user_id":178,"name":"Duda","steam_id":76561198306177608,"connected_time":153000000000,"state":"connecting","ping":116},{"user_id":72,"name":"Abel","steam_id":76561198857940653,"connected_time":8120000000000,"state":"connecting","ping":50},{"user_id":73,"name":"Nana(anger issues)","steam_id":76561198315144211,"connected_time":8113000000000,"state":"connecting","ping":56},{"user_id":140,"name":"EGirlGang","steam_id":76561198257435792,"connected_time":3644000000000,"state":"spawning","ping":63},{"user_id":150,"name":"Sleepycoffyn","steam_id":76561199278648379,"connected_time":2134000000000,"state":"connecting","ping":76},{"user_id":125,"name":"CyberBuddha [RU/EN]","steam_id":76561198075853329,"connected_time":5367000000000,"state":"connecting","ping":148},{"user_id":155,"name":"Fbafroguy","steam_id":76561199113010473,"connected_time":1799000000000,"state":"connecting","ping":98},{"user_id":170,"name":"poopcorn","steam_id":76561198435246575,"connected_time":707000000000,"state":"connecting","ping":83},{"user_id":128,"name":"Demoman flying at fast speed tf","steam_id":76561198356626387,"connected_time":4929000000000,"state":"connecting","ping":86}]},{"server_id":53,"name":"Uncletopia | Warsaw | 5 | Stopwatch Beta","name_short":"waw-5","host":"waw-1.pl.uncletopia.com","port":27055,"enabled":true,"region":"eu","cc":"pl","latitude":52.2297,"longitude":21.017532,"reserved":0,"last_update":"0001-01-01T00:00:00Z","name_a2s":"Uncletopia | Warsaw | 5 | Stopwatch Beta","protocol":17,"map":"pl_swiftwater_final1","folder":"tf","game":"Team Fortress","app_id":440,"player_count":0,"max_players":24,"Bots":0,"server_type":"Dedicated","server_os":"Linux","password":true,"vac":true,"version":"7742253","steam_id":85568392925397854,"keywords":["nocrits","nodmgspread","payload","uncletopia"],"game_id":440,"stv_port":27056,"stv_name":"Uncletopia | Warsaw | 5 | Stopwatch Beta | STV","players":null},{"server_id":54,"name":"Uncletopia | Warsaw | 6 | Community","name_short":"waw-6","host":"waw-1.pl.uncletopia.com","port":27065,"enabled":true,"region":"eu","cc":"pl","latitude":52.2297,"longitude":21.017532,"reserved":0,"last_update":"0001-01-01T00:00:00Z","name_a2s":"Uncletopia | Warsaw | 6 | Community","protocol":17,"map":"workshop/koth_slaughter_rc1.ugc1712845210","folder":"tf","game":"Team Fortress","app_id":440,"player_count":0,"max_players":24,"Bots":0,"server_type":"Dedicated","server_os":"Linux","password":true,"vac":true,"version":"7742253","steam_id":85568392925397856,"keywords":["cp","nocrits","nodmgspread","uncletopia"],"game_id":440,"stv_port":27066,"stv_name":"Uncletopia | Warsaw | 6 | Community | STV","players":null}]}