{"status":true,"message":"","result":[{"server_id":9,"name":"Uncletopia | Atlanta | 1 | All Maps","name_short":"atl-1","host":"atl-1.us.uncletopia.com","port":27015,"enabled":true,"region":"us-east","cc":"us","latitude":33.753746,"longitude":-84.38633,"reserved":0,"last_update":"0001-01-01T00:00:00Z","name_a2s":"Uncletopia | Atlanta | 1 | All Maps","protocol":17,"map":"pl_badwater","folder":"tf","game":"Team Fortress","app_id":440,"player_count":21,"max_players":24,"Bots":0,"server_type":"Dedicated","server_os":"Linux","password":true,"vac":true,"version":"7757534","steam_id":85568392924469982,"keywords":["nocrits","nodmgspread","payload","uncletopia"],"game_id":440,"stv_port":27016,"stv_name":"Uncletopia | Atlanta | 1 | All Maps | STV","players":[{"user_id":621,"name":"Jin","steam_id":76561198119873148,"connected_time":4696000000000,"state":"active","ping":60},{"user_id":596,"name":"wire-guided","steam_id":76561198055407168,"connected_time":7061000000000,"state":"active","ping":59},{"user_id":668,"name":"Miro","steam_id":76561198936412406,"connected_time":340000000000,"state":"active","ping":72},{"user_id":611,"name":"DFR Le4n!!!","steam_id":76561198045522596,"connected_time":5743000000000,"state":"active","ping":70},{"user_id":502,"name":"BIG HOG","steam_id":76561198079923652,"connected_time":18551000000000,"state":"active","ping":61},{"user_id":652,"name":"Sophie","steam_id":76561198170408057,"connected_time":1804000000000,"state":"active","ping":45},{"user_id":623,"name":"lil hog","steam_id":76561199230929836,"connected_time":4689000000000,"state":"active","ping":79},{"user_id":653,"name":"Walter White","steam_id":76561198875469297,"connected_time":1440000000000,"state":"active","ping":82},{"user_id":622,"name":"AlphaScout","steam_id":76561198047797890,"connected_time":4694000000000,"state":"active","ping":81},{"user_id":649,"name":"Tibalt Nyahuma","steam_id":76561198034779431,"connected_time":2040000000000,"state":"active","ping":64},{"user_id":672,"name":"Tresthebest360","steam_id":76561198965347175,"connected_time":7000000000,"state":"spawning","ping":46},{"user_id":664,"name":"eish","steam_id":76561198089463603,"connected_time":662000000000,"state":"active","ping":113},{"user_id":671,"name":"PackingPeanutt :)","steam_id":76561199053229413,"connected_time":93000000000,"state":"active","ping":84},{"user_id":655,"name":"Arti","steam_id":76561197983352845,"connected_time":1423000000000,"state":"active","ping":115},{"user_id":640,"name":"DD_440","steam_id":76561199135978082,"connected_time":3069000000000,"state":"active","ping":69},{"user_id":641,"name":"toilethumor","steam_id":76561197962028780,"connected_time":3047000000000,"state":"active","ping":51},{"user_id":643,"name":"Zillers","steam_id":76561198095248744,"connected_time":2564000000000,"state":"active","ping":83},{"user_id":667,"name":"mr.edderkopper","steam_id":76561198152614478,"connected_time":492000000000,"state":"active","ping":60},{"user_id":636,"name":"Albino Jellyfish","steam_id":76561198208561097,"connected_time":3564000000000,"state":"active","ping":60},{"user_id":661,"name":"substance","steam_id":76561198050103868,"connected_time":1021000000000,"state":"active","ping":97},{"user_id":666,"name":"morphine","steam_id":76561198072124799,"connected_time":570000000000,"state":"active","ping":95}]},{"server_id":104,"name":"Uncletopia | Atlanta | 2 | All Maps","name_short":"atl-2","host":"atl-1.us.uncletopia.com","port":27025,"enabled":true,"region":"us-east","cc":"us","latitude":33.753746,"longitude":-84.38633,"reserved":0,"last_update":"0001-01-01T00:00:00Z","name_a2s":"Uncletopia | Atlanta | 2 | All Maps","protocol":17,"map":"cp_snakewater_final1","folder":"tf","game":"Team Fortress","app_id":440,"player_count":22,"max_players":24,"Bots":0,"server_type":"Dedicated","server_os":"Linux","password":true,"vac":true,"version":"7757534","steam_id":85568392924469983,"keywords":["cp","nocrits","nodmgspread","uncletopia"],"game_id":440,"stv_port":27026,"stv_name":"Uncletopia | Atlanta | 2 | All Maps | STV","players":[{"user_id":542,"name":"FireQuiz","steam_id":76561198107357249,"connected_time":2323000000000,"state":"active","ping":131},{"user_id":565,"name":"SEWER RODENT","steam_id":76561198858984051,"connected_time":961000000000,"state":"active","ping":75},{"user_id":566,"name":"cock inspector","steam_id":76561198303251899,"connected_time":886000000000,"state":"active","ping":61},{"user_id":567,"name":"puss","steam_id":76561198409588134,"connected_time":868000000000,"state":"active","ping":61},{"user_id":543,"name":"Kevin Edwards","steam_id":76561197998808319,"connected_time":2274000000000,"state":"active","ping":71},{"user_id":527,"name":"Terror-Billy #SaveTF2","steam_id":76561198328141870,"connected_time":3508000000000,"state":"active","ping":80},{"user_id":574,"name":"della","steam_id":76561198118877005,"connected_time":665000000000,"state":"active","ping":60},{"user_id":563,"name":"silver_lama","steam_id":76561198101132894,"connected_time":1039000000000,"state":"active","ping":86},{"user_id":546,"name":"Hench4Life","steam_id":76561198039220710,"connected_time":2237000000000,"state":"active","ping":84},{"user_id":579,"name":"Not Humanz","steam_id":76561198366693517,"connected_time":63000000000,"state":"active","ping":118},{"user_id":548,"name":"SIGMA [BS]","steam_id":76561197962604879,"connected_time":2132000000000,"state":"active","ping":65},{"user_id":550,"name":"Soupman_Official","steam_id":76561198314308732,"connected_time":2040000000000,"state":"active","ping":88},{"user_id":568,"name":"DavidBowiesPackage","steam_id":76561198148729253,"connected_time":867000000000,"state":"active","ping":76},{"user_id":518,"name":"HALO 3","steam_id":76561198020825795,"connected_time":4117000000000,"state":"active","ping":70},{"user_id":535,"name":"loldewdz","steam_id":76561198067562811,"connected_time":3006000000000,"state":"active","ping":77},{"user_id":577,"name":"aversa","steam_id":76561198840460101,"connected_time":506000000000,"state":"active","ping":60},{"user_id":555,"name":"GKEmperor","steam_id":76561197995187011,"connected_time":1913000000000,"state":"active","ping":76},{"user_id":570,"name":"Gamermax1440","steam_id":76561198238174754,"connected_time":848000000000,"state":"active","ping":53},{"user_id":558,"name":"Beyond 5D","steam_id":76561199444514940,"connected_time":1777000000000,"state":"active","ping":148},{"user_id":560,"name":"roman","steam_id":76561198170066797,"connected_time":1724000000000,"state":"active","ping":60},{"user_id":571,"name":"BONK!","steam_id":76561198965043686,"connected_time":840000000000,"state":"active","ping":160},{"user_id":578,"name":"89","steam_id":76561198106308056,"connected_time":484000000000,"state":"active","ping":106}]},{"server_id":400,"name":"Uncletopia | Atlanta | 3 | Community","name_short":"atl-3","host":"atl-1.us.uncletopia.com","port":27035,"enabled":true,"region":"us-east","cc":"us","latitude":33.753746,"longitude":-84.38633,"reserved":0,"last_update":"0001-01-01T00:00:00Z","name_a2s":"Uncletopia | Atlanta | 3 | Community","protocol":17,"map":"workshop/cp_glacier_rc6.ugc2905735376","folder":"tf","game":"Team Fortress","app_id":440,"player_count":0,"max_players":24,"Bots":0,"server_type":"Dedicated","server_os":"Linux","password":true,"vac":true,"version":"7757534","steam_id":85568392924515187,"keywords":["cp","nocrits","nodmgspread","uncletopia"],"game_id":440,"stv_port":27036,"stv_name":"Uncletopia | Atlanta | 3 | Community | STV","players":null},{"server_id":401,"name":"Uncletopia | Atlanta | 4 | No Payload","name_short":"atl-4","host":"atl-1.us.uncletopia.com","port":27045,"enabled":true,"region":"us-east","cc":"us","latitude":33.753746,"longitude":-84.38633,"reserved":0,"last_update":"0001-01-01T00:00:00Z","name_a2s":"","protocol":0,"map":"","folder":"","game":"","app_id":0,"player_count":0,"max_players":0,"Bots":0,"server_type":"","server_os":"","password":false,"vac":false,"version":"","steam_id":0,"keywords":null,"game_id":0,"stv_port":0,"stv_name":"","players":null},{"server_id":2,"name":"Uncletopia | Chicago | 1 | All Maps","name_short":"chi-1","host":"chi-1.us.uncletopia.com","port":27015,"enabled":true,"region":"us-central","cc":"us","latitude":41.881832,"longitude":-87.62318,"reserved":0,"last_update":"0001-01-01T00:00:00Z","name_a2s":"Uncletopia | Chicago | 1 | All Maps","protocol":17,"map":"pl_badwater","folder":"tf","game":"Team Fortress","app_id":440,"player_count":24,"max_players":24,"Bots":0,"server_type":"Dedicated","server_os":"Linux","password":true,"vac":true,"version":"7757534","steam_id":85568392924469984,"keywords":["nocrits","nodmgspread","payload","uncletopia"],"game_id":440,"stv_port":27016,"stv_name":"Uncletopia | Chicago | 1 | All Maps | STV","players":[{"user_id":838,"name":"Sepper","steam_id":76561197969460077,"connected_time":883000000000,"state":"active","ping":83},{"user_id":779,"name":"beefaroni","steam_id":76561198126489501,"connected_time":6054000000000,"state":"active","ping":45},{"user_id":846,"name":"Dapper Monkey","steam_id":76561199047665187,"connected_time":417000000000,"state":"active","ping":69},{"user_id":847,"name":"Throwaway","steam_id":76561199019962499,"connected_time":385000000000,"state":"active","ping":62},{"user_id":844,"name":"golem","steam_id":76561198355040593,"connected_time":525000000000,"state":"active","ping":74},{"user_id":850,"name":"Habba","steam_id":76561197986096340,"connected_time":297000000000,"state":"active","ping":75},{"user_id":817,"name":"GuyGoom","steam_id":76561198254522178,"connected_time":2877000000000,"state":"active","ping":50},{"user_id":789,"name":"Voodo133","steam_id":76561198042670351,"connected_time":5018000000000,"state":"active","ping":84},{"user_id":833,"name":"Forshard","steam_id":76561197989742293,"connected_time":1076000000000,"state":"active","ping":70},{"user_id":834,"name":"Lleo","steam_id":76561198012293101,"connected_time":1056000000000,"state":"active","ping":76},{"user_id":819,"name":"_","steam_id":76561198191199554,"connected_time":2775000000000,"state":"active","ping":62},{"user_id":848,"name":"Dan Stan The Mr Man","steam_id":76561198017134269,"connected_time":363000000000,"state":"active","ping":152},{"user_id":845,"name":"Ninja Cat","steam_id":76561198122312868,"connected_time":514000000000,"state":"active","ping":51},{"user_id":843,"name":"Michaelpc1","steam_id":76561198088365519,"connected_time":665000000000,"state":"active","ping":75},{"user_id":853,"name":"1998 Toyota HiLux Turbo 2.7","steam_id":76561198134261336,"connected_time":37000000000,"state":"active","ping":132},{"user_id":851,"name":"be","steam_id":76561198000824533,"connected_time":296000000000,"state":"active","ping":111},{"user_id":822,"name":"frank","steam_id":76561198137777483,"connected_time":2574000000000,"state":"active","ping":63},{"user_id":839,"name":"quint","steam_id":76561198046797995,"connected_time":882000000000,"state":"active","ping":67},{"user_id":797,"name":"Skill Saw Sam","steam_id":76561199013064727,"connected_time":4924000000000,"state":"active","ping":81},{"user_id":811,"name":"Kng","steam_id":76561198993248203,"connected_time":3877000000000,"state":"active","ping":82},{"user_id":852,"name":"catrinaisahuman","steam_id":76561198281355729,"connected_time":271000000000,"state":"active","ping":65},{"user_id":799,"name":"Adam9","steam_id":76561198272853331,"connected_time":4904000000000,"state":"active","ping":62},{"user_id":841,"name":"Germs kill","steam_id":76561199327664719,"connected_time":878000000000,"state":"active","ping":125},{"user_id":842,"name":"Pineapple Mango Lemonade","steam_id":76561198127421560,"connected_time":877000000000,"state":"active","ping":68}]},{"server_id":106,"name":"Uncletopia | Chicago | 2 | All Maps","name_short":"chi-2","host":"chi-1.us.uncletopia.com","port":27025,"enabled":true,"region":"us-central","cc":"us","latitude":41.881832,"longitude":-87.62318,"reserved":0,"last_update":"0001-01-01T00:00:00Z","name_a2s":"Uncletopia | Chicago | 2 | All Maps","protocol":17,"map":"pl_pier","folder":"tf","game":"Team Fortress","app_id":440,"player_count":24,"max_players":24,"Bots":0,"server_type":"Dedicated","server_os":"Linux","password":true,"vac":true,"version":"7757534","steam_id":85568392924469985,"keywords":["nocrits","nodmgspread","payload","uncletopia"],"game_id":440,"stv_port":27026,"stv_name":"Uncletopia | Chicago | 2 | All Maps | STV","players":[{"user_id":924,"name":"the cow is now in your house","steam_id":76561198251672386,"connected_time":867000000000,"state":"active","ping":48},{"user_id":937,"name":"volar","steam_id":76561198954814358,"connected_time":290000000000,"state":"active","ping":53},{"user_id":925,"name":"cow fucker","steam_id":76561198260785238,"connected_time":843000000000,"state":"active","ping":103},{"user_id":926,"name":"Eden","steam_id":76561198075587475,"connected_time":728000000000,"state":"active","ping":43},{"user_id":940,"name":"ìÜèCayenne Pepper ìÜè","steam_id":76561198124881810,"connected_time":246000000000,"state":"active","ping":118},{"user_id":927,"name":"sc67","steam_id":76561199302471485,"connected_time":725000000000,"state":"active","ping":36},{"user_id":898,"name":"duneblaster0","steam_id":76561198040364680,"connected_time":3413000000000,"state":"active","ping":48},{"user_id":928,"name":"Scum Knight","steam_id":76561198282444763,"connected_time":715000000000,"state":"active","ping":60},{"user_id":933,"name":"LilJonny","steam_id":76561198185250439,"connected_time":570000000000,"state":"active","ping":117},{"user_id":881,"name":"{FITH}‚Ñ¢ Tnega Libram","steam_id":76561197997973526,"connected_time":5010000000000,"state":"active","ping":73},{"user_id":930,"name":"Awesome Johnson","steam_id":76561198082647180,"connected_time":689000000000,"state":"active","ping":69},{"user_id":938,"name":"countrychefbeerboy92","steam_id":76561198132476501,"connected_time":289000000000,"state":"active","ping":42},{"user_id":863,"name":"Serbian Stalker","steam_id":76561199182959265,"connected_time":5468000000000,"state":"active","ping":71},{"user_id":917,"name":"PootisLife","steam_id":76561198074400568,"connected_time":1663000000000,"state":"active","ping":90},{"user_id":865,"name":"justapikmin","steam_id":76561199023650282,"connected_time":5461000000000,"state":"active","ping":77},{"user_id":939,"name":"cotton candy muncher","steam_id":76561198058998371,"connected_time":278000000000,"state":"active","ping":68},{"user_id":936,"name":"girl smell","steam_id":76561198118962168,"connected_time":520000000000,"state":"active","ping":89},{"user_id":932,"name":"Ask Nicely For Heals","steam_id":76561198138478907,"connected_time":653000000000,"state":"active","ping":64},{"user_id":918,"name":"imagine a cow","steam_id":76561198413125750,"connected_time":1633000000000,"state":"active","ping":66},{"user_id":919,"name":"roo the observer","steam_id":76561198120684348,"connected_time":1565000000000,"state":"active","ping":47},{"user_id":920,"name":"Dr. Sexism","steam_id":76561198251171246,"connected_time":1554000000000,"state":"active","ping":158},{"user_id":921,"name":"Mush","steam_id":76561198393461065,"connected_time":1554000000000,"state":"active","ping":79},{"user_id":886,"name":"spunk","steam_id":76561198131089513,"connected_time":4974000000000,"state":"active","ping":50},{"user_id":935,"name":"kris the deer (angry)","steam_id":76561198170928310,"connected_time":560000000000,"state":"active","ping":62}]},{"server_id":402,"name":"Uncletopia | Chicago | 3 | All Maps","name_short":"chi-3","host":"chi-1.us.uncletopia.com","port":27035,"enabled":true,"region":"us-central","cc":"us","latitude":41.881832,"longitude":-87.62318,"reserved":0,"last_update":"0001-01-01T00:00:00Z","name_a2s":"Uncletopia | Chicago | 3 | All Maps","protocol":17,"map":"pl_barnblitz","folder":"tf","game":"Team Fortress","app_id":440,"player_count":0,"max_players":24,"Bots":0,"server_type":"Dedicated","server_os":"Linux","password":true,"vac":true,"version":"7757534","steam_id":85568392924515191,"keywords":["nocrits","nodmgspread","payload","uncletopia"],"game_id":440,"stv_port":27036,"stv_name":"Uncletopia | Chicago | 3 | All Maps | STV","players":null},{"server_id":403,"name":"Uncletopia | Chicago | 4 | All Maps","name_short":"chi-4","host":"chi-1.us.uncletopia.com","port":27045,"enabled":true,"region":"us-central","cc":"us","latitude":41.881832,"longitude":-87.62318,"reserved":0,"last_update":"0001-01-01T00:00:00Z","name_a2s":"Uncletopia | Chicago | 4 | All Maps","protocol":17,"map":"cp_mercenarypark","folder":"tf","game":"Team Fortress","app_id":440,"player_count":22,"max_players":24,"Bots":0,"server_type":"Dedicated","server_os":"Linux","password":true,"vac":true,"version":"7757534","steam_id":85568392924515193,"keywords":["cp","nocrits","nodmgspread","uncletopia"],"game_id":440,"stv_port":27046,"stv_name":"Uncletopia | Chicago | 4 | All Maps | STV","players":[{"user_id":808,"name":"Marcy2231","steam_id":76561198202323656,"connected_time":163000000000,"state":"active","ping":54},{"user_id":763,"name":"Goldensliv","steam_id":76561198161673891,"connected_time":5065000000000,"state":"active","ping":92},{"user_id":809,"name":"One Horned Bitch Destroyer","steam_id":76561198045810191,"connected_time":91000000000,"state":"active","ping":82},{"user_id":771,"name":"periwinkle","steam_id":76561198021231689,"connected_time":3828000000000,"state":"active","ping":84},{"user_id":810,"name":"LasagnaLary","steam_id":76561198051016438,"connected_time":80000000000,"state":"active","ping":75},{"user_id":811,"name":"feliser","steam_id":76561198084336096,"connected_time":51000000000,"state":"active","ping":50},{"user_id":812,"name":"Sabaman55","steam_id":76561198212267979,"connected_time":46000000000,"state":"active","ping":47},{"user_id":806,"name":"Rain","steam_id":76561198022607401,"connected_time":431000000000,"state":"active","ping":71},{"user_id":786,"name":"hi :3","steam_id":76561198126358045,"connected_time":1739000000000,"state":"active","ping":76},{"user_id":736,"name":"Sprit ‚ô•","steam_id":76561198268780781,"connected_time":6115000000000,"state":"active","ping":51},{"user_id":787,"name":"eple","steam_id":76561198017686306,"connected_time":1735000000000,"state":"active","ping":151},{"user_id":796,"name":"Keirb","steam_id":76561198027031567,"connected_time":1185000000000,"state":"active","ping":113},{"user_id":740,"name":"crafters4000","steam_id":76561198304200963,"connected_time":5808000000000,"state":"active","ping":63},{"user_id":741,"name":"Circuit Spark","steam_id":76561198832124473,"connected_time":5791000000000,"state":"active","ping":62},{"user_id":799,"name":"Truly Cryo","steam_id":76561198347497484,"connected_time":1049000000000,"state":"active","ping":82},{"user_id":797,"name":"Justanotherhominid","steam_id":76561198097265274,"connected_time":1122000000000,"state":"active","ping":111},{"user_id":807,"name":"ecto cooler","steam_id":76561198068409067,"connected_time":382000000000,"state":"active","ping":75},{"user_id":775,"name":"CarbonNotes","steam_id":76561198042006558,"connected_time":3308000000000,"state":"active","ping":81},{"user_id":755,"name":"RedSock","steam_id":76561198161243404,"connected_time":5517000000000,"state":"active","ping":45},{"user_id":790,"name":"wby","steam_id":76561198053650453,"connected_time":1689000000000,"state":"active","ping":151},{"user_id":791,"name":"k.p.070805","steam_id":76561199067487017,"connected_time":1686000000000,"state":"active","ping":71},{"user_id":793,"name":"postgres","steam_id":76561198011204750,"connected_time":1615000000000,"state":"active","ping":80}]},{"server_id":36,"name":"Uncletopia | Chicago | 5 | All Maps","name_short":"chi-5","host":"chi-2.us.uncletopia.com","port":27015,"enabled":true,"region":"us-central","cc":"us","latitude":41.881832,"longitude":-87.62318,"reserved":0,"last_update":"0001-01-01T00:00:00Z","name_a2s":"Uncletopia | Chicago | 5 | All Maps","protocol":17,"map":"pl_pier","folder":"tf","game":"Team Fortress","app_id":440,"player_count":3,"max_players":24,"Bots":0,"server_type":"Dedicated","server_os":"Linux","password":true,"vac":true,"version":"7757534","steam_id":85568392924866362,"keywords":["nocrits","nodmgspread","payload","uncletopia"],"game_id":440,"stv_port":27016,"stv_name":"Uncletopia | Chicago | 5 | All Maps | STV","players":[{"user_id":540,"name":"Cynicalrage #TF2center","steam_id":76561198085805532,"connected_time":4810000000000,"state":"active","ping":44},{"user_id":486,"name":"TacticalFluke","steam_id":76561198403291862,"connected_time":8234000000000,"state":"active","ping":77},{"user_id":502,"name":"ProbiusSC","steam_id":76561198379167322,"connected_time":8000000000000,"state":"active","ping":85}]},{"server_id":37,"name":"Uncletopia | Chicago | 6 | All Maps","name_short":"chi-6","host":"chi-2.us.uncletopia.com","port":27025,"enabled":true,"region":"us-central","cc":"us","latitude":41.881832,"longitude":-87.62318,"reserved":0,"last_update":"0001-01-01T00:00:00Z","name_a2s":"Uncletopia | Chicago | 6 | All Maps","protocol":17,"map":"cp_sunshine","folder":"tf","game":"Team Fortress","app_id":440,"player_count":0,"max_players":24,"Bots":0,"server_type":"Dedicated","server_os":"Linux","password":true,"vac":true,"version":"7757534","steam_id":85568392924866363,"keywords":["cp","nocrits","nodmgspread","uncletopia"],"game_id":440,"stv_port":27026,"stv_name":"Uncletopia | Chicago | 6 | All Maps | STV","players":null},{"server_id":38,"name":"Uncletopia | Chicago | 7 | Stopwatch Beta","name_short":"chi-7","host":"chi-2.us.uncletopia.com","port":27035,"enabled":true,"region":"us-central","cc":"us","latitude":41.881832,"longitude":-87.62318,"reserved":0,"last_update":"0001-01-01T00:00:00Z","name_a2s":"Uncletopia | Chicago | 7 | Stopwatch Beta","protocol":17,"map":"workshop/koth_ramjam_rc1.ugc459778887","folder":"tf","game":"Team Fortress","app_id":440,"player_count":0,"max_players":24,"Bots":0,"server_type":"Dedicated","server_os":"Linux","password":true,"vac":true,"version":"7757534","steam_id":85568392924866364,"keywords":["cp","nocrits","nodmgspread","uncletopia"],"game_id":440,"stv_port":27036,"stv_name":"Uncletopia | Chicago | 7 | Stopwatch Beta | STV","players":null},{"server_id":39,"name":"Uncletopia | Chicago | 8 | Community","name_short":"chi-8","host":"chi-2.us.uncletopia.com","port":27045,"enabled":true,"region":"us-central","cc":"us","latitude":41.881832,"longitude":-87.62318,"reserved":0,"last_update":"0001-01-01T00:00:00Z","name_a2s":"Uncletopia | Chicago | 8 | Community","protocol":17,"map":"workshop/koth_bagel_rc6.ugc2514036946","folder":"tf","game":"Team Fortress","app_id":440,"player_count":0,"max_players":24,"Bots":0,"server_type":"Dedicated","server_os":"Linux","password":true,"vac":true,"version":"7757534","steam_id":85568392924866365,"keywords":["cp","nocrits","nodmgspread","uncletopia"],"game_id":440,"stv_port":27046,"stv_name":"Uncletopia | Chicago | 8 | Community | STV","players":null},{"server_id":8,"name":"Uncletopia | Dallas | 1 | All Maps","name_short":"dal-1","host":"dal-1.us.uncletopia.com","port":27015,"enabled":true,"region":"us-central","cc":"us","latitude":32.779167,"longitude":-96.80889,"reserved":0,"last_update":"0001-01-01T00:00:00Z","name_a2s":"Uncletopia | Dallas | 1 | All Maps","protocol":17,"map":"pl_pier","folder":"tf","game":"Team Fortress","app_id":440,"player_count":22,"max_players":24,"Bots":0,"server_type":"Dedicated","server_os":"Linux","password":true,"vac":true,"version":"7757534","steam_id":85568392924469986,"keywords":["nocrits","nodmgspread","payload","uncletopia"],"game_id":440,"stv_port":27016,"stv_name":"Uncletopia | Dallas | 1 | All Maps | STV","players":[{"user_id":649,"name":"slay3r","steam_id":76561198012414439,"connected_time":92000000000,"state":"active","ping":117},{"user_id":647,"name":"chopsthicc","steam_id":76561198114114447,"connected_time":155000000000,"state":"active","ping":47},{"user_id":631,"name":"SiphonFIre","steam_id":76561198305327992,"connected_time":1790000000000,"state":"active","ping":59},{"user_id":571,"name":"sweets n treats","steam_id":76561198013039087,"connected_time":6890000000000,"state":"active","ping":63},{"user_id":632,"name":"THE PHONKY BLASTER 9000","steam_id":76561198299580095,"connected_time":1770000000000,"state":"active","ping":45},{"user_id":628,"name":"a gamer most foul","steam_id":76561198045810207,"connected_time":2103000000000,"state":"active","ping":79},{"user_id":642,"name":"GhastlyGhostJr","steam_id":76561198037484203,"connected_time":767000000000,"state":"active","ping":64},{"user_id":650,"name":"TF3 Medic gaming","steam_id":76561199053687718,"connected_time":43000000000,"state":"active","ping":119},{"user_id":644,"name":"Byrdseed","steam_id":76561198110709656,"connected_time":421000000000,"state":"active","ping":82},{"user_id":615,"name":"{ST} Oxythemoron","steam_id":76561198060089965,"connected_time":2990000000000,"state":"active","ping":58},{"user_id":640,"name":"briggs","steam_id":76561198045655893,"connected_time":1124000000000,"state":"active","ping":86},{"user_id":600,"name":"calcium","steam_id":76561198103598619,"connected_time":4532000000000,"state":"active","ping":68},{"user_id":616,"name":"Faraday","steam_id":76561198089928357,"connected_time":2983000000000,"state":"active","ping":49},{"user_id":651,"name":"Idiotden","steam_id":76561199340950135,"connected_time":32000000000,"state":"spawning","ping":60},{"user_id":652,"name":"Team Fartpiss Poo","steam_id":76561199163591880,"connected_time":23000000000,"state":"active","ping":90},{"user_id":625,"name":"Krow","steam_id":76561198010392099,"connected_time":2569000000000,"state":"active","ping":48},{"user_id":633,"name":"kermitcreeper(ZAZA)","steam_id":76561199222829972,"connected_time":1760000000000,"state":"active","ping":61},{"user_id":635,"name":"shadowarrior","steam_id":76561198231304076,"connected_time":1542000000000,"state":"active","ping":63},{"user_id":626,"name":"Jello","steam_id":76561198890633732,"connected_time":2421000000000,"state":"active","ping":67},{"user_id":563,"name":"A Straw","steam_id":76561199367935846,"connected_time":8192000000000,"state":"active","ping":68},{"user_id":645,"name":"deb","steam_id":76561198414336279,"connected_time":221000000000,"state":"active","ping":60},{"user_id":596,"name":"sqgly","steam_id":76561198105508955,"connected_time":4880000000000,"state":"active","ping":71}]},{"server_id":108,"name":"Uncletopia | Dallas | 2 | All Maps","name_short":"dal-2","host":"dal-1.us.uncletopia.com","port":27025,"enabled":true,"region":"us-central","cc":"us","latitude":32.779167,"longitude":-96.80889,"reserved":0,"last_update":"0001-01-01T00:00:00Z","name_a2s":"Uncletopia | Dallas | 2 | All Maps","protocol":17,"map":"ctf_doublecross","folder":"tf","game":"Team Fortress","app_id":440,"player_count":14,"max_players":24,"Bots":0,"server_type":"Dedicated","server_os":"Linux","password":true,"vac":true,"version":"7757534","steam_id":85568392924469988,"keywords":["ctf","nocrits","nodmgspread","uncletopia"],"game_id":440,"stv_port":27026,"stv_name":"Uncletopia | Dallas | 2 | All Maps | STV","players":[{"user_id":530,"name":"Yume","steam_id":76561198018060136,"connected_time":567000000000,"state":"active","ping":75},{"user_id":531,"name":"Lore","steam_id":76561198098407538,"connected_time":535000000000,"state":"active","ping":60},{"user_id":534,"name":"Aribari (She/Her)","steam_id":76561198117327938,"connected_time":54000000000,"state":"spawning","ping":60},{"user_id":485,"name":"Speed Weed","steam_id":76561198007512620,"connected_time":5865000000000,"state":"active","ping":55},{"user_id":515,"name":"I Have A Name","steam_id":76561198011699246,"connected_time":2303000000000,"state":"active","ping":99},{"user_id":533,"name":"Yosh","steam_id":76561198027078899,"connected_time":353000000000,"state":"active","ping":74},{"user_id":526,"name":"LACTOSE","steam_id":76561198282604344,"connected_time":1587000000000,"state":"active","ping":85},{"user_id":527,"name":"Dattallguy","steam_id":76561198873155093,"connected_time":1032000000000,"state":"active","ping":68},{"user_id":517,"name":"golly gee willikers","steam_id":76561198069407799,"connected_time":2299000000000,"state":"active","ping":74},{"user_id":506,"name":"Koffy","steam_id":76561198184386039,"connected_time":3578000000000,"state":"active","ping":87},{"user_id":510,"name":"Arcadletus","steam_id":76561198976009938,"connected_time":2698000000000,"state":"active","ping":50},{"user_id":473,"name":"FullMetalSlugCat","steam_id":76561199193784099,"connected_time":7438000000000,"state":"active","ping":60},{"user_id":427,"name":"Lambchop","steam_id":76561198043900363,"connected_time":11922000000000,"state":"active","ping":89},{"user_id":451,"name":"Mapachito Lindo","steam_id":76561198031359995,"connected_time":9699000000000,"state":"active","ping":89}]},{"server_id":5,"name":"Uncletopia | Frankfurt | 1 | All Maps","name_short":"frk-1","host":"frk-1.de.uncletopia.com","port":27015,"enabled":true,"region":"eu","cc":"de","latitude":50.110924,"longitude":8.682127,"reserved":0,"last_update":"0001-01-01T00:00:00Z","name_a2s":"Uncletopia | Frankfurt | 1 | All Maps","protocol":17,"map":"pl_snowycoast","folder":"tf","game":"Team Fortress","app_id":440,"player_count":0,"max_players":24,"Bots":0,"server_type":"Dedicated","server_os":"Linux","password":true,"vac":true,"version":"7757534","steam_id":85568392924469989,"keywords":["nocrits","nodmgspread","payload","uncletopia"],"game_id":440,"stv_port":27016,"stv_name":"Uncletopia | Frankfurt | 1 | All Maps | STV","players":null},{"server_id":110,"name":"Uncletopia | Frankfurt | 2 | All Maps","name_short":"frk-2","host":"frk-1.de.uncletopia.com","port":27025,"enabled":true,"region":"eu","cc":"de","latitude":50.110924,"longitude":8.682127,"reserved":0,"last_update":"0001-01-01T00:00:00Z","name_a2s":"Uncletopia | Frankfurt | 2 | All Maps","protocol":17,"map":"cp_snakewater_final1","folder":"tf","game":"Team Fortress","app_id":440,"player_count":0,"max_players":24,"Bots":0,"server_type":"Dedicated","server_os":"Linux","password":true,"vac":true,"version":"7757534","steam_id":85568392924469990,"keywords":["cp","nocrits","nodmgspread","uncletopia"],"game_id":440,"stv_port":27026,"stv_name":"Uncletopia | Frankfurt | 2 | All Maps | STV","players":null},{"server_id":308,"name":"Uncletopia | Frankfurt | 3 | All Maps","name_short":"frk-3","host":"frk-1.de.uncletopia.com","port":27035,"enabled":true,"region":"eu","cc":"de","latitude":50.110924,"longitude":8.682127,"reserved":0,"last_update":"0001-01-01T00:00:00Z","name_a2s":"Uncletopia | Frankfurt | 3 | All Maps","protocol":17,"map":"pl_swiftwater_final1","folder":"tf","game":"Team Fortress","app_id":440,"player_count":0,"max_players":24,"Bots":0,"server_type":"Dedicated","server_os":"Linux","password":true,"vac":true,"version":"7757534","steam_id":85568392924504274,"keywords":["nocrits","nodmgspread","payload","uncletopia"],"game_id":440,"stv_port":27036,"stv_name":"Uncletopia | Frankfurt | 3 | All Maps | STV","players":null},{"server_id":309,"name":"Uncletopia | Frankfurt | 4 | All Maps","name_short":"frk-4","host":"frk-1.de.uncletopia.com","port":27045,"enabled":true,"region":"eu","cc":"de","latitude":50.110924,"longitude":8.682127,"reserved":0,"last_update":"0001-01-01T00:00:00Z","name_a2s":"Uncletopia | Frankfurt | 4 | All Maps","protocol":17,"map":"koth_viaduct","folder":"tf","game":"Team Fortress","app_id":440,"player_count":0,"max_players":24,"Bots":0,"server_type":"Dedicated","server_os":"Linux","password":true,"vac":true,"version":"7757534","steam_id":85568392924504275,"keywords":["cp","nocrits","nodmgspread","uncletopia"],"game_id":440,"stv_port":27046,"stv_name":"Uncletopia | Frankfurt | 4 | All Maps | STV","players":null},{"server_id":310,"name":"Uncletopia | Frankfurt | 5 | All Maps","name_short":"frk-5","host":"frk-1.de.uncletopia.com","port":27055,"enabled":true,"region":"eu","cc":"de","latitude":50.110924,"longitude":8.682127,"reserved":0,"last_update":"0001-01-01T00:00:00Z","name_a2s":"Uncletopia | Frankfurt | 5 | All Maps","protocol":17,"map":"koth_lakeside_final","folder":"tf","game":"Team Fortress","app_id":440,"player_count":0,"max_players":24,"Bots":0,"server_type":"Dedicated","server_os":"Linux","password":true,"vac":true,"version":"7757534","steam_id":85568392924504277,"keywords":["cp","nocrits","nodmgspread","uncletopia"],"game_id":440,"stv_port":27056,"stv_name":"Uncletopia | Frankfurt | 5 | All Maps | STV","players":null},{"server_id":311,"name":"Uncletopia | Frankfurt | 6 | All Maps","name_short":"frk-6","host":"frk-1.de.uncletopia.com","port":27065,"enabled":true,"region":"eu","cc":"de","latitude":50.110924,"longitude":8.682127,"reserved":0,"last_update":"0001-01-01T00:00:00Z","name_a2s":"Uncletopia | Frankfurt | 6 | All Maps","protocol":17,"map":"pl_frontier_final","folder":"tf","game":"Team Fortress","app_id":440,"player_count":0,"max_players":24,"Bots":0,"server_type":"Dedicated","server_os":"Linux","password":true,"vac":true,"version":"7757534","steam_id":85568392924504278,"keywords":["nocrits","nodmgspread","payload","uncletopia"],"game_id":440,"stv_port":27066,"stv_name":"Uncletopia | Frankfurt | 6 | All Maps | STV","players":null},{"server_id":23,"name":"Uncletopia | Frankfurt | 7 | Stopwatch Beta","name_short":"frk-7","host":"frk-1.de.uncletopia.com","port":27075,"enabled":true,"region":"eu","cc":"de","latitude":50.110924,"longitude":8.682127,"reserved":0,"last_update":"0001-01-01T00:00:00Z","name_a2s":"Uncletopia | Frankfurt | 7 | Stopwatch Beta","protocol":17,"map":"cp_sunshine","folder":"tf","game":"Team Fortress","app_id":440,"player_count":0,"max_players":24,"Bots":0,"server_type":"Dedicated","server_os":"Linux","password":true,"vac":true,"version":"7757534","steam_id":85568392924742827,"keywords":["cp","nocrits","nodmgspread","uncletopia"],"game_id":440,"stv_port":27076,"stv_name":"Uncletopia | Frankfurt | 7 | Stopwatch Beta | STV","players":null},{"server_id":24,"name":"Uncletopia | Frankfurt | 8 | Community","name_short":"frk-8","host":"frk-1.de.uncletopia.com","port":27085,"enabled":true,"region":"eu","cc":"de","latitude":50.110924,"longitude":8.682127,"reserved":0,"last_update":"0001-01-01T00:00:00Z","name_a2s":"Uncletopia | Frankfurt | 8 | Community","protocol":17,"map":"workshop/koth_ashville_final.ugc2130459942","folder":"tf","game":"Team Fortress","app_id":440,"player_count":0,"max_players":24,"Bots":0,"server_type":"Dedicated","server_os":"Linux","password":true,"vac":true,"version":"7757534","steam_id":85568392924742828,"keywords":["cp","nocrits","nodmgspread","uncletopia"],"game_id":440,"stv_port":27086,"stv_name":"Uncletopia | Frankfurt | 8 | Community | STV","players":null},{"server_id":202,"name":"Uncletopia | Hong Kong | 1 | All Maps","name_short":"hgk-1","host":"hgk-1.hk.uncletopia.com","port":27015,"enabled":true,"region":"asia","cc":"hk","latitude":22.302711,"longitude":114.177216,"reserved":0,"last_update":"0001-01-01T00:00:00Z","name_a2s":"Uncletopia | Hong Kong | 1 | All Maps","protocol":17,"map":"cp_process_final","folder":"tf","game":"Team Fortress","app_id":440,"player_count":4,"max_players":24,"Bots":0,"server_type":"Dedicated","server_os":"Linux","password":true,"vac":true,"version":"7757534","steam_id":85568392924494504,"keywords":["cp","nocrits","nodmgspread","uncletopia"],"game_id":440,"stv_port":27016,"stv_name":"Uncletopia | Hong Kong | 1 | All Maps | STV","players":[{"user_id":44,"name":"Benny","steam_id":76561199380507541,"connected_time":173000000000,"state":"active","ping":108},{"user_id":42,"name":"Aug","steam_id":76561199212711900,"connected_time":440000000000,"state":"active","ping":104},{"user_id":45,"name":"Incompertent mercenaries","steam_id":76561198386626651,"connected_time":110000000000,"state":"active","ping":59},{"user_id":46,"name":"Jaysong","steam_id":76561198828599078,"connected_time":47000000000,"state":"active","ping":118}]},{"server_id":1,"name":"Uncletopia | Los Angeles | 1 | All Maps","name_short":"lax-1","host":"lax-1.us.uncletopia.com","port":27015,"enabled":true,"region":"us-west","cc":"us","latitude":33.94279,"longitude":-118.41004,"reserved":0,"last_update":"0001-01-01T00:00:00Z","name_a2s":"Uncletopia | Los Angeles | 1 | All Maps","protocol":17,"map":"koth_cascade","folder":"tf","game":"Team Fortress","app_id":440,"player_count":0,"max_players":24,"Bots":0,"server_type":"Dedicated","server_os":"Linux","password":true,"vac":true,"version":"7757534","steam_id":85568392924469991,"keywords":["cp","nocrits","nodmgspread","uncletopia"],"game_id":440,"stv_port":27016,"stv_name":"Uncletopia | Los Angeles | 1 | All Maps | STV","players":null},{"server_id":112,"name":"Uncletopia | Los Angeles | 2 | All Maps","name_short":"lax-2","host":"lax-1.us.uncletopia.com","port":27025,"enabled":true,"region":"us-west","cc":"us","latitude":33.94279,"longitude":-118.41004,"reserved":0,"last_update":"0001-01-01T00:00:00Z","name_a2s":"Uncletopia | Los Angeles | 2 | All Maps","protocol":17,"map":"pl_frontier_final","folder":"tf","game":"Team Fortress","app_id":440,"player_count":24,"max_players":24,"Bots":0,"server_type":"Dedicated","server_os":"Linux","password":true,"vac":true,"version":"7757534","steam_id":85568392924469992,"keywords":["nocrits","nodmgspread","payload","uncletopia"],"game_id":440,"stv_port":27026,"stv_name":"Uncletopia | Los Angeles | 2 | All Maps | STV","players":[{"user_id":619,"name":"RedRam","steam_id":76561198376857682,"connected_time":1755000000000,"state":"active","ping":46},{"user_id":578,"name":"Altruisticailuridae","steam_id":76561198335295596,"connected_time":4675000000000,"state":"active","ping":47},{"user_id":580,"name":"JustForKicks96","steam_id":76561198055486814,"connected_time":4446000000000,"state":"active","ping":75},{"user_id":581,"name":"help","steam_id":76561198044689625,"connected_time":4441000000000,"state":"active","ping":75},{"user_id":603,"name":"Cy","steam_id":76561198134543062,"connected_time":2659000000000,"state":"active","ping":63},{"user_id":601,"name":"stboncho","steam_id":76561198172275301,"connected_time":2800000000000,"state":"active","ping":68},{"user_id":625,"name":"Dovy","steam_id":76561198308973032,"connected_time":230000000000,"state":"active","ping":75},{"user_id":599,"name":"Moffein","steam_id":76561198016739296,"connected_time":2989000000000,"state":"active","ping":62},{"user_id":626,"name":"skosgo -eg","steam_id":76561197996403345,"connected_time":225000000000,"state":"active","ping":58},{"user_id":590,"name":"H-keyLF","steam_id":76561198376014891,"connected_time":3580000000000,"state":"active","ping":58},{"user_id":602,"name":"alpharuby","steam_id":76561198051638462,"connected_time":2785000000000,"state":"active","ping":45},{"user_id":591,"name":"PauperPiplup","steam_id":76561198079755313,"connected_time":3578000000000,"state":"active","ping":145},{"user_id":605,"name":"TheBlueBaron","steam_id":76561198093164594,"connected_time":2580000000000,"state":"active","ping":69},{"user_id":593,"name":"EpicSurfer12","steam_id":76561198827103794,"connected_time":3550000000000,"state":"active","ping":60},{"user_id":624,"name":"s4lmon","steam_id":76561198055882807,"connected_time":1212000000000,"state":"active","ping":77},{"user_id":616,"name":"bigman1","steam_id":76561198050225055,"connected_time":1940000000000,"state":"active","ping":54},{"user_id":618,"name":"Andreshatesmondays","steam_id":76561198889349797,"connected_time":1802000000000,"state":"active","ping":54},{"user_id":615,"name":"Marc G","steam_id":76561198062650363,"connected_time":2376000000000,"state":"active","ping":77},{"user_id":609,"name":"nothowon","steam_id":76561198937601452,"connected_time":2465000000000,"state":"active","ping":107},{"user_id":610,"name":"Billy Yank","steam_id":76561199059733640,"connected_time":2455000000000,"state":"active","ping":64},{"user_id":611,"name":"Satori Komeiji","steam_id":76561198158211423,"connected_time":2442000000000,"state":"active","ping":44},{"user_id":627,"name":"BigGoose","steam_id":76561198833281392,"connected_time":223000000000,"state":"active","ping":81},{"user_id":617,"name":"Max","steam_id":76561197961272955,"connected_time":1815000000000,"state":"active","ping":40},{"user_id":623,"name":"mu","steam_id":76561197997530228,"connected_time":1361000000000,"state":"active","ping":90}]},{"server_id":324,"name":"Uncletopia | Los Angeles | 3 | All Maps","name_short":"lax-3","host":"lax-1.us.uncletopia.com","port":27035,"enabled":true,"region":"us-west","cc":"us","latitude":33.94279,"longitude":-118.41004,"reserved":0,"last_update":"0001-01-01T00:00:00Z","name_a2s":"Uncletopia | Los Angeles | 3 | All Maps","protocol":17,"map":"pl_borneo","folder":"tf","game":"Team Fortress","app_id":440,"player_count":22,"max_players":24,"Bots":0,"server_type":"Dedicated","server_os":"Linux","password":true,"vac":true,"version":"7757534","steam_id":85568392924510198,"keywords":["nocrits","nodmgspread","payload","uncletopia"],"game_id":440,"stv_port":27036,"stv_name":"Uncletopia | Los Angeles | 3 | All Maps | STV","players":[{"user_id":234,"name":"Dean Martin","steam_id":76561198419470351,"connected_time":4765000000000,"state":"active","ping":46},{"user_id":210,"name":"Baggage","steam_id":76561198215128080,"connected_time":7368000000000,"state":"active","ping":60},{"user_id":214,"name":"Cosmic Visor","steam_id":76561197990817172,"connected_time":6668000000000,"state":"active","ping":65},{"user_id":276,"name":"pt","steam_id":76561198143023330,"connected_time":2477000000000,"state":"active","ping":44},{"user_id":248,"name":"ketsu","steam_id":76561197966171554,"connected_time":4121000000000,"state":"active","ping":160},{"user_id":287,"name":"Sheriff Monkey","steam_id":76561198053556583,"connected_time":881000000000,"state":"active","ping":164},{"user_id":237,"name":"Frank Sinatra","steam_id":76561197981708855,"connected_time":4745000000000,"state":"active","ping":45},{"user_id":284,"name":"hardfork","steam_id":76561197960958019,"connected_time":1240000000000,"state":"active","ping":74},{"user_id":298,"name":"no","steam_id":76561197993355194,"connected_time":130000000000,"state":"active","ping":46},{"user_id":294,"name":"WATCH EMESIS BLUE RIGHT NOW!!!","steam_id":76561198356426602,"connected_time":513000000000,"state":"active","ping":41},{"user_id":280,"name":"squid","steam_id":76561198070236972,"connected_time":1514000000000,"state":"active","ping":56},{"user_id":281,"name":"crunchy obama","steam_id":76561198044485217,"connected_time":1474000000000,"state":"active","ping":61},{"user_id":282,"name":"PBxJAY","steam_id":76561198402471788,"connected_time":1423000000000,"state":"active","ping":86},{"user_id":241,"name":"big man","steam_id":76561198338622737,"connected_time":4684000000000,"state":"active","ping":74},{"user_id":291,"name":"cream team","steam_id":76561198139043953,"connected_time":598000000000,"state":"active","ping":77},{"user_id":195,"name":"Auggy","steam_id":76561198041816037,"connected_time":8524000000000,"state":"active","ping":56},{"user_id":296,"name":"FlipFlops","steam_id":76561198271700906,"connected_time":289000000000,"state":"active","ping":54},{"user_id":297,"name":"Mega_Weeb_","steam_id":76561198327269542,"connected_time":266000000000,"state":"active","ping":71},{"user_id":274,"name":"Excalibrine","steam_id":76561198129312118,"connected_time":2797000000000,"state":"active","ping":60},{"user_id":275,"name":"Arcane Flame","steam_id":76561198360024422,"connected_time":2750000000000,"state":"active","ping":56},{"user_id":269,"name":"DJ Sheeve","steam_id":76561198095910139,"connected_time":3142000000000,"state":"active","ping":104},{"user_id":246,"name":"Taco+Taco=Burrito","steam_id":76561198063128663,"connected_time":4534000000000,"state":"active","ping":45}]},{"server_id":25,"name":"Uncletopia | Los Angeles | 4 | Stopwatch Beta","name_short":"lax-4","host":"lax-1.us.uncletopia.com","port":27045,"enabled":true,"region":"us-west","cc":"us","latitude":33.94279,"longitude":-118.41004,"reserved":0,"last_update":"0001-01-01T00:00:00Z","name_a2s":"Uncletopia | Los Angeles | 4 | Stopwatch Beta","protocol":17,"map":"pl_swiftwater_final1","folder":"tf","game":"Team Fortress","app_id":440,"player_count":0,"max_players":24,"Bots":0,"server_type":"Dedicated","server_os":"Linux","password":true,"vac":true,"version":"7757534","steam_id":85568392924510199,"keywords":["nocrits","nodmgspread","payload","uncletopia"],"game_id":440,"stv_port":27046,"stv_name":"Uncletopia | Los Angeles | 4 | Stopwatch Beta | STV","players":null},{"server_id":11,"name":"Uncletopia | London | 1 | All Maps","name_short":"lon-1","host":"lon-1.uk.uncletopia.com","port":27015,"enabled":true,"region":"eu","cc":"gb","latitude":51.509865,"longitude":-0.118092,"reserved":0,"last_update":"0001-01-01T00:00:00Z","name_a2s":"Uncletopia | London | 1 | All Maps","protocol":17,"map":"koth_highpass","folder":"tf","game":"Team Fortress","app_id":440,"player_count":0,"max_players":24,"Bots":0,"server_type":"Dedicated","server_os":"Linux","password":true,"vac":true,"version":"7757534","steam_id":85568392924367362,"keywords":["cp","nocrits","nodmgspread","uncletopia"],"game_id":440,"stv_port":27016,"stv_name":"Uncletopia | London | 1 | All Maps | STV","players":null},{"server_id":114,"name":"Uncletopia | London | 2 | All Maps","name_short":"lon-2","host":"lon-1.uk.uncletopia.com","port":27025,"enabled":true,"region":"eu","cc":"gb","latitude":51.509865,"longitude":-0.118092,"reserved":0,"last_update":"0001-01-01T00:00:00Z","name_a2s":"Uncletopia | London | 2 | All Maps","protocol":17,"map":"koth_viaduct","folder":"tf","game":"Team Fortress","app_id":440,"player_count":0,"max_players":24,"Bots":0,"server_type":"Dedicated","server_os":"Linux","password":true,"vac":true,"version":"7757534","steam_id":85568392924470941,"keywords":["cp","nocrits","nodmgspread","uncletopia"],"game_id":440,"stv_port":27026,"stv_name":"Uncletopia | London | 2 | All Maps | STV","players":null},{"server_id":320,"name":"Uncletopia | London | 3 | All Maps","name_short":"lon-3","host":"lon-1.uk.uncletopia.com","port":27035,"enabled":true,"region":"eu","cc":"gb","latitude":51.509865,"longitude":-0.118092,"reserved":0,"last_update":"0001-01-01T00:00:00Z","name_a2s":"Uncletopia | London | 3 | All Maps","protocol":17,"map":"cp_dustbowl","folder":"tf","game":"Team Fortress","app_id":440,"player_count":0,"max_players":24,"Bots":0,"server_type":"Dedicated","server_os":"Linux","password":true,"vac":true,"version":"7757534","steam_id":85568392924510192,"keywords":["cp","nocrits","nodmgspread","uncletopia"],"game_id":440,"stv_port":27036,"stv_name":"Uncletopia | London | 3 | All Maps | STV","players":null},{"server_id":321,"name":"Uncletopia | London | 4 | All Maps","name_short":"lon-4","host":"lon-1.uk.uncletopia.com","port":27045,"enabled":true,"region":"eu","cc":"gb","latitude":51.509865,"longitude":-0.118092,"reserved":0,"last_update":"0001-01-01T00:00:00Z","name_a2s":"Uncletopia | London | 4 | All Maps","protocol":17,"map":"cp_dustbowl","folder":"tf","game":"Team Fortress","app_id":440,"player_count":0,"max_players":24,"Bots":0,"server_type":"Dedicated","server_os":"Linux","password":true,"vac":true,"version":"7757534","steam_id":85568392924510193,"keywords":["cp","nocrits","nodmgspread","uncletopia"],"game_id":440,"stv_port":27046,"stv_name":"Uncletopia | London | 4 | All Maps | STV","players":null},{"server_id":21,"name":"Uncletopia | London | 5 | All Maps","name_short":"lon-5","host":"lon-1.uk.uncletopia.com","port":27055,"enabled":true,"region":"eu","cc":"gb","latitude":51.509865,"longitude":-0.118092,"reserved":0,"last_update":"0001-01-01T00:00:00Z","name_a2s":"Uncletopia | London | 5 | All Maps","protocol":17,"map":"cp_altitude","folder":"tf","game":"Team Fortress","app_id":440,"player_count":0,"max_players":24,"Bots":0,"server_type":"Dedicated","server_os":"Linux","password":true,"vac":true,"version":"7757534","steam_id":85568392924742829,"keywords":["cp","nocrits","nodmgspread","uncletopia"],"game_id":440,"stv_port":27056,"stv_name":"Uncletopia | London | 5 | All Maps | STV","players":null},{"server_id":22,"name":"Uncletopia | London | 6 | All Maps","name_short":"lon-6","host":"lon-1.uk.uncletopia.com","port":27065,"enabled":true,"region":"eu","cc":"gb","latitude":51.509865,"longitude":-0.118092,"reserved":0,"last_update":"0001-01-01T00:00:00Z","name_a2s":"Uncletopia | London | 6 | All Maps","protocol":17,"map":"cp_mountainlab","folder":"tf","game":"Team Fortress","app_id":440,"player_count":0,"max_players":24,"Bots":0,"server_type":"Dedicated","server_os":"Linux","password":true,"vac":true,"version":"7757534","steam_id":85568392924742830,"keywords":["cp","nocrits","nodmgspread","uncletopia"],"game_id":440,"stv_port":27066,"stv_name":"Uncletopia | London | 6 | All Maps | STV","players":null},{"server_id":40,"name":"Uncletopia | London | 7 | No Payload","name_short":"lon-7","host":"lon-1.uk.uncletopia.com","port":27075,"enabled":true,"region":"eu","cc":"gb","latitude":51.509865,"longitude":-0.118092,"reserved":0,"last_update":"0001-01-01T00:00:00Z","name_a2s":"Uncletopia | London | 7 | No Payload","protocol":17,"map":"pl_badwater","folder":"tf","game":"Team Fortress","app_id":440,"player_count":0,"max_players":24,"Bots":0,"server_type":"Dedicated","server_os":"Linux","password":true,"vac":true,"version":"7757534","steam_id":85568392924964314,"keywords":["nocrits","nodmgspread","payload","uncletopia"],"game_id":440,"stv_port":27076,"stv_name":"Uncletopia | London | 7 | No Payload | STV","players":null},{"server_id":41,"name":"Uncletopia | London | 8 | Community","name_short":"lon-8","host":"lon-1.uk.uncletopia.com","port":27085,"enabled":true,"region":"eu","cc":"gb","latitude":51.509865,"longitude":-0.118092,"reserved":0,"last_update":"0001-01-01T00:00:00Z","name_a2s":"Uncletopia | London | 8 | Community","protocol":17,"map":"pl_barnblitz","folder":"tf","game":"Team Fortress","app_id":440,"player_count":0,"max_players":24,"Bots":0,"server_type":"Dedicated","server_os":"Linux","password":true,"vac":true,"version":"7757534","steam_id":85568392924964315,"keywords":["nocrits","nodmgspread","payload","uncletopia"],"game_id":440,"stv_port":27086,"stv_name":"Uncletopia | London | 8 | Community | STV","players":null},{"server_id":300,"name":"Uncletopia | Montr√©al | 1 | All Maps","name_short":"mtl-1","host":"mtl-1.ca.uncletopia.com","port":27015,"enabled":true,"region":"us-east","cc":"ca","latitude":45.50889,"longitude":-73.56167,"reserved":0,"last_update":"0001-01-01T00:00:00Z","name_a2s":"Uncletopia | Montr√©al | 1 | All Maps","protocol":17,"map":"cp_snakewater_final1","folder":"tf","game":"Team Fortress","app_id":440,"player_count":0,"max_players":24,"Bots":0,"server_type":"Dedicated","server_os":"Linux","password":true,"vac":true,"version":"7757534","steam_id":85568392924500087,"keywords":["cp","nocrits","nodmgspread","uncletopia"],"game_id":440,"stv_port":27016,"stv_name":"Uncletopia | Montr√©al | 1 | All Maps | STV","players":null},{"server_id":301,"name":"Uncletopia | Montr√©al | 2 | All Maps","name_short":"mtl-2","host":"mtl-1.ca.uncletopia.com","port":27025,"enabled":true,"region":"us-east","cc":"ca","latitude":45.50889,"longitude":-73.56167,"reserved":0,"last_update":"0001-01-01T00:00:00Z","name_a2s":"Uncletopia | Montr√©al | 2 | All Maps","protocol":17,"map":"cp_process_final","folder":"tf","game":"Team Fortress","app_id":440,"player_count":0,"max_players":24,"Bots":0,"server_type":"Dedicated","server_os":"Linux","password":true,"vac":true,"version":"7757534","steam_id":85568392924500088,"keywords":["cp","nocrits","nodmgspread","uncletopia"],"game_id":440,"stv_port":27026,"stv_name":"Uncletopia | Montr√©al | 2 | All Maps | STV","players":null},{"server_id":302,"name":"Uncletopia | Montr√©al | 3 | All Maps","name_short":"mtl-3","host":"mtl-1.ca.uncletopia.com","port":27035,"enabled":true,"region":"us-east","cc":"ca","latitude":45.50889,"longitude":-73.56167,"reserved":0,"last_update":"0001-01-01T00:00:00Z","name_a2s":"Uncletopia | Montr√©al | 3 | All Maps","protocol":17,"map":"koth_cascade","folder":"tf","game":"Team Fortress","app_id":440,"player_count":0,"max_players":24,"Bots":0,"server_type":"Dedicated","server_os":"Linux","password":true,"vac":true,"version":"7757534","steam_id":85568392924500089,"keywords":["cp","nocrits","nodmgspread","uncletopia"],"game_id":440,"stv_port":27036,"stv_name":"Uncletopia | Montr√©al | 3 | All Maps | STV","players":null},{"server_id":303,"name":"Uncletopia | Montr√©al | 4 | No Payload","name_short":"mtl-4","host":"mtl-1.ca.uncletopia.com","port":27045,"enabled":true,"region":"us-east","cc":"ca","latitude":45.50889,"longitude":-73.56167,"reserved":0,"last_update":"0001-01-01T00:00:00Z","name_a2s":"Uncletopia | Montr√©al | 4 | No Payload","protocol":17,"map":"koth_harvest_final","folder":"tf","game":"Team Fortress","app_id":440,"player_count":0,"max_players":24,"Bots":0,"server_type":"Dedicated","server_os":"Linux","password":true,"vac":true,"version":"7757534","steam_id":85568392924500090,"keywords":["cp","nocrits","nodmgspread","uncletopia"],"game_id":440,"stv_port":27046,"stv_name":"Uncletopia | Montr√©al | 4 | No Payload | STV","players":null},{"server_id":13,"name":"Uncletopia | New York City | 1 | All Maps","name_short":"nyc-1","host":"nyc-1.us.uncletopia.com","port":27015,"enabled":true,"region":"us-east","cc":"us","latitude":40.73061,"longitude":-73.93524,"reserved":0,"last_update":"0001-01-01T00:00:00Z","name_a2s":"Uncletopia | New York City | 1 | All Maps","protocol":17,"map":"pl_barnblitz","folder":"tf","game":"Team Fortress","app_id":440,"player_count":14,"max_players":24,"Bots":0,"server_type":"Dedicated","server_os":"Linux","password":true,"vac":true,"version":"7757534","steam_id":85568392924469993,"keywords":["nocrits","nodmgspread","payload","uncletopia"],"game_id":440,"stv_port":27016,"stv_name":"Uncletopia | New York City | 1 | All Maps | STV","players":[{"user_id":744,"name":"DaggerDouk","steam_id":76561199035811769,"connected_time":2329000000000,"state":"active","ping":85},{"user_id":670,"name":"Ludcmorais","steam_id":76561198359217809,"connected_time":7628000000000,"state":"active","ping":173},{"user_id":764,"name":"government assigned catgirl","steam_id":76561198833468802,"connected_time":144000000000,"state":"active","ping":66},{"user_id":761,"name":"Grilled Of The Cheese","steam_id":76561198145066749,"connected_time":398000000000,"state":"active","ping":62},{"user_id":762,"name":"GTO- TheRealWeiner","steam_id":76561198083975056,"connected_time":354000000000,"state":"active","ping":136},{"user_id":754,"name":"wokky bin laddn","steam_id":76561198265200834,"connected_time":1569000000000,"state":"active","ping":67},{"user_id":728,"name":"Slazzer","steam_id":76561198404351844,"connected_time":3711000000000,"state":"active","ping":55},{"user_id":758,"name":"Honeybadger","steam_id":76561198075944319,"connected_time":731000000000,"state":"active","ping":74},{"user_id":763,"name":"Ocelot","steam_id":76561198263386006,"connected_time":211000000000,"state":"active","ping":180},{"user_id":666,"name":"Jesse Bear","steam_id":76561198217075305,"connected_time":7868000000000,"state":"active","ping":56},{"user_id":674,"name":"tesagi","steam_id":76561198026664629,"connected_time":7432000000000,"state":"active","ping":43},{"user_id":735,"name":"box","steam_id":76561198985635309,"connected_time":3277000000000,"state":"active","ping":82},{"user_id":678,"name":"Casual Costanza","steam_id":76561198024409325,"connected_time":7337000000000,"state":"active","ping":60},{"user_id":742,"name":"Tea Enthusiast","steam_id":76561198185583925,"connected_time":3019000000000,"state":"active","ping":38}]},{"server_id":14,"name":"Uncletopia | New York City | 2 | All Maps","name_short":"nyc-2","host":"nyc-1.us.uncletopia.com","port":27025,"enabled":true,"region":"us-east","cc":"us","latitude":40.73061,"longitude":-73.93524,"reserved":0,"last_update":"0001-01-01T00:00:00Z","name_a2s":"Uncletopia | New York City | 2 | All Maps","protocol":17,"map":"koth_lakeside_final","folder":"tf","game":"Team Fortress","app_id":440,"player_count":1,"max_players":24,"Bots":0,"server_type":"Dedicated","server_os":"Linux","password":true,"vac":true,"version":"7757534","steam_id":85568392924469994,"keywords":["cp","nocrits","nodmgspread","uncletopia"],"game_id":440,"stv_port":27026,"stv_name":"Uncletopia | New York City | 2 | All Maps | STV","players":[{"user_id":654,"name":"nnobi","steam_id":76561198878729277,"connected_time":2909000000000,"state":"active","ping":76}]},{"server_id":15,"name":"Uncletopia | New York City | 3 | Stopwatch Beta","name_short":"nyc-3","host":"nyc-1.us.uncletopia.com","port":27035,"enabled":true,"region":"us-east","cc":"us","latitude":40.73061,"longitude":-73.93524,"reserved":0,"last_update":"0001-01-01T00:00:00Z","name_a2s":"Uncletopia | New York City | 3 | Stopwatch Beta","protocol":17,"map":"workshop/koth_ashville_final.ugc2130459942","folder":"tf","game":"Team Fortress","app_id":440,"player_count":0,"max_players":24,"Bots":0,"server_type":"Dedicated","server_os":"Linux","password":true,"vac":true,"version":"7757534","steam_id":85568392924742820,"keywords":["cp","nocrits","nodmgspread","uncletopia"],"game_id":440,"stv_port":27036,"stv_name":"Uncletopia | New York City | 3 | Stopwatch Beta | STV","players":null},{"server_id":16,"name":"Uncletopia | New York City | 4 | Community","name_short":"nyc-4","host":"nyc-1.us.uncletopia.com","port":27045,"enabled":true,"region":"us-east","cc":"us","latitude":40.73061,"longitude":-73.93524,"reserved":0,"last_update":"0001-01-01T00:00:00Z","name_a2s":"Uncletopia | New York City | 4 | Community","protocol":17,"map":"workshop/cp_sulfur_rc2.ugc619869471","folder":"tf","game":"Team Fortress","app_id":440,"player_count":0,"max_players":24,"Bots":0,"server_type":"Dedicated","server_os":"Linux","password":true,"vac":true,"version":"7757534","steam_id":85568392924742821,"keywords":["cp","nocrits","nodmgspread","uncletopia"],"game_id":440,"stv_port":27046,"stv_name":"Uncletopia | New York City | 4 | Community | STV","players":null},{"server_id":142,"name":"Uncletopia | S√£o Paulo | 1 | All Maps","name_short":"sao-1","host":"sao-1.br.uncletopia.com","port":27015,"enabled":true,"region":"sa","cc":"br","latitude":-23.533773,"longitude":-46.62529,"reserved":0,"last_update":"0001-01-01T00:00:00Z","name_a2s":"Uncletopia | S√£o Paulo | 1 | All Maps","protocol":17,"map":"cp_process_final","folder":"tf","game":"Team Fortress","app_id":440,"player_count":0,"max_players":24,"Bots":0,"server_type":"Dedicated","server_os":"Linux","password":true,"vac":true,"version":"7757534","steam_id":85568392924469996,"keywords":["cp","nocrits","nodmgspread","uncletopia"],"game_id":440,"stv_port":27016,"stv_name":"Uncletopia | S√£o Paulo | 1 | All Maps | STV","players":null},{"server_id":143,"name":"Uncletopia | S√£o Paulo | 2 | All Maps","name_short":"sao-2","host":"sao-2.br.uncletopia.com","port":27015,"enabled":true,"region":"sa","cc":"br","latitude":-23.533773,"longitude":-46.62529,"reserved":0,"last_update":"0001-01-01T00:00:00Z","name_a2s":"Uncletopia | S√£o Paulo | 2 | All Maps","protocol":17,"map":"koth_lakeside_final","folder":"tf","game":"Team Fortress","app_id":440,"player_count":0,"max_players":24,"Bots":0,"server_type":"Dedicated","server_os":"Linux","password":true,"vac":true,"version":"7757534","steam_id":85568392924485349,"keywords":["cp","nocrits","nodmgspread","uncletopia"],"game_id":440,"stv_port":27016,"stv_name":"Uncletopia | S√£o Paulo | 2 | All Maps | STV","players":null},{"server_id":7,"name":"Uncletopia | Seattle | 1 | All Maps","name_short":"sea-1","host":"sea-1.us.uncletopia.com","port":27015,"enabled":true,"region":"us-west","cc":"us","latitude":47.608013,"longitude":-122.33517,"reserved":0,"last_update":"0001-01-01T00:00:00Z","name_a2s":"Uncletopia | Seattle | 1 | All Maps","protocol":17,"map":"pl_frontier_final","folder":"tf","game":"Team Fortress","app_id":440,"player_count":24,"max_players":24,"Bots":0,"server_type":"Dedicated","server_os":"Linux","password":true,"vac":true,"version":"7757534","steam_id":85568392924469997,"keywords":["nocrits","nodmgspread","payload","uncletopia"],"game_id":440,"stv_port":27016,"stv_name":"Uncletopia | Seattle | 1 | All Maps | STV","players":[{"user_id":732,"name":":\u003c","steam_id":76561198072789439,"connected_time":3594000000000,"state":"active","ping":34},{"user_id":759,"name":"Cam","steam_id":76561198285054047,"connected_time":77000000000,"state":"active","ping":79},{"user_id":748,"name":"Austin the Forecaster","steam_id":76561198141635855,"connected_time":1969000000000,"state":"active","ping":86},{"user_id":655,"name":"MegumiTame","steam_id":76561198450280686,"connected_time":10103000000000,"state":"active","ping":55},{"user_id":760,"name":"Cinna Mon","steam_id":76561198005840633,"connected_time":63000000000,"state":"active","ping":61},{"user_id":740,"name":"Nolan","steam_id":76561198169648081,"connected_time":2845000000000,"state":"active","ping":100},{"user_id":750,"name":"MEDICINAL CRACK ENJOYER","steam_id":76561198113427343,"connected_time":1135000000000,"state":"active","ping":88},{"user_id":731,"name":"Pirate","steam_id":76561198109089321,"connected_time":3621000000000,"state":"active","ping":80},{"user_id":756,"name":"blocks 1800","steam_id":76561198992208427,"connected_time":681000000000,"state":"active","ping":121},{"user_id":712,"name":"‚ô•haunti","steam_id":76561199235580556,"connected_time":4459000000000,"state":"active","ping":48},{"user_id":752,"name":"Jade","steam_id":76561198092408457,"connected_time":1123000000000,"state":"active","ping":52},{"user_id":697,"name":"ImmuneToPeas","steam_id":76561198342411594,"connected_time":6944000000000,"state":"active","ping":84},{"user_id":757,"name":"resting neutral face","steam_id":76561197999259502,"connected_time":429000000000,"state":"active","ping":60},{"user_id":753,"name":"XxSquidwardxX","steam_id":76561198294455367,"connected_time":1123000000000,"state":"active","ping":104},{"user_id":724,"name":"Soozy420","steam_id":76561198809074422,"connected_time":3791000000000,"state":"active","ping":75},{"user_id":682,"name":"mysterious stranger","steam_id":76561198308449320,"connected_time":8103000000000,"state":"active","ping":93},{"user_id":725,"name":"F2P Captain Crosshair","steam_id":76561199474850983,"connected_time":3723000000000,"state":"active","ping":101},{"user_id":726,"name":"goblino","steam_id":76561198068260422,"connected_time":3712000000000,"state":"active","ping":89},{"user_id":727,"name":"AwkwardNoah","steam_id":76561198087782301,"connected_time":3704000000000,"state":"active","ping":73},{"user_id":754,"name":"doozy","steam_id":76561198033106776,"connected_time":1092000000000,"state":"active","ping":88},{"user_id":733,"name":":3","steam_id":76561198058890821,"connected_time":3583000000000,"state":"active","ping":119},{"user_id":758,"name":"Stev the Prurient Oxymoron","steam_id":76561197999442625,"connected_time":130000000000,"state":"active","ping":57},{"user_id":746,"name":"Toblerone","steam_id":76561198852855840,"connected_time":2217000000000,"state":"active","ping":94},{"user_id":755,"name":"Jerome Victor","steam_id":76561198133067718,"connected_time":1084000000000,"state":"active","ping":62}]},{"server_id":119,"name":"Uncletopia | Seattle | 2 | All Maps","name_short":"sea-2","host":"sea-1.us.uncletopia.com","port":27025,"enabled":true,"region":"us-west","cc":"us","latitude":47.608013,"longitude":-122.33517,"reserved":0,"last_update":"0001-01-01T00:00:00Z","name_a2s":"Uncletopia | Seattle | 2 | All Maps","protocol":17,"map":"pl_borneo","folder":"tf","game":"Team Fortress","app_id":440,"player_count":24,"max_players":24,"Bots":0,"server_type":"Dedicated","server_os":"Linux","password":true,"vac":true,"version":"7757534","steam_id":85568392924469998,"keywords":["nocrits","nodmgspread","payload","uncletopia"],"game_id":440,"stv_port":27026,"stv_name":"Uncletopia | Seattle | 2 | All Maps | STV","players":[{"user_id":695,"name":"mub","steam_id":76561197961943948,"connected_time":2899000000000,"state":"active","ping":45},{"user_id":701,"name":"Clagger","steam_id":76561198066701092,"connected_time":2027000000000,"state":"active","ping":42},{"user_id":717,"name":"goop on ya grinch","steam_id":76561198025020072,"connected_time":1004000000000,"state":"active","ping":56},{"user_id":652,"name":"free the comish","steam_id":76561198169755734,"connected_time":7090000000000,"state":"active","ping":68},{"user_id":702,"name":"kodynotcody","steam_id":76561198340685758,"connected_time":2018000000000,"state":"active","ping":67},{"user_id":709,"name":"oil","steam_id":76561198099980149,"connected_time":1928000000000,"state":"active","ping":83},{"user_id":685,"name":"exephur","steam_id":76561198135763234,"connected_time":4241000000000,"state":"active","ping":69},{"user_id":718,"name":"mmmBoyo","steam_id":76561198821360261,"connected_time":978000000000,"state":"active","ping":68},{"user_id":713,"name":"Degenerieren","steam_id":76561198353547984,"connected_time":1299000000000,"state":"active","ping":62},{"user_id":700,"name":"Ducks","steam_id":76561198130038345,"connected_time":2058000000000,"state":"active","ping":65},{"user_id":719,"name":"DOUBLE DOWN","steam_id":76561198017659216,"connected_time":932000000000,"state":"active","ping":83},{"user_id":680,"name":"delight","steam_id":76561197980280272,"connected_time":4832000000000,"state":"active","ping":45},{"user_id":715,"name":"mega","steam_id":76561198089520959,"connected_time":1076000000000,"state":"active","ping":97},{"user_id":681,"name":"bad spy player","steam_id":76561198873699671,"connected_time":4815000000000,"state":"active","ping":51},{"user_id":643,"name":"RING DONG DORINGOS","steam_id":76561198043558709,"connected_time":8702000000000,"state":"active","ping":52},{"user_id":688,"name":"Oh No! It's Twister!","steam_id":76561198016791916,"connected_time":4056000000000,"state":"active","ping":83},{"user_id":721,"name":"ùì°ùîÇùì™ùì∑","steam_id":76561198067641129,"connected_time":683000000000,"state":"active","ping":53},{"user_id":689,"name":"gender dysphoreos","steam_id":76561198038920185,"connected_time":4019000000000,"state":"active","ping":79},{"user_id":705,"name":"Mr. Pine","steam_id":76561198112203861,"connected_time":1965000000000,"state":"active","ping":68},{"user_id":706,"name":"HammerHead","steam_id":76561197975668646,"connected_time":1960000000000,"state":"active","ping":90},{"user_id":707,"name":"Cute-Ass Cashew","steam_id":76561198092494136,"connected_time":1950000000000,"state":"active","ping":105},{"user_id":720,"name":"Aircraft Carrier Princess","steam_id":76561198348354629,"connected_time":902000000000,"state":"active","ping":69},{"user_id":710,"name":"squash","steam_id":76561198150281353,"connected_time":1867000000000,"state":"active","ping":56},{"user_id":601,"name":"jorts","steam_id":76561199041179985,"connected_time":13832000000000,"state":"active","ping":70}]},{"server_id":406,"name":"Uncletopia | Seattle | 3 | Stopwatch Beta","name_short":"sea-3","host":"sea-1.us.uncletopia.com","port":27035,"enabled":true,"region":"us-west","cc":"us","latitude":47.608013,"longitude":-122.33517,"reserved":0,"last_update":"0001-01-01T00:00:00Z","name_a2s":"Uncletopia | Seattle | 3 | Stopwatch Beta","protocol":17,"map":"koth_lakeside_final","folder":"tf","game":"Team Fortress","app_id":440,"player_count":0,"max_players":24,"Bots":0,"server_type":"Dedicated","server_os":"Linux","password":true,"vac":true,"version":"7757534","steam_id":85568392924515217,"keywords":["cp","nocrits","nodmgspread","uncletopia"],"game_id":440,"stv_port":27036,"stv_name":"Uncletopia | Seattle | 3 | Stopwatch Beta | STV","players":null},{"server_id":17,"name":"Uncletopia | San Francisco | 1 | All Maps","name_short":"sfo-1","host":"sfo-1.us.uncletopia.com","port":27015,"enabled":true,"region":"us-west","cc":"us","latitude":37.77397,"longitude":-122.4313,"reserved":0,"last_update":"0001-01-01T00:00:00Z","name_a2s":"Uncletopia | San Francisco | 1 | All Maps","protocol":17,"map":"pl_upward","folder":"tf","game":"Team Fortress","app_id":440,"player_count":24,"max_players":24,"Bots":0,"server_type":"Dedicated","server_os":"Linux","password":true,"vac":true,"version":"7757534","steam_id":85568392924469999,"keywords":["nocrits","nodmgspread","payload","uncletopia"],"game_id":440,"stv_port":27016,"stv_name":"Uncletopia | San Francisco | 1 | All Maps | STV","players":[{"user_id":586,"name":"awesomebrololo","steam_id":76561198374283489,"connected_time":403000000000,"state":"active","ping":100},{"user_id":567,"name":"touka","steam_id":76561198171521806,"connected_time":1460000000000,"state":"active","ping":73},{"user_id":581,"name":"FullMetalHanson","steam_id":76561198149565623,"connected_time":544000000000,"state":"active","ping":94},{"user_id":535,"name":"Sidekick","steam_id":76561198392740835,"connected_time":5099000000000,"state":"active","ping":69},{"user_id":541,"name":"Excrement","steam_id":76561198167740127,"connected_time":4040000000000,"state":"active","ping":60},{"user_id":489,"name":"SvicidalBug","steam_id":76561198221390504,"connected_time":8068000000000,"state":"active","ping":86},{"user_id":573,"name":"Artyom","steam_id":76561198152149679,"connected_time":1072000000000,"state":"active","ping":60},{"user_id":568,"name":"Livin' Like Larry","steam_id":76561198313360974,"connected_time":1437000000000,"state":"active","ping":35},{"user_id":549,"name":":3","steam_id":76561198008599033,"connected_time":3335000000000,"state":"active","ping":124},{"user_id":554,"name":"Boomba","steam_id":76561198071101891,"connected_time":3153000000000,"state":"active","ping":100},{"user_id":569,"name":"suicide in fragments","steam_id":76561198071430182,"connected_time":1435000000000,"state":"active","ping":101},{"user_id":580,"name":"boulder","steam_id":76561198347225801,"connected_time":588000000000,"state":"active","ping":66},{"user_id":587,"name":"Dilbert Garfunkel","steam_id":76561198088318184,"connected_time":16000000000,"state":"active","ping":62},{"user_id":572,"name":"Jazz Hands","steam_id":76561199225708271,"connected_time":1219000000000,"state":"active","ping":116},{"user_id":588,"name":"J0hN","steam_id":76561198055972894,"connected_time":11000000000,"state":"active","ping":65},{"user_id":576,"name":"Gnome Chompski","steam_id":76561198003130703,"connected_time":906000000000,"state":"active","ping":105},{"user_id":460,"name":"Ian","steam_id":76561198159334435,"connected_time":10318000000000,"state":"active","ping":179},{"user_id":536,"name":"Listerine","steam_id":76561199016293796,"connected_time":4902000000000,"state":"active","ping":63},{"user_id":584,"name":"Random Gold","steam_id":76561198151948349,"connected_time":512000000000,"state":"active","ping":105},{"user_id":552,"name":"square-","steam_id":76561198058143770,"connected_time":3310000000000,"state":"active","ping":86},{"user_id":486,"name":"Feel the bern","steam_id":76561198078824519,"connected_time":8404000000000,"state":"active","ping":78},{"user_id":564,"name":"SpringIvan","steam_id":76561199133179509,"connected_time":2044000000000,"state":"active","ping":50},{"user_id":545,"name":"darktheif54","steam_id":76561198043650119,"connected_time":3885000000000,"state":"active","ping":69},{"user_id":585,"name":"Randy","steam_id":76561198186798647,"connected_time":502000000000,"state":"active","ping":101}]},{"server_id":18,"name":"Uncletopia | San Francisco | 2 | All Maps","name_short":"sfo-2","host":"sfo-1.us.uncletopia.com","port":27025,"enabled":true,"region":"us-west","cc":"us","latitude":37.77397,"longitude":-122.4313,"reserved":0,"last_update":"0001-01-01T00:00:00Z","name_a2s":"Uncletopia | San Francisco | 2 | All Maps","protocol":17,"map":"cp_sunshine","folder":"tf","game":"Team Fortress","app_id":440,"player_count":12,"max_players":24,"Bots":0,"server_type":"Dedicated","server_os":"Linux","password":true,"vac":true,"version":"7757534","steam_id":85568392924470000,"keywords":["cp","nocrits","nodmgspread","uncletopia"],"game_id":440,"stv_port":27026,"stv_name":"Uncletopia | San Francisco | 2 | All Maps | STV","players":[{"user_id":333,"name":"PeptoBismol","steam_id":76561198082669076,"connected_time":1136000000000,"state":"active","ping":66},{"user_id":349,"name":"Burgie","steam_id":76561198066425198,"connected_time":63000000000,"state":"active","ping":60},{"user_id":332,"name":"iris","steam_id":76561198059748059,"connected_time":1227000000000,"state":"active","ping":55},{"user_id":346,"name":"mrthugpug1732","steam_id":76561198881200768,"connected_time":163000000000,"state":"active","ping":76},{"user_id":348,"name":"Nz17 #StandWithUkraine","steam_id":76561197978221503,"connected_time":66000000000,"state":"active","ping":123},{"user_id":283,"name":"blossom","steam_id":76561198042735130,"connected_time":5897000000000,"state":"active","ping":76},{"user_id":290,"name":"23‚Ñ¢","steam_id":76561198314951185,"connected_time":5242000000000,"state":"active","ping":105},{"user_id":339,"name":"experiment 149","steam_id":76561198189540306,"connected_time":713000000000,"state":"active","ping":94},{"user_id":341,"name":"Shamrock Shake Oct.10.2020 @8pm","steam_id":76561198833313201,"connected_time":550000000000,"state":"active","ping":77},{"user_id":315,"name":"bonk schnoffer","steam_id":76561198301598124,"connected_time":3880000000000,"state":"active","ping":80},{"user_id":271,"name":"The Mayo Man","steam_id":76561197995377425,"connected_time":6795000000000,"state":"active","ping":102},{"user_id":305,"name":"Clit Yeastwood","steam_id":76561199042672094,"connected_time":4790000000000,"state":"active","ping":74}]},{"server_id":19,"name":"Uncletopia | San Francisco | 3 | Stopwatch Beta","name_short":"sfo-3","host":"sfo-1.us.uncletopia.com","port":27035,"enabled":true,"region":"us-west","cc":"us","latitude":37.77397,"longitude":-122.4313,"reserved":0,"last_update":"0001-01-01T00:00:00Z","name_a2s":"Uncletopia | San Francisco | 3 | Stopwatch Beta","protocol":17,"map":"workshop/pl_vigil_rc9.ugc1266210012","folder":"tf","game":"Team Fortress","app_id":440,"player_count":0,"max_players":24,"Bots":0,"server_type":"Dedicated","server_os":"Linux","password":true,"vac":true,"version":"7757534","steam_id":85568392924742824,"keywords":["nocrits","nodmgspread","payload","uncletopia"],"game_id":440,"stv_port":27036,"stv_name":"Uncletopia | San Francisco | 3 | Stopwatch Beta | STV","players":null},{"server_id":20,"name":"Uncletopia | San Francisco | 4 | Community","name_short":"sfo-4","host":"sfo-1.us.uncletopia.com","port":27045,"enabled":true,"region":"us-west","cc":"us","latitude":37.77397,"longitude":-122.4313,"reserved":0,"last_update":"0001-01-01T00:00:00Z","name_a2s":"Uncletopia | San Francisco | 4 | Community","protocol":17,"map":"workshop/koth_slaughter_rc1.ugc1712845210","folder":"tf","game":"Team Fortress","app_id":440,"player_count":0,"max_players":24,"Bots":0,"server_type":"Dedicated","server_os":"Linux","password":true,"vac":true,"version":"7757534","steam_id":85568392924742826,"keywords":["cp","nocrits","nodmgspread","uncletopia"],"game_id":440,"stv_port":27046,"stv_name":"Uncletopia | San Francisco | 4 | Community | STV","players":null},{"server_id":141,"name":"Uncletopia | Sydney | 1 | All Maps","name_short":"syd-1","host":"syd-1.au.uncletopia.com","port":27015,"enabled":true,"region":"au","cc":"au","latitude":-33.865143,"longitude":151.2099,"reserved":0,"last_update":"0001-01-01T00:00:00Z","name_a2s":"Uncletopia | Sydney | 1 | All Maps","protocol":17,"map":"pl_upward","folder":"tf","game":"Team Fortress","app_id":440,"player_count":24,"max_players":24,"Bots":0,"server_type":"Dedicated","server_os":"Linux","password":true,"vac":true,"version":"7757534","steam_id":85568392924470001,"keywords":["nocrits","nodmgspread","payload","uncletopia"],"game_id":440,"stv_port":27016,"stv_name":"Uncletopia | Sydney | 1 | All Maps | STV","players":[{"user_id":152,"name":"koyaa","steam_id":76561198047484772,"connected_time":4554000000000,"state":"active","ping":84},{"user_id":194,"name":"TuaMater","steam_id":76561198021019008,"connected_time":1771000000000,"state":"active","ping":82},{"user_id":196,"name":"TwilightJericho","steam_id":76561198044875117,"connected_time":1685000000000,"state":"active","ping":68},{"user_id":191,"name":"youtube.com/@cuyt","steam_id":76561198184926846,"connected_time":1944000000000,"state":"active","ping":62},{"user_id":192,"name":"Sentry Gun (EpicGuy4227)","steam_id":76561198094132328,"connected_time":1857000000000,"state":"active","ping":55},{"user_id":187,"name":"ELITE","steam_id":76561198442911462,"connected_time":2109000000000,"state":"active","ping":70},{"user_id":24,"name":"Jodelk√∂nig Franzl Lang","steam_id":76561198007667830,"connected_time":12439000000000,"state":"active","ping":53},{"user_id":175,"name":"I too have an uncle","steam_id":76561198073619528,"connected_time":2878000000000,"state":"active","ping":53},{"user_id":198,"name":"biff","steam_id":76561198069603865,"connected_time":1583000000000,"state":"active","ping":65},{"user_id":185,"name":"SaltierThanYou","steam_id":76561198444395188,"connected_time":2155000000000,"state":"active","ping":82},{"user_id":123,"name":"Albert Down under","steam_id":76561198122040049,"connected_time":6531000000000,"state":"active","ping":82},{"user_id":173,"name":"Tsolis","steam_id":76561198013950614,"connected_time":2893000000000,"state":"active","ping":68},{"user_id":199,"name":"paper boat","steam_id":76561198046558051,"connected_time":1559000000000,"state":"active","ping":167},{"user_id":178,"name":"cakey","steam_id":76561198173746761,"connected_time":2746000000000,"state":"active","ping":45},{"user_id":202,"name":"WogBat","steam_id":76561198151221055,"connected_time":64000000000,"state":"active","ping":56},{"user_id":189,"name":"Morgenstern","steam_id":76561198253080474,"connected_time":2103000000000,"state":"active","ping":61},{"user_id":188,"name":"Madallar","steam_id":76561198379635302,"connected_time":2108000000000,"state":"active","ping":85},{"user_id":105,"name":"david malouf","steam_id":76561198107085849,"connected_time":8404000000000,"state":"active","ping":50},{"user_id":186,"name":"[GG] Cryo","steam_id":76561198062014383,"connected_time":2133000000000,"state":"active","ping":58},{"user_id":113,"name":"shaymii","steam_id":76561198058562392,"connected_time":7503000000000,"state":"active","ping":86},{"user_id":200,"name":"toblue","steam_id":76561198189137465,"connected_time":344000000000,"state":"active","ping":82},{"user_id":156,"name":"goob","steam_id":76561199480479443,"connected_time":4321000000000,"state":"active","ping":87},{"user_id":164,"name":"fungus","steam_id":76561198082217365,"connected_time":3923000000000,"state":"active","ping":87},{"user_id":182,"name":"Rashid Of The Dank Memes","steam_id":76561198281398078,"connected_time":2439000000000,"state":"active","ping":57}]},{"server_id":123,"name":"Uncletopia | Sydney | 2 | All Maps","name_short":"syd-2","host":"syd-1.au.uncletopia.com","port":27025,"enabled":true,"region":"au","cc":"au","latitude":-33.865143,"longitude":151.2099,"reserved":0,"last_update":"0001-01-01T00:00:00Z","name_a2s":"Uncletopia | Sydney | 2 | All Maps","protocol":17,"map":"cp_dustbowl","folder":"tf","game":"Team Fortress","app_id":440,"player_count":3,"max_players":24,"Bots":0,"server_type":"Dedicated","server_os":"Linux","password":true,"vac":true,"version":"7757534","steam_id":85568392924470002,"keywords":["cp","nocrits","nodmgspread","uncletopia"],"game_id":440,"stv_port":27026,"stv_name":"Uncletopia | Sydney | 2 | All Maps | STV","players":[{"user_id":9,"name":"Trum_Boned","steam_id":76561199450599387,"connected_time":348000000000,"state":"active","ping":62},{"user_id":10,"name":"ThatEggGuy","steam_id":76561199106303212,"connected_time":323000000000,"state":"active","ping":54},{"user_id":12,"name":"Branko","steam_id":76561199262196710,"connected_time":77000000000,"state":"active","ping":39}]},{"server_id":395,"name":"Uncletopia | Sydney | 3 | All Maps","name_short":"syd-3","host":"syd-1.au.uncletopia.com","port":27035,"enabled":true,"region":"au","cc":"au","latitude":-33.865143,"longitude":151.2099,"reserved":0,"last_update":"0001-01-01T00:00:00Z","name_a2s":"Uncletopia | Sydney | 3 | All Maps","protocol":17,"map":"cp_sunshine","folder":"tf","game":"Team Fortress","app_id":440,"player_count":0,"max_players":24,"Bots":0,"server_type":"Dedicated","server_os":"Linux","password":true,"vac":true,"version":"7757534","steam_id":85568392925194467,"keywords":["cp","nocrits","nodmgspread","uncletopia"],"game_id":440,"stv_port":27036,"stv_name":"Uncletopia | Sydney | 3 | All Maps | STV","players":null},{"server_id":396,"name":"Uncletopia | Sydney | 4 | All Maps","name_short":"syd-4","host":"syd-1.au.uncletopia.com","port":27045,"enabled":true,"region":"au","cc":"au","latitude":-33.865143,"longitude":151.2099,"reserved":0,"last_update":"0001-01-01T00:00:00Z","name_a2s":"Uncletopia | Sydney | 4 | All Maps","protocol":17,"map":"koth_highpass","folder":"tf","game":"Team Fortress","app_id":440,"player_count":0,"max_players":24,"Bots":0,"server_type":"Dedicated","server_os":"Linux","password":true,"vac":true,"version":"7757534","steam_id":85568392925397958,"keywords":["cp","nocrits","nodmgspread","uncletopia"],"game_id":440,"stv_port":27046,"stv_name":"Uncletopia | Sydney | 4 | All Maps | STV","players":null},{"server_id":58,"name":"Uncletopia | Sydney | 5 | Stopwatch Beta","name_short":"syd-5","host":"syd-1.au.uncletopia.com","port":27055,"enabled":true,"region":"au","cc":"au","latitude":-33.865143,"longitude":151.2099,"reserved":0,"last_update":"0001-01-01T00:00:00Z","name_a2s":"Uncletopia | Sydney | 5 | Stopwatch Beta","protocol":17,"map":"workshop/pl_vigil_rc9.ugc1266210012","folder":"tf","game":"Team Fortress","app_id":440,"player_count":0,"max_players":24,"Bots":0,"server_type":"Dedicated","server_os":"Linux","password":true,"vac":true,"version":"7757534","steam_id":85568392925397959,"keywords":["nocrits","nodmgspread","payload","uncletopia"],"game_id":440,"stv_port":27056,"stv_name":"Uncletopia | Sydney | 5 | Stopwatch Beta | STV","players":null},{"server_id":59,"name":"Uncletopia | Sydney | 6 | Community","name_short":"syd-6","host":"syd-1.au.uncletopia.com","port":27065,"enabled":true,"region":"au","cc":"au","latitude":-33.865143,"longitude":151.2099,"reserved":0,"last_update":"0001-01-01T00:00:00Z","name_a2s":"Uncletopia | Sydney | 6 | Community","protocol":17,"map":"cp_snakewater_final1","folder":"tf","game":"Team Fortress","app_id":440,"player_count":0,"max_players":24,"Bots":0,"server_type":"Dedicated","server_os":"Linux","password":true,"vac":true,"version":"7757534","steam_id":85568392925397960,"keywords":["cp","nocrits","nodmgspread","uncletopia"],"game_id":440,"stv_port":27066,"stv_name":"Uncletopia | Sydney | 6 | Community | STV","players":null},{"server_id":49,"name":"Uncletopia | Warsaw | 1 | All Maps","name_short":"waw-1","host":"waw-1.pl.uncletopia.com","port":27015,"enabled":true,"region":"eu","cc":"pl","latitude":52.2297,"longitude":21.017532,"reserved":0,"last_update":"0001-01-01T00:00:00Z","name_a2s":"","protocol":0,"map":"","folder":"","game":"","app_id":0,"player_count":0,"max_players":0,"Bots":0,"server_type":"","server_os":"","password":false,"vac":false,"version":"","steam_id":0,"keywords":null,"game_id":0,"stv_port":0,"stv_name":"","players":null},{"server_id":50,"name":"Uncletopia | Warsaw | 2 | All Maps","name_short":"waw-2","host":"waw-1.pl.uncletopia.com","port":27025,"enabled":true,"region":"eu","cc":"pl","latitude":52.2297,"longitude":21.017532,"reserved":0,"last_update":"0001-01-01T00:00:00Z","name_a2s":"Uncletopia | Warsaw | 2 | All Maps","protocol":17,"map":"koth_lakeside_final","folder":"tf","game":"Team Fortress","app_id":440,"player_count":10,"max_players":24,"Bots":0,"server_type":"Dedicated","server_os":"Linux","password":true,"vac":true,"version":"7757534","steam_id":85568392925397851,"keywords":["cp","nocrits","nodmgspread","uncletopia"],"game_id":440,"stv_port":27026,"stv_name":"Uncletopia | Warsaw | 2 | All Maps | STV","players":[{"user_id":27,"name":"Mandele","steam_id":76561199183213205,"connected_time":525000000000,"state":"active","ping":127},{"user_id":4,"name":"ja","steam_id":76561199228540618,"connected_time":5014000000000,"state":"active","ping":64},{"user_id":26,"name":"tempLimit","steam_id":76561199158363470,"connected_time":789000000000,"state":"active","ping":93},{"user_id":28,"name":"akm","steam_id":76561198277858041,"connected_time":372000000000,"state":"active","ping":67},{"user_id":16,"name":"man-made horrors","steam_id":76561199480942903,"connected_time":2622000000000,"state":"active","ping":89},{"user_id":25,"name":"murderwow","steam_id":76561198024566944,"connected_time":1667000000000,"state":"active","ping":111},{"user_id":30,"name":"Squash Banana","steam_id":76561198055480280,"connected_time":14000000000,"state":"active","ping":88},{"user_id":15,"name":"—Ç–æ–ª—è","steam_id":76561199098518615,"connected_time":2756000000000,"state":"active","ping":91},{"user_id":31,"name":"mental","steam_id":76561198803089656,"connected_time":1000000000,"state":"spawning","ping":55},{"user_id":20,"name":"trans werewolf","steam_id":76561198107235989,"connected_time":2396000000000,"state":"active","ping":39}]},{"server_id":51,"name":"Uncletopia | Warsaw | 3 | All Maps","name_short":"waw-3","host":"waw-1.pl.uncletopia.com","port":27035,"enabled":true,"region":"eu","cc":"pl","latitude":52.2297,"longitude":21.017532,"reserved":0,"last_update":"0001-01-01T00:00:00Z","name_a2s":"Uncletopia | Warsaw | 3 | All Maps","protocol":17,"map":"pl_badwater","folder":"tf","game":"Team Fortress","app_id":440,"player_count":0,"max_players":24,"Bots":0,"server_type":"Dedicated","server_os":"Linux","password":true,"vac":true,"version":"7757534","steam_id":85568392925397852,"keywords":["nocrits","nodmgspread","payload","uncletopia"],"game_id":440,"stv_port":27036,"stv_name":"Uncletopia | Warsaw | 3 | All Maps | STV","players":null},{"server_id":52,"name":"Uncletopia | Warsaw | 4 | All Maps","name_short":"waw-4","host":"waw-1.pl.uncletopia.com","port":27045,"enabled":true,"region":"eu","cc":"pl","latitude":52.2297,"longitude":21.017532,"reserved":0,"last_update":"0001-01-01T00:00:00Z","name_a2s":"Uncletopia | Warsaw | 4 | All Maps","protocol":17,"map":"koth_lakeside_final","folder":"tf","game":"Team Fortress","app_id":440,"player_count":0,"max_players":24,"Bots":0,"server_type":"Dedicated","server_os":"Linux","password":true,"vac":true,"version":"7757534","steam_id":85568392925397853,"keywords":["cp","nocrits","nodmgspread","uncletopia"],"game_id":440,"stv_port":27046,"stv_name":"Uncletopia | Warsaw | 4 | All Maps | STV","players":null},{"server_id":53,"name":"Uncletopia | Warsaw | 5 | Stopwatch Beta","name_short":"waw-5","host":"waw-1.pl.uncletopia.com","port":27055,"enabled":true,"region":"eu","cc":"pl","latitude":52.2297,"longitude":21.017532,"reserved":0,"last_update":"0001-01-01T00:00:00Z","name_a2s":"Uncletopia | Warsaw | 5 | Stopwatch Beta","protocol":17,"map":"pl_borneo","folder":"tf","game":"Team Fortress","app_id":440,"player_count":0,"max_players":24,"Bots":0,"server_type":"Dedicated","server_os":"Linux","password":true,"vac":true,"version":"7757534","steam_id":85568392925397854,"keywords":["nocrits","nodmgspread","payload","uncletopia"],"game_id":440,"stv_port":27056,"stv_name":"Uncletopia | Warsaw | 5 | Stopwatch Beta | STV","players":null},{"server_id":54,"name":"Uncletopia | Warsaw | 6 | Community","name_short":"waw-6","host":"waw-1.pl.uncletopia.com","port":27065,"enabled":true,"region":"eu","cc":"pl","latitude":52.2297,"longitude":21.017532,"reserved":0,"last_update":"0001-01-01T00:00:00Z","name_a2s":"Uncletopia | Warsaw | 6 | Community","protocol":17,"map":"koth_lakeside_final","folder":"tf","game":"Team Fortress","app_id":440,"player_count":0,"max_players":24,"Bots":0,"server_type":"Dedicated","server_os":"Linux","password":true,"vac":true,"version":"7757534","steam_id":85568392925397856,"keywords":["cp","nocrits","nodmgspread","uncletopia"],"game_id":440,"stv_port":27066,"stv_name":"Uncletopia | Warsaw | 6 | Community | STV","players":null}]}