{"status":true,"message":"","result":[{"server_id":2,"name":"Uncletopia | Chicago | 1 | All Maps","name_short":"chi-1","host":"chi-1.us.uncletopia.com","port":27015,"enabled":true,"region":"us-central","cc":"us","latitude":41.881832,"longitude":-87.62318,"reserved":0,"last_update":"0001-01-01T00:00:00Z","name_a2s":"Uncletopia | Chicago | 1 | All Maps","protocol":17,"map":"cp_sunshine","folder":"tf","game":"Team Fortress","app_id":440,"player_count":19,"max_players":24,"Bots":0,"server_type":"Dedicated","server_os":"Linux","password":true,"vac":true,"version":"7932396","steam_id":85568392924469984,"keywords":["cp","nocrits","nodmgspread","uncletopia"],"game_id":440,"stv_port":27016,"stv_name":"Uncletopia | Chicago | 1 | All Maps | STV","players":[{"user_id":561,"name":"CherriKat","steam_id":76561198821297512,"connected_time":776000000000,"state":"active","ping":93},{"user_id":545,"name":"TallBit","steam_id":76561199059748976,"connected_time":1924000000000,"state":"active","ping":50},{"user_id":581,"name":"ImperialNihaal","steam_id":76561198167597272,"connected_time":5000000000,"state":"spawning","ping":78},{"user_id":540,"name":"brio","steam_id":76561198108685037,"connected_time":2401000000000,"state":"active","ping":69},{"user_id":565,"name":"Mr.AAPN","steam_id":76561198073763769,"connected_time":706000000000,"state":"active","ping":121},{"user_id":571,"name":"Dewgong (real)","steam_id":76561198045999391,"connected_time":459000000000,"state":"active","ping":69},{"user_id":579,"name":"Oddball","steam_id":76561198040440984,"connected_time":118000000000,"state":"active","ping":66},{"user_id":580,"name":"Nickson1","steam_id":76561198175839309,"connected_time":116000000000,"state":"active","ping":66},{"user_id":572,"name":"DiGiorno's Pizza","steam_id":76561198142244035,"connected_time":363000000000,"state":"active","ping":50},{"user_id":562,"name":"Space","steam_id":76561198350489754,"connected_time":774000000000,"state":"active","ping":45},{"user_id":543,"name":"The new day","steam_id":76561198855144603,"connected_time":2372000000000,"state":"active","ping":58},{"user_id":576,"name":"Undertime Slopper","steam_id":76561198396789061,"connected_time":194000000000,"state":"active","ping":73},{"user_id":557,"name":"DinkleBerg","steam_id":76561198891626233,"connected_time":1163000000000,"state":"active","ping":50},{"user_id":560,"name":"Illuminaughty","steam_id":76561199163662910,"connected_time":779000000000,"state":"active","ping":60},{"user_id":550,"name":"WHITELIGHT!","steam_id":76561198277979851,"connected_time":1664000000000,"state":"active","ping":82},{"user_id":547,"name":"MikeLovesRabbit","steam_id":76561197997742625,"connected_time":1794000000000,"state":"active","ping":57},{"user_id":563,"name":"Acehay14","steam_id":76561198052373291,"connected_time":774000000000,"state":"active","ping":65},{"user_id":574,"name":"Skinny pete","steam_id":76561198801608576,"connected_time":353000000000,"state":"active","ping":74},{"user_id":513,"name":"ADRIEN BRODY","steam_id":76561198009299473,"connected_time":5034000000000,"state":"active","ping":66}]},{"server_id":106,"name":"Uncletopia | Chicago | 2 | All Maps","name_short":"chi-2","host":"chi-1.us.uncletopia.com","port":27025,"enabled":true,"region":"us-central","cc":"us","latitude":41.881832,"longitude":-87.62318,"reserved":0,"last_update":"0001-01-01T00:00:00Z","name_a2s":"Uncletopia | Chicago | 2 | All Maps","protocol":17,"map":"pl_badwater","folder":"tf","game":"Team Fortress","app_id":440,"player_count":24,"max_players":24,"Bots":0,"server_type":"Dedicated","server_os":"Linux","password":true,"vac":true,"version":"7932396","steam_id":85568392924469985,"keywords":["nocrits","nodmgspread","payload","uncletopia"],"game_id":440,"stv_port":27026,"stv_name":"Uncletopia | Chicago | 2 | All Maps | STV","players":[{"user_id":384,"name":"D4DE","steam_id":76561199077954761,"connected_time":1231000000000,"state":"active","ping":112},{"user_id":368,"name":"vv","steam_id":76561198134813102,"connected_time":2590000000000,"state":"active","ping":62},{"user_id":374,"name":"lili","steam_id":76561199391478575,"connected_time":1955000000000,"state":"active","ping":109},{"user_id":353,"name":"pabloramirez1998@gmail.com","steam_id":76561198969675306,"connected_time":3257000000000,"state":"active","ping":60},{"user_id":359,"name":"Lemon","steam_id":76561198119362095,"connected_time":3182000000000,"state":"active","ping":53},{"user_id":394,"name":"Chunk Stuffer","steam_id":76561198856508573,"connected_time":233000000000,"state":"active","ping":50},{"user_id":389,"name":"The Benefactor","steam_id":76561198307247913,"connected_time":578000000000,"state":"active","ping":102},{"user_id":388,"name":"Ianfinity","steam_id":76561199098871191,"connected_time":630000000000,"state":"active","ping":89},{"user_id":363,"name":"goose","steam_id":76561198367551668,"connected_time":3078000000000,"state":"active","ping":53},{"user_id":390,"name":"Frenemy \u003e:D","steam_id":76561198011363677,"connected_time":515000000000,"state":"active","ping":111},{"user_id":383,"name":"aversa","steam_id":76561198840460101,"connected_time":1240000000000,"state":"active","ping":77},{"user_id":393,"name":"Mally","steam_id":76561198025013765,"connected_time":314000000000,"state":"active","ping":86},{"user_id":361,"name":"emeraldrhymes","steam_id":76561198842486176,"connected_time":3157000000000,"state":"active","ping":78},{"user_id":379,"name":"asbestos","steam_id":76561198079178866,"connected_time":1629000000000,"state":"active","ping":72},{"user_id":349,"name":"Liebestr√§ume","steam_id":76561198038862034,"connected_time":4079000000000,"state":"active","ping":95},{"user_id":377,"name":"scrub","steam_id":76561198284916494,"connected_time":1827000000000,"state":"active","ping":48},{"user_id":375,"name":"Letters","steam_id":76561198035508148,"connected_time":1896000000000,"state":"active","ping":97},{"user_id":354,"name":"waowaowao","steam_id":76561198068804538,"connected_time":3245000000000,"state":"active","ping":71},{"user_id":380,"name":"Mburesh","steam_id":76561198137460717,"connected_time":1627000000000,"state":"active","ping":55},{"user_id":356,"name":"ultralisk52","steam_id":76561198051666604,"connected_time":3233000000000,"state":"active","ping":59},{"user_id":382,"name":"gaming time","steam_id":76561198960683356,"connected_time":1319000000000,"state":"active","ping":83},{"user_id":385,"name":"Milkmur","steam_id":76561198210043821,"connected_time":1110000000000,"state":"active","ping":62},{"user_id":391,"name":"nori_420","steam_id":76561199117134203,"connected_time":485000000000,"state":"active","ping":110},{"user_id":395,"name":"eggzy","steam_id":76561198085439508,"connected_time":197000000000,"state":"active","ping":34}]},{"server_id":402,"name":"Uncletopia | Chicago | 3 | All Maps","name_short":"chi-3","host":"chi-1.us.uncletopia.com","port":27035,"enabled":true,"region":"us-central","cc":"us","latitude":41.881832,"longitude":-87.62318,"reserved":0,"last_update":"0001-01-01T00:00:00Z","name_a2s":"Uncletopia | Chicago | 3 | All Maps","protocol":17,"map":"pl_pier","folder":"tf","game":"Team Fortress","app_id":440,"player_count":23,"max_players":24,"Bots":0,"server_type":"Dedicated","server_os":"Linux","password":true,"vac":true,"version":"7932396","steam_id":85568392924515191,"keywords":["nocrits","nodmgspread","payload","uncletopia"],"game_id":440,"stv_port":27036,"stv_name":"Uncletopia | Chicago | 3 | All Maps | STV","players":[{"user_id":129,"name":"RootBeerSuccubus","steam_id":76561198145719809,"connected_time":3421000000000,"state":"active","ping":74},{"user_id":174,"name":"Sychke","steam_id":76561198067144055,"connected_time":361000000000,"state":"active","ping":45},{"user_id":180,"name":"cwaggs76","steam_id":76561199013048778,"connected_time":181000000000,"state":"active","ping":68},{"user_id":177,"name":"Mog","steam_id":76561198025575870,"connected_time":290000000000,"state":"active","ping":60},{"user_id":144,"name":"scapegoat","steam_id":76561198188722751,"connected_time":2315000000000,"state":"active","ping":105},{"user_id":172,"name":"LogicDuel","steam_id":76561198840405795,"connected_time":608000000000,"state":"active","ping":75},{"user_id":154,"name":"Adam (Cursed Confetti Creature)","steam_id":76561198317690197,"connected_time":1473000000000,"state":"active","ping":46},{"user_id":102,"name":"wearing my sunday pants","steam_id":76561198834106533,"connected_time":4845000000000,"state":"active","ping":83},{"user_id":181,"name":"BenBen07","steam_id":76561198129584634,"connected_time":180000000000,"state":"active","ping":77},{"user_id":161,"name":"chiswola","steam_id":76561198046920142,"connected_time":918000000000,"state":"active","ping":82},{"user_id":134,"name":"Super Kevin","steam_id":76561199083243598,"connected_time":3323000000000,"state":"active","ping":36},{"user_id":182,"name":"idarmed","steam_id":76561198420064361,"connected_time":132000000000,"state":"active","ping":74},{"user_id":145,"name":"Rappitor","steam_id":76561198105613110,"connected_time":2293000000000,"state":"active","ping":49},{"user_id":173,"name":"Hooked","steam_id":76561198007302139,"connected_time":389000000000,"state":"active","ping":73},{"user_id":164,"name":"JDM Street Cred","steam_id":76561198033035560,"connected_time":887000000000,"state":"active","ping":60},{"user_id":170,"name":"girlpeen supreme","steam_id":76561198031242903,"connected_time":737000000000,"state":"active","ping":63},{"user_id":171,"name":"Raptorloch","steam_id":76561198834567806,"connected_time":707000000000,"state":"active","ping":75},{"user_id":133,"name":"C. Auris","steam_id":76561198245103000,"connected_time":3361000000000,"state":"active","ping":72},{"user_id":183,"name":"Potato Cyph0n","steam_id":76561198031564577,"connected_time":70000000000,"state":"active","ping":87},{"user_id":166,"name":"Ellestrogen","steam_id":76561198072191023,"connected_time":873000000000,"state":"active","ping":105},{"user_id":168,"name":"i wish you obelisk","steam_id":76561198032482394,"connected_time":841000000000,"state":"active","ping":70},{"user_id":119,"name":"Lia_Rein","steam_id":76561198151569597,"connected_time":3859000000000,"state":"active","ping":155},{"user_id":167,"name":"AYAYA!!!","steam_id":76561198992102180,"connected_time":858000000000,"state":"active","ping":46}]},{"server_id":403,"name":"Uncletopia | Chicago | 4 | All Maps","name_short":"chi-4","host":"chi-1.us.uncletopia.com","port":27045,"enabled":true,"region":"us-central","cc":"us","latitude":41.881832,"longitude":-87.62318,"reserved":0,"last_update":"0001-01-01T00:00:00Z","name_a2s":"Uncletopia | Chicago | 4 | All Maps","protocol":17,"map":"pl_goldrush","folder":"tf","game":"Team Fortress","app_id":440,"player_count":19,"max_players":24,"Bots":0,"server_type":"Dedicated","server_os":"Linux","password":true,"vac":true,"version":"7932396","steam_id":85568392924515193,"keywords":["nocrits","nodmgspread","payload","uncletopia"],"game_id":440,"stv_port":27046,"stv_name":"Uncletopia | Chicago | 4 | All Maps | STV","players":[{"user_id":575,"name":"Matt","steam_id":76561198008108521,"connected_time":4345000000000,"state":"active","ping":60},{"user_id":576,"name":"Tankless Water Heater","steam_id":76561198014574925,"connected_time":4331000000000,"state":"active","ping":66},{"user_id":610,"name":"femtofarad‚Ñ¢","steam_id":76561198308583053,"connected_time":1357000000000,"state":"active","ping":83},{"user_id":609,"name":"Dreamzapp","steam_id":76561199084936632,"connected_time":1762000000000,"state":"active","ping":113},{"user_id":616,"name":"Shield12","steam_id":76561198857193675,"connected_time":326000000000,"state":"active","ping":54},{"user_id":590,"name":"Rhutebeer","steam_id":76561198018302761,"connected_time":3829000000000,"state":"active","ping":100},{"user_id":522,"name":"we're so back","steam_id":76561198058485742,"connected_time":7336000000000,"state":"active","ping":64},{"user_id":614,"name":"Subderhenge","steam_id":76561198090955892,"connected_time":637000000000,"state":"active","ping":95},{"user_id":592,"name":"insanely gay person","steam_id":76561198056834532,"connected_time":3344000000000,"state":"active","ping":71},{"user_id":617,"name":"lpk","steam_id":76561198025478698,"connected_time":281000000000,"state":"active","ping":39},{"user_id":602,"name":"Wolbey","steam_id":76561198042148095,"connected_time":2316000000000,"state":"active","ping":46},{"user_id":613,"name":"Tarnation Bob","steam_id":76561198107382571,"connected_time":769000000000,"state":"active","ping":121},{"user_id":583,"name":"violent monkey porn","steam_id":76561199285074344,"connected_time":4196000000000,"state":"active","ping":64},{"user_id":541,"name":"Weeb","steam_id":76561198333568146,"connected_time":6493000000000,"state":"active","ping":65},{"user_id":543,"name":"Archie","steam_id":76561198137112917,"connected_time":6459000000000,"state":"active","ping":104},{"user_id":604,"name":"RaioGelato","steam_id":76561198272338398,"connected_time":2270000000000,"state":"active","ping":147},{"user_id":611,"name":"Edgy McEdgeison","steam_id":76561198047845399,"connected_time":973000000000,"state":"active","ping":71},{"user_id":607,"name":"stellarscrubjay","steam_id":76561198043648175,"connected_time":1917000000000,"state":"active","ping":113},{"user_id":566,"name":"Winter the Witchie","steam_id":76561198151971178,"connected_time":4890000000000,"state":"active","ping":56}]},{"server_id":36,"name":"Uncletopia | Chicago | 5 | All Maps","name_short":"chi-5","host":"chi-2.us.uncletopia.com","port":27015,"enabled":true,"region":"us-central","cc":"us","latitude":41.881832,"longitude":-87.62318,"reserved":0,"last_update":"0001-01-01T00:00:00Z","name_a2s":"Uncletopia | Chicago | 5 | All Maps","protocol":17,"map":"cp_5gorge","folder":"tf","game":"Team Fortress","app_id":440,"player_count":18,"max_players":24,"Bots":0,"server_type":"Dedicated","server_os":"Linux","password":true,"vac":true,"version":"7932396","steam_id":85568392924866362,"keywords":["cp","nocrits","nodmgspread","uncletopia"],"game_id":440,"stv_port":27016,"stv_name":"Uncletopia | Chicago | 5 | All Maps | STV","players":[{"user_id":94,"name":"super clickteam fusion","steam_id":76561198275101482,"connected_time":1180000000000,"state":"active","ping":135},{"user_id":112,"name":"Chris P. Bacon","steam_id":76561198000851038,"connected_time":53000000000,"state":"active","ping":73},{"user_id":107,"name":"Cedric","steam_id":76561198072090580,"connected_time":411000000000,"state":"active","ping":82},{"user_id":92,"name":"Oh No! It's Twister!","steam_id":76561198016791916,"connected_time":1250000000000,"state":"active","ping":84},{"user_id":82,"name":"Amy Sapphire","steam_id":76561198122860452,"connected_time":2479000000000,"state":"active","ping":91},{"user_id":79,"name":"Angry Ginger","steam_id":76561198256929349,"connected_time":2730000000000,"state":"active","ping":57},{"user_id":111,"name":"streamguyepic","steam_id":76561199389467750,"connected_time":234000000000,"state":"active","ping":101},{"user_id":109,"name":"Utterly Nutty","steam_id":76561198141541044,"connected_time":374000000000,"state":"active","ping":126},{"user_id":110,"name":"the honey monster","steam_id":76561198012351808,"connected_time":358000000000,"state":"active","ping":145},{"user_id":95,"name":"Ninetees","steam_id":76561198119483989,"connected_time":1170000000000,"state":"active","ping":77},{"user_id":51,"name":"ButterScotch","steam_id":76561199389314894,"connected_time":4717000000000,"state":"active","ping":61},{"user_id":96,"name":"Treeckogeek","steam_id":76561198453328078,"connected_time":1168000000000,"state":"active","ping":48},{"user_id":64,"name":"Toa LightMakuta","steam_id":76561198212178104,"connected_time":3516000000000,"state":"active","ping":157},{"user_id":84,"name":"DustBowl TF2","steam_id":76561199171572966,"connected_time":2324000000000,"state":"active","ping":39},{"user_id":67,"name":"xLeoparrd","steam_id":76561198940657194,"connected_time":3469000000000,"state":"active","ping":76},{"user_id":103,"name":"Schmingus","steam_id":76561199476148332,"connected_time":968000000000,"state":"active","ping":111},{"user_id":89,"name":"Mephistopheles","steam_id":76561198253731826,"connected_time":1940000000000,"state":"active","ping":73},{"user_id":73,"name":"LerN","steam_id":76561198083463877,"connected_time":3308000000000,"state":"active","ping":60}]},{"server_id":37,"name":"Uncletopia | Chicago | 6 | All Maps","name_short":"chi-6","host":"chi-2.us.uncletopia.com","port":27025,"enabled":true,"region":"us-central","cc":"us","latitude":41.881832,"longitude":-87.62318,"reserved":0,"last_update":"0001-01-01T00:00:00Z","name_a2s":"Uncletopia | Chicago | 6 | All Maps","protocol":17,"map":"pl_swiftwater_final1","folder":"tf","game":"Team Fortress","app_id":440,"player_count":20,"max_players":24,"Bots":0,"server_type":"Dedicated","server_os":"Linux","password":true,"vac":true,"version":"7932396","steam_id":85568392924866363,"keywords":["nocrits","nodmgspread","payload","uncletopia"],"game_id":440,"stv_port":27026,"stv_name":"Uncletopia | Chicago | 6 | All Maps | STV","players":[{"user_id":174,"name":"The Fragrance of Dark Coffee","steam_id":76561198013111370,"connected_time":119000000000,"state":"active","ping":62},{"user_id":175,"name":"stinky dick","steam_id":76561198042734428,"connected_time":59000000000,"state":"active","ping":72},{"user_id":157,"name":"Sauce","steam_id":76561198398722419,"connected_time":1407000000000,"state":"active","ping":93},{"user_id":176,"name":"pinkissocool {f2p}","steam_id":76561198989599828,"connected_time":56000000000,"state":"active","ping":96},{"user_id":177,"name":"himbo malewife","steam_id":76561199143725014,"connected_time":28000000000,"state":"active","ping":79},{"user_id":168,"name":"CHAIRMAN MAO GAMING","steam_id":76561198066018972,"connected_time":358000000000,"state":"active","ping":76},{"user_id":169,"name":"king of derp","steam_id":76561198086001445,"connected_time":357000000000,"state":"active","ping":62},{"user_id":170,"name":"my stummy hurt","steam_id":76561198137817319,"connected_time":355000000000,"state":"active","ping":70},{"user_id":133,"name":"surrender to the void","steam_id":76561198055494039,"connected_time":3089000000000,"state":"active","ping":79},{"user_id":178,"name":"Yorozuya with Odd Jobs","steam_id":76561198219473128,"connected_time":22000000000,"state":"active","ping":44},{"user_id":180,"name":"Toaster Strudel Enjoyer","steam_id":76561199048699541,"connected_time":9000000000,"state":"spawning","ping":81},{"user_id":146,"name":"Varie","steam_id":76561199454930210,"connected_time":2348000000000,"state":"active","ping":79},{"user_id":167,"name":"RbEaAeL","steam_id":76561198305741480,"connected_time":732000000000,"state":"active","ping":97},{"user_id":140,"name":"nhbiker","steam_id":76561198081277675,"connected_time":2764000000000,"state":"active","ping":51},{"user_id":164,"name":"Marc","steam_id":76561198069666384,"connected_time":903000000000,"state":"active","ping":93},{"user_id":156,"name":"Allyn","steam_id":76561198999161827,"connected_time":1597000000000,"state":"active","ping":57},{"user_id":159,"name":"NeonBean","steam_id":76561198088335827,"connected_time":1337000000000,"state":"active","ping":93},{"user_id":162,"name":"Zergblox!!!","steam_id":76561198802476057,"connected_time":994000000000,"state":"active","ping":87},{"user_id":161,"name":"TrustworthyStranger","steam_id":76561198154105678,"connected_time":1047000000000,"state":"active","ping":78},{"user_id":163,"name":"The Zimbabwean Defense Force","steam_id":76561198081120402,"connected_time":984000000000,"state":"active","ping":94}]},{"server_id":38,"name":"Uncletopia | Chicago | 7 | Stopwatch Beta","name_short":"chi-7","host":"chi-2.us.uncletopia.com","port":27035,"enabled":true,"region":"us-central","cc":"us","latitude":41.881832,"longitude":-87.62318,"reserved":0,"last_update":"0001-01-01T00:00:00Z","name_a2s":"Uncletopia | Chicago | 7 | Stopwatch Beta","protocol":17,"map":"pl_borneo","folder":"tf","game":"Team Fortress","app_id":440,"player_count":0,"max_players":24,"Bots":0,"server_type":"Dedicated","server_os":"Linux","password":true,"vac":true,"version":"7932396","steam_id":85568392924866364,"keywords":["nocrits","nodmgspread","payload","uncletopia"],"game_id":440,"stv_port":27036,"stv_name":"Uncletopia | Chicago | 7 | Stopwatch Beta | STV","players":null},{"server_id":39,"name":"Uncletopia | Chicago | 8 | Community","name_short":"chi-8","host":"chi-2.us.uncletopia.com","port":27045,"enabled":true,"region":"us-central","cc":"us","latitude":41.881832,"longitude":-87.62318,"reserved":0,"last_update":"0001-01-01T00:00:00Z","name_a2s":"Uncletopia | Chicago | 8 | Community","protocol":17,"map":"workshop/pl_cashworks_final1.ugc2904065412","folder":"tf","game":"Team Fortress","app_id":440,"player_count":20,"max_players":24,"Bots":0,"server_type":"Dedicated","server_os":"Linux","password":true,"vac":true,"version":"7932396","steam_id":85568392924866365,"keywords":["nocrits","nodmgspread","payload","uncletopia"],"game_id":440,"stv_port":27046,"stv_name":"Uncletopia | Chicago | 8 | Community | STV","players":[{"user_id":230,"name":"cirkuu","steam_id":76561198053465042,"connected_time":1093000000000,"state":"active","ping":75},{"user_id":221,"name":"schnedwob","steam_id":76561197999146588,"connected_time":1531000000000,"state":"active","ping":73},{"user_id":222,"name":"NUt","steam_id":76561198031007966,"connected_time":1514000000000,"state":"active","ping":78},{"user_id":116,"name":"LORDO","steam_id":76561198044824675,"connected_time":7846000000000,"state":"active","ping":76},{"user_id":231,"name":"leumas","steam_id":76561198240408540,"connected_time":814000000000,"state":"active","ping":69},{"user_id":117,"name":"Blankity","steam_id":76561198002864974,"connected_time":7837000000000,"state":"active","ping":70},{"user_id":209,"name":"Weapon X","steam_id":76561198075570893,"connected_time":2328000000000,"state":"active","ping":78},{"user_id":224,"name":"GGass","steam_id":76561198173172369,"connected_time":1492000000000,"state":"active","ping":154},{"user_id":216,"name":"-hg- DR NO IDEA!","steam_id":76561198055510221,"connected_time":1793000000000,"state":"active","ping":83},{"user_id":229,"name":"BeepieSheepie","steam_id":76561198106327537,"connected_time":1247000000000,"state":"active","ping":80},{"user_id":214,"name":"Rowster64","steam_id":76561198197812782,"connected_time":2122000000000,"state":"active","ping":51},{"user_id":225,"name":"canofspaghettios","steam_id":76561198124204246,"connected_time":1400000000000,"state":"active","ping":62},{"user_id":226,"name":"INVEST IN SKYNET::œÑRU œÑAO","steam_id":76561198144436132,"connected_time":1385000000000,"state":"active","ping":84},{"user_id":215,"name":"Weary","steam_id":76561198145767546,"connected_time":1916000000000,"state":"active","ping":90},{"user_id":228,"name":"Tom","steam_id":76561198070630154,"connected_time":1267000000000,"state":"active","ping":93},{"user_id":227,"name":"Diet Dr. Diabetes","steam_id":76561198050541565,"connected_time":1345000000000,"state":"active","ping":69},{"user_id":233,"name":"Doob","steam_id":76561199088573055,"connected_time":588000000000,"state":"active","ping":86},{"user_id":196,"name":"pink hair and pronouns","steam_id":76561198066227208,"connected_time":3174000000000,"state":"active","ping":60},{"user_id":202,"name":"ttv/Specty117","steam_id":76561198301264312,"connected_time":2966000000000,"state":"active","ping":59},{"user_id":123,"name":"‚ùÑÔ∏éSHIT PISSER JULIANNE‚ùÑ","steam_id":76561198061955351,"connected_time":7577000000000,"state":"active","ping":55}]},{"server_id":8,"name":"Uncletopia | Dallas | 1 | All Maps","name_short":"dal-1","host":"dal-1.us.uncletopia.com","port":27015,"enabled":true,"region":"us-central","cc":"us","latitude":32.779167,"longitude":-96.80889,"reserved":0,"last_update":"0001-01-01T00:00:00Z","name_a2s":"Uncletopia | Dallas | 1 | All Maps","protocol":17,"map":"pl_borneo","folder":"tf","game":"Team Fortress","app_id":440,"player_count":19,"max_players":24,"Bots":0,"server_type":"Dedicated","server_os":"Linux","password":true,"vac":true,"version":"7932396","steam_id":85568392924469986,"keywords":["nocrits","nodmgspread","payload","uncletopia"],"game_id":440,"stv_port":27016,"stv_name":"Uncletopia | Dallas | 1 | All Maps | STV","players":[{"user_id":536,"name":"FamishedNinja","steam_id":76561198310786497,"connected_time":4412000000000,"state":"active","ping":127},{"user_id":578,"name":"4 life","steam_id":76561198175961598,"connected_time":2306000000000,"state":"active","ping":98},{"user_id":596,"name":"Tired","steam_id":76561198072620682,"connected_time":308000000000,"state":"active","ping":104},{"user_id":576,"name":"trans lefts","steam_id":76561198031704886,"connected_time":2368000000000,"state":"active","ping":149},{"user_id":592,"name":"IlTrashPanda","steam_id":76561198447864095,"connected_time":1172000000000,"state":"spawning","ping":48},{"user_id":499,"name":"fleepore (:","steam_id":76561199238295034,"connected_time":7787000000000,"state":"active","ping":142},{"user_id":593,"name":"DogMan223","steam_id":76561198258561365,"connected_time":867000000000,"state":"active","ping":127},{"user_id":514,"name":"Shrederatershan","steam_id":76561199211707598,"connected_time":5744000000000,"state":"active","ping":137},{"user_id":552,"name":"Panzer4000","steam_id":76561198121308618,"connected_time":3977000000000,"state":"active","ping":135},{"user_id":538,"name":"Pneumo.","steam_id":76561197987911883,"connected_time":4277000000000,"state":"active","ping":172},{"user_id":586,"name":"aintnowaiyboi","steam_id":76561198301372369,"connected_time":1853000000000,"state":"spawning","ping":34},{"user_id":554,"name":"Gad","steam_id":76561198020792373,"connected_time":3842000000000,"state":"spawning","ping":64},{"user_id":581,"name":"errant","steam_id":76561197961758410,"connected_time":2204000000000,"state":"active","ping":41},{"user_id":594,"name":"GLG.Liz","steam_id":76561198021957956,"connected_time":846000000000,"state":"active","ping":122},{"user_id":598,"name":"littlehorks","steam_id":76561198098442591,"connected_time":109000000000,"state":"active","ping":108},{"user_id":590,"name":"Critical","steam_id":76561198123744966,"connected_time":1188000000000,"state":"spawning","ping":294},{"user_id":595,"name":"sobaka","steam_id":76561198116008934,"connected_time":458000000000,"state":"spawning","ping":80},{"user_id":591,"name":"Grumby","steam_id":76561198149175262,"connected_time":1187000000000,"state":"spawning","ping":33},{"user_id":557,"name":"dopadream","steam_id":76561198068383694,"connected_time":3483000000000,"state":"spawning","ping":328}]},{"server_id":108,"name":"Uncletopia | Dallas | 2 | All Maps","name_short":"dal-2","host":"dal-1.us.uncletopia.com","port":27025,"enabled":true,"region":"us-central","cc":"us","latitude":32.779167,"longitude":-96.80889,"reserved":0,"last_update":"0001-01-01T00:00:00Z","name_a2s":"Uncletopia | Dallas | 2 | All Maps","protocol":17,"map":"cp_altitude","folder":"tf","game":"Team Fortress","app_id":440,"player_count":20,"max_players":24,"Bots":0,"server_type":"Dedicated","server_os":"Linux","password":true,"vac":true,"version":"7932396","steam_id":85568392924469988,"keywords":["cp","nocrits","nodmgspread","uncletopia"],"game_id":440,"stv_port":27026,"stv_name":"Uncletopia | Dallas | 2 | All Maps | STV","players":[{"user_id":325,"name":"Dagoth Ur  LFT","steam_id":76561198115714484,"connected_time":202000000000,"state":"active","ping":128},{"user_id":310,"name":"Seshagrantch","steam_id":76561198112033660,"connected_time":1305000000000,"state":"active","ping":64},{"user_id":329,"name":"Companion Cube","steam_id":76561198020271760,"connected_time":136000000000,"state":"active","ping":105},{"user_id":322,"name":"Geobeetle","steam_id":76561198207400124,"connected_time":329000000000,"state":"active","ping":74},{"user_id":333,"name":"aofi the flat tgirl","steam_id":76561199172110503,"connected_time":18000000000,"state":"active","ping":184},{"user_id":313,"name":"Where is my sandvich?","steam_id":76561198909056458,"connected_time":929000000000,"state":"active","ping":66},{"user_id":305,"name":"TechnoBear2099","steam_id":76561198238863596,"connected_time":1621000000000,"state":"active","ping":46},{"user_id":334,"name":"Game_Stormer","steam_id":76561199098016096,"connected_time":3000000000,"state":"spawning","ping":72},{"user_id":273,"name":"Furious George","steam_id":76561198405111646,"connected_time":3810000000000,"state":"active","ping":78},{"user_id":323,"name":"Shalom","steam_id":76561198410005222,"connected_time":262000000000,"state":"active","ping":60},{"user_id":312,"name":"catfish from toontown","steam_id":76561198060070002,"connected_time":1151000000000,"state":"active","ping":63},{"user_id":314,"name":"Long of Neck","steam_id":76561198038997485,"connected_time":743000000000,"state":"active","ping":95},{"user_id":331,"name":"ishaboi","steam_id":76561198014353701,"connected_time":120000000000,"state":"active","ping":77},{"user_id":311,"name":"Grand Piano Tuna","steam_id":76561198135137213,"connected_time":1275000000000,"state":"active","ping":45},{"user_id":332,"name":"Aligote","steam_id":76561199188849493,"connected_time":61000000000,"state":"active","ping":97},{"user_id":298,"name":"Xrath","steam_id":76561198220741860,"connected_time":2019000000000,"state":"active","ping":79},{"user_id":293,"name":"Huey","steam_id":76561198972816386,"connected_time":2200000000000,"state":"active","ping":88},{"user_id":288,"name":"Doomagedden","steam_id":76561198272589475,"connected_time":2463000000000,"state":"active","ping":57},{"user_id":170,"name":"Zetta","steam_id":76561198045710113,"connected_time":9575000000000,"state":"active","ping":85},{"user_id":302,"name":"¬øskitt1eS?","steam_id":76561198330093211,"connected_time":1728000000000,"state":"active","ping":60}]},{"server_id":5,"name":"Uncletopia | Frankfurt | 1 | All Maps","name_short":"frk-1","host":"frk-1.de.uncletopia.com","port":27015,"enabled":true,"region":"eu","cc":"de","latitude":50.110924,"longitude":8.682127,"reserved":0,"last_update":"0001-01-01T00:00:00Z","name_a2s":"Uncletopia | Frankfurt | 1 | All Maps","protocol":17,"map":"pl_snowycoast","folder":"tf","game":"Team Fortress","app_id":440,"player_count":0,"max_players":24,"Bots":0,"server_type":"Dedicated","server_os":"Linux","password":true,"vac":true,"version":"7932396","steam_id":85568392924469989,"keywords":["nocrits","nodmgspread","payload","uncletopia"],"game_id":440,"stv_port":27016,"stv_name":"Uncletopia | Frankfurt | 1 | All Maps | STV","players":null},{"server_id":110,"name":"Uncletopia | Frankfurt | 2 | All Maps","name_short":"frk-2","host":"frk-1.de.uncletopia.com","port":27025,"enabled":true,"region":"eu","cc":"de","latitude":50.110924,"longitude":8.682127,"reserved":0,"last_update":"0001-01-01T00:00:00Z","name_a2s":"Uncletopia | Frankfurt | 2 | All Maps","protocol":17,"map":"koth_highpass","folder":"tf","game":"Team Fortress","app_id":440,"player_count":0,"max_players":24,"Bots":0,"server_type":"Dedicated","server_os":"Linux","password":true,"vac":true,"version":"7932396","steam_id":85568392924469990,"keywords":["cp","nocrits","nodmgspread","uncletopia"],"game_id":440,"stv_port":27026,"stv_name":"Uncletopia | Frankfurt | 2 | All Maps | STV","players":null},{"server_id":308,"name":"Uncletopia | Frankfurt | 3 | All Maps","name_short":"frk-3","host":"frk-1.de.uncletopia.com","port":27035,"enabled":true,"region":"eu","cc":"de","latitude":50.110924,"longitude":8.682127,"reserved":0,"last_update":"0001-01-01T00:00:00Z","name_a2s":"Uncletopia | Frankfurt | 3 | All Maps","protocol":17,"map":"koth_nucleus","folder":"tf","game":"Team Fortress","app_id":440,"player_count":0,"max_players":24,"Bots":0,"server_type":"Dedicated","server_os":"Linux","password":true,"vac":true,"version":"7932396","steam_id":85568392924504274,"keywords":["cp","nocrits","nodmgspread","uncletopia"],"game_id":440,"stv_port":27036,"stv_name":"Uncletopia | Frankfurt | 3 | All Maps | STV","players":null},{"server_id":309,"name":"Uncletopia | Frankfurt | 4 | All Maps","name_short":"frk-4","host":"frk-1.de.uncletopia.com","port":27045,"enabled":true,"region":"eu","cc":"de","latitude":50.110924,"longitude":8.682127,"reserved":0,"last_update":"0001-01-01T00:00:00Z","name_a2s":"Uncletopia | Frankfurt | 4 | All Maps","protocol":17,"map":"pl_pier","folder":"tf","game":"Team Fortress","app_id":440,"player_count":2,"max_players":24,"Bots":0,"server_type":"Dedicated","server_os":"Linux","password":true,"vac":true,"version":"7932396","steam_id":85568392924504275,"keywords":["nocrits","nodmgspread","payload","uncletopia"],"game_id":440,"stv_port":27046,"stv_name":"Uncletopia | Frankfurt | 4 | All Maps | STV","players":[{"user_id":493,"name":"86","steam_id":76561199084186097,"connected_time":1590000000000,"state":"active","ping":47},{"user_id":487,"name":"Danipp","steam_id":76561198027147377,"connected_time":1734000000000,"state":"active","ping":60}]},{"server_id":310,"name":"Uncletopia | Frankfurt | 5 | All Maps","name_short":"frk-5","host":"frk-1.de.uncletopia.com","port":27055,"enabled":true,"region":"eu","cc":"de","latitude":50.110924,"longitude":8.682127,"reserved":0,"last_update":"0001-01-01T00:00:00Z","name_a2s":"Uncletopia | Frankfurt | 5 | All Maps","protocol":17,"map":"cp_gullywash_final1","folder":"tf","game":"Team Fortress","app_id":440,"player_count":21,"max_players":24,"Bots":0,"server_type":"Dedicated","server_os":"Linux","password":true,"vac":true,"version":"7932396","steam_id":85568392924504277,"keywords":["cp","nocrits","nodmgspread","uncletopia"],"game_id":440,"stv_port":27056,"stv_name":"Uncletopia | Frankfurt | 5 | All Maps | STV","players":[{"user_id":644,"name":"e36 1.8","steam_id":76561198134203031,"connected_time":2203000000000,"state":"active","ping":60},{"user_id":646,"name":"pos","steam_id":76561198026132442,"connected_time":2139000000000,"state":"active","ping":81},{"user_id":668,"name":"Cosmetic brain","steam_id":76561198055936410,"connected_time":691000000000,"state":"active","ping":88},{"user_id":671,"name":"Psycho–ü–ê–¢","steam_id":76561198074777220,"connected_time":362000000000,"state":"active","ping":88},{"user_id":651,"name":"HamsterPi","steam_id":76561198079430842,"connected_time":1677000000000,"state":"active","ping":66},{"user_id":648,"name":"Jetstream Samuel Beckett","steam_id":76561198072017971,"connected_time":1787000000000,"state":"active","ping":63},{"user_id":649,"name":"Long Lost Soul","steam_id":76561198187090805,"connected_time":1776000000000,"state":"active","ping":81},{"user_id":576,"name":"Œ© ScAVENGE Œ©","steam_id":76561198034375627,"connected_time":6766000000000,"state":"active","ping":43},{"user_id":632,"name":"etc","steam_id":76561197998394797,"connected_time":3269000000000,"state":"active","ping":49},{"user_id":650,"name":"when you sleep","steam_id":76561198028164246,"connected_time":1754000000000,"state":"active","ping":70},{"user_id":640,"name":"Pvt. Prinny","steam_id":76561198030278562,"connected_time":2538000000000,"state":"active","ping":57},{"user_id":669,"name":"Doctorglados","steam_id":76561198005312127,"connected_time":631000000000,"state":"active","ping":67},{"user_id":655,"name":"avalon","steam_id":76561198003212528,"connected_time":1475000000000,"state":"active","ping":62},{"user_id":673,"name":"Bobirulez","steam_id":76561198009125458,"connected_time":297000000000,"state":"active","ping":74},{"user_id":661,"name":"enter","steam_id":76561198048374516,"connected_time":1160000000000,"state":"active","ping":126},{"user_id":657,"name":"Phil","steam_id":76561198056877069,"connected_time":1366000000000,"state":"active","ping":50},{"user_id":666,"name":"hxlm.stfu","steam_id":76561199445859311,"connected_time":864000000000,"state":"active","ping":99},{"user_id":660,"name":"Barb√Ätrou","steam_id":76561199439141531,"connected_time":1295000000000,"state":"active","ping":46},{"user_id":662,"name":"mespe","steam_id":76561198121530649,"connected_time":1154000000000,"state":"active","ping":61},{"user_id":670,"name":"KittyKate ‚ù§","steam_id":76561198116340817,"connected_time":615000000000,"state":"active","ping":62},{"user_id":672,"name":"BuzzBees ‚ù§","steam_id":76561198101502273,"connected_time":353000000000,"state":"active","ping":67}]},{"server_id":311,"name":"Uncletopia | Frankfurt | 6 | All Maps","name_short":"frk-6","host":"frk-1.de.uncletopia.com","port":27065,"enabled":true,"region":"eu","cc":"de","latitude":50.110924,"longitude":8.682127,"reserved":0,"last_update":"0001-01-01T00:00:00Z","name_a2s":"Uncletopia | Frankfurt | 6 | All Maps","protocol":17,"map":"pl_upward","folder":"tf","game":"Team Fortress","app_id":440,"player_count":1,"max_players":24,"Bots":0,"server_type":"Dedicated","server_os":"Linux","password":true,"vac":true,"version":"7932396","steam_id":85568392924504278,"keywords":["nocrits","nodmgspread","payload","uncletopia"],"game_id":440,"stv_port":27066,"stv_name":"Uncletopia | Frankfurt | 6 | All Maps | STV","players":[{"user_id":330,"name":"KAOSNox","steam_id":76561199010590007,"connected_time":1043000000000,"state":"active","ping":179}]},{"server_id":23,"name":"Uncletopia | Frankfurt | 7 | Stopwatch Beta","name_short":"frk-7","host":"frk-1.de.uncletopia.com","port":27075,"enabled":true,"region":"eu","cc":"de","latitude":50.110924,"longitude":8.682127,"reserved":0,"last_update":"0001-01-01T00:00:00Z","name_a2s":"Uncletopia | Frankfurt | 7 | Stopwatch Beta","protocol":17,"map":"pl_snowycoast","folder":"tf","game":"Team Fortress","app_id":440,"player_count":0,"max_players":24,"Bots":0,"server_type":"Dedicated","server_os":"Linux","password":true,"vac":true,"version":"7932396","steam_id":85568392924742827,"keywords":["nocrits","nodmgspread","payload","uncletopia"],"game_id":440,"stv_port":27076,"stv_name":"Uncletopia | Frankfurt | 7 | Stopwatch Beta | STV","players":null},{"server_id":24,"name":"Uncletopia | Frankfurt | 8 | Community","name_short":"frk-8","host":"frk-1.de.uncletopia.com","port":27085,"enabled":true,"region":"eu","cc":"de","latitude":50.110924,"longitude":8.682127,"reserved":0,"last_update":"0001-01-01T00:00:00Z","name_a2s":"Uncletopia | Frankfurt | 8 | Community","protocol":17,"map":"workshop/pl_cactuscanyon_redux_final2.ugc2579644293","folder":"tf","game":"Team Fortress","app_id":440,"player_count":2,"max_players":24,"Bots":0,"server_type":"Dedicated","server_os":"Linux","password":true,"vac":false,"version":"7932396","steam_id":85568392924742828,"keywords":["nocrits","nodmgspread","payload","uncletopia"],"game_id":440,"stv_port":27086,"stv_name":"Uncletopia | Frankfurt | 8 | Community | STV","players":[{"user_id":123,"name":"JOJOBISH","steam_id":76561198116933540,"connected_time":2474000000000,"state":"active","ping":67},{"user_id":121,"name":"Legoshiwannabe","steam_id":76561198917656124,"connected_time":3216000000000,"state":"active","ping":92}]},{"server_id":202,"name":"Uncletopia | Hong Kong | 1 | All Maps","name_short":"hgk-1","host":"hgk-1.hk.uncletopia.com","port":27015,"enabled":true,"region":"asia","cc":"hk","latitude":22.302711,"longitude":114.177216,"reserved":0,"last_update":"0001-01-01T00:00:00Z","name_a2s":"Uncletopia | Hong Kong | 1 | All Maps","protocol":17,"map":"cp_sunshine","folder":"tf","game":"Team Fortress","app_id":440,"player_count":0,"max_players":24,"Bots":0,"server_type":"Dedicated","server_os":"Linux","password":true,"vac":true,"version":"7932396","steam_id":85568392924494504,"keywords":["cp","nocrits","nodmgspread","uncletopia"],"game_id":440,"stv_port":27016,"stv_name":"Uncletopia | Hong Kong | 1 | All Maps | STV","players":null},{"server_id":1,"name":"Uncletopia | Los Angeles | 1 | All Maps","name_short":"lax-1","host":"lax-1.us.uncletopia.com","port":27015,"enabled":true,"region":"us-west","cc":"us","latitude":33.94279,"longitude":-118.41004,"reserved":0,"last_update":"0001-01-01T00:00:00Z","name_a2s":"Uncletopia | Los Angeles | 1 | All Maps","protocol":17,"map":"koth_highpass","folder":"tf","game":"Team Fortress","app_id":440,"player_count":0,"max_players":24,"Bots":0,"server_type":"Dedicated","server_os":"Linux","password":true,"vac":true,"version":"7932396","steam_id":85568392924469991,"keywords":["cp","nocrits","nodmgspread","uncletopia"],"game_id":440,"stv_port":27016,"stv_name":"Uncletopia | Los Angeles | 1 | All Maps | STV","players":null},{"server_id":112,"name":"Uncletopia | Los Angeles | 2 | All Maps","name_short":"lax-2","host":"lax-1.us.uncletopia.com","port":27025,"enabled":true,"region":"us-west","cc":"us","latitude":33.94279,"longitude":-118.41004,"reserved":0,"last_update":"0001-01-01T00:00:00Z","name_a2s":"Uncletopia | Los Angeles | 2 | All Maps","protocol":17,"map":"koth_highpass","folder":"tf","game":"Team Fortress","app_id":440,"player_count":4,"max_players":24,"Bots":0,"server_type":"Dedicated","server_os":"Linux","password":true,"vac":true,"version":"7932396","steam_id":85568392924469992,"keywords":["cp","nocrits","nodmgspread","uncletopia"],"game_id":440,"stv_port":27026,"stv_name":"Uncletopia | Los Angeles | 2 | All Maps | STV","players":[{"user_id":32,"name":"Nuggies","steam_id":76561198272432592,"connected_time":1225000000000,"state":"active","ping":58},{"user_id":36,"name":"Mr. Baseball","steam_id":76561198112635823,"connected_time":654000000000,"state":"active","ping":84},{"user_id":29,"name":"lonely","steam_id":76561199180338753,"connected_time":1516000000000,"state":"active","ping":75},{"user_id":39,"name":"xXD4RK_W0LF_2013Xx","steam_id":76561198000275473,"connected_time":199000000000,"state":"active","ping":78}]},{"server_id":324,"name":"Uncletopia | Los Angeles | 3 | All Maps","name_short":"lax-3","host":"lax-1.us.uncletopia.com","port":27035,"enabled":true,"region":"us-west","cc":"us","latitude":33.94279,"longitude":-118.41004,"reserved":0,"last_update":"0001-01-01T00:00:00Z","name_a2s":"Uncletopia | Los Angeles | 3 | All Maps","protocol":17,"map":"koth_viaduct","folder":"tf","game":"Team Fortress","app_id":440,"player_count":0,"max_players":24,"Bots":0,"server_type":"Dedicated","server_os":"Linux","password":true,"vac":true,"version":"7932396","steam_id":85568392924510198,"keywords":["cp","nocrits","nodmgspread","uncletopia"],"game_id":440,"stv_port":27036,"stv_name":"Uncletopia | Los Angeles | 3 | All Maps | STV","players":null},{"server_id":25,"name":"Uncletopia | Los Angeles | 4 | Stopwatch Beta","name_short":"lax-4","host":"lax-1.us.uncletopia.com","port":27045,"enabled":true,"region":"us-west","cc":"us","latitude":33.94279,"longitude":-118.41004,"reserved":0,"last_update":"0001-01-01T00:00:00Z","name_a2s":"Uncletopia | Los Angeles | 4 | Stopwatch Beta","protocol":17,"map":"pl_upward","folder":"tf","game":"Team Fortress","app_id":440,"player_count":0,"max_players":24,"Bots":0,"server_type":"Dedicated","server_os":"Linux","password":true,"vac":true,"version":"7932396","steam_id":85568392924510199,"keywords":["nocrits","nodmgspread","payload","uncletopia"],"game_id":440,"stv_port":27046,"stv_name":"Uncletopia | Los Angeles | 4 | Stopwatch Beta | STV","players":null},{"server_id":11,"name":"Uncletopia | London | 1 | All Maps","name_short":"lon-1","host":"lon-1.uk.uncletopia.com","port":27015,"enabled":true,"region":"eu","cc":"gb","latitude":51.509865,"longitude":-0.118092,"reserved":0,"last_update":"0001-01-01T00:00:00Z","name_a2s":"Uncletopia | London | 1 | All Maps","protocol":17,"map":"koth_viaduct","folder":"tf","game":"Team Fortress","app_id":440,"player_count":8,"max_players":24,"Bots":0,"server_type":"Dedicated","server_os":"Linux","password":true,"vac":true,"version":"7932396","steam_id":85568392924367362,"keywords":["cp","nocrits","nodmgspread","uncletopia"],"game_id":440,"stv_port":27016,"stv_name":"Uncletopia | London | 1 | All Maps | STV","players":[{"user_id":609,"name":"I really enjoy MEN","steam_id":76561198164119602,"connected_time":1221000000000,"state":"active","ping":90},{"user_id":602,"name":"89384HDHSJDHU\u0026/","steam_id":76561198057833760,"connected_time":3044000000000,"state":"active","ping":68},{"user_id":607,"name":"Frog","steam_id":76561198034348966,"connected_time":1691000000000,"state":"active","ping":65},{"user_id":610,"name":"MonsieurLeFrog","steam_id":76561198272210661,"connected_time":1189000000000,"state":"active","ping":32},{"user_id":611,"name":"Asfedia","steam_id":76561199386836351,"connected_time":1014000000000,"state":"active","ping":64},{"user_id":615,"name":"The factory must grow","steam_id":76561198193490395,"connected_time":100000000000,"state":"active","ping":59},{"user_id":534,"name":"shooer!","steam_id":76561198110531281,"connected_time":6827000000000,"state":"active","ping":62},{"user_id":517,"name":"The Nostalgia Critic","steam_id":76561198360395476,"connected_time":8410000000000,"state":"active","ping":34}]},{"server_id":114,"name":"Uncletopia | London | 2 | All Maps","name_short":"lon-2","host":"lon-1.uk.uncletopia.com","port":27025,"enabled":true,"region":"eu","cc":"gb","latitude":51.509865,"longitude":-0.118092,"reserved":0,"last_update":"0001-01-01T00:00:00Z","name_a2s":"Uncletopia | London | 2 | All Maps","protocol":17,"map":"pl_goldrush","folder":"tf","game":"Team Fortress","app_id":440,"player_count":21,"max_players":24,"Bots":0,"server_type":"Dedicated","server_os":"Linux","password":true,"vac":true,"version":"7932396","steam_id":85568392924470941,"keywords":["nocrits","nodmgspread","payload","uncletopia"],"game_id":440,"stv_port":27026,"stv_name":"Uncletopia | London | 2 | All Maps | STV","players":[{"user_id":316,"name":"REN","steam_id":76561198000596385,"connected_time":3372000000000,"state":"active","ping":80},{"user_id":320,"name":"sora","steam_id":76561198096547662,"connected_time":2964000000000,"state":"active","ping":54},{"user_id":346,"name":"Flamb√©","steam_id":76561199050383942,"connected_time":998000000000,"state":"active","ping":48},{"user_id":349,"name":"the indomitable human spirit","steam_id":76561198718760200,"connected_time":855000000000,"state":"active","ping":45},{"user_id":325,"name":"trampampoline","steam_id":76561198121286517,"connected_time":2464000000000,"state":"active","ping":30},{"user_id":323,"name":"teddy","steam_id":76561198007436837,"connected_time":2630000000000,"state":"active","ping":44},{"user_id":326,"name":"Dee","steam_id":76561198105520278,"connected_time":2409000000000,"state":"active","ping":61},{"user_id":238,"name":"Mr_Pulse_","steam_id":76561198095001602,"connected_time":8633000000000,"state":"active","ping":110},{"user_id":347,"name":"Dromeka","steam_id":76561198963557200,"connected_time":925000000000,"state":"active","ping":57},{"user_id":280,"name":"b9njmn","steam_id":76561198068481592,"connected_time":5896000000000,"state":"active","ping":83},{"user_id":304,"name":"beebo","steam_id":76561199120277007,"connected_time":4286000000000,"state":"active","ping":48},{"user_id":344,"name":"Skinny101","steam_id":76561197985599360,"connected_time":1089000000000,"state":"active","ping":47},{"user_id":335,"name":"snowycoast","steam_id":76561198346638308,"connected_time":1850000000000,"state":"active","ping":56},{"user_id":337,"name":"Sanity Issues","steam_id":76561198041535987,"connected_time":1602000000000,"state":"active","ping":99},{"user_id":354,"name":"Sandy","steam_id":76561198049652500,"connected_time":177000000000,"state":"active","ping":60},{"user_id":345,"name":"Que le morteded non","steam_id":76561198068678853,"connected_time":1037000000000,"state":"active","ping":104},{"user_id":350,"name":"100 virgin oil","steam_id":76561199483466688,"connected_time":828000000000,"state":"active","ping":103},{"user_id":330,"name":"DaiDaiMu :3","steam_id":76561198052794823,"connected_time":2305000000000,"state":"active","ping":106},{"user_id":311,"name":"SOPHIIEE","steam_id":76561198443798981,"connected_time":3821000000000,"state":"active","ping":50},{"user_id":289,"name":"raehik","steam_id":76561198025278149,"connected_time":5727000000000,"state":"active","ping":45},{"user_id":334,"name":"Mrs.Nina [HF]","steam_id":76561198807788739,"connected_time":1862000000000,"state":"active","ping":100}]},{"server_id":320,"name":"Uncletopia | London | 3 | All Maps","name_short":"lon-3","host":"lon-1.uk.uncletopia.com","port":27035,"enabled":true,"region":"eu","cc":"gb","latitude":51.509865,"longitude":-0.118092,"reserved":0,"last_update":"0001-01-01T00:00:00Z","name_a2s":"Uncletopia | London | 3 | All Maps","protocol":17,"map":"pl_barnblitz","folder":"tf","game":"Team Fortress","app_id":440,"player_count":0,"max_players":24,"Bots":0,"server_type":"Dedicated","server_os":"Linux","password":true,"vac":true,"version":"7932396","steam_id":85568392924510192,"keywords":["nocrits","nodmgspread","payload","uncletopia"],"game_id":440,"stv_port":27036,"stv_name":"Uncletopia | London | 3 | All Maps | STV","players":null},{"server_id":321,"name":"Uncletopia | London | 4 | All Maps","name_short":"lon-4","host":"lon-1.uk.uncletopia.com","port":27045,"enabled":true,"region":"eu","cc":"gb","latitude":51.509865,"longitude":-0.118092,"reserved":0,"last_update":"0001-01-01T00:00:00Z","name_a2s":"Uncletopia | London | 4 | All Maps","protocol":17,"map":"pl_pier","folder":"tf","game":"Team Fortress","app_id":440,"player_count":22,"max_players":24,"Bots":0,"server_type":"Dedicated","server_os":"Linux","password":true,"vac":true,"version":"7932396","steam_id":85568392924510193,"keywords":["nocrits","nodmgspread","payload","uncletopia"],"game_id":440,"stv_port":27046,"stv_name":"Uncletopia | London | 4 | All Maps | STV","players":[{"user_id":495,"name":"cuddle","steam_id":76561198805181599,"connected_time":611000000000,"state":"active","ping":57},{"user_id":485,"name":"F2P Rights Activist","steam_id":76561199012786293,"connected_time":1052000000000,"state":"active","ping":171},{"user_id":505,"name":"NeiroüëΩ·ó©YY ·í™·ó∞·ó©O","steam_id":76561198046743985,"connected_time":259000000000,"state":"active","ping":67},{"user_id":481,"name":"My hands are so cold","steam_id":76561198042502842,"connected_time":1277000000000,"state":"active","ping":64},{"user_id":507,"name":"sniper","steam_id":76561199001581774,"connected_time":156000000000,"state":"active","ping":120},{"user_id":488,"name":"A.D.H.|Artem","steam_id":76561198041801369,"connected_time":904000000000,"state":"active","ping":83},{"user_id":473,"name":"Commando Icecream","steam_id":76561198042763526,"connected_time":1880000000000,"state":"active","ping":44},{"user_id":489,"name":"‚áêtHe|M@n‚áå","steam_id":76561199229380449,"connected_time":902000000000,"state":"active","ping":162},{"user_id":448,"name":"Ed","steam_id":76561198184360615,"connected_time":3231000000000,"state":"active","ping":90},{"user_id":491,"name":"A Shiny Meat Bicycle","steam_id":76561198358757709,"connected_time":820000000000,"state":"active","ping":167},{"user_id":418,"name":"Sticker Girl","steam_id":76561198086326874,"connected_time":4998000000000,"state":"active","ping":124},{"user_id":467,"name":"pad6z23h8s","steam_id":76561198880756741,"connected_time":2072000000000,"state":"active","ping":87},{"user_id":469,"name":"TheMasterOfTheZaZa","steam_id":76561197994310420,"connected_time":1961000000000,"state":"active","ping":60},{"user_id":470,"name":"Mase","steam_id":76561199005591075,"connected_time":1934000000000,"state":"active","ping":71},{"user_id":504,"name":"Kestrel","steam_id":76561198144033005,"connected_time":368000000000,"state":"active","ping":47},{"user_id":471,"name":"Wata","steam_id":76561198098418814,"connected_time":1933000000000,"state":"active","ping":45},{"user_id":503,"name":"Insain Bolt!","steam_id":76561198025687726,"connected_time":417000000000,"state":"active","ping":73},{"user_id":497,"name":"Saken","steam_id":76561198049075295,"connected_time":529000000000,"state":"active","ping":60},{"user_id":509,"name":"Med","steam_id":76561198148359093,"connected_time":108000000000,"state":"active","ping":42},{"user_id":499,"name":"lark","steam_id":76561198091724522,"connected_time":521000000000,"state":"active","ping":49},{"user_id":508,"name":"JARRAMY 15","steam_id":76561198996852743,"connected_time":128000000000,"state":"active","ping":92}]},{"server_id":21,"name":"Uncletopia | London | 5 | All Maps","name_short":"lon-5","host":"lon-1.uk.uncletopia.com","port":27055,"enabled":true,"region":"eu","cc":"gb","latitude":51.509865,"longitude":-0.118092,"reserved":0,"last_update":"0001-01-01T00:00:00Z","name_a2s":"Uncletopia | London | 5 | All Maps","protocol":17,"map":"pl_frontier_final","folder":"tf","game":"Team Fortress","app_id":440,"player_count":13,"max_players":24,"Bots":0,"server_type":"Dedicated","server_os":"Linux","password":true,"vac":true,"version":"7932396","steam_id":85568392924742829,"keywords":["nocrits","nodmgspread","payload","uncletopia"],"game_id":440,"stv_port":27056,"stv_name":"Uncletopia | London | 5 | All Maps | STV","players":[{"user_id":412,"name":"certified munch","steam_id":76561198257836694,"connected_time":1409000000000,"state":"active","ping":40},{"user_id":419,"name":"frosty","steam_id":76561198094560834,"connected_time":749000000000,"state":"active","ping":50},{"user_id":422,"name":"Salesman Doren","steam_id":76561198076098142,"connected_time":605000000000,"state":"active","ping":37},{"user_id":425,"name":"Biscuit","steam_id":76561198034318885,"connected_time":23000000000,"state":"active","ping":35},{"user_id":414,"name":"[BC‚Ñ¢]‚ô•DIVOSONG‚ô•","steam_id":76561198051065807,"connected_time":1386000000000,"state":"active","ping":67},{"user_id":423,"name":"Dragejan","steam_id":76561198010216332,"connected_time":559000000000,"state":"active","ping":66},{"user_id":376,"name":"Cheshireycat","steam_id":76561198067204908,"connected_time":4338000000000,"state":"active","ping":53},{"user_id":424,"name":"dakotztda","steam_id":76561198044189114,"connected_time":284000000000,"state":"active","ping":64},{"user_id":416,"name":"vug","steam_id":76561198042227249,"connected_time":1196000000000,"state":"active","ping":44},{"user_id":418,"name":"pubes","steam_id":76561199490251704,"connected_time":851000000000,"state":"active","ping":107},{"user_id":405,"name":"tompp","steam_id":76561198143529110,"connected_time":2086000000000,"state":"active","ping":47},{"user_id":358,"name":"Urfangonultasadana","steam_id":76561199389286151,"connected_time":5511000000000,"state":"active","ping":91},{"user_id":411,"name":"Refurbished Boy","steam_id":76561197995834697,"connected_time":1455000000000,"state":"active","ping":95}]},{"server_id":22,"name":"Uncletopia | London | 6 | All Maps","name_short":"lon-6","host":"lon-1.uk.uncletopia.com","port":27065,"enabled":true,"region":"eu","cc":"gb","latitude":51.509865,"longitude":-0.118092,"reserved":0,"last_update":"0001-01-01T00:00:00Z","name_a2s":"Uncletopia | London | 6 | All Maps","protocol":17,"map":"pl_borneo","folder":"tf","game":"Team Fortress","app_id":440,"player_count":0,"max_players":24,"Bots":0,"server_type":"Dedicated","server_os":"Linux","password":true,"vac":true,"version":"7932396","steam_id":85568392924742830,"keywords":["nocrits","nodmgspread","payload","uncletopia"],"game_id":440,"stv_port":27066,"stv_name":"Uncletopia | London | 6 | All Maps | STV","players":null},{"server_id":40,"name":"Uncletopia | London | 7 | No Payload","name_short":"lon-7","host":"lon-1.uk.uncletopia.com","port":27075,"enabled":true,"region":"eu","cc":"gb","latitude":51.509865,"longitude":-0.118092,"reserved":0,"last_update":"0001-01-01T00:00:00Z","name_a2s":"Uncletopia | London | 7 | No Payload","protocol":17,"map":"koth_lazarus","folder":"tf","game":"Team Fortress","app_id":440,"player_count":0,"max_players":24,"Bots":0,"server_type":"Dedicated","server_os":"Linux","password":true,"vac":true,"version":"7932396","steam_id":85568392924964314,"keywords":["cp","nocrits","nodmgspread","uncletopia"],"game_id":440,"stv_port":27076,"stv_name":"Uncletopia | London | 7 | No Payload | STV","players":null},{"server_id":41,"name":"Uncletopia | London | 8 | Community","name_short":"lon-8","host":"lon-1.uk.uncletopia.com","port":27085,"enabled":true,"region":"eu","cc":"gb","latitude":51.509865,"longitude":-0.118092,"reserved":0,"last_update":"0001-01-01T00:00:00Z","name_a2s":"Uncletopia | London | 8 | Community","protocol":17,"map":"workshop/cp_croissant_final.ugc458840209","folder":"tf","game":"Team Fortress","app_id":440,"player_count":0,"max_players":24,"Bots":0,"server_type":"Dedicated","server_os":"Linux","password":true,"vac":true,"version":"7932396","steam_id":85568392924964315,"keywords":["cp","nocrits","nodmgspread","uncletopia"],"game_id":440,"stv_port":27086,"stv_name":"Uncletopia | London | 8 | Community | STV","players":null},{"server_id":300,"name":"Uncletopia | Montr√©al | 1 | All Maps","name_short":"mtl-1","host":"mtl-1.ca.uncletopia.com","port":27015,"enabled":true,"region":"us-east","cc":"ca","latitude":45.50889,"longitude":-73.56167,"reserved":0,"last_update":"0001-01-01T00:00:00Z","name_a2s":"Uncletopia | Montr√©al | 1 | All Maps","protocol":17,"map":"pl_badwater","folder":"tf","game":"Team Fortress","app_id":440,"player_count":0,"max_players":24,"Bots":0,"server_type":"Dedicated","server_os":"Linux","password":true,"vac":true,"version":"7932396","steam_id":85568392924500087,"keywords":["nocrits","nodmgspread","payload","uncletopia"],"game_id":440,"stv_port":27016,"stv_name":"Uncletopia | Montr√©al | 1 | All Maps | STV","players":null},{"server_id":301,"name":"Uncletopia | Montr√©al | 2 | All Maps","name_short":"mtl-2","host":"mtl-1.ca.uncletopia.com","port":27025,"enabled":true,"region":"us-east","cc":"ca","latitude":45.50889,"longitude":-73.56167,"reserved":0,"last_update":"0001-01-01T00:00:00Z","name_a2s":"Uncletopia | Montr√©al | 2 | All Maps","protocol":17,"map":"koth_lakeside_final","folder":"tf","game":"Team Fortress","app_id":440,"player_count":0,"max_players":24,"Bots":0,"server_type":"Dedicated","server_os":"Linux","password":true,"vac":true,"version":"7932396","steam_id":85568392924500088,"keywords":["cp","nocrits","nodmgspread","uncletopia"],"game_id":440,"stv_port":27026,"stv_name":"Uncletopia | Montr√©al | 2 | All Maps | STV","players":null},{"server_id":302,"name":"Uncletopia | Montr√©al | 3 | All Maps","name_short":"mtl-3","host":"mtl-1.ca.uncletopia.com","port":27035,"enabled":true,"region":"us-east","cc":"ca","latitude":45.50889,"longitude":-73.56167,"reserved":0,"last_update":"0001-01-01T00:00:00Z","name_a2s":"Uncletopia | Montr√©al | 3 | All Maps","protocol":17,"map":"koth_highpass","folder":"tf","game":"Team Fortress","app_id":440,"player_count":3,"max_players":24,"Bots":0,"server_type":"Dedicated","server_os":"Linux","password":true,"vac":true,"version":"7932396","steam_id":85568392924500089,"keywords":["cp","nocrits","nodmgspread","uncletopia"],"game_id":440,"stv_port":27036,"stv_name":"Uncletopia | Montr√©al | 3 | All Maps | STV","players":[{"user_id":12,"name":"Xyverle","steam_id":76561198799726415,"connected_time":894000000000,"state":"active","ping":81},{"user_id":13,"name":"maxscout","steam_id":76561198448497948,"connected_time":874000000000,"state":"active","ping":89},{"user_id":11,"name":"ECCO","steam_id":76561198002821513,"connected_time":1632000000000,"state":"active","ping":69}]},{"server_id":303,"name":"Uncletopia | Montr√©al | 4 | No Payload","name_short":"mtl-4","host":"mtl-1.ca.uncletopia.com","port":27045,"enabled":true,"region":"us-east","cc":"ca","latitude":45.50889,"longitude":-73.56167,"reserved":0,"last_update":"0001-01-01T00:00:00Z","name_a2s":"Uncletopia | Montr√©al | 4 | No Payload","protocol":17,"map":"ctf_landfall","folder":"tf","game":"Team Fortress","app_id":440,"player_count":0,"max_players":24,"Bots":0,"server_type":"Dedicated","server_os":"Linux","password":true,"vac":true,"version":"7932396","steam_id":85568392924500090,"keywords":["ctf","nocrits","nodmgspread","uncletopia"],"game_id":440,"stv_port":27046,"stv_name":"Uncletopia | Montr√©al | 4 | No Payload | STV","players":null},{"server_id":13,"name":"Uncletopia | New York City | 1 | All Maps","name_short":"nyc-1","host":"nyc-1.us.uncletopia.com","port":27015,"enabled":true,"region":"us-east","cc":"us","latitude":40.73061,"longitude":-73.93524,"reserved":0,"last_update":"0001-01-01T00:00:00Z","name_a2s":"Uncletopia | New York City | 1 | All Maps","protocol":17,"map":"koth_viaduct","folder":"tf","game":"Team Fortress","app_id":440,"player_count":18,"max_players":24,"Bots":0,"server_type":"Dedicated","server_os":"Linux","password":true,"vac":true,"version":"7932396","steam_id":85568392924469993,"keywords":["cp","nocrits","nodmgspread","uncletopia"],"game_id":440,"stv_port":27016,"stv_name":"Uncletopia | New York City | 1 | All Maps | STV","players":[{"user_id":279,"name":"MILF Gaming","steam_id":76561198155378170,"connected_time":884000000000,"state":"active","ping":37},{"user_id":280,"name":"Potet Sekk","steam_id":76561198056402134,"connected_time":598000000000,"state":"active","ping":69},{"user_id":270,"name":"DamerDoozle","steam_id":76561199121686201,"connected_time":1125000000000,"state":"active","ping":73},{"user_id":256,"name":"saib","steam_id":76561198966980576,"connected_time":1994000000000,"state":"active","ping":45},{"user_id":284,"name":"Dip-Shit Davey","steam_id":76561198357468325,"connected_time":102000000000,"state":"active","ping":55},{"user_id":80,"name":"Darkish Souls","steam_id":76561198095982312,"connected_time":16337000000000,"state":"active","ping":37},{"user_id":285,"name":"cyberas","steam_id":76561198257092290,"connected_time":52000000000,"state":"active","ping":499},{"user_id":260,"name":"Ghost Modern Warfare 2 (2022)","steam_id":76561198116295334,"connected_time":1811000000000,"state":"active","ping":56},{"user_id":272,"name":"Medicus","steam_id":76561198396761055,"connected_time":1098000000000,"state":"active","ping":75},{"user_id":259,"name":"Fresh0c0","steam_id":76561198271933283,"connected_time":1878000000000,"state":"active","ping":77},{"user_id":276,"name":"ken","steam_id":76561198045968341,"connected_time":1063000000000,"state":"active","ping":52},{"user_id":286,"name":"Capn' Crunk","steam_id":76561198848399887,"connected_time":50000000000,"state":"active","ping":44},{"user_id":263,"name":"Convict Police Officers","steam_id":76561197993527275,"connected_time":1683000000000,"state":"active","ping":69},{"user_id":264,"name":"Lucille_Bluth","steam_id":76561198206133916,"connected_time":1647000000000,"state":"active","ping":61},{"user_id":274,"name":"Jaydyn","steam_id":76561198140326797,"connected_time":1074000000000,"state":"active","ping":68},{"user_id":144,"name":"ttv/lilirouxxx","steam_id":76561198000522179,"connected_time":10628000000000,"state":"active","ping":76},{"user_id":244,"name":"Yesu","steam_id":76561198026522528,"connected_time":2955000000000,"state":"active","ping":46},{"user_id":253,"name":"uberslak","steam_id":76561198064715241,"connected_time":2317000000000,"state":"active","ping":111}]},{"server_id":14,"name":"Uncletopia | New York City | 2 | All Maps","name_short":"nyc-2","host":"nyc-1.us.uncletopia.com","port":27025,"enabled":true,"region":"us-east","cc":"us","latitude":40.73061,"longitude":-73.93524,"reserved":0,"last_update":"0001-01-01T00:00:00Z","name_a2s":"Uncletopia | New York City | 2 | All Maps","protocol":17,"map":"cp_mercenarypark","folder":"tf","game":"Team Fortress","app_id":440,"player_count":23,"max_players":24,"Bots":0,"server_type":"Dedicated","server_os":"Linux","password":true,"vac":true,"version":"7932396","steam_id":85568392924469994,"keywords":["cp","nocrits","nodmgspread","uncletopia"],"game_id":440,"stv_port":27026,"stv_name":"Uncletopia | New York City | 2 | All Maps | STV","players":[{"user_id":249,"name":"Zixzs","steam_id":76561198055504126,"connected_time":792000000000,"state":"active","ping":80},{"user_id":198,"name":"impending nuptials","steam_id":76561197995620232,"connected_time":4799000000000,"state":"active","ping":36},{"user_id":223,"name":"Rock Lee in a Bikini","steam_id":76561198011204478,"connected_time":2731000000000,"state":"active","ping":69},{"user_id":258,"name":"The Sinister Potion","steam_id":76561198131280715,"connected_time":486000000000,"state":"active","ping":55},{"user_id":251,"name":"BeerPowder","steam_id":76561198058129400,"connected_time":771000000000,"state":"active","ping":51},{"user_id":261,"name":"duncetheman52","steam_id":76561199375775410,"connected_time":230000000000,"state":"active","ping":66},{"user_id":263,"name":"glitch","steam_id":76561197979495589,"connected_time":138000000000,"state":"active","ping":48},{"user_id":239,"name":"Coach Twig","steam_id":76561198058831591,"connected_time":2098000000000,"state":"active","ping":50},{"user_id":236,"name":"Osteo-Oligarch","steam_id":76561198164731896,"connected_time":2350000000000,"state":"active","ping":84},{"user_id":190,"name":"Dr Nefario","steam_id":76561198254646194,"connected_time":5178000000000,"state":"active","ping":45},{"user_id":252,"name":"Lovely Lori","steam_id":76561198031940979,"connected_time":739000000000,"state":"active","ping":56},{"user_id":227,"name":"mar","steam_id":76561199187162134,"connected_time":2654000000000,"state":"active","ping":82},{"user_id":129,"name":"Pigeon","steam_id":76561199232498885,"connected_time":8984000000000,"state":"active","ping":63},{"user_id":241,"name":"Heathcliff","steam_id":76561198044288534,"connected_time":1767000000000,"state":"active","ping":95},{"user_id":259,"name":"Ptahotep","steam_id":76561198008708645,"connected_time":409000000000,"state":"active","ping":127},{"user_id":253,"name":"triple_range_merge","steam_id":76561198991225026,"connected_time":724000000000,"state":"active","ping":65},{"user_id":202,"name":"bunsy","steam_id":76561198097292857,"connected_time":4726000000000,"state":"active","ping":75},{"user_id":254,"name":"Queso2469","steam_id":76561197993024580,"connected_time":710000000000,"state":"active","ping":46},{"user_id":260,"name":"JHLO","steam_id":76561198074359967,"connected_time":375000000000,"state":"active","ping":60},{"user_id":262,"name":"·ìÄ‚Ä∏·ìÇ","steam_id":76561198046055673,"connected_time":216000000000,"state":"active","ping":57},{"user_id":216,"name":"Broadway Rose","steam_id":76561198046083342,"connected_time":3927000000000,"state":"active","ping":42},{"user_id":257,"name":"INFINITE","steam_id":76561197971285557,"connected_time":668000000000,"state":"active","ping":53},{"user_id":234,"name":"D-MROMA","steam_id":76561198837664861,"connected_time":2549000000000,"state":"active","ping":97}]},{"server_id":15,"name":"Uncletopia | New York City | 3 | Stopwatch Beta","name_short":"nyc-3","host":"nyc-1.us.uncletopia.com","port":27035,"enabled":true,"region":"us-east","cc":"us","latitude":40.73061,"longitude":-73.93524,"reserved":0,"last_update":"0001-01-01T00:00:00Z","name_a2s":"Uncletopia | New York City | 3 | Stopwatch Beta","protocol":17,"map":"cp_process_final","folder":"tf","game":"Team Fortress","app_id":440,"player_count":4,"max_players":24,"Bots":0,"server_type":"Dedicated","server_os":"Linux","password":true,"vac":true,"version":"7932396","steam_id":85568392924742820,"keywords":["cp","nocrits","nodmgspread","uncletopia"],"game_id":440,"stv_port":27036,"stv_name":"Uncletopia | New York City | 3 | Stopwatch Beta | STV","players":[{"user_id":25,"name":"101_the_Robot","steam_id":76561198331039848,"connected_time":1010000000000,"state":"active","ping":81},{"user_id":18,"name":"yer_nerd","steam_id":76561199435454093,"connected_time":3871000000000,"state":"active","ping":62},{"user_id":20,"name":"Clef","steam_id":76561198985096335,"connected_time":2759000000000,"state":"active","ping":59},{"user_id":26,"name":"Hoovy-F2P","steam_id":76561198198895551,"connected_time":885000000000,"state":"active","ping":82}]},{"server_id":16,"name":"Uncletopia | New York City | 4 | Community","name_short":"nyc-4","host":"nyc-1.us.uncletopia.com","port":27045,"enabled":true,"region":"us-east","cc":"us","latitude":40.73061,"longitude":-73.93524,"reserved":0,"last_update":"0001-01-01T00:00:00Z","name_a2s":"Uncletopia | New York City | 4 | Community","protocol":17,"map":"workshop/koth_synthetic_rc6a.ugc1549817316","folder":"tf","game":"Team Fortress","app_id":440,"player_count":0,"max_players":24,"Bots":0,"server_type":"Dedicated","server_os":"Linux","password":true,"vac":true,"version":"7932396","steam_id":85568392924742821,"keywords":["cp","nocrits","nodmgspread","uncletopia"],"game_id":440,"stv_port":27046,"stv_name":"Uncletopia | New York City | 4 | Community | STV","players":null},{"server_id":142,"name":"Uncletopia | S√£o Paulo | 1 | All Maps","name_short":"sao-1","host":"sao-1.br.uncletopia.com","port":27015,"enabled":true,"region":"sa","cc":"br","latitude":-23.533773,"longitude":-46.62529,"reserved":0,"last_update":"0001-01-01T00:00:00Z","name_a2s":"Uncletopia | S√£o Paulo | 1 | All Maps","protocol":17,"map":"koth_lakeside_final","folder":"tf","game":"Team Fortress","app_id":440,"player_count":3,"max_players":24,"Bots":0,"server_type":"Dedicated","server_os":"Linux","password":true,"vac":true,"version":"7932396","steam_id":85568392924469996,"keywords":["cp","nocrits","nodmgspread","uncletopia"],"game_id":440,"stv_port":27016,"stv_name":"Uncletopia | S√£o Paulo | 1 | All Maps | STV","players":[{"user_id":23,"name":"Tecn√©cio","steam_id":76561198046465612,"connected_time":90000000000,"state":"active","ping":51},{"user_id":18,"name":"[M007] Morris","steam_id":76561198279742289,"connected_time":1246000000000,"state":"active","ping":56},{"user_id":22,"name":"Yarly","steam_id":76561199243038667,"connected_time":792000000000,"state":"active","ping":34}]},{"server_id":143,"name":"Uncletopia | S√£o Paulo | 2 | All Maps","name_short":"sao-2","host":"sao-2.br.uncletopia.com","port":27015,"enabled":true,"region":"sa","cc":"br","latitude":-23.533773,"longitude":-46.62529,"reserved":0,"last_update":"0001-01-01T00:00:00Z","name_a2s":"Uncletopia | S√£o Paulo | 2 | All Maps","protocol":17,"map":"koth_highpass","folder":"tf","game":"Team Fortress","app_id":440,"player_count":0,"max_players":24,"Bots":0,"server_type":"Dedicated","server_os":"Linux","password":true,"vac":true,"version":"7932396","steam_id":85568392924485349,"keywords":["cp","nocrits","nodmgspread","uncletopia"],"game_id":440,"stv_port":27016,"stv_name":"Uncletopia | S√£o Paulo | 2 | All Maps | STV","players":null},{"server_id":7,"name":"Uncletopia | Seattle | 1 | All Maps","name_short":"sea-1","host":"sea-1.us.uncletopia.com","port":27015,"enabled":true,"region":"us-west","cc":"us","latitude":47.608013,"longitude":-122.33517,"reserved":0,"last_update":"0001-01-01T00:00:00Z","name_a2s":"Uncletopia | Seattle | 1 | All Maps","protocol":17,"map":"pl_upward","folder":"tf","game":"Team Fortress","app_id":440,"player_count":20,"max_players":24,"Bots":0,"server_type":"Dedicated","server_os":"Linux","password":true,"vac":true,"version":"7932396","steam_id":85568392924469997,"keywords":["nocrits","nodmgspread","payload","uncletopia"],"game_id":440,"stv_port":27016,"stv_name":"Uncletopia | Seattle | 1 | All Maps | STV","players":[{"user_id":360,"name":"Morse","steam_id":76561198039944542,"connected_time":3837000000000,"state":"active","ping":46},{"user_id":363,"name":"ZEKKER","steam_id":76561197967968980,"connected_time":3741000000000,"state":"active","ping":51},{"user_id":380,"name":"PROFILE NAME","steam_id":76561199438851854,"connected_time":2560000000000,"state":"active","ping":61},{"user_id":376,"name":"chiefpapos","steam_id":76561198273996638,"connected_time":2933000000000,"state":"active","ping":69},{"user_id":398,"name":"Peakey The Bard","steam_id":76561198196607831,"connected_time":1212000000000,"state":"active","ping":189},{"user_id":407,"name":"Coowil","steam_id":76561198070985437,"connected_time":262000000000,"state":"active","ping":44},{"user_id":383,"name":"mike, 2.4 GPA","steam_id":76561198225411004,"connected_time":2104000000000,"state":"active","ping":67},{"user_id":408,"name":"bompler","steam_id":76561198365949179,"connected_time":223000000000,"state":"active","ping":107},{"user_id":401,"name":"lil boogie","steam_id":76561198064059721,"connected_time":635000000000,"state":"active","ping":42},{"user_id":409,"name":"Cookie","steam_id":76561198350229757,"connected_time":201000000000,"state":"active","ping":44},{"user_id":378,"name":"Anon","steam_id":76561198109740776,"connected_time":2713000000000,"state":"active","ping":87},{"user_id":404,"name":"Finkly","steam_id":76561198049828110,"connected_time":296000000000,"state":"active","ping":45},{"user_id":388,"name":"EpicNGamerz","steam_id":76561198304292582,"connected_time":1996000000000,"state":"active","ping":99},{"user_id":410,"name":"dust | she/it","steam_id":76561198045218909,"connected_time":196000000000,"state":"active","ping":33},{"user_id":411,"name":"Epifiny","steam_id":76561198027958086,"connected_time":121000000000,"state":"active","ping":121},{"user_id":367,"name":"wugmup","steam_id":76561199096287734,"connected_time":3671000000000,"state":"active","ping":102},{"user_id":412,"name":"NeptuneÀñ‚Å∫ÔΩ°Àö‚ãÜÀô‚ô•","steam_id":76561199054203198,"connected_time":67000000000,"state":"active","ping":147},{"user_id":397,"name":"OneMisguidedSlyGuy","steam_id":76561198372243261,"connected_time":1460000000000,"state":"active","ping":74},{"user_id":384,"name":"lil' witchums","steam_id":76561198155453103,"connected_time":2103000000000,"state":"active","ping":57},{"user_id":294,"name":"Mom","steam_id":76561198207936000,"connected_time":9301000000000,"state":"active","ping":75}]},{"server_id":119,"name":"Uncletopia | Seattle | 2 | All Maps","name_short":"sea-2","host":"sea-1.us.uncletopia.com","port":27025,"enabled":true,"region":"us-west","cc":"us","latitude":47.608013,"longitude":-122.33517,"reserved":0,"last_update":"0001-01-01T00:00:00Z","name_a2s":"Uncletopia | Seattle | 2 | All Maps","protocol":17,"map":"pl_swiftwater_final1","folder":"tf","game":"Team Fortress","app_id":440,"player_count":23,"max_players":24,"Bots":0,"server_type":"Dedicated","server_os":"Linux","password":true,"vac":true,"version":"7932396","steam_id":85568392924469998,"keywords":["nocrits","nodmgspread","payload","uncletopia"],"game_id":440,"stv_port":27026,"stv_name":"Uncletopia | Seattle | 2 | All Maps | STV","players":[{"user_id":288,"name":"Elfy","steam_id":76561199166448617,"connected_time":285000000000,"state":"active","ping":58},{"user_id":243,"name":"WhiteRabbit","steam_id":76561198027579538,"connected_time":3812000000000,"state":"active","ping":109},{"user_id":281,"name":"Senna","steam_id":76561198115830949,"connected_time":1133000000000,"state":"active","ping":148},{"user_id":259,"name":"MerkyWaters","steam_id":76561197998853063,"connected_time":2253000000000,"state":"active","ping":94},{"user_id":213,"name":"Prof. Sex","steam_id":76561198861711988,"connected_time":5978000000000,"state":"active","ping":48},{"user_id":283,"name":"RayRayDaquan -tb-","steam_id":76561198170403829,"connected_time":719000000000,"state":"active","ping":122},{"user_id":256,"name":"Captain Underbelly","steam_id":76561198811270935,"connected_time":2401000000000,"state":"active","ping":69},{"user_id":284,"name":"Forty","steam_id":76561198257410181,"connected_time":718000000000,"state":"active","ping":47},{"user_id":263,"name":"Norriss","steam_id":76561198920296293,"connected_time":1839000000000,"state":"active","ping":42},{"user_id":227,"name":"=Silver=","steam_id":76561198292307127,"connected_time":5263000000000,"state":"active","ping":72},{"user_id":289,"name":"Jimmehh -tb-","steam_id":76561198060671016,"connected_time":264000000000,"state":"active","ping":102},{"user_id":241,"name":"mcbitch","steam_id":76561199091188602,"connected_time":4364000000000,"state":"active","ping":119},{"user_id":276,"name":"Ockulus","steam_id":76561199069638460,"connected_time":1275000000000,"state":"active","ping":86},{"user_id":296,"name":"Greskrendtregk","steam_id":76561197969553142,"connected_time":195000000000,"state":"active","ping":56},{"user_id":264,"name":"Tomato","steam_id":76561197996472649,"connected_time":1823000000000,"state":"active","ping":128},{"user_id":278,"name":"BlazedBunny","steam_id":76561198243610560,"connected_time":1219000000000,"state":"active","ping":71},{"user_id":258,"name":"thisisSteve","steam_id":76561198420882318,"connected_time":2290000000000,"state":"active","ping":92},{"user_id":234,"name":"‚òØ ser reel -tb-","steam_id":76561198139731217,"connected_time":4518000000000,"state":"active","ping":119},{"user_id":254,"name":"Owl Of Delos","steam_id":76561198437116566,"connected_time":3088000000000,"state":"active","ping":59},{"user_id":279,"name":"team foolery 2","steam_id":76561199118049168,"connected_time":1214000000000,"state":"active","ping":80},{"user_id":295,"name":"skao","steam_id":76561198133360797,"connected_time":206000000000,"state":"active","ping":102},{"user_id":201,"name":"Zeora","steam_id":76561198799145251,"connected_time":6671000000000,"state":"active","ping":130},{"user_id":300,"name":"Theboxiboi","steam_id":76561199219006583,"connected_time":134000000000,"state":"active","ping":91}]},{"server_id":406,"name":"Uncletopia | Seattle | 3 | Stopwatch Beta","name_short":"sea-3","host":"sea-1.us.uncletopia.com","port":27035,"enabled":true,"region":"us-west","cc":"us","latitude":47.608013,"longitude":-122.33517,"reserved":0,"last_update":"0001-01-01T00:00:00Z","name_a2s":"Uncletopia | Seattle | 3 | Stopwatch Beta","protocol":17,"map":"workshop/koth_bagel_rc6.ugc2514036946","folder":"tf","game":"Team Fortress","app_id":440,"player_count":0,"max_players":24,"Bots":0,"server_type":"Dedicated","server_os":"Linux","password":true,"vac":true,"version":"7932396","steam_id":85568392924515217,"keywords":["cp","nocrits","nodmgspread","uncletopia"],"game_id":440,"stv_port":27036,"stv_name":"Uncletopia | Seattle | 3 | Stopwatch Beta | STV","players":null},{"server_id":17,"name":"Uncletopia | San Francisco | 1 | All Maps","name_short":"sfo-1","host":"sfo-1.us.uncletopia.com","port":27015,"enabled":true,"region":"us-west","cc":"us","latitude":37.77397,"longitude":-122.4313,"reserved":0,"last_update":"0001-01-01T00:00:00Z","name_a2s":"Uncletopia | San Francisco | 1 | All Maps","protocol":17,"map":"pl_snowycoast","folder":"tf","game":"Team Fortress","app_id":440,"player_count":24,"max_players":24,"Bots":0,"server_type":"Dedicated","server_os":"Linux","password":true,"vac":true,"version":"7932396","steam_id":85568392924469999,"keywords":["nocrits","nodmgspread","payload","uncletopia"],"game_id":440,"stv_port":27016,"stv_name":"Uncletopia | San Francisco | 1 | All Maps | STV","players":[{"user_id":144,"name":"Banzai","steam_id":76561198196503877,"connected_time":2032000000000,"state":"active","ping":77},{"user_id":154,"name":"Killer_Byte_","steam_id":76561198153259922,"connected_time":1494000000000,"state":"active","ping":48},{"user_id":156,"name":"Maniac9","steam_id":76561197960530967,"connected_time":1244000000000,"state":"active","ping":54},{"user_id":137,"name":"Superman123389","steam_id":76561198267472539,"connected_time":2201000000000,"state":"active","ping":82},{"user_id":145,"name":"moe","steam_id":76561198929586245,"connected_time":1995000000000,"state":"active","ping":58},{"user_id":138,"name":"TopHatWearingKoala","steam_id":76561198068192599,"connected_time":2194000000000,"state":"active","ping":130},{"user_id":159,"name":"cozy","steam_id":76561199044037628,"connected_time":952000000000,"state":"active","ping":126},{"user_id":142,"name":"genaro salazar","steam_id":76561198085451776,"connected_time":2159000000000,"state":"active","ping":83},{"user_id":161,"name":"rad killl raccoon","steam_id":76561198980975595,"connected_time":729000000000,"state":"active","ping":82},{"user_id":147,"name":"sandman","steam_id":76561198144772540,"connected_time":1964000000000,"state":"active","ping":115},{"user_id":151,"name":"iamoctopii","steam_id":76561198876901076,"connected_time":1858000000000,"state":"active","ping":152},{"user_id":155,"name":"Lex","steam_id":76561198069948353,"connected_time":1469000000000,"state":"active","ping":101},{"user_id":160,"name":"Cerabond","steam_id":76561199230915333,"connected_time":749000000000,"state":"active","ping":129},{"user_id":162,"name":"LarryOfAllTrades","steam_id":76561198325492137,"connected_time":717000000000,"state":"active","ping":61},{"user_id":119,"name":"BrightOrangeMango","steam_id":76561198023144607,"connected_time":3485000000000,"state":"active","ping":73},{"user_id":135,"name":"Chalks","steam_id":76561198045978275,"connected_time":2520000000000,"state":"active","ping":58},{"user_id":140,"name":"The Collective(Hypnotist)","steam_id":76561198170423483,"connected_time":2183000000000,"state":"active","ping":116},{"user_id":158,"name":"croissantcrusader","steam_id":76561198813533235,"connected_time":1017000000000,"state":"active","ping":99},{"user_id":167,"name":"Baseball Billy","steam_id":76561199060742929,"connected_time":23000000000,"state":"spawning","ping":341},{"user_id":166,"name":"earthy tones","steam_id":76561197975080641,"connected_time":165000000000,"state":"active","ping":47},{"user_id":164,"name":"ms. anthrope","steam_id":76561198063533082,"connected_time":680000000000,"state":"active","ping":68},{"user_id":78,"name":"‚ò≠Borris‚ò≠","steam_id":76561198011136886,"connected_time":5837000000000,"state":"active","ping":63},{"user_id":124,"name":"Quagsire Acquired","steam_id":76561198417169465,"connected_time":3323000000000,"state":"active","ping":96},{"user_id":152,"name":"MantisToboggan","steam_id":76561197969447887,"connected_time":1845000000000,"state":"active","ping":92}]},{"server_id":18,"name":"Uncletopia | San Francisco | 2 | All Maps","name_short":"sfo-2","host":"sfo-1.us.uncletopia.com","port":27025,"enabled":true,"region":"us-west","cc":"us","latitude":37.77397,"longitude":-122.4313,"reserved":0,"last_update":"0001-01-01T00:00:00Z","name_a2s":"Uncletopia | San Francisco | 2 | All Maps","protocol":17,"map":"pl_borneo","folder":"tf","game":"Team Fortress","app_id":440,"player_count":0,"max_players":24,"Bots":0,"server_type":"Dedicated","server_os":"Linux","password":true,"vac":true,"version":"7932396","steam_id":85568392924470000,"keywords":["nocrits","nodmgspread","payload","uncletopia"],"game_id":440,"stv_port":27026,"stv_name":"Uncletopia | San Francisco | 2 | All Maps | STV","players":null},{"server_id":19,"name":"Uncletopia | San Francisco | 3 | Stopwatch Beta","name_short":"sfo-3","host":"sfo-1.us.uncletopia.com","port":27035,"enabled":true,"region":"us-west","cc":"us","latitude":37.77397,"longitude":-122.4313,"reserved":0,"last_update":"0001-01-01T00:00:00Z","name_a2s":"Uncletopia | San Francisco | 3 | Stopwatch Beta","protocol":17,"map":"koth_lakeside_final","folder":"tf","game":"Team Fortress","app_id":440,"player_count":0,"max_players":24,"Bots":0,"server_type":"Dedicated","server_os":"Linux","password":true,"vac":true,"version":"7932396","steam_id":85568392924742824,"keywords":["cp","nocrits","nodmgspread","uncletopia"],"game_id":440,"stv_port":27036,"stv_name":"Uncletopia | San Francisco | 3 | Stopwatch Beta | STV","players":null},{"server_id":20,"name":"Uncletopia | San Francisco | 4 | Community","name_short":"sfo-4","host":"sfo-1.us.uncletopia.com","port":27045,"enabled":true,"region":"us-west","cc":"us","latitude":37.77397,"longitude":-122.4313,"reserved":0,"last_update":"0001-01-01T00:00:00Z","name_a2s":"Uncletopia | San Francisco | 4 | Community","protocol":17,"map":"workshop/koth_product_final.ugc454272353","folder":"tf","game":"Team Fortress","app_id":440,"player_count":17,"max_players":24,"Bots":0,"server_type":"Dedicated","server_os":"Linux","password":true,"vac":true,"version":"7932396","steam_id":85568392924742826,"keywords":["cp","nocrits","nodmgspread","uncletopia"],"game_id":440,"stv_port":27046,"stv_name":"Uncletopia | San Francisco | 4 | Community | STV","players":[{"user_id":417,"name":"sunny","steam_id":76561198069380992,"connected_time":705000000000,"state":"active","ping":86},{"user_id":413,"name":"skao","steam_id":76561198133360797,"connected_time":1244000000000,"state":"active","ping":54},{"user_id":418,"name":"Savaqa","steam_id":76561198158016688,"connected_time":704000000000,"state":"active","ping":52},{"user_id":402,"name":"smeasly","steam_id":76561198028718812,"connected_time":1821000000000,"state":"active","ping":49},{"user_id":326,"name":"Andreshatesmondays","steam_id":76561198889349797,"connected_time":6230000000000,"state":"active","ping":66},{"user_id":403,"name":"Mico (Mico)","steam_id":76561198125462953,"connected_time":1798000000000,"state":"active","ping":57},{"user_id":369,"name":"Everywhere at the End of Online","steam_id":76561197971352904,"connected_time":3759000000000,"state":"active","ping":67},{"user_id":380,"name":"eryn üó∫","steam_id":76561198004433070,"connected_time":2898000000000,"state":"active","ping":88},{"user_id":422,"name":"pwadvisor1","steam_id":76561199230039839,"connected_time":498000000000,"state":"active","ping":58},{"user_id":416,"name":"Rave Blitz","steam_id":76561198019158476,"connected_time":1022000000000,"state":"active","ping":49},{"user_id":359,"name":"REDACTED_banana_887","steam_id":76561199224406093,"connected_time":4358000000000,"state":"active","ping":125},{"user_id":396,"name":"Dubious Adubio","steam_id":76561198442369067,"connected_time":2207000000000,"state":"active","ping":66},{"user_id":397,"name":"Thequirka","steam_id":76561198968058652,"connected_time":2114000000000,"state":"active","ping":65},{"user_id":407,"name":"Spectre","steam_id":76561198025652246,"connected_time":1746000000000,"state":"active","ping":95},{"user_id":368,"name":"burdllomu (no vac/buy lollichop","steam_id":76561199142477846,"connected_time":3970000000000,"state":"active","ping":78},{"user_id":408,"name":"Dr. Sex (fake)","steam_id":76561198329591401,"connected_time":1731000000000,"state":"active","ping":123},{"user_id":399,"name":"GravyPouch","steam_id":76561198067539038,"connected_time":1982000000000,"state":"active","ping":102}]},{"server_id":141,"name":"Uncletopia | Sydney | 1 | All Maps","name_short":"syd-1","host":"syd-1.au.uncletopia.com","port":27015,"enabled":true,"region":"au","cc":"au","latitude":-33.865143,"longitude":151.2099,"reserved":0,"last_update":"0001-01-01T00:00:00Z","name_a2s":"Uncletopia | Sydney | 1 | All Maps","protocol":17,"map":"pl_pier","folder":"tf","game":"Team Fortress","app_id":440,"player_count":0,"max_players":24,"Bots":0,"server_type":"Dedicated","server_os":"Linux","password":true,"vac":true,"version":"7932396","steam_id":85568392924470001,"keywords":["nocrits","nodmgspread","payload","uncletopia"],"game_id":440,"stv_port":27016,"stv_name":"Uncletopia | Sydney | 1 | All Maps | STV","players":null},{"server_id":123,"name":"Uncletopia | Sydney | 2 | All Maps","name_short":"syd-2","host":"syd-1.au.uncletopia.com","port":27025,"enabled":true,"region":"au","cc":"au","latitude":-33.865143,"longitude":151.2099,"reserved":0,"last_update":"0001-01-01T00:00:00Z","name_a2s":"Uncletopia | Sydney | 2 | All Maps","protocol":17,"map":"koth_lakeside_final","folder":"tf","game":"Team Fortress","app_id":440,"player_count":0,"max_players":24,"Bots":0,"server_type":"Dedicated","server_os":"Linux","password":true,"vac":true,"version":"7932396","steam_id":85568392924470002,"keywords":["cp","nocrits","nodmgspread","uncletopia"],"game_id":440,"stv_port":27026,"stv_name":"Uncletopia | Sydney | 2 | All Maps | STV","players":null},{"server_id":395,"name":"Uncletopia | Sydney | 3 | All Maps","name_short":"syd-3","host":"syd-1.au.uncletopia.com","port":27035,"enabled":true,"region":"au","cc":"au","latitude":-33.865143,"longitude":151.2099,"reserved":0,"last_update":"0001-01-01T00:00:00Z","name_a2s":"Uncletopia | Sydney | 3 | All Maps","protocol":17,"map":"pl_barnblitz","folder":"tf","game":"Team Fortress","app_id":440,"player_count":0,"max_players":24,"Bots":0,"server_type":"Dedicated","server_os":"Linux","password":true,"vac":true,"version":"7932396","steam_id":85568392925194467,"keywords":["nocrits","nodmgspread","payload","uncletopia"],"game_id":440,"stv_port":27036,"stv_name":"Uncletopia | Sydney | 3 | All Maps | STV","players":null},{"server_id":396,"name":"Uncletopia | Sydney | 4 | All Maps","name_short":"syd-4","host":"syd-1.au.uncletopia.com","port":27045,"enabled":true,"region":"au","cc":"au","latitude":-33.865143,"longitude":151.2099,"reserved":0,"last_update":"0001-01-01T00:00:00Z","name_a2s":"Uncletopia | Sydney | 4 | All Maps","protocol":17,"map":"pl_pier","folder":"tf","game":"Team Fortress","app_id":440,"player_count":0,"max_players":24,"Bots":0,"server_type":"Dedicated","server_os":"Linux","password":true,"vac":true,"version":"7932396","steam_id":85568392925397958,"keywords":["nocrits","nodmgspread","payload","uncletopia"],"game_id":440,"stv_port":27046,"stv_name":"Uncletopia | Sydney | 4 | All Maps | STV","players":null},{"server_id":58,"name":"Uncletopia | Sydney | 5 | Stopwatch Beta","name_short":"syd-5","host":"syd-1.au.uncletopia.com","port":27055,"enabled":true,"region":"au","cc":"au","latitude":-33.865143,"longitude":151.2099,"reserved":0,"last_update":"0001-01-01T00:00:00Z","name_a2s":"Uncletopia | Sydney | 5 | Stopwatch Beta","protocol":17,"map":"pl_borneo","folder":"tf","game":"Team Fortress","app_id":440,"player_count":0,"max_players":24,"Bots":0,"server_type":"Dedicated","server_os":"Linux","password":true,"vac":true,"version":"7932396","steam_id":85568392925397959,"keywords":["nocrits","nodmgspread","payload","uncletopia"],"game_id":440,"stv_port":27056,"stv_name":"Uncletopia | Sydney | 5 | Stopwatch Beta | STV","players":null},{"server_id":59,"name":"Uncletopia | Sydney | 6 | Community","name_short":"syd-6","host":"syd-1.au.uncletopia.com","port":27065,"enabled":true,"region":"au","cc":"au","latitude":-33.865143,"longitude":151.2099,"reserved":0,"last_update":"0001-01-01T00:00:00Z","name_a2s":"Uncletopia | Sydney | 6 | Community","protocol":17,"map":"pl_badwater","folder":"tf","game":"Team Fortress","app_id":440,"player_count":0,"max_players":24,"Bots":0,"server_type":"Dedicated","server_os":"Linux","password":true,"vac":true,"version":"7932396","steam_id":85568392925397960,"keywords":["nocrits","nodmgspread","payload","uncletopia"],"game_id":440,"stv_port":27066,"stv_name":"Uncletopia | Sydney | 6 | Community | STV","players":null},{"server_id":49,"name":"Uncletopia | Warsaw | 1 | All Maps","name_short":"waw-1","host":"waw-1.pl.uncletopia.com","port":27015,"enabled":true,"region":"eu","cc":"pl","latitude":52.2297,"longitude":21.017532,"reserved":0,"last_update":"0001-01-01T00:00:00Z","name_a2s":"","protocol":0,"map":"","folder":"","game":"","app_id":0,"player_count":0,"max_players":0,"Bots":0,"server_type":"","server_os":"","password":false,"vac":false,"version":"","steam_id":0,"keywords":null,"game_id":0,"stv_port":0,"stv_name":"","players":null},{"server_id":50,"name":"Uncletopia | Warsaw | 2 | All Maps","name_short":"waw-2","host":"waw-1.pl.uncletopia.com","port":27025,"enabled":true,"region":"eu","cc":"pl","latitude":52.2297,"longitude":21.017532,"reserved":0,"last_update":"0001-01-01T00:00:00Z","name_a2s":"Uncletopia | Warsaw | 2 | All Maps","protocol":17,"map":"cp_dustbowl","folder":"tf","game":"Team Fortress","app_id":440,"player_count":0,"max_players":24,"Bots":0,"server_type":"Dedicated","server_os":"Linux","password":true,"vac":true,"version":"7932396","steam_id":85568392925397851,"keywords":["cp","nocrits","nodmgspread","uncletopia"],"game_id":440,"stv_port":27026,"stv_name":"Uncletopia | Warsaw | 2 | All Maps | STV","players":null},{"server_id":51,"name":"Uncletopia | Warsaw | 3 | All Maps","name_short":"waw-3","host":"waw-1.pl.uncletopia.com","port":27035,"enabled":true,"region":"eu","cc":"pl","latitude":52.2297,"longitude":21.017532,"reserved":0,"last_update":"0001-01-01T00:00:00Z","name_a2s":"Uncletopia | Warsaw | 3 | All Maps","protocol":17,"map":"pl_pier","folder":"tf","game":"Team Fortress","app_id":440,"player_count":0,"max_players":24,"Bots":0,"server_type":"Dedicated","server_os":"Linux","password":true,"vac":true,"version":"7932396","steam_id":85568392925397852,"keywords":["nocrits","nodmgspread","payload","uncletopia"],"game_id":440,"stv_port":27036,"stv_name":"Uncletopia | Warsaw | 3 | All Maps | STV","players":null},{"server_id":52,"name":"Uncletopia | Warsaw | 4 | All Maps","name_short":"waw-4","host":"waw-1.pl.uncletopia.com","port":27045,"enabled":true,"region":"eu","cc":"pl","latitude":52.2297,"longitude":21.017532,"reserved":0,"last_update":"0001-01-01T00:00:00Z","name_a2s":"Uncletopia | Warsaw | 4 | All Maps","protocol":17,"map":"pl_swiftwater_final1","folder":"tf","game":"Team Fortress","app_id":440,"player_count":0,"max_players":24,"Bots":0,"server_type":"Dedicated","server_os":"Linux","password":true,"vac":true,"version":"7932396","steam_id":85568392925397853,"keywords":["nocrits","nodmgspread","payload","uncletopia"],"game_id":440,"stv_port":27046,"stv_name":"Uncletopia | Warsaw | 4 | All Maps | STV","players":null},{"server_id":53,"name":"Uncletopia | Warsaw | 5 | Stopwatch Beta","name_short":"waw-5","host":"waw-1.pl.uncletopia.com","port":27055,"enabled":true,"region":"eu","cc":"pl","latitude":52.2297,"longitude":21.017532,"reserved":0,"last_update":"0001-01-01T00:00:00Z","name_a2s":"Uncletopia | Warsaw | 5 | Stopwatch Beta","protocol":17,"map":"koth_highpass","folder":"tf","game":"Team Fortress","app_id":440,"player_count":0,"max_players":24,"Bots":0,"server_type":"Dedicated","server_os":"Linux","password":true,"vac":true,"version":"7932396","steam_id":85568392925397854,"keywords":["cp","nocrits","nodmgspread","uncletopia"],"game_id":440,"stv_port":27056,"stv_name":"Uncletopia | Warsaw | 5 | Stopwatch Beta | STV","players":null},{"server_id":54,"name":"Uncletopia | Warsaw | 6 | Community","name_short":"waw-6","host":"waw-1.pl.uncletopia.com","port":27065,"enabled":true,"region":"eu","cc":"pl","latitude":52.2297,"longitude":21.017532,"reserved":0,"last_update":"0001-01-01T00:00:00Z","name_a2s":"Uncletopia | Warsaw | 6 | Community","protocol":17,"map":"workshop/cp_croissant_final.ugc458840209","folder":"tf","game":"Team Fortress","app_id":440,"player_count":0,"max_players":24,"Bots":0,"server_type":"Dedicated","server_os":"Linux","password":true,"vac":true,"version":"7932396","steam_id":85568392925397856,"keywords":["cp","nocrits","nodmgspread","uncletopia"],"game_id":440,"stv_port":27066,"stv_name":"Uncletopia | Warsaw | 6 | Community | STV","players":null}]}