{"status":true,"message":"","result":[{"server_id":9,"name":"Uncletopia | Atlanta | 1 | All Maps","name_short":"atl-1","host":"atl-1.us.uncletopia.com","port":27015,"enabled":true,"region":"us-east","cc":"us","latitude":33.753746,"longitude":-84.38633,"reserved":0,"last_update":"0001-01-01T00:00:00Z","name_a2s":"Uncletopia | Atlanta | 1 | All Maps","protocol":17,"map":"koth_highpass","folder":"tf","game":"Team Fortress","app_id":440,"player_count":0,"max_players":24,"Bots":0,"server_type":"Dedicated","server_os":"Linux","password":true,"vac":true,"version":"7961495","steam_id":85568392924469982,"keywords":["cp","nocrits","nodmgspread","uncletopia"],"game_id":440,"stv_port":27016,"stv_name":"Uncletopia | Atlanta | 1 | All Maps | STV","players":null},{"server_id":104,"name":"Uncletopia | Atlanta | 2 | All Maps","name_short":"atl-2","host":"atl-1.us.uncletopia.com","port":27025,"enabled":true,"region":"us-east","cc":"us","latitude":33.753746,"longitude":-84.38633,"reserved":0,"last_update":"0001-01-01T00:00:00Z","name_a2s":"Uncletopia | Atlanta | 2 | All Maps","protocol":17,"map":"cp_badlands","folder":"tf","game":"Team Fortress","app_id":440,"player_count":0,"max_players":24,"Bots":0,"server_type":"Dedicated","server_os":"Linux","password":true,"vac":true,"version":"7961495","steam_id":85568392924469983,"keywords":["cp","nocrits","nodmgspread","uncletopia"],"game_id":440,"stv_port":27026,"stv_name":"Uncletopia | Atlanta | 2 | All Maps | STV","players":null},{"server_id":400,"name":"Uncletopia | Atlanta | 3 | Stopwatch","name_short":"atl-3","host":"atl-1.us.uncletopia.com","port":27035,"enabled":true,"region":"us-east","cc":"us","latitude":33.753746,"longitude":-84.38633,"reserved":0,"last_update":"0001-01-01T00:00:00Z","name_a2s":"Uncletopia | Atlanta | 3 | Stopwatch","protocol":17,"map":"workshop/koth_ashville_final.ugc2130459942","folder":"tf","game":"Team Fortress","app_id":440,"player_count":0,"max_players":24,"Bots":0,"server_type":"Dedicated","server_os":"Linux","password":true,"vac":true,"version":"7961495","steam_id":85568392924515187,"keywords":["cp","nocrits","nodmgspread","uncletopia"],"game_id":440,"stv_port":27036,"stv_name":"Uncletopia | Atlanta | 3 | Stopwatch | STV","players":null},{"server_id":401,"name":"Uncletopia | Atlanta | 4 | Community","name_short":"atl-4","host":"atl-1.us.uncletopia.com","port":27045,"enabled":true,"region":"us-east","cc":"us","latitude":33.753746,"longitude":-84.38633,"reserved":0,"last_update":"0001-01-01T00:00:00Z","name_a2s":"Uncletopia | Atlanta | 4 | Community","protocol":17,"map":"workshop/pl_badwater_pro_v12.ugc2142942074","folder":"tf","game":"Team Fortress","app_id":440,"player_count":0,"max_players":24,"Bots":0,"server_type":"Dedicated","server_os":"Linux","password":true,"vac":true,"version":"7961495","steam_id":85568392924515188,"keywords":["nocrits","nodmgspread","payload","uncletopia"],"game_id":440,"stv_port":27046,"stv_name":"Uncletopia | Atlanta | 4 | Community | STV","players":null},{"server_id":2,"name":"Uncletopia | Chicago | 1 | All Maps","name_short":"chi-1","host":"chi-1.us.uncletopia.com","port":27015,"enabled":true,"region":"us-central","cc":"us","latitude":41.881832,"longitude":-87.62318,"reserved":0,"last_update":"0001-01-01T00:00:00Z","name_a2s":"Uncletopia | Chicago | 1 | All Maps","protocol":17,"map":"pl_badwater","folder":"tf","game":"Team Fortress","app_id":440,"player_count":24,"max_players":24,"Bots":0,"server_type":"Dedicated","server_os":"Linux","password":true,"vac":true,"version":"7961495","steam_id":85568392924469984,"keywords":["nocrits","nodmgspread","payload","uncletopia"],"game_id":440,"stv_port":27016,"stv_name":"Uncletopia | Chicago | 1 | All Maps | STV","players":[{"user_id":181,"name":"Stimming","steam_id":76561199127423378,"connected_time":822000000000,"state":"active","ping":95},{"user_id":172,"name":"Gotta Move That Gear Up","steam_id":76561197993467034,"connected_time":1319000000000,"state":"active","ping":49},{"user_id":169,"name":"god","steam_id":76561198278008225,"connected_time":1397000000000,"state":"active","ping":75},{"user_id":190,"name":"Smitty Werbenjagermanjensen","steam_id":76561198065782439,"connected_time":266000000000,"state":"active","ping":95},{"user_id":173,"name":"poorman #1 sniper","steam_id":76561198447884169,"connected_time":1228000000000,"state":"active","ping":51},{"user_id":146,"name":"jb","steam_id":76561198038607085,"connected_time":4564000000000,"state":"active","ping":69},{"user_id":157,"name":"GreySweaterCat","steam_id":76561198351860293,"connected_time":2445000000000,"state":"active","ping":91},{"user_id":191,"name":"CabezaGrande","steam_id":76561197972555502,"connected_time":228000000000,"state":"active","ping":53},{"user_id":177,"name":"Morgster","steam_id":76561198131697761,"connected_time":984000000000,"state":"active","ping":66},{"user_id":171,"name":"Fiendish Frog","steam_id":76561198029478821,"connected_time":1394000000000,"state":"active","ping":70},{"user_id":186,"name":"Stonershade","steam_id":76561198377429433,"connected_time":480000000000,"state":"active","ping":75},{"user_id":110,"name":"harmless people → wild beasts","steam_id":76561197995620232,"connected_time":6559000000000,"state":"active","ping":60},{"user_id":189,"name":"Ponk","steam_id":76561198453409672,"connected_time":301000000000,"state":"active","ping":80},{"user_id":160,"name":"Lily (she/her)","steam_id":76561198355495948,"connected_time":2197000000000,"state":"active","ping":74},{"user_id":155,"name":"Makima Enjoyer","steam_id":76561198852044774,"connected_time":2614000000000,"state":"active","ping":83},{"user_id":192,"name":"Burgoo_King","steam_id":76561198133572225,"connected_time":180000000000,"state":"active","ping":137},{"user_id":161,"name":"Leeous","steam_id":76561198081083248,"connected_time":2170000000000,"state":"active","ping":98},{"user_id":193,"name":"Franston","steam_id":76561198253365247,"connected_time":164000000000,"state":"active","ping":176},{"user_id":180,"name":"Tony Pizza","steam_id":76561198276513608,"connected_time":855000000000,"state":"active","ping":169},{"user_id":194,"name":"doctor gaysex","steam_id":76561199216276498,"connected_time":162000000000,"state":"active","ping":165},{"user_id":185,"name":"BOOMER DOOMER","steam_id":76561198262318826,"connected_time":602000000000,"state":"active","ping":75},{"user_id":195,"name":"chaffy","steam_id":76561198021754567,"connected_time":125000000000,"state":"active","ping":61},{"user_id":184,"name":"PANNED RAT","steam_id":76561198328829278,"connected_time":668000000000,"state":"active","ping":51},{"user_id":130,"name":"yeehaw88","steam_id":76561198337308198,"connected_time":5885000000000,"state":"active","ping":71}]},{"server_id":106,"name":"Uncletopia | Chicago | 2 | All Maps","name_short":"chi-2","host":"chi-1.us.uncletopia.com","port":27025,"enabled":true,"region":"us-central","cc":"us","latitude":41.881832,"longitude":-87.62318,"reserved":0,"last_update":"0001-01-01T00:00:00Z","name_a2s":"Uncletopia | Chicago | 2 | All Maps","protocol":17,"map":"pl_rumford_event","folder":"tf","game":"Team Fortress","app_id":440,"player_count":0,"max_players":24,"Bots":0,"server_type":"Dedicated","server_os":"Linux","password":true,"vac":true,"version":"7961495","steam_id":85568392924469985,"keywords":["nocrits","nodmgspread","payload","uncletopia"],"game_id":440,"stv_port":27026,"stv_name":"Uncletopia | Chicago | 2 | All Maps | STV","players":null},{"server_id":402,"name":"Uncletopia | Chicago | 3 | All Maps","name_short":"chi-3","host":"chi-1.us.uncletopia.com","port":27035,"enabled":true,"region":"us-central","cc":"us","latitude":41.881832,"longitude":-87.62318,"reserved":0,"last_update":"0001-01-01T00:00:00Z","name_a2s":"Uncletopia | Chicago | 3 | All Maps","protocol":17,"map":"plr_pipeline","folder":"tf","game":"Team Fortress","app_id":440,"player_count":0,"max_players":24,"Bots":0,"server_type":"Dedicated","server_os":"Linux","password":true,"vac":true,"version":"7961495","steam_id":85568392924515191,"keywords":["nocrits","nodmgspread","payload","uncletopia"],"game_id":440,"stv_port":27036,"stv_name":"Uncletopia | Chicago | 3 | All Maps | STV","players":null},{"server_id":403,"name":"Uncletopia | Chicago | 4 | All Maps","name_short":"chi-4","host":"chi-1.us.uncletopia.com","port":27045,"enabled":true,"region":"us-central","cc":"us","latitude":41.881832,"longitude":-87.62318,"reserved":0,"last_update":"0001-01-01T00:00:00Z","name_a2s":"Uncletopia | Chicago | 4 | All Maps","protocol":17,"map":"pl_upward","folder":"tf","game":"Team Fortress","app_id":440,"player_count":24,"max_players":24,"Bots":0,"server_type":"Dedicated","server_os":"Linux","password":true,"vac":true,"version":"7961495","steam_id":85568392924515193,"keywords":["nocrits","nodmgspread","payload","uncletopia"],"game_id":440,"stv_port":27046,"stv_name":"Uncletopia | Chicago | 4 | All Maps | STV","players":[{"user_id":49,"name":"kratomSnorter.1quarter","steam_id":76561198946987511,"connected_time":346000000000,"state":"active","ping":81},{"user_id":5,"name":"Varie","steam_id":76561199454930210,"connected_time":2281000000000,"state":"active","ping":60},{"user_id":34,"name":"DeepDive","steam_id":76561198140542184,"connected_time":718000000000,"state":"active","ping":65},{"user_id":8,"name":"MangoMaster7834","steam_id":76561199231165397,"connected_time":1780000000000,"state":"active","ping":83},{"user_id":42,"name":"Poop sock","steam_id":76561198957996236,"connected_time":547000000000,"state":"active","ping":59},{"user_id":55,"name":"jorjor wells","steam_id":76561199073429082,"connected_time":16000000000,"state":"active","ping":64},{"user_id":50,"name":"ryce","steam_id":76561198114572309,"connected_time":337000000000,"state":"active","ping":57},{"user_id":48,"name":"Zonk","steam_id":76561198846893994,"connected_time":405000000000,"state":"active","ping":82},{"user_id":16,"name":"gerry0107","steam_id":76561198277578620,"connected_time":1363000000000,"state":"active","ping":72},{"user_id":36,"name":"name420","steam_id":76561198129374525,"connected_time":638000000000,"state":"active","ping":72},{"user_id":53,"name":"Megatron G","steam_id":76561198168864083,"connected_time":174000000000,"state":"active","ping":95},{"user_id":52,"name":"Banjo","steam_id":76561198004652853,"connected_time":289000000000,"state":"active","ping":89},{"user_id":32,"name":"Grimprr","steam_id":76561198275816797,"connected_time":812000000000,"state":"active","ping":69},{"user_id":33,"name":"Forsén","steam_id":76561199131971501,"connected_time":790000000000,"state":"active","ping":150},{"user_id":25,"name":"MR_KRABS_SOCCER","steam_id":76561199364746412,"connected_time":962000000000,"state":"active","ping":103},{"user_id":54,"name":"Kingmako1099","steam_id":76561199266890323,"connected_time":124000000000,"state":"active","ping":78},{"user_id":28,"name":"HOG         RIDER","steam_id":76561198040787741,"connected_time":901000000000,"state":"active","ping":53},{"user_id":30,"name":"JOE BIDEN","steam_id":76561198065650507,"connected_time":880000000000,"state":"active","ping":55},{"user_id":38,"name":"locked cathode tube","steam_id":76561198085044565,"connected_time":632000000000,"state":"active","ping":92},{"user_id":39,"name":"Nic0","steam_id":76561198305690218,"connected_time":629000000000,"state":"active","ping":69},{"user_id":47,"name":"short bus enthusiast","steam_id":76561198069380992,"connected_time":409000000000,"state":"active","ping":81},{"user_id":43,"name":"MCwopsi","steam_id":76561198318263376,"connected_time":518000000000,"state":"active","ping":67},{"user_id":44,"name":"krd","steam_id":76561198347660282,"connected_time":517000000000,"state":"active","ping":103},{"user_id":45,"name":"Op banana","steam_id":76561198303231451,"connected_time":515000000000,"state":"active","ping":60}]},{"server_id":36,"name":"Uncletopia | Chicago | 5 | All Maps","name_short":"chi-5","host":"chi-2.us.uncletopia.com","port":27015,"enabled":true,"region":"us-central","cc":"us","latitude":41.881832,"longitude":-87.62318,"reserved":0,"last_update":"0001-01-01T00:00:00Z","name_a2s":"Uncletopia | Chicago | 5 | All Maps","protocol":17,"map":"pl_borneo","folder":"tf","game":"Team Fortress","app_id":440,"player_count":0,"max_players":24,"Bots":0,"server_type":"Dedicated","server_os":"Linux","password":true,"vac":true,"version":"7961495","steam_id":85568392924866362,"keywords":["nocrits","nodmgspread","payload","uncletopia"],"game_id":440,"stv_port":27016,"stv_name":"Uncletopia | Chicago | 5 | All Maps | STV","players":null},{"server_id":37,"name":"Uncletopia | Chicago | 6 | All Maps","name_short":"chi-6","host":"chi-2.us.uncletopia.com","port":27025,"enabled":true,"region":"us-central","cc":"us","latitude":41.881832,"longitude":-87.62318,"reserved":0,"last_update":"0001-01-01T00:00:00Z","name_a2s":"Uncletopia | Chicago | 6 | All Maps","protocol":17,"map":"ctf_turbine","folder":"tf","game":"Team Fortress","app_id":440,"player_count":0,"max_players":24,"Bots":0,"server_type":"Dedicated","server_os":"Linux","password":true,"vac":true,"version":"7961495","steam_id":85568392924866363,"keywords":["ctf","nocrits","nodmgspread","uncletopia"],"game_id":440,"stv_port":27026,"stv_name":"Uncletopia | Chicago | 6 | All Maps | STV","players":null},{"server_id":38,"name":"Uncletopia | Chicago | 7 | Stopwatch","name_short":"chi-7","host":"chi-2.us.uncletopia.com","port":27035,"enabled":true,"region":"us-central","cc":"us","latitude":41.881832,"longitude":-87.62318,"reserved":0,"last_update":"0001-01-01T00:00:00Z","name_a2s":"Uncletopia | Chicago | 7 | Stopwatch","protocol":17,"map":"workshop/pl_badwater_pro_v12.ugc2142942074","folder":"tf","game":"Team Fortress","app_id":440,"player_count":0,"max_players":24,"Bots":0,"server_type":"Dedicated","server_os":"Linux","password":true,"vac":true,"version":"7961495","steam_id":85568392924866364,"keywords":["nocrits","nodmgspread","payload","uncletopia"],"game_id":440,"stv_port":27036,"stv_name":"Uncletopia | Chicago | 7 | Stopwatch | STV","players":null},{"server_id":39,"name":"Uncletopia | Chicago | 8 | Community","name_short":"chi-8","host":"chi-2.us.uncletopia.com","port":27045,"enabled":true,"region":"us-central","cc":"us","latitude":41.881832,"longitude":-87.62318,"reserved":0,"last_update":"0001-01-01T00:00:00Z","name_a2s":"Uncletopia | Chicago | 8 | Community","protocol":17,"map":"workshop/koth_slaughter_rc1.ugc1712845210","folder":"tf","game":"Team Fortress","app_id":440,"player_count":0,"max_players":24,"Bots":0,"server_type":"Dedicated","server_os":"Linux","password":true,"vac":true,"version":"7961495","steam_id":85568392924866365,"keywords":["cp","nocrits","nodmgspread","uncletopia"],"game_id":440,"stv_port":27046,"stv_name":"Uncletopia | Chicago | 8 | Community | STV","players":null},{"server_id":8,"name":"Uncletopia | Dallas | 1 | All Maps","name_short":"dal-1","host":"dal-1.us.uncletopia.com","port":27015,"enabled":true,"region":"us-central","cc":"us","latitude":32.779167,"longitude":-96.80889,"reserved":0,"last_update":"0001-01-01T00:00:00Z","name_a2s":"Uncletopia | Dallas | 1 | All Maps","protocol":17,"map":"cp_metalworks","folder":"tf","game":"Team Fortress","app_id":440,"player_count":23,"max_players":24,"Bots":0,"server_type":"Dedicated","server_os":"Linux","password":true,"vac":true,"version":"7961495","steam_id":85568392924469986,"keywords":["cp","nocrits","nodmgspread","uncletopia"],"game_id":440,"stv_port":27016,"stv_name":"Uncletopia | Dallas | 1 | All Maps | STV","players":[{"user_id":88,"name":"Tala\u003c3","steam_id":76561198169200739,"connected_time":1029000000000,"state":"active","ping":49},{"user_id":96,"name":"rat","steam_id":76561198272622003,"connected_time":622000000000,"state":"active","ping":69},{"user_id":101,"name":"freesia","steam_id":76561198127525888,"connected_time":165000000000,"state":"active","ping":46},{"user_id":89,"name":"GregGaming098","steam_id":76561198882415360,"connected_time":982000000000,"state":"active","ping":107},{"user_id":64,"name":"Beany","steam_id":76561198102299438,"connected_time":2980000000000,"state":"active","ping":72},{"user_id":29,"name":"BOTH | Sunshine","steam_id":76561198885528098,"connected_time":5310000000000,"state":"active","ping":100},{"user_id":82,"name":"QweX_","steam_id":76561198051250642,"connected_time":1718000000000,"state":"active","ping":109},{"user_id":74,"name":"world machine","steam_id":76561198020689909,"connected_time":2172000000000,"state":"active","ping":75},{"user_id":91,"name":"Fortune","steam_id":76561198346118738,"connected_time":939000000000,"state":"active","ping":46},{"user_id":61,"name":"Eviscerator","steam_id":76561197980073637,"connected_time":2999000000000,"state":"active","ping":87},{"user_id":98,"name":"BLØRG","steam_id":76561198036126673,"connected_time":527000000000,"state":"active","ping":77},{"user_id":78,"name":"A defenseless kitten","steam_id":76561198079416360,"connected_time":1985000000000,"state":"active","ping":46},{"user_id":45,"name":"Boring","steam_id":76561198827219701,"connected_time":4588000000000,"state":"active","ping":187},{"user_id":54,"name":"BOTH | BERSERKER","steam_id":76561198303464488,"connected_time":3385000000000,"state":"active","ping":74},{"user_id":102,"name":"Gut125","steam_id":76561198101787225,"connected_time":142000000000,"state":"active","ping":77},{"user_id":71,"name":"FI LO","steam_id":76561198976530881,"connected_time":2493000000000,"state":"active","ping":75},{"user_id":62,"name":"chen","steam_id":76561198064872330,"connected_time":2994000000000,"state":"active","ping":83},{"user_id":70,"name":"ZestyTrev","steam_id":76561198253391039,"connected_time":2567000000000,"state":"active","ping":45},{"user_id":104,"name":"BOTH | Kiso","steam_id":76561198141026844,"connected_time":72000000000,"state":"active","ping":136},{"user_id":92,"name":"Alison \u003c3","steam_id":76561198126211191,"connected_time":917000000000,"state":"active","ping":68},{"user_id":100,"name":"STEVE","steam_id":76561198063475894,"connected_time":272000000000,"state":"active","ping":73},{"user_id":95,"name":"Topaz Tom","steam_id":76561199214479904,"connected_time":697000000000,"state":"active","ping":77},{"user_id":73,"name":"orbisg","steam_id":76561198004133638,"connected_time":2236000000000,"state":"active","ping":67}]},{"server_id":108,"name":"Uncletopia | Dallas | 2 | All Maps","name_short":"dal-2","host":"dal-1.us.uncletopia.com","port":27025,"enabled":true,"region":"us-central","cc":"us","latitude":32.779167,"longitude":-96.80889,"reserved":0,"last_update":"0001-01-01T00:00:00Z","name_a2s":"Uncletopia | Dallas | 2 | All Maps","protocol":17,"map":"cp_dustbowl","folder":"tf","game":"Team Fortress","app_id":440,"player_count":0,"max_players":24,"Bots":0,"server_type":"Dedicated","server_os":"Linux","password":true,"vac":true,"version":"7961495","steam_id":85568392924469988,"keywords":["cp","nocrits","nodmgspread","uncletopia"],"game_id":440,"stv_port":27026,"stv_name":"Uncletopia | Dallas | 2 | All Maps | STV","players":null},{"server_id":404,"name":"Uncletopia | Dallas | 3 | All Maps","name_short":"dal-3","host":"dal-1.us.uncletopia.com","port":27035,"enabled":true,"region":"us-central","cc":"us","latitude":32.779167,"longitude":-96.80889,"reserved":0,"last_update":"0001-01-01T00:00:00Z","name_a2s":"Uncletopia | Dallas | 3 | All Maps","protocol":17,"map":"pl_barnblitz","folder":"tf","game":"Team Fortress","app_id":440,"player_count":0,"max_players":24,"Bots":0,"server_type":"Dedicated","server_os":"Linux","password":true,"vac":true,"version":"7961495","steam_id":85568392924515219,"keywords":["nocrits","nodmgspread","payload","uncletopia"],"game_id":440,"stv_port":27036,"stv_name":"Uncletopia | Dallas | 3 | All Maps | STV","players":null},{"server_id":405,"name":"Uncletopia | Dallas | 4 | Community","name_short":"dal-4","host":"dal-1.us.uncletopia.com","port":27045,"enabled":true,"region":"us-central","cc":"us","latitude":32.779167,"longitude":-96.80889,"reserved":0,"last_update":"0001-01-01T00:00:00Z","name_a2s":"Uncletopia | Dallas | 4 | Community","protocol":17,"map":"workshop/koth_synthetic_rc6a.ugc1549817316","folder":"tf","game":"Team Fortress","app_id":440,"player_count":0,"max_players":24,"Bots":0,"server_type":"Dedicated","server_os":"Linux","password":true,"vac":true,"version":"7961495","steam_id":85568392924515220,"keywords":["cp","nocrits","nodmgspread","uncletopia"],"game_id":440,"stv_port":27046,"stv_name":"Uncletopia | Dallas | 4 | Community | STV","players":null},{"server_id":5,"name":"Uncletopia | Frankfurt | 1 | All Maps","name_short":"frk-1","host":"frk-1.de.uncletopia.com","port":27015,"enabled":true,"region":"eu","cc":"de","latitude":50.110924,"longitude":8.682127,"reserved":0,"last_update":"0001-01-01T00:00:00Z","name_a2s":"Uncletopia | Frankfurt | 1 | All Maps","protocol":17,"map":"cp_steel","folder":"tf","game":"Team Fortress","app_id":440,"player_count":24,"max_players":24,"Bots":0,"server_type":"Dedicated","server_os":"Linux","password":true,"vac":true,"version":"7961495","steam_id":85568392924469989,"keywords":["cp","nocrits","nodmgspread","uncletopia"],"game_id":440,"stv_port":27016,"stv_name":"Uncletopia | Frankfurt | 1 | All Maps | STV","players":[{"user_id":244,"name":"snake kryptonite","steam_id":76561197998673784,"connected_time":691000000000,"state":"active","ping":45},{"user_id":231,"name":"Gaxkang","steam_id":76561198125768571,"connected_time":2033000000000,"state":"active","ping":59},{"user_id":252,"name":"swagmeester","steam_id":76561198045828392,"connected_time":287000000000,"state":"active","ping":49},{"user_id":222,"name":"Owlet","steam_id":76561198065613974,"connected_time":2538000000000,"state":"active","ping":64},{"user_id":177,"name":"♣Генсек Поноса","steam_id":76561198796404149,"connected_time":5544000000000,"state":"active","ping":88},{"user_id":238,"name":"Random","steam_id":76561199079951047,"connected_time":1616000000000,"state":"active","ping":93},{"user_id":251,"name":"yush","steam_id":76561198121688934,"connected_time":382000000000,"state":"active","ping":75},{"user_id":232,"name":"SPONGE","steam_id":76561198040933472,"connected_time":1890000000000,"state":"active","ping":58},{"user_id":239,"name":"spy","steam_id":76561199402711007,"connected_time":1484000000000,"state":"active","ping":115},{"user_id":130,"name":"wavelength","steam_id":76561198154677956,"connected_time":8973000000000,"state":"active","ping":62},{"user_id":250,"name":"Finn","steam_id":76561198112456809,"connected_time":418000000000,"state":"active","ping":46},{"user_id":253,"name":"$HPC skai","steam_id":76561198184881255,"connected_time":265000000000,"state":"active","ping":69},{"user_id":242,"name":"6bIK_0CeMEHuTEJIb","steam_id":76561198992528373,"connected_time":740000000000,"state":"active","ping":63},{"user_id":254,"name":"Temp0_ ♥","steam_id":76561198162068639,"connected_time":259000000000,"state":"active","ping":50},{"user_id":188,"name":"Dan86130","steam_id":76561199187190436,"connected_time":5231000000000,"state":"active","ping":58},{"user_id":214,"name":"kenzou","steam_id":76561199180054996,"connected_time":3213000000000,"state":"active","ping":53},{"user_id":196,"name":"DarkMelody","steam_id":76561198063225937,"connected_time":4699000000000,"state":"active","ping":112},{"user_id":240,"name":"ALARM","steam_id":76561198120686521,"connected_time":832000000000,"state":"active","ping":47},{"user_id":216,"name":"snayke","steam_id":76561198077822932,"connected_time":3150000000000,"state":"active","ping":63},{"user_id":255,"name":"Im the captain now","steam_id":76561198119476663,"connected_time":257000000000,"state":"active","ping":68},{"user_id":228,"name":"John Noob","steam_id":76561197999170026,"connected_time":2382000000000,"state":"active","ping":75},{"user_id":218,"name":"Hussain_144","steam_id":76561198346029208,"connected_time":2797000000000,"state":"active","ping":176},{"user_id":248,"name":"Igames","steam_id":76561198414062544,"connected_time":525000000000,"state":"active","ping":75},{"user_id":258,"name":"Królicki_","steam_id":76561199109915352,"connected_time":95000000000,"state":"active","ping":53}]},{"server_id":110,"name":"Uncletopia | Frankfurt | 2 | All Maps","name_short":"frk-2","host":"frk-1.de.uncletopia.com","port":27025,"enabled":true,"region":"eu","cc":"de","latitude":50.110924,"longitude":8.682127,"reserved":0,"last_update":"0001-01-01T00:00:00Z","name_a2s":"Uncletopia | Frankfurt | 2 | All Maps","protocol":17,"map":"koth_harvest_final","folder":"tf","game":"Team Fortress","app_id":440,"player_count":24,"max_players":24,"Bots":0,"server_type":"Dedicated","server_os":"Linux","password":true,"vac":true,"version":"7961495","steam_id":85568392924469990,"keywords":["cp","nocrits","nodmgspread","uncletopia"],"game_id":440,"stv_port":27026,"stv_name":"Uncletopia | Frankfurt | 2 | All Maps | STV","players":[{"user_id":401,"name":"7xuf","steam_id":76561199389292226,"connected_time":1033000000000,"state":"active","ping":72},{"user_id":424,"name":"Smebiulack","steam_id":76561197982409664,"connected_time":320000000000,"state":"active","ping":60},{"user_id":425,"name":"sniper's kangaroo ex","steam_id":76561198334042273,"connected_time":279000000000,"state":"active","ping":53},{"user_id":427,"name":"Armand","steam_id":76561198236126774,"connected_time":166000000000,"state":"active","ping":53},{"user_id":416,"name":"marconiuszcd","steam_id":76561198272952196,"connected_time":497000000000,"state":"active","ping":48},{"user_id":400,"name":"Ergas","steam_id":76561198860861032,"connected_time":1038000000000,"state":"active","ping":72},{"user_id":354,"name":"kvlt","steam_id":76561198119420945,"connected_time":2544000000000,"state":"active","ping":81},{"user_id":297,"name":"Jesus","steam_id":76561199106262610,"connected_time":4187000000000,"state":"active","ping":50},{"user_id":407,"name":"weed fairy","steam_id":76561197998843096,"connected_time":791000000000,"state":"active","ping":74},{"user_id":428,"name":"Michael","steam_id":76561198003146906,"connected_time":163000000000,"state":"active","ping":63},{"user_id":404,"name":"Akuma","steam_id":76561198227764324,"connected_time":888000000000,"state":"active","ping":105},{"user_id":408,"name":"Final","steam_id":76561199002963056,"connected_time":778000000000,"state":"active","ping":47},{"user_id":429,"name":"bkktrans","steam_id":76561198264393359,"connected_time":160000000000,"state":"active","ping":52},{"user_id":355,"name":"Waltism","steam_id":76561199447676489,"connected_time":2541000000000,"state":"active","ping":84},{"user_id":430,"name":"MeBandae","steam_id":76561198910770432,"connected_time":130000000000,"state":"active","ping":72},{"user_id":419,"name":"Villdjack","steam_id":76561197999480096,"connected_time":476000000000,"state":"active","ping":62},{"user_id":299,"name":"NSaaby","steam_id":76561198109270277,"connected_time":4144000000000,"state":"active","ping":62},{"user_id":420,"name":"Sivik","steam_id":76561198370329466,"connected_time":468000000000,"state":"active","ping":61},{"user_id":321,"name":"TheEventGuy","steam_id":76561197972797744,"connected_time":3299000000000,"state":"active","ping":60},{"user_id":432,"name":"katana on the trains","steam_id":76561198202464032,"connected_time":69000000000,"state":"active","ping":62},{"user_id":433,"name":"danny","steam_id":76561198056930504,"connected_time":64000000000,"state":"active","ping":43},{"user_id":434,"name":"Otakuwolf","steam_id":76561198023092381,"connected_time":57000000000,"state":"active","ping":117},{"user_id":280,"name":"Asocial","steam_id":76561198328594578,"connected_time":5240000000000,"state":"active","ping":88},{"user_id":319,"name":"bassax01","steam_id":76561198299900228,"connected_time":3350000000000,"state":"active","ping":55}]},{"server_id":308,"name":"Uncletopia | Frankfurt | 3 | All Maps","name_short":"frk-3","host":"frk-1.de.uncletopia.com","port":27035,"enabled":true,"region":"eu","cc":"de","latitude":50.110924,"longitude":8.682127,"reserved":0,"last_update":"0001-01-01T00:00:00Z","name_a2s":"Uncletopia | Frankfurt | 3 | All Maps","protocol":17,"map":"pl_borneo","folder":"tf","game":"Team Fortress","app_id":440,"player_count":0,"max_players":24,"Bots":0,"server_type":"Dedicated","server_os":"Linux","password":true,"vac":true,"version":"7961495","steam_id":85568392924504274,"keywords":["nocrits","nodmgspread","payload","uncletopia"],"game_id":440,"stv_port":27036,"stv_name":"Uncletopia | Frankfurt | 3 | All Maps | STV","players":null},{"server_id":309,"name":"Uncletopia | Frankfurt | 4 | All Maps","name_short":"frk-4","host":"frk-1.de.uncletopia.com","port":27045,"enabled":true,"region":"eu","cc":"de","latitude":50.110924,"longitude":8.682127,"reserved":0,"last_update":"0001-01-01T00:00:00Z","name_a2s":"Uncletopia | Frankfurt | 4 | All Maps","protocol":17,"map":"pl_badwater","folder":"tf","game":"Team Fortress","app_id":440,"player_count":24,"max_players":24,"Bots":0,"server_type":"Dedicated","server_os":"Linux","password":true,"vac":true,"version":"7961495","steam_id":85568392924504275,"keywords":["nocrits","nodmgspread","payload","uncletopia"],"game_id":440,"stv_port":27046,"stv_name":"Uncletopia | Frankfurt | 4 | All Maps | STV","players":[{"user_id":181,"name":"jeff","steam_id":76561198272815746,"connected_time":4317000000000,"state":"active","ping":50},{"user_id":176,"name":"smoker66","steam_id":76561199333678263,"connected_time":4475000000000,"state":"active","ping":63},{"user_id":232,"name":"Walter Hartwell White","steam_id":76561199386754212,"connected_time":527000000000,"state":"active","ping":36},{"user_id":233,"name":"Rocket Queen's consort","steam_id":76561198092995429,"connected_time":497000000000,"state":"active","ping":126},{"user_id":208,"name":"Swedde","steam_id":76561198297296440,"connected_time":1950000000000,"state":"active","ping":75},{"user_id":237,"name":":::::","steam_id":76561197990757157,"connected_time":269000000000,"state":"active","ping":75},{"user_id":215,"name":"mr.resetti","steam_id":76561198974520642,"connected_time":1426000000000,"state":"active","ping":48},{"user_id":226,"name":"British Rage","steam_id":76561198009585209,"connected_time":1047000000000,"state":"active","ping":49},{"user_id":234,"name":"János","steam_id":76561199061251952,"connected_time":468000000000,"state":"active","ping":64},{"user_id":227,"name":"They call me Pap","steam_id":76561198314905760,"connected_time":1032000000000,"state":"active","ping":42},{"user_id":172,"name":"StarDoc2222","steam_id":76561199389114520,"connected_time":4634000000000,"state":"active","ping":140},{"user_id":202,"name":"Garolt_Knight","steam_id":76561198957445537,"connected_time":2129000000000,"state":"active","ping":81},{"user_id":239,"name":"Riman-Shwartz Abuzer","steam_id":76561198054279487,"connected_time":139000000000,"state":"active","ping":124},{"user_id":204,"name":"COOL PEPE","steam_id":76561198848805153,"connected_time":2116000000000,"state":"active","ping":202},{"user_id":220,"name":"RAT BASTARD","steam_id":76561199195985387,"connected_time":1134000000000,"state":"active","ping":84},{"user_id":218,"name":"cockroach","steam_id":76561198841841656,"connected_time":1244000000000,"state":"active","ping":60},{"user_id":219,"name":"SomethingDeveloper","steam_id":76561198369567080,"connected_time":1226000000000,"state":"active","ping":64},{"user_id":231,"name":"A stripper","steam_id":76561198034865891,"connected_time":827000000000,"state":"active","ping":48},{"user_id":222,"name":"fidget","steam_id":76561198363479340,"connected_time":1120000000000,"state":"active","ping":78},{"user_id":223,"name":"Eleká","steam_id":76561198065697495,"connected_time":1118000000000,"state":"active","ping":84},{"user_id":236,"name":"Javier dorsaless","steam_id":76561198179324075,"connected_time":365000000000,"state":"active","ping":72},{"user_id":224,"name":"Junkfish","steam_id":76561199168630846,"connected_time":1116000000000,"state":"active","ping":135},{"user_id":235,"name":"night.s","steam_id":76561198326287823,"connected_time":464000000000,"state":"active","ping":86},{"user_id":238,"name":"Ween :0","steam_id":76561198073607799,"connected_time":146000000000,"state":"active","ping":74}]},{"server_id":310,"name":"Uncletopia | Frankfurt | 5 | All Maps","name_short":"frk-5","host":"frk-1.de.uncletopia.com","port":27055,"enabled":true,"region":"eu","cc":"de","latitude":50.110924,"longitude":8.682127,"reserved":0,"last_update":"0001-01-01T00:00:00Z","name_a2s":"Uncletopia | Frankfurt | 5 | All Maps","protocol":17,"map":"pl_badwater","folder":"tf","game":"Team Fortress","app_id":440,"player_count":24,"max_players":24,"Bots":0,"server_type":"Dedicated","server_os":"Linux","password":true,"vac":true,"version":"7961495","steam_id":85568392924504277,"keywords":["nocrits","nodmgspread","payload","uncletopia"],"game_id":440,"stv_port":27056,"stv_name":"Uncletopia | Frankfurt | 5 | All Maps | STV","players":[{"user_id":492,"name":"Monika Gaming","steam_id":76561198356227707,"connected_time":1445000000000,"state":"active","ping":77},{"user_id":465,"name":"EVRY0N1","steam_id":76561199507783621,"connected_time":3439000000000,"state":"active","ping":66},{"user_id":506,"name":"joe biden gamer","steam_id":76561198356383438,"connected_time":256000000000,"state":"active","ping":47},{"user_id":511,"name":"KALACH","steam_id":76561198028664460,"connected_time":49000000000,"state":"active","ping":101},{"user_id":490,"name":"Frazzle","steam_id":76561198262577951,"connected_time":1896000000000,"state":"active","ping":65},{"user_id":493,"name":"76561199094423561","steam_id":76561199094423561,"connected_time":1412000000000,"state":"active","ping":113},{"user_id":495,"name":"Ransu","steam_id":76561198211750823,"connected_time":1375000000000,"state":"active","ping":89},{"user_id":509,"name":"I crave violence","steam_id":76561198235814492,"connected_time":195000000000,"state":"active","ping":71},{"user_id":502,"name":"dog?","steam_id":76561199232839385,"connected_time":494000000000,"state":"active","ping":92},{"user_id":447,"name":"Average King Charles III Fan","steam_id":76561198090419732,"connected_time":3799000000000,"state":"active","ping":58},{"user_id":450,"name":"whatever","steam_id":76561198095943461,"connected_time":3752000000000,"state":"active","ping":72},{"user_id":451,"name":"Walkingboi","steam_id":76561198385498290,"connected_time":3746000000000,"state":"active","ping":91},{"user_id":487,"name":"luma","steam_id":76561198081649669,"connected_time":2119000000000,"state":"active","ping":63},{"user_id":486,"name":"mc.balthabuddy","steam_id":76561198106225372,"connected_time":2212000000000,"state":"active","ping":48},{"user_id":504,"name":"STRXFE","steam_id":76561198084701676,"connected_time":296000000000,"state":"active","ping":98},{"user_id":482,"name":"Sham!","steam_id":76561198050434275,"connected_time":2581000000000,"state":"active","ping":45},{"user_id":501,"name":"Maske","steam_id":76561198078100812,"connected_time":1186000000000,"state":"active","ping":44},{"user_id":503,"name":"Kvicha Kvaratskhelia","steam_id":76561198179339326,"connected_time":476000000000,"state":"active","ping":76},{"user_id":481,"name":"Marukuso","steam_id":76561198154229845,"connected_time":2718000000000,"state":"active","ping":58},{"user_id":499,"name":"Fallen Dog","steam_id":76561198851387188,"connected_time":1295000000000,"state":"active","ping":61},{"user_id":479,"name":"Moth","steam_id":76561198405910705,"connected_time":2914000000000,"state":"active","ping":84},{"user_id":484,"name":"Mr Season","steam_id":76561198014005263,"connected_time":2402000000000,"state":"active","ping":127},{"user_id":489,"name":"ATARAKSIA","steam_id":76561198119392756,"connected_time":1952000000000,"state":"active","ping":90},{"user_id":510,"name":"Chiers","steam_id":76561198073461642,"connected_time":195000000000,"state":"active","ping":60}]},{"server_id":311,"name":"Uncletopia | Frankfurt | 6 | All Maps","name_short":"frk-6","host":"frk-1.de.uncletopia.com","port":27065,"enabled":true,"region":"eu","cc":"de","latitude":50.110924,"longitude":8.682127,"reserved":0,"last_update":"0001-01-01T00:00:00Z","name_a2s":"Uncletopia | Frankfurt | 6 | All Maps","protocol":17,"map":"cp_process_final","folder":"tf","game":"Team Fortress","app_id":440,"player_count":24,"max_players":24,"Bots":0,"server_type":"Dedicated","server_os":"Linux","password":true,"vac":true,"version":"7961495","steam_id":85568392924504278,"keywords":["cp","nocrits","nodmgspread","uncletopia"],"game_id":440,"stv_port":27066,"stv_name":"Uncletopia | Frankfurt | 6 | All Maps | STV","players":[{"user_id":159,"name":"Purrplehaze","steam_id":76561198297604298,"connected_time":985000000000,"state":"active","ping":60},{"user_id":145,"name":"[UiF] Sgt. Beebo","steam_id":76561198061094637,"connected_time":1692000000000,"state":"active","ping":55},{"user_id":75,"name":"Tails8521","steam_id":76561198051747164,"connected_time":5948000000000,"state":"active","ping":49},{"user_id":161,"name":"Blastic","steam_id":76561198077316500,"connected_time":539000000000,"state":"active","ping":62},{"user_id":165,"name":"hev","steam_id":76561198159297690,"connected_time":73000000000,"state":"active","ping":103},{"user_id":73,"name":"korupt","steam_id":76561198022738512,"connected_time":5983000000000,"state":"active","ping":44},{"user_id":141,"name":"else1","steam_id":76561197996558319,"connected_time":1760000000000,"state":"active","ping":81},{"user_id":152,"name":"Stellar Fox","steam_id":76561198236985244,"connected_time":1563000000000,"state":"active","ping":60},{"user_id":157,"name":"Mr Muffin","steam_id":76561198091713066,"connected_time":1042000000000,"state":"active","ping":74},{"user_id":166,"name":"caos","steam_id":76561198151268007,"connected_time":68000000000,"state":"active","ping":84},{"user_id":101,"name":"Naginacz","steam_id":76561199099232534,"connected_time":3620000000000,"state":"active","ping":75},{"user_id":146,"name":"[UiF] BafTac r/f*ckcars","steam_id":76561198060547050,"connected_time":1672000000000,"state":"active","ping":59},{"user_id":86,"name":"Spinya","steam_id":76561198086653667,"connected_time":4859000000000,"state":"active","ping":63},{"user_id":144,"name":"Stegoratops","steam_id":76561198140306409,"connected_time":1702000000000,"state":"active","ping":43},{"user_id":153,"name":"papa Sloath","steam_id":76561198046382160,"connected_time":1559000000000,"state":"active","ping":60},{"user_id":148,"name":"Balling","steam_id":76561198240320806,"connected_time":1603000000000,"state":"active","ping":70},{"user_id":163,"name":"21","steam_id":76561198036824480,"connected_time":152000000000,"state":"active","ping":69},{"user_id":168,"name":"Columban","steam_id":76561199202258284,"connected_time":40000000000,"state":"active","ping":58},{"user_id":164,"name":"dumo dumo","steam_id":76561198346638308,"connected_time":113000000000,"state":"active","ping":60},{"user_id":169,"name":"MateuszRTS","steam_id":76561198014491925,"connected_time":34000000000,"state":"active","ping":78},{"user_id":126,"name":"❤Speedbump❤","steam_id":76561198388690313,"connected_time":2673000000000,"state":"active","ping":46},{"user_id":128,"name":"Greasy","steam_id":76561198868180366,"connected_time":2551000000000,"state":"active","ping":45},{"user_id":155,"name":"vurtun","steam_id":76561198857395274,"connected_time":1528000000000,"state":"active","ping":37},{"user_id":104,"name":"I Love Filtered Water","steam_id":76561198016042113,"connected_time":3548000000000,"state":"active","ping":70}]},{"server_id":23,"name":"Uncletopia | Frankfurt | 7 | Stopwatch","name_short":"frk-7","host":"frk-1.de.uncletopia.com","port":27075,"enabled":true,"region":"eu","cc":"de","latitude":50.110924,"longitude":8.682127,"reserved":0,"last_update":"0001-01-01T00:00:00Z","name_a2s":"Uncletopia | Frankfurt | 7 | Stopwatch","protocol":17,"map":"workshop/koth_bagel_rc6.ugc2514036946","folder":"tf","game":"Team Fortress","app_id":440,"player_count":0,"max_players":24,"Bots":0,"server_type":"Dedicated","server_os":"Linux","password":true,"vac":true,"version":"7961495","steam_id":85568392924742827,"keywords":["cp","nocrits","nodmgspread","uncletopia"],"game_id":440,"stv_port":27076,"stv_name":"Uncletopia | Frankfurt | 7 | Stopwatch | STV","players":null},{"server_id":24,"name":"Uncletopia | Frankfurt | 8 | Community","name_short":"frk-8","host":"frk-1.de.uncletopia.com","port":27085,"enabled":true,"region":"eu","cc":"de","latitude":50.110924,"longitude":8.682127,"reserved":0,"last_update":"0001-01-01T00:00:00Z","name_a2s":"Uncletopia | Frankfurt | 8 | Community","protocol":17,"map":"workshop/pl_boundary_final1.ugc456799153","folder":"tf","game":"Team Fortress","app_id":440,"player_count":0,"max_players":24,"Bots":0,"server_type":"Dedicated","server_os":"Linux","password":true,"vac":true,"version":"7961495","steam_id":85568392924742828,"keywords":["nocrits","nodmgspread","payload","uncletopia"],"game_id":440,"stv_port":27086,"stv_name":"Uncletopia | Frankfurt | 8 | Community | STV","players":null},{"server_id":202,"name":"Uncletopia | Hong Kong | 1 | All Maps","name_short":"hgk-1","host":"hgk-1.hk.uncletopia.com","port":27015,"enabled":true,"region":"asia","cc":"hk","latitude":22.302711,"longitude":114.177216,"reserved":0,"last_update":"0001-01-01T00:00:00Z","name_a2s":"Uncletopia | Hong Kong | 1 | All Maps","protocol":17,"map":"pl_frontier_final","folder":"tf","game":"Team Fortress","app_id":440,"player_count":21,"max_players":24,"Bots":0,"server_type":"Dedicated","server_os":"Linux","password":true,"vac":true,"version":"7961495","steam_id":85568392924494504,"keywords":["nocrits","nodmgspread","payload","uncletopia"],"game_id":440,"stv_port":27016,"stv_name":"Uncletopia | Hong Kong | 1 | All Maps | STV","players":[{"user_id":343,"name":"BRING BACK ***** -no-browser !!","steam_id":76561198865984950,"connected_time":498000000000,"state":"active","ping":120},{"user_id":318,"name":"yveth","steam_id":76561198320532821,"connected_time":3086000000000,"state":"active","ping":69},{"user_id":315,"name":"Kernel","steam_id":76561198402985446,"connected_time":3392000000000,"state":"active","ping":62},{"user_id":324,"name":"母の肉団子@hao123.com","steam_id":76561198069561896,"connected_time":2079000000000,"state":"active","ping":42},{"user_id":336,"name":"average 2fort enjoyer","steam_id":76561198062112214,"connected_time":1633000000000,"state":"active","ping":117},{"user_id":345,"name":"Jonathan Haggerty","steam_id":76561199116870405,"connected_time":460000000000,"state":"active","ping":60},{"user_id":323,"name":"Kek","steam_id":76561199004616229,"connected_time":2649000000000,"state":"active","ping":90},{"user_id":346,"name":"NIX","steam_id":76561198979351501,"connected_time":105000000000,"state":"spawning","ping":270},{"user_id":317,"name":"Puddin","steam_id":76561198140052918,"connected_time":3154000000000,"state":"active","ping":84},{"user_id":255,"name":"쿠키","steam_id":76561197997220367,"connected_time":9785000000000,"state":"active","ping":43},{"user_id":325,"name":"SELLING MY DIGNITY","steam_id":76561198113401862,"connected_time":2075000000000,"state":"active","ping":138},{"user_id":333,"name":"TomProPlayer","steam_id":76561199223292521,"connected_time":1677000000000,"state":"active","ping":46},{"user_id":327,"name":"GAMA","steam_id":76561198049755630,"connected_time":2064000000000,"state":"active","ping":75},{"user_id":342,"name":"oramge kbity (eepy)","steam_id":76561199039424416,"connected_time":1044000000000,"state":"active","ping":125},{"user_id":278,"name":"Buttman","steam_id":76561198044693388,"connected_time":6884000000000,"state":"active","ping":44},{"user_id":341,"name":"xPhid","steam_id":76561199080808930,"connected_time":1176000000000,"state":"active","ping":65},{"user_id":340,"name":"solariis","steam_id":76561198993775429,"connected_time":1338000000000,"state":"active","ping":93},{"user_id":312,"name":"screaming sniper","steam_id":76561199085568674,"connected_time":3409000000000,"state":"active","ping":56},{"user_id":281,"name":"Ivy","steam_id":76561198400698408,"connected_time":6836000000000,"state":"active","ping":102},{"user_id":118,"name":"Pillboi","steam_id":76561198011172886,"connected_time":24981000000000,"state":"active","ping":40}]},{"server_id":1,"name":"Uncletopia | Los Angeles | 1 | All Maps","name_short":"lax-1","host":"lax-1.us.uncletopia.com","port":27015,"enabled":true,"region":"us-west","cc":"us","latitude":33.94279,"longitude":-118.41004,"reserved":0,"last_update":"0001-01-01T00:00:00Z","name_a2s":"Uncletopia | Los Angeles | 1 | All Maps","protocol":17,"map":"cp_gorge","folder":"tf","game":"Team Fortress","app_id":440,"player_count":0,"max_players":24,"Bots":0,"server_type":"Dedicated","server_os":"Linux","password":true,"vac":true,"version":"7961495","steam_id":85568392924469991,"keywords":["cp","nocrits","nodmgspread","uncletopia"],"game_id":440,"stv_port":27016,"stv_name":"Uncletopia | Los Angeles | 1 | All Maps | STV","players":null},{"server_id":112,"name":"Uncletopia | Los Angeles | 2 | All Maps","name_short":"lax-2","host":"lax-1.us.uncletopia.com","port":27025,"enabled":true,"region":"us-west","cc":"us","latitude":33.94279,"longitude":-118.41004,"reserved":0,"last_update":"0001-01-01T00:00:00Z","name_a2s":"Uncletopia | Los Angeles | 2 | All Maps","protocol":17,"map":"koth_cascade","folder":"tf","game":"Team Fortress","app_id":440,"player_count":0,"max_players":24,"Bots":0,"server_type":"Dedicated","server_os":"Linux","password":true,"vac":true,"version":"7961495","steam_id":85568392924469992,"keywords":["cp","nocrits","nodmgspread","uncletopia"],"game_id":440,"stv_port":27026,"stv_name":"Uncletopia | Los Angeles | 2 | All Maps | STV","players":null},{"server_id":324,"name":"Uncletopia | Los Angeles | 3 | All Maps","name_short":"lax-3","host":"lax-1.us.uncletopia.com","port":27035,"enabled":true,"region":"us-west","cc":"us","latitude":33.94279,"longitude":-118.41004,"reserved":0,"last_update":"0001-01-01T00:00:00Z","name_a2s":"Uncletopia | Los Angeles | 3 | All Maps","protocol":17,"map":"pl_hoodoo_final","folder":"tf","game":"Team Fortress","app_id":440,"player_count":0,"max_players":24,"Bots":0,"server_type":"Dedicated","server_os":"Linux","password":true,"vac":true,"version":"7961495","steam_id":85568392924510198,"keywords":["nocrits","nodmgspread","payload","uncletopia"],"game_id":440,"stv_port":27036,"stv_name":"Uncletopia | Los Angeles | 3 | All Maps | STV","players":null},{"server_id":25,"name":"Uncletopia | Los Angeles | 4 | Stopwatch","name_short":"lax-4","host":"lax-1.us.uncletopia.com","port":27045,"enabled":true,"region":"us-west","cc":"us","latitude":33.94279,"longitude":-118.41004,"reserved":0,"last_update":"0001-01-01T00:00:00Z","name_a2s":"Uncletopia | Los Angeles | 4 | Stopwatch","protocol":17,"map":"workshop/koth_product_final.ugc454272353","folder":"tf","game":"Team Fortress","app_id":440,"player_count":0,"max_players":24,"Bots":0,"server_type":"Dedicated","server_os":"Linux","password":true,"vac":true,"version":"7961495","steam_id":85568392924510199,"keywords":["cp","nocrits","nodmgspread","uncletopia"],"game_id":440,"stv_port":27046,"stv_name":"Uncletopia | Los Angeles | 4 | Stopwatch | STV","players":null},{"server_id":11,"name":"Uncletopia | London | 1 | All Maps","name_short":"lon-1","host":"lon-1.uk.uncletopia.com","port":27015,"enabled":true,"region":"eu","cc":"gb","latitude":51.509865,"longitude":-0.118092,"reserved":0,"last_update":"0001-01-01T00:00:00Z","name_a2s":"Uncletopia | London | 1 | All Maps","protocol":17,"map":"pl_swiftwater_final1","folder":"tf","game":"Team Fortress","app_id":440,"player_count":24,"max_players":24,"Bots":0,"server_type":"Dedicated","server_os":"Linux","password":true,"vac":true,"version":"7961495","steam_id":85568392924367362,"keywords":["nocrits","nodmgspread","payload","uncletopia"],"game_id":440,"stv_port":27016,"stv_name":"Uncletopia | London | 1 | All Maps | STV","players":[{"user_id":295,"name":"I Need Strange Kills","steam_id":76561198995009722,"connected_time":376000000000,"state":"active","ping":90},{"user_id":218,"name":"Mea","steam_id":76561198353496134,"connected_time":7104000000000,"state":"active","ping":52},{"user_id":275,"name":"Bob Marley Faruk","steam_id":76561198403624627,"connected_time":2213000000000,"state":"active","ping":93},{"user_id":289,"name":"Kinglyghost","steam_id":76561199231342179,"connected_time":1148000000000,"state":"active","ping":54},{"user_id":279,"name":"Wuffington","steam_id":76561198033762881,"connected_time":1698000000000,"state":"active","ping":46},{"user_id":277,"name":"Irme","steam_id":76561198161590299,"connected_time":1785000000000,"state":"active","ping":79},{"user_id":290,"name":"Th3Celestial","steam_id":76561198353312252,"connected_time":1035000000000,"state":"active","ping":44},{"user_id":297,"name":"V0iDZMAX","steam_id":76561198153592566,"connected_time":198000000000,"state":"active","ping":37},{"user_id":292,"name":"sword machine","steam_id":76561198895235231,"connected_time":963000000000,"state":"active","ping":56},{"user_id":176,"name":"Laru","steam_id":76561197998838438,"connected_time":10465000000000,"state":"active","ping":84},{"user_id":298,"name":"Charm","steam_id":76561198904910888,"connected_time":181000000000,"state":"active","ping":149},{"user_id":253,"name":"Suolainen","steam_id":76561198133341026,"connected_time":4493000000000,"state":"active","ping":86},{"user_id":265,"name":"Gorgeous George","steam_id":76561198144256544,"connected_time":3536000000000,"state":"active","ping":47},{"user_id":276,"name":"Falafel","steam_id":76561198043344845,"connected_time":1990000000000,"state":"active","ping":47},{"user_id":256,"name":"Slifer the Furry Warrior","steam_id":76561198062255803,"connected_time":4142000000000,"state":"active","ping":74},{"user_id":294,"name":"gitlitwitit","steam_id":76561197980019054,"connected_time":378000000000,"state":"active","ping":72},{"user_id":293,"name":"Butt","steam_id":76561198115496457,"connected_time":490000000000,"state":"active","ping":44},{"user_id":291,"name":"KhornateDoom","steam_id":76561198127530619,"connected_time":1007000000000,"state":"active","ping":54},{"user_id":266,"name":"alecalove1112","steam_id":76561199235291566,"connected_time":3341000000000,"state":"active","ping":104},{"user_id":278,"name":"Dan Dan the Furious","steam_id":76561198091032527,"connected_time":1726000000000,"state":"active","ping":37},{"user_id":288,"name":"Spycrab Gaming","steam_id":76561199128973607,"connected_time":1287000000000,"state":"active","ping":168},{"user_id":284,"name":"Bzd","steam_id":76561198204521956,"connected_time":1623000000000,"state":"active","ping":87}]},{"server_id":114,"name":"Uncletopia | London | 2 | All Maps","name_short":"lon-2","host":"lon-1.uk.uncletopia.com","port":27025,"enabled":true,"region":"eu","cc":"gb","latitude":51.509865,"longitude":-0.118092,"reserved":0,"last_update":"0001-01-01T00:00:00Z","name_a2s":"Uncletopia | London | 2 | All Maps","protocol":17,"map":"koth_cascade","folder":"tf","game":"Team Fortress","app_id":440,"player_count":0,"max_players":24,"Bots":0,"server_type":"Dedicated","server_os":"Linux","password":true,"vac":true,"version":"7961495","steam_id":85568392924470941,"keywords":["cp","nocrits","nodmgspread","uncletopia"],"game_id":440,"stv_port":27026,"stv_name":"Uncletopia | London | 2 | All Maps | STV","players":null},{"server_id":320,"name":"Uncletopia | London | 3 | All Maps","name_short":"lon-3","host":"lon-1.uk.uncletopia.com","port":27035,"enabled":true,"region":"eu","cc":"gb","latitude":51.509865,"longitude":-0.118092,"reserved":0,"last_update":"0001-01-01T00:00:00Z","name_a2s":"Uncletopia | London | 3 | All Maps","protocol":17,"map":"koth_lakeside_final","folder":"tf","game":"Team Fortress","app_id":440,"player_count":0,"max_players":24,"Bots":0,"server_type":"Dedicated","server_os":"Linux","password":true,"vac":true,"version":"7961495","steam_id":85568392924510192,"keywords":["cp","nocrits","nodmgspread","uncletopia"],"game_id":440,"stv_port":27036,"stv_name":"Uncletopia | London | 3 | All Maps | STV","players":null},{"server_id":321,"name":"Uncletopia | London | 4 | All Maps","name_short":"lon-4","host":"lon-1.uk.uncletopia.com","port":27045,"enabled":true,"region":"eu","cc":"gb","latitude":51.509865,"longitude":-0.118092,"reserved":0,"last_update":"0001-01-01T00:00:00Z","name_a2s":"Uncletopia | London | 4 | All Maps","protocol":17,"map":"pl_thundermountain","folder":"tf","game":"Team Fortress","app_id":440,"player_count":23,"max_players":24,"Bots":0,"server_type":"Dedicated","server_os":"Linux","password":true,"vac":true,"version":"7961495","steam_id":85568392924510193,"keywords":["nocrits","nodmgspread","payload","uncletopia"],"game_id":440,"stv_port":27046,"stv_name":"Uncletopia | London | 4 | All Maps | STV","players":[{"user_id":80,"name":"(9)sin","steam_id":76561198052898368,"connected_time":3264000000000,"state":"active","ping":75},{"user_id":115,"name":"Aeinzalot","steam_id":76561198195288449,"connected_time":312000000000,"state":"active","ping":42},{"user_id":117,"name":":3","steam_id":76561198169471853,"connected_time":277000000000,"state":"active","ping":52},{"user_id":67,"name":"Zembis","steam_id":76561198008017918,"connected_time":3749000000000,"state":"active","ping":87},{"user_id":50,"name":"vomit","steam_id":76561197994492154,"connected_time":4521000000000,"state":"active","ping":74},{"user_id":96,"name":"(3)sin","steam_id":76561198036486671,"connected_time":2180000000000,"state":"active","ping":74},{"user_id":68,"name":"need a dispenser here","steam_id":76561198060912995,"connected_time":3741000000000,"state":"active","ping":106},{"user_id":97,"name":"MGE MONSTER228","steam_id":76561198796600155,"connected_time":2152000000000,"state":"active","ping":84},{"user_id":119,"name":"The worst TF2 player(Real)","steam_id":76561199184873889,"connected_time":112000000000,"state":"active","ping":60},{"user_id":121,"name":"Archebalda","steam_id":76561198038536279,"connected_time":21000000000,"state":"active","ping":76},{"user_id":112,"name":"BurningJoke","steam_id":76561199014358707,"connected_time":745000000000,"state":"active","ping":60},{"user_id":101,"name":"Molty","steam_id":76561198004360335,"connected_time":1963000000000,"state":"active","ping":44},{"user_id":76,"name":"(4)sin","steam_id":76561198803330799,"connected_time":3336000000000,"state":"active","ping":105},{"user_id":98,"name":"Dang-Maggot","steam_id":76561199075532033,"connected_time":2131000000000,"state":"active","ping":97},{"user_id":118,"name":"Dirty goblin","steam_id":76561198153207632,"connected_time":213000000000,"state":"active","ping":60},{"user_id":74,"name":"(6)sin","steam_id":76561198193416785,"connected_time":3412000000000,"state":"active","ping":96},{"user_id":100,"name":"(5)sin","steam_id":76561198083863043,"connected_time":2032000000000,"state":"active","ping":45},{"user_id":113,"name":"C3il_def.0","steam_id":76561198446759372,"connected_time":745000000000,"state":"active","ping":100},{"user_id":106,"name":"(2)sin","steam_id":76561199227946025,"connected_time":1580000000000,"state":"active","ping":162},{"user_id":116,"name":"CAR DOOR","steam_id":76561198055283295,"connected_time":288000000000,"state":"active","ping":59},{"user_id":104,"name":"stonebum","steam_id":76561198057004606,"connected_time":1919000000000,"state":"active","ping":57},{"user_id":93,"name":"..!","steam_id":76561198882483441,"connected_time":2375000000000,"state":"active","ping":146},{"user_id":43,"name":"Nassu","steam_id":76561198147367577,"connected_time":5622000000000,"state":"active","ping":149}]},{"server_id":21,"name":"Uncletopia | London | 5 | All Maps","name_short":"lon-5","host":"lon-1.uk.uncletopia.com","port":27055,"enabled":true,"region":"eu","cc":"gb","latitude":51.509865,"longitude":-0.118092,"reserved":0,"last_update":"0001-01-01T00:00:00Z","name_a2s":"Uncletopia | London | 5 | All Maps","protocol":17,"map":"koth_lazarus","folder":"tf","game":"Team Fortress","app_id":440,"player_count":0,"max_players":24,"Bots":0,"server_type":"Dedicated","server_os":"Linux","password":true,"vac":true,"version":"7961495","steam_id":85568392924742829,"keywords":["cp","nocrits","nodmgspread","uncletopia"],"game_id":440,"stv_port":27056,"stv_name":"Uncletopia | London | 5 | All Maps | STV","players":null},{"server_id":22,"name":"Uncletopia | London | 6 | All Maps","name_short":"lon-6","host":"lon-1.uk.uncletopia.com","port":27065,"enabled":true,"region":"eu","cc":"gb","latitude":51.509865,"longitude":-0.118092,"reserved":0,"last_update":"0001-01-01T00:00:00Z","name_a2s":"Uncletopia | London | 6 | All Maps","protocol":17,"map":"cp_snakewater_final1","folder":"tf","game":"Team Fortress","app_id":440,"player_count":0,"max_players":24,"Bots":0,"server_type":"Dedicated","server_os":"Linux","password":true,"vac":true,"version":"7961495","steam_id":85568392924742830,"keywords":["cp","nocrits","nodmgspread","uncletopia"],"game_id":440,"stv_port":27066,"stv_name":"Uncletopia | London | 6 | All Maps | STV","players":null},{"server_id":40,"name":"Uncletopia | London | 7 | Stopwatch","name_short":"lon-7","host":"lon-1.uk.uncletopia.com","port":27075,"enabled":true,"region":"eu","cc":"gb","latitude":51.509865,"longitude":-0.118092,"reserved":0,"last_update":"0001-01-01T00:00:00Z","name_a2s":"Uncletopia | London | 7 | Stopwatch","protocol":17,"map":"workshop/cp_process_f12.ugc2302948105","folder":"tf","game":"Team Fortress","app_id":440,"player_count":0,"max_players":24,"Bots":0,"server_type":"Dedicated","server_os":"Linux","password":true,"vac":true,"version":"7961495","steam_id":85568392924964314,"keywords":["cp","nocrits","nodmgspread","uncletopia"],"game_id":440,"stv_port":27076,"stv_name":"Uncletopia | London | 7 | Stopwatch | STV","players":null},{"server_id":41,"name":"Uncletopia | London | 8 | Community","name_short":"lon-8","host":"lon-1.uk.uncletopia.com","port":27085,"enabled":true,"region":"eu","cc":"gb","latitude":51.509865,"longitude":-0.118092,"reserved":0,"last_update":"0001-01-01T00:00:00Z","name_a2s":"Uncletopia | London | 8 | Community","protocol":17,"map":"workshop/cp_villa_b19.ugc2113052569","folder":"tf","game":"Team Fortress","app_id":440,"player_count":0,"max_players":24,"Bots":0,"server_type":"Dedicated","server_os":"Linux","password":true,"vac":true,"version":"7961495","steam_id":85568392924964315,"keywords":["cp","nocrits","nodmgspread","uncletopia"],"game_id":440,"stv_port":27086,"stv_name":"Uncletopia | London | 8 | Community | STV","players":null},{"server_id":300,"name":"Uncletopia | Montréal | 1 | One Thousand Uncles","name_short":"mtl-1","host":"mtl-1.ca.uncletopia.com","port":27015,"enabled":true,"region":"us-east","cc":"ca","latitude":45.50889,"longitude":-73.56167,"reserved":0,"last_update":"0001-01-01T00:00:00Z","name_a2s":"Uncletopia | Montréal | 1 | One Thousand Uncles","protocol":17,"map":"pl_chilly","folder":"tf","game":"Team Fortress","app_id":440,"player_count":0,"max_players":32,"Bots":0,"server_type":"Dedicated","server_os":"Linux","password":true,"vac":true,"version":"7961495","steam_id":85568392924500087,"keywords":["alltalk","danepve","increased_maxplayers","norespawntime","payload","uncletopia"],"game_id":440,"stv_port":0,"stv_name":"","players":null},{"server_id":301,"name":"Uncletopia | Montréal | 2 | One Thousand Uncles","name_short":"mtl-2","host":"mtl-1.ca.uncletopia.com","port":27025,"enabled":true,"region":"us-east","cc":"ca","latitude":45.50889,"longitude":-73.56167,"reserved":0,"last_update":"0001-01-01T00:00:00Z","name_a2s":"Uncletopia | Montréal | 2 | One Thousand Uncles","protocol":17,"map":"pl_snowycoast","folder":"tf","game":"Team Fortress","app_id":440,"player_count":0,"max_players":32,"Bots":0,"server_type":"Dedicated","server_os":"Linux","password":true,"vac":true,"version":"7961495","steam_id":85568392924500088,"keywords":["alltalk","danepve","increased_maxplayers","norespawntime","payload","uncletopia"],"game_id":440,"stv_port":0,"stv_name":"","players":null},{"server_id":302,"name":"Uncletopia | Montréal | 3 | One Thousand Uncles","name_short":"mtl-3","host":"mtl-1.ca.uncletopia.com","port":27035,"enabled":true,"region":"us-east","cc":"ca","latitude":45.50889,"longitude":-73.56167,"reserved":0,"last_update":"0001-01-01T00:00:00Z","name_a2s":"Uncletopia | Montréal | 3 | One Thousand Uncles","protocol":17,"map":"pl_upward","folder":"tf","game":"Team Fortress","app_id":440,"player_count":0,"max_players":32,"Bots":0,"server_type":"Dedicated","server_os":"Linux","password":true,"vac":true,"version":"7961495","steam_id":85568392924500089,"keywords":["alltalk","danepve","increased_maxplayers","norespawntime","payload","uncletopia"],"game_id":440,"stv_port":0,"stv_name":"","players":null},{"server_id":13,"name":"Uncletopia | New York City | 1 | All Maps","name_short":"nyc-1","host":"nyc-1.us.uncletopia.com","port":27015,"enabled":true,"region":"us-east","cc":"us","latitude":40.73061,"longitude":-73.93524,"reserved":0,"last_update":"0001-01-01T00:00:00Z","name_a2s":"Uncletopia | New York City | 1 | All Maps","protocol":17,"map":"koth_brazil","folder":"tf","game":"Team Fortress","app_id":440,"player_count":0,"max_players":24,"Bots":0,"server_type":"Dedicated","server_os":"Linux","password":true,"vac":true,"version":"7961495","steam_id":85568392924469993,"keywords":["cp","nocrits","nodmgspread","uncletopia"],"game_id":440,"stv_port":27016,"stv_name":"Uncletopia | New York City | 1 | All Maps | STV","players":null},{"server_id":14,"name":"Uncletopia | New York City | 2 | All Maps","name_short":"nyc-2","host":"nyc-1.us.uncletopia.com","port":27025,"enabled":true,"region":"us-east","cc":"us","latitude":40.73061,"longitude":-73.93524,"reserved":0,"last_update":"0001-01-01T00:00:00Z","name_a2s":"Uncletopia | New York City | 2 | All Maps","protocol":17,"map":"pl_upward","folder":"tf","game":"Team Fortress","app_id":440,"player_count":3,"max_players":24,"Bots":0,"server_type":"Dedicated","server_os":"Linux","password":true,"vac":true,"version":"7961495","steam_id":85568392924469994,"keywords":["nocrits","nodmgspread","payload","uncletopia"],"game_id":440,"stv_port":27026,"stv_name":"Uncletopia | New York City | 2 | All Maps | STV","players":[{"user_id":4,"name":"AB","steam_id":76561199487899460,"connected_time":2113000000000,"state":"active","ping":107},{"user_id":5,"name":"Menace to Sobriety","steam_id":76561198245103000,"connected_time":1501000000000,"state":"active","ping":43},{"user_id":9,"name":"vastrobotmax","steam_id":76561198417110724,"connected_time":40000000000,"state":"active","ping":46}]},{"server_id":15,"name":"Uncletopia | New York City | 3 | Stopwatch","name_short":"nyc-3","host":"nyc-1.us.uncletopia.com","port":27035,"enabled":true,"region":"us-east","cc":"us","latitude":40.73061,"longitude":-73.93524,"reserved":0,"last_update":"0001-01-01T00:00:00Z","name_a2s":"Uncletopia | New York City | 3 | Stopwatch","protocol":17,"map":"workshop/cp_reckoner_rc6.ugc674719999","folder":"tf","game":"Team Fortress","app_id":440,"player_count":0,"max_players":24,"Bots":0,"server_type":"Dedicated","server_os":"Linux","password":true,"vac":true,"version":"7961495","steam_id":85568392924742820,"keywords":["cp","nocrits","nodmgspread","uncletopia"],"game_id":440,"stv_port":27036,"stv_name":"Uncletopia | New York City | 3 | Stopwatch | STV","players":null},{"server_id":16,"name":"Uncletopia | New York City | 4 | Community","name_short":"nyc-4","host":"nyc-1.us.uncletopia.com","port":27045,"enabled":true,"region":"us-east","cc":"us","latitude":40.73061,"longitude":-73.93524,"reserved":0,"last_update":"0001-01-01T00:00:00Z","name_a2s":"Uncletopia | New York City | 4 | Community","protocol":17,"map":"workshop/cp_indulge.ugc528106646","folder":"tf","game":"Team Fortress","app_id":440,"player_count":0,"max_players":24,"Bots":0,"server_type":"Dedicated","server_os":"Linux","password":true,"vac":true,"version":"7961495","steam_id":85568392924742821,"keywords":["cp","nocrits","nodmgspread","uncletopia"],"game_id":440,"stv_port":27046,"stv_name":"Uncletopia | New York City | 4 | Community | STV","players":null},{"server_id":142,"name":"Uncletopia | São Paulo | 1 | All Maps","name_short":"sao-1","host":"sao-1.br.uncletopia.com","port":27015,"enabled":true,"region":"sa","cc":"br","latitude":-23.533773,"longitude":-46.62529,"reserved":0,"last_update":"0001-01-01T00:00:00Z","name_a2s":"Uncletopia | São Paulo | 1 | All Maps","protocol":17,"map":"cp_granary","folder":"tf","game":"Team Fortress","app_id":440,"player_count":0,"max_players":24,"Bots":0,"server_type":"Dedicated","server_os":"Linux","password":true,"vac":true,"version":"7961495","steam_id":85568392924469996,"keywords":["cp","nocrits","nodmgspread","uncletopia"],"game_id":440,"stv_port":27016,"stv_name":"Uncletopia | São Paulo | 1 | All Maps | STV","players":null},{"server_id":143,"name":"Uncletopia | São Paulo | 2 | Community","name_short":"sao-2","host":"sao-2.br.uncletopia.com","port":27015,"enabled":true,"region":"sa","cc":"br","latitude":-23.533773,"longitude":-46.62529,"reserved":0,"last_update":"0001-01-01T00:00:00Z","name_a2s":"Uncletopia | São Paulo | 2 | Community","protocol":17,"map":"workshop/cp_overgrown_rc8.ugc503939302","folder":"tf","game":"Team Fortress","app_id":440,"player_count":0,"max_players":24,"Bots":0,"server_type":"Dedicated","server_os":"Linux","password":true,"vac":true,"version":"7961495","steam_id":85568392924485349,"keywords":["cp","nocrits","nodmgspread","uncletopia"],"game_id":440,"stv_port":27016,"stv_name":"Uncletopia | São Paulo | 2 | Community | STV","players":null},{"server_id":7,"name":"Uncletopia | Seattle | 1 | All Maps","name_short":"sea-1","host":"sea-1.us.uncletopia.com","port":27015,"enabled":true,"region":"us-west","cc":"us","latitude":47.608013,"longitude":-122.33517,"reserved":0,"last_update":"0001-01-01T00:00:00Z","name_a2s":"Uncletopia | Seattle | 1 | All Maps","protocol":17,"map":"koth_viaduct","folder":"tf","game":"Team Fortress","app_id":440,"player_count":4,"max_players":24,"Bots":0,"server_type":"Dedicated","server_os":"Linux","password":true,"vac":true,"version":"7961495","steam_id":85568392924469997,"keywords":["cp","nocrits","nodmgspread","uncletopia"],"game_id":440,"stv_port":27016,"stv_name":"Uncletopia | Seattle | 1 | All Maps | STV","players":[{"user_id":12,"name":"Hazel The Boy Maid :3","steam_id":76561199247095754,"connected_time":2150000000000,"state":"active","ping":59},{"user_id":13,"name":"ᵐᵉᵒʷ","steam_id":76561199200969139,"connected_time":1486000000000,"state":"active","ping":59},{"user_id":14,"name":"ᵐᵉᵒʷ‏","steam_id":76561198361282778,"connected_time":1019000000000,"state":"active","ping":200},{"user_id":15,"name":"loser","steam_id":76561199243489976,"connected_time":820000000000,"state":"active","ping":74}]},{"server_id":119,"name":"Uncletopia | Seattle | 2 | All Maps","name_short":"sea-2","host":"sea-1.us.uncletopia.com","port":27025,"enabled":true,"region":"us-west","cc":"us","latitude":47.608013,"longitude":-122.33517,"reserved":0,"last_update":"0001-01-01T00:00:00Z","name_a2s":"Uncletopia | Seattle | 2 | All Maps","protocol":17,"map":"koth_lakeside_final","folder":"tf","game":"Team Fortress","app_id":440,"player_count":0,"max_players":24,"Bots":0,"server_type":"Dedicated","server_os":"Linux","password":true,"vac":true,"version":"7961495","steam_id":85568392924469998,"keywords":["cp","nocrits","nodmgspread","uncletopia"],"game_id":440,"stv_port":27026,"stv_name":"Uncletopia | Seattle | 2 | All Maps | STV","players":null},{"server_id":406,"name":"Uncletopia | Seattle | 3 | Stopwatch","name_short":"sea-3","host":"sea-1.us.uncletopia.com","port":27035,"enabled":true,"region":"us-west","cc":"us","latitude":47.608013,"longitude":-122.33517,"reserved":0,"last_update":"0001-01-01T00:00:00Z","name_a2s":"Uncletopia | Seattle | 3 | Stopwatch","protocol":17,"map":"cp_gullywash_final1","folder":"tf","game":"Team Fortress","app_id":440,"player_count":0,"max_players":24,"Bots":0,"server_type":"Dedicated","server_os":"Linux","password":true,"vac":true,"version":"7961495","steam_id":85568392924515217,"keywords":["cp","nocrits","nodmgspread","uncletopia"],"game_id":440,"stv_port":27036,"stv_name":"Uncletopia | Seattle | 3 | Stopwatch | STV","players":null},{"server_id":17,"name":"Uncletopia | San Francisco | 1 | All Maps","name_short":"sfo-1","host":"sfo-1.us.uncletopia.com","port":27015,"enabled":true,"region":"us-west","cc":"us","latitude":37.77397,"longitude":-122.4313,"reserved":0,"last_update":"0001-01-01T00:00:00Z","name_a2s":"Uncletopia | San Francisco | 1 | All Maps","protocol":17,"map":"pl_thundermountain","folder":"tf","game":"Team Fortress","app_id":440,"player_count":9,"max_players":24,"Bots":0,"server_type":"Dedicated","server_os":"Linux","password":true,"vac":true,"version":"7961495","steam_id":85568392924469999,"keywords":["nocrits","nodmgspread","payload","uncletopia"],"game_id":440,"stv_port":27016,"stv_name":"Uncletopia | San Francisco | 1 | All Maps | STV","players":[{"user_id":26,"name":"The Soulless","steam_id":76561199233153269,"connected_time":1123000000000,"state":"active","ping":69},{"user_id":34,"name":"Caramel_Chalice","steam_id":76561198307609692,"connected_time":505000000000,"state":"active","ping":64},{"user_id":36,"name":"Sause","steam_id":76561198813759906,"connected_time":196000000000,"state":"active","ping":106},{"user_id":17,"name":"Trips","steam_id":76561198054581597,"connected_time":1769000000000,"state":"active","ping":44},{"user_id":37,"name":"LeFunnyMan","steam_id":76561199081645289,"connected_time":108000000000,"state":"active","ping":76},{"user_id":28,"name":":3","steam_id":76561199194702127,"connected_time":892000000000,"state":"active","ping":105},{"user_id":29,"name":"joethygar","steam_id":76561198040559918,"connected_time":805000000000,"state":"active","ping":52},{"user_id":23,"name":"orphan slayer","steam_id":76561199476198856,"connected_time":1378000000000,"state":"active","ping":82},{"user_id":32,"name":"Alkimia","steam_id":76561198385763137,"connected_time":659000000000,"state":"active","ping":193}]},{"server_id":18,"name":"Uncletopia | San Francisco | 2 | All Maps","name_short":"sfo-2","host":"sfo-1.us.uncletopia.com","port":27025,"enabled":true,"region":"us-west","cc":"us","latitude":37.77397,"longitude":-122.4313,"reserved":0,"last_update":"0001-01-01T00:00:00Z","name_a2s":"Uncletopia | San Francisco | 2 | All Maps","protocol":17,"map":"cp_freight_final1","folder":"tf","game":"Team Fortress","app_id":440,"player_count":0,"max_players":24,"Bots":0,"server_type":"Dedicated","server_os":"Linux","password":true,"vac":true,"version":"7961495","steam_id":85568392924470000,"keywords":["cp","nocrits","nodmgspread","uncletopia"],"game_id":440,"stv_port":27026,"stv_name":"Uncletopia | San Francisco | 2 | All Maps | STV","players":null},{"server_id":19,"name":"Uncletopia | San Francisco | 3 | Stopwatch","name_short":"sfo-3","host":"sfo-1.us.uncletopia.com","port":27035,"enabled":true,"region":"us-west","cc":"us","latitude":37.77397,"longitude":-122.4313,"reserved":0,"last_update":"0001-01-01T00:00:00Z","name_a2s":"Uncletopia | San Francisco | 3 | Stopwatch","protocol":17,"map":"workshop/koth_product_final.ugc454272353","folder":"tf","game":"Team Fortress","app_id":440,"player_count":0,"max_players":24,"Bots":0,"server_type":"Dedicated","server_os":"Linux","password":true,"vac":true,"version":"7961495","steam_id":85568392924742824,"keywords":["cp","nocrits","nodmgspread","uncletopia"],"game_id":440,"stv_port":27036,"stv_name":"Uncletopia | San Francisco | 3 | Stopwatch | STV","players":null},{"server_id":20,"name":"Uncletopia | San Francisco | 4 | Community","name_short":"sfo-4","host":"sfo-1.us.uncletopia.com","port":27045,"enabled":true,"region":"us-west","cc":"us","latitude":37.77397,"longitude":-122.4313,"reserved":0,"last_update":"0001-01-01T00:00:00Z","name_a2s":"Uncletopia | San Francisco | 4 | Community","protocol":17,"map":"workshop/pl_cactuscanyon_redux_final2.ugc2579644293","folder":"tf","game":"Team Fortress","app_id":440,"player_count":0,"max_players":24,"Bots":0,"server_type":"Dedicated","server_os":"Linux","password":true,"vac":true,"version":"7961495","steam_id":85568392924742826,"keywords":["nocrits","nodmgspread","payload","uncletopia"],"game_id":440,"stv_port":27046,"stv_name":"Uncletopia | San Francisco | 4 | Community | STV","players":null},{"server_id":141,"name":"Uncletopia | Sydney | 1 | All Maps","name_short":"syd-1","host":"syd-1.au.uncletopia.com","port":27015,"enabled":true,"region":"au","cc":"au","latitude":-33.865143,"longitude":151.2099,"reserved":0,"last_update":"0001-01-01T00:00:00Z","name_a2s":"Uncletopia | Sydney | 1 | All Maps","protocol":17,"map":"pl_frontier_final","folder":"tf","game":"Team Fortress","app_id":440,"player_count":0,"max_players":24,"Bots":0,"server_type":"Dedicated","server_os":"Linux","password":true,"vac":true,"version":"7961495","steam_id":85568392924470001,"keywords":["nocrits","nodmgspread","payload","uncletopia"],"game_id":440,"stv_port":27016,"stv_name":"Uncletopia | Sydney | 1 | All Maps | STV","players":null},{"server_id":123,"name":"Uncletopia | Sydney | 2 | All Maps","name_short":"syd-2","host":"syd-1.au.uncletopia.com","port":27025,"enabled":true,"region":"au","cc":"au","latitude":-33.865143,"longitude":151.2099,"reserved":0,"last_update":"0001-01-01T00:00:00Z","name_a2s":"Uncletopia | Sydney | 2 | All Maps","protocol":17,"map":"koth_viaduct","folder":"tf","game":"Team Fortress","app_id":440,"player_count":21,"max_players":24,"Bots":0,"server_type":"Dedicated","server_os":"Linux","password":true,"vac":true,"version":"7961495","steam_id":85568392924470002,"keywords":["cp","nocrits","nodmgspread","uncletopia"],"game_id":440,"stv_port":27026,"stv_name":"Uncletopia | Sydney | 2 | All Maps | STV","players":[{"user_id":459,"name":"Burillion","steam_id":76561197975918525,"connected_time":1866000000000,"state":"active","ping":35},{"user_id":481,"name":"Diming","steam_id":76561198325584599,"connected_time":94000000000,"state":"active","ping":59},{"user_id":477,"name":"crinkle","steam_id":76561198059799940,"connected_time":386000000000,"state":"active","ping":36},{"user_id":482,"name":"Wampy","steam_id":76561199211235248,"connected_time":45000000000,"state":"active","ping":43},{"user_id":394,"name":"grug","steam_id":76561198029898248,"connected_time":7275000000000,"state":"active","ping":49},{"user_id":480,"name":"Dice","steam_id":76561198192390023,"connected_time":197000000000,"state":"active","ping":50},{"user_id":473,"name":"Demomen at Work","steam_id":76561198376221252,"connected_time":861000000000,"state":"active","ping":60},{"user_id":471,"name":"Andreas Vesalius","steam_id":76561198950692005,"connected_time":903000000000,"state":"active","ping":45},{"user_id":478,"name":"Weave","steam_id":76561198050777540,"connected_time":381000000000,"state":"active","ping":43},{"user_id":395,"name":"Postal Pat","steam_id":76561198020480676,"connected_time":7275000000000,"state":"active","ping":48},{"user_id":462,"name":"Plushie","steam_id":76561198043226890,"connected_time":1466000000000,"state":"active","ping":45},{"user_id":463,"name":"barber shop heptet","steam_id":76561198055379370,"connected_time":1428000000000,"state":"active","ping":95},{"user_id":455,"name":"Kenny","steam_id":76561198077366241,"connected_time":2412000000000,"state":"active","ping":52},{"user_id":464,"name":"shaun","steam_id":76561198281504419,"connected_time":1390000000000,"state":"active","ping":65},{"user_id":452,"name":"bruiseblood","steam_id":76561198062301135,"connected_time":2666000000000,"state":"active","ping":49},{"user_id":479,"name":"e-Jacc","steam_id":76561199109589883,"connected_time":364000000000,"state":"active","ping":84},{"user_id":467,"name":"Joebunga","steam_id":76561198833527091,"connected_time":1294000000000,"state":"active","ping":145},{"user_id":469,"name":"gay sex","steam_id":76561198139282745,"connected_time":1264000000000,"state":"active","ping":51},{"user_id":444,"name":"RustyMeat","steam_id":76561198119162442,"connected_time":3181000000000,"state":"active","ping":50},{"user_id":476,"name":"Webz","steam_id":76561198148272238,"connected_time":811000000000,"state":"active","ping":83},{"user_id":425,"name":"Bay 13 Bogan","steam_id":76561198193953294,"connected_time":5304000000000,"state":"active","ping":46}]},{"server_id":395,"name":"Uncletopia | Sydney | 3 | All Maps","name_short":"syd-3","host":"syd-1.au.uncletopia.com","port":27035,"enabled":true,"region":"au","cc":"au","latitude":-33.865143,"longitude":151.2099,"reserved":0,"last_update":"0001-01-01T00:00:00Z","name_a2s":"Uncletopia | Sydney | 3 | All Maps","protocol":17,"map":"cp_mountainlab","folder":"tf","game":"Team Fortress","app_id":440,"player_count":0,"max_players":24,"Bots":0,"server_type":"Dedicated","server_os":"Linux","password":true,"vac":true,"version":"7961495","steam_id":85568392925194467,"keywords":["cp","nocrits","nodmgspread","uncletopia"],"game_id":440,"stv_port":27036,"stv_name":"Uncletopia | Sydney | 3 | All Maps | STV","players":null},{"server_id":396,"name":"Uncletopia | Sydney | 4 | All Maps","name_short":"syd-4","host":"syd-1.au.uncletopia.com","port":27045,"enabled":true,"region":"au","cc":"au","latitude":-33.865143,"longitude":151.2099,"reserved":0,"last_update":"0001-01-01T00:00:00Z","name_a2s":"Uncletopia | Sydney | 4 | All Maps","protocol":17,"map":"koth_lakeside_final","folder":"tf","game":"Team Fortress","app_id":440,"player_count":0,"max_players":24,"Bots":0,"server_type":"Dedicated","server_os":"Linux","password":true,"vac":true,"version":"7961495","steam_id":85568392925397958,"keywords":["cp","nocrits","nodmgspread","uncletopia"],"game_id":440,"stv_port":27046,"stv_name":"Uncletopia | Sydney | 4 | All Maps | STV","players":null},{"server_id":58,"name":"Uncletopia | Sydney | 5 | Stopwatch","name_short":"syd-5","host":"syd-1.au.uncletopia.com","port":27055,"enabled":true,"region":"au","cc":"au","latitude":-33.865143,"longitude":151.2099,"reserved":0,"last_update":"0001-01-01T00:00:00Z","name_a2s":"Uncletopia | Sydney | 5 | Stopwatch","protocol":17,"map":"workshop/pl_summercoast_rc8e.ugc1761528829","folder":"tf","game":"Team Fortress","app_id":440,"player_count":0,"max_players":24,"Bots":0,"server_type":"Dedicated","server_os":"Linux","password":true,"vac":true,"version":"7961495","steam_id":85568392925397959,"keywords":["nocrits","nodmgspread","payload","uncletopia"],"game_id":440,"stv_port":27056,"stv_name":"Uncletopia | Sydney | 5 | Stopwatch | STV","players":null},{"server_id":59,"name":"Uncletopia | Sydney | 6 | Community","name_short":"syd-6","host":"syd-1.au.uncletopia.com","port":27065,"enabled":true,"region":"au","cc":"au","latitude":-33.865143,"longitude":151.2099,"reserved":0,"last_update":"0001-01-01T00:00:00Z","name_a2s":"Uncletopia | Sydney | 6 | Community","protocol":17,"map":"workshop/koth_trenchfoot_ab1.ugc731436616","folder":"tf","game":"Team Fortress","app_id":440,"player_count":0,"max_players":24,"Bots":0,"server_type":"Dedicated","server_os":"Linux","password":true,"vac":true,"version":"7961495","steam_id":85568392925397960,"keywords":["cp","nocrits","nodmgspread","uncletopia"],"game_id":440,"stv_port":27066,"stv_name":"Uncletopia | Sydney | 6 | Community | STV","players":null},{"server_id":49,"name":"Uncletopia | Warsaw | 1 | One Thousand Uncles","name_short":"waw-1","host":"waw-1.pl.uncletopia.com","port":27015,"enabled":true,"region":"eu","cc":"pl","latitude":52.2297,"longitude":21.017532,"reserved":0,"last_update":"0001-01-01T00:00:00Z","name_a2s":"Uncletopia | Warsaw | 1 | One Thousand Uncles","protocol":17,"map":"pl_goldrush","folder":"tf","game":"Team Fortress","app_id":440,"player_count":3,"max_players":32,"Bots":0,"server_type":"Dedicated","server_os":"Linux","password":true,"vac":true,"version":"7961495","steam_id":85568392925397850,"keywords":["alltalk","danepve","increased_maxplayers","norespawntime","payload","uncletopia"],"game_id":440,"stv_port":0,"stv_name":"","players":[{"user_id":460,"name":"ByrakGG (f2p)","steam_id":76561199415957361,"connected_time":1101000000000,"state":"active","ping":97},{"user_id":469,"name":"Black_Knight","steam_id":76561198350957192,"connected_time":21000000000,"state":"active","ping":59},{"user_id":462,"name":"d u k k i","steam_id":76561198071807437,"connected_time":900000000000,"state":"spawning","ping":64}]},{"server_id":50,"name":"Uncletopia | Warsaw | 2 | One Thousand Uncles","name_short":"waw-2","host":"waw-1.pl.uncletopia.com","port":27025,"enabled":true,"region":"eu","cc":"pl","latitude":52.2297,"longitude":21.017532,"reserved":0,"last_update":"0001-01-01T00:00:00Z","name_a2s":"Uncletopia | Warsaw | 2 | One Thousand Uncles","protocol":17,"map":"pl_goldrush","folder":"tf","game":"Team Fortress","app_id":440,"player_count":25,"max_players":32,"Bots":16,"server_type":"Dedicated","server_os":"Linux","password":true,"vac":true,"version":"7961495","steam_id":85568392925397851,"keywords":["alltalk","bots","danepve","increased_maxplayers","norespawntime","payload","uncletopia"],"game_id":440,"stv_port":0,"stv_name":"","players":[{"user_id":82,"name":"Sir Lancelot","steam_id":76561198049709392,"connected_time":6103000000000,"state":"active","ping":80},{"user_id":116,"name":"Itsmemuriu","steam_id":76561198397780043,"connected_time":1634000000000,"state":"active","ping":129},{"user_id":121,"name":"absynth","steam_id":76561197960639092,"connected_time":409000000000,"state":"active","ping":150},{"user_id":119,"name":"artur.perzan1601","steam_id":76561199445901471,"connected_time":798000000000,"state":"active","ping":64},{"user_id":118,"name":"MeLoMeN","steam_id":76561199174657436,"connected_time":1144000000000,"state":"active","ping":54},{"user_id":110,"name":"MC_Void_0","steam_id":76561199148827012,"connected_time":2808000000000,"state":"active","ping":201},{"user_id":120,"name":"ToningDeer","steam_id":76561199206163727,"connected_time":682000000000,"state":"active","ping":89},{"user_id":122,"name":"Chemax","steam_id":76561198168846882,"connected_time":321000000000,"state":"active","ping":100},{"user_id":125,"name":"literallyjasonx","steam_id":76561198835895387,"connected_time":113000000000,"state":"active","ping":94}]},{"server_id":51,"name":"Uncletopia | Warsaw | 3 | All Maps","name_short":"waw-3","host":"waw-1.pl.uncletopia.com","port":27035,"enabled":true,"region":"eu","cc":"pl","latitude":52.2297,"longitude":21.017532,"reserved":0,"last_update":"0001-01-01T00:00:00Z","name_a2s":"Uncletopia | Warsaw | 3 | All Maps","protocol":17,"map":"koth_lakeside_final","folder":"tf","game":"Team Fortress","app_id":440,"player_count":0,"max_players":24,"Bots":0,"server_type":"Dedicated","server_os":"Linux","password":true,"vac":true,"version":"7961495","steam_id":85568392925397852,"keywords":["cp","nocrits","nodmgspread","uncletopia"],"game_id":440,"stv_port":27036,"stv_name":"Uncletopia | Warsaw | 3 | All Maps | STV","players":null},{"server_id":52,"name":"Uncletopia | Warsaw | 4 | All Maps","name_short":"waw-4","host":"waw-1.pl.uncletopia.com","port":27045,"enabled":true,"region":"eu","cc":"pl","latitude":52.2297,"longitude":21.017532,"reserved":0,"last_update":"0001-01-01T00:00:00Z","name_a2s":"Uncletopia | Warsaw | 4 | All Maps","protocol":17,"map":"koth_lakeside_final","folder":"tf","game":"Team Fortress","app_id":440,"player_count":0,"max_players":24,"Bots":0,"server_type":"Dedicated","server_os":"Linux","password":true,"vac":true,"version":"7961495","steam_id":85568392925397853,"keywords":["cp","nocrits","nodmgspread","uncletopia"],"game_id":440,"stv_port":27046,"stv_name":"Uncletopia | Warsaw | 4 | All Maps | STV","players":null},{"server_id":53,"name":"Uncletopia | Warsaw | 5 | Stopwatch","name_short":"waw-5","host":"waw-1.pl.uncletopia.com","port":27055,"enabled":true,"region":"eu","cc":"pl","latitude":52.2297,"longitude":21.017532,"reserved":0,"last_update":"0001-01-01T00:00:00Z","name_a2s":"Uncletopia | Warsaw | 5 | Stopwatch","protocol":17,"map":"cp_gullywash_final1","folder":"tf","game":"Team Fortress","app_id":440,"player_count":0,"max_players":24,"Bots":0,"server_type":"Dedicated","server_os":"Linux","password":true,"vac":true,"version":"7961495","steam_id":85568392925397854,"keywords":["cp","nocrits","nodmgspread","uncletopia"],"game_id":440,"stv_port":27056,"stv_name":"Uncletopia | Warsaw | 5 | Stopwatch | STV","players":null},{"server_id":54,"name":"Uncletopia | Warsaw | 6 | Community","name_short":"waw-6","host":"waw-1.pl.uncletopia.com","port":27065,"enabled":true,"region":"eu","cc":"pl","latitude":52.2297,"longitude":21.017532,"reserved":0,"last_update":"0001-01-01T00:00:00Z","name_a2s":"Uncletopia | Warsaw | 6 | Community","protocol":17,"map":"workshop/cp_fulgur_rc2a.ugc2068252300","folder":"tf","game":"Team Fortress","app_id":440,"player_count":0,"max_players":24,"Bots":0,"server_type":"Dedicated","server_os":"Linux","password":true,"vac":true,"version":"7961495","steam_id":85568392925397856,"keywords":["cp","nocrits","nodmgspread","uncletopia"],"game_id":440,"stv_port":27066,"stv_name":"Uncletopia | Warsaw | 6 | Community | STV","players":null}]}