{"status":true,"message":"","result":[{"server_id":9,"name":"Uncletopia | Atlanta | 1 | All Maps","name_short":"atl-1","host":"atl-1.us.uncletopia.com","port":27015,"enabled":true,"region":"us-east","cc":"us","latitude":33.753746,"longitude":-84.38633,"reserved":0,"last_update":"0001-01-01T00:00:00Z","name_a2s":"Uncletopia | Atlanta | 1 | All Maps","protocol":17,"map":"pl_frontier_final","folder":"tf","game":"Team Fortress","app_id":440,"player_count":24,"max_players":24,"Bots":0,"server_type":"Dedicated","server_os":"Linux","password":true,"vac":true,"version":"7708610","steam_id":85568392924469982,"keywords":["nocrits","nodmgspread","payload","uncletopia"],"game_id":440,"stv_port":27016,"stv_name":"Uncletopia | Atlanta | 1 | All Maps | STV","players":[{"user_id":140,"name":"TRHD_Pharaxer‚Ñ¢","steam_id":76561198051236069,"connected_time":3167000000000,"state":"active","ping":148},{"user_id":99,"name":"WONDER.","steam_id":76561198092527854,"connected_time":7565000000000,"state":"active","ping":109},{"user_id":128,"name":"A Man Named Pancho","steam_id":76561197984895522,"connected_time":4132000000000,"state":"active","ping":120},{"user_id":155,"name":"Moon","steam_id":76561198815315429,"connected_time":884000000000,"state":"active","ping":115},{"user_id":159,"name":"peachy","steam_id":76561198026664629,"connected_time":342000000000,"state":"active","ping":60},{"user_id":157,"name":"Sir Jangle","steam_id":76561198038142389,"connected_time":483000000000,"state":"active","ping":72},{"user_id":151,"name":"MIRAESASINTENTALASRESBALONESAH","steam_id":76561198021308963,"connected_time":991000000000,"state":"active","ping":79},{"user_id":149,"name":"Thotimus Begonimus","steam_id":76561197970275938,"connected_time":1136000000000,"state":"active","ping":45},{"user_id":142,"name":"Stampdawg","steam_id":76561198050500060,"connected_time":2093000000000,"state":"active","ping":89},{"user_id":109,"name":"cola","steam_id":76561198374390458,"connected_time":6444000000000,"state":"active","ping":56},{"user_id":160,"name":"Quansen","steam_id":76561198151594550,"connected_time":297000000000,"state":"active","ping":78},{"user_id":122,"name":"Lost (15)","steam_id":76561198093713427,"connected_time":5420000000000,"state":"active","ping":98},{"user_id":146,"name":"TTV AhoyK","steam_id":76561198274742715,"connected_time":1151000000000,"state":"active","ping":60},{"user_id":152,"name":"ATL6 Wingm4n","steam_id":76561198064127012,"connected_time":938000000000,"state":"active","ping":63},{"user_id":144,"name":"The Land Admiral","steam_id":76561198159356609,"connected_time":1284000000000,"state":"active","ping":71},{"user_id":121,"name":"sansa musa","steam_id":76561198163723555,"connected_time":5592000000000,"state":"active","ping":75},{"user_id":147,"name":"raphyy''","steam_id":76561197997207768,"connected_time":1150000000000,"state":"active","ping":134},{"user_id":55,"name":"Riske","steam_id":76561198115840568,"connected_time":10824000000000,"state":"active","ping":86},{"user_id":112,"name":"Jordicr100","steam_id":76561198030999491,"connected_time":6167000000000,"state":"active","ping":96},{"user_id":138,"name":"Walmart Employee","steam_id":76561198840373909,"connected_time":3174000000000,"state":"active","ping":73},{"user_id":158,"name":"scrotal recall","steam_id":76561198135945598,"connected_time":479000000000,"state":"active","ping":69},{"user_id":133,"name":"gordon freeman christmas","steam_id":76561198367735460,"connected_time":3523000000000,"state":"active","ping":62},{"user_id":124,"name":"Cilantro","steam_id":76561198056432216,"connected_time":4708000000000,"state":"active","ping":60},{"user_id":150,"name":"Boingo","steam_id":76561199086931535,"connected_time":1135000000000,"state":"active","ping":89}]},{"server_id":400,"name":"Uncletopia | Atlanta | 3 | All Maps","name_short":"atl-3","host":"atl-1.us.uncletopia.com","port":27035,"enabled":true,"region":"us-east","cc":"us","latitude":33.753746,"longitude":-84.38633,"reserved":0,"last_update":"0001-01-01T00:00:00Z","name_a2s":"Uncletopia | Atlanta | 3 | All Maps","protocol":17,"map":"pl_badwater","folder":"tf","game":"Team Fortress","app_id":440,"player_count":0,"max_players":24,"Bots":0,"server_type":"Dedicated","server_os":"Linux","password":true,"vac":true,"version":"7708610","steam_id":85568392924515187,"keywords":["nocrits","nodmgspread","payload","uncletopia"],"game_id":440,"stv_port":27036,"stv_name":"Uncletopia | Atlanta | 3 | All Maps | STV","players":null},{"server_id":401,"name":"Uncletopia | Atlanta | 4 | No Payload","name_short":"atl-4","host":"atl-1.us.uncletopia.com","port":27045,"enabled":true,"region":"us-east","cc":"us","latitude":33.753746,"longitude":-84.38633,"reserved":0,"last_update":"0001-01-01T00:00:00Z","name_a2s":"Uncletopia | Atlanta | 4 | No Payload","protocol":17,"map":"pl_snowycoast","folder":"tf","game":"Team Fortress","app_id":440,"player_count":0,"max_players":24,"Bots":0,"server_type":"Dedicated","server_os":"Linux","password":true,"vac":true,"version":"7708610","steam_id":85568392924515188,"keywords":["nocrits","nodmgspread","payload","uncletopia"],"game_id":440,"stv_port":27046,"stv_name":"Uncletopia | Atlanta | 4 | No Payload | STV","players":null},{"server_id":2,"name":"Uncletopia | Chicago | 1 | All Maps","name_short":"chi-1","host":"chi-1.us.uncletopia.com","port":27015,"enabled":true,"region":"us-central","cc":"us","latitude":41.881832,"longitude":-87.62318,"reserved":0,"last_update":"0001-01-01T00:00:00Z","name_a2s":"Uncletopia | Chicago | 1 | All Maps","protocol":17,"map":"pl_thundermountain","folder":"tf","game":"Team Fortress","app_id":440,"player_count":24,"max_players":24,"Bots":0,"server_type":"Dedicated","server_os":"Linux","password":true,"vac":true,"version":"7708610","steam_id":85568392924469984,"keywords":["nocrits","nodmgspread","payload","uncletopia"],"game_id":440,"stv_port":27016,"stv_name":"Uncletopia | Chicago | 1 | All Maps | STV","players":[{"user_id":3,"name":"Nassu","steam_id":76561198147367577,"connected_time":6076000000000,"state":"active","ping":67},{"user_id":80,"name":"Monke man","steam_id":76561199156094909,"connected_time":944000000000,"state":"active","ping":64},{"user_id":86,"name":"Rornir","steam_id":76561198081829615,"connected_time":585000000000,"state":"active","ping":39},{"user_id":87,"name":"A tree","steam_id":76561198309065247,"connected_time":487000000000,"state":"active","ping":58},{"user_id":81,"name":"Death84stayed","steam_id":76561198406916512,"connected_time":944000000000,"state":"active","ping":125},{"user_id":82,"name":"Richie Marcus","steam_id":76561198068947350,"connected_time":943000000000,"state":"active","ping":79},{"user_id":72,"name":"richard clock","steam_id":76561198048455671,"connected_time":1737000000000,"state":"active","ping":61},{"user_id":10,"name":"mm","steam_id":76561198841559088,"connected_time":5644000000000,"state":"active","ping":64},{"user_id":69,"name":"frid","steam_id":76561198005806915,"connected_time":2304000000000,"state":"active","ping":60},{"user_id":12,"name":"¬°ayudame!","steam_id":76561198071421094,"connected_time":5636000000000,"state":"active","ping":102},{"user_id":91,"name":"LocaKola","steam_id":76561198173435430,"connected_time":22000000000,"state":"active","ping":68},{"user_id":14,"name":"H‚ÇÇSeGamez","steam_id":76561198250471340,"connected_time":5628000000000,"state":"active","ping":55},{"user_id":22,"name":"FrostyEgo","steam_id":76561197998069472,"connected_time":5386000000000,"state":"active","ping":48},{"user_id":78,"name":"Drachma","steam_id":76561198007310514,"connected_time":1151000000000,"state":"active","ping":59},{"user_id":85,"name":"Ras","steam_id":76561198123546775,"connected_time":888000000000,"state":"active","ping":61},{"user_id":58,"name":"blob","steam_id":76561198122375328,"connected_time":2539000000000,"state":"active","ping":63},{"user_id":83,"name":"a Salty Coquito","steam_id":76561197979951077,"connected_time":923000000000,"state":"active","ping":131},{"user_id":59,"name":"Stihl","steam_id":76561198025152405,"connected_time":2537000000000,"state":"active","ping":59},{"user_id":39,"name":"Coupon","steam_id":76561198111947598,"connected_time":4072000000000,"state":"active","ping":54},{"user_id":54,"name":"kametro4","steam_id":76561198835430429,"connected_time":2984000000000,"state":"active","ping":85},{"user_id":42,"name":"Satori","steam_id":76561198214370515,"connected_time":3969000000000,"state":"active","ping":70},{"user_id":77,"name":"A Festive G J W","steam_id":76561198123359692,"connected_time":1258000000000,"state":"active","ping":59},{"user_id":44,"name":"Jaymowe","steam_id":76561198353959514,"connected_time":3950000000000,"state":"active","ping":96},{"user_id":90,"name":"Provocator","steam_id":76561197961830410,"connected_time":74000000000,"state":"active","ping":71}]},{"server_id":106,"name":"Uncletopia | Chicago | 2 | All Maps","name_short":"chi-2","host":"chi-1.us.uncletopia.com","port":27025,"enabled":true,"region":"us-central","cc":"us","latitude":41.881832,"longitude":-87.62318,"reserved":0,"last_update":"0001-01-01T00:00:00Z","name_a2s":"Uncletopia | Chicago | 2 | All Maps","protocol":17,"map":"pl_frontier_final","folder":"tf","game":"Team Fortress","app_id":440,"player_count":0,"max_players":24,"Bots":0,"server_type":"Dedicated","server_os":"Linux","password":true,"vac":true,"version":"7708610","steam_id":85568392924469985,"keywords":["nocrits","nodmgspread","payload","uncletopia"],"game_id":440,"stv_port":27026,"stv_name":"Uncletopia | Chicago | 2 | All Maps | STV","players":null},{"server_id":402,"name":"Uncletopia | Chicago | 3 | All Maps","name_short":"chi-3","host":"chi-1.us.uncletopia.com","port":27035,"enabled":true,"region":"us-central","cc":"us","latitude":41.881832,"longitude":-87.62318,"reserved":0,"last_update":"0001-01-01T00:00:00Z","name_a2s":"Uncletopia | Chicago | 3 | All Maps","protocol":17,"map":"pl_barnblitz","folder":"tf","game":"Team Fortress","app_id":440,"player_count":0,"max_players":24,"Bots":0,"server_type":"Dedicated","server_os":"Linux","password":true,"vac":true,"version":"7708610","steam_id":85568392924515191,"keywords":["nocrits","nodmgspread","payload","uncletopia"],"game_id":440,"stv_port":27036,"stv_name":"Uncletopia | Chicago | 3 | All Maps | STV","players":null},{"server_id":403,"name":"Uncletopia | Chicago | 4 | All Maps","name_short":"chi-4","host":"chi-1.us.uncletopia.com","port":27045,"enabled":true,"region":"us-central","cc":"us","latitude":41.881832,"longitude":-87.62318,"reserved":0,"last_update":"0001-01-01T00:00:00Z","name_a2s":"Uncletopia | Chicago | 4 | All Maps","protocol":17,"map":"pl_frontier_final","folder":"tf","game":"Team Fortress","app_id":440,"player_count":0,"max_players":24,"Bots":0,"server_type":"Dedicated","server_os":"Linux","password":true,"vac":true,"version":"7708610","steam_id":85568392924515193,"keywords":["nocrits","nodmgspread","payload","uncletopia"],"game_id":440,"stv_port":27046,"stv_name":"Uncletopia | Chicago | 4 | All Maps | STV","players":null},{"server_id":36,"name":"Uncletopia | Chicago | 5 | All Maps","name_short":"chi-5","host":"chi-2.us.uncletopia.com","port":27015,"enabled":true,"region":"us-central","cc":"us","latitude":41.881832,"longitude":-87.62318,"reserved":0,"last_update":"0001-01-01T00:00:00Z","name_a2s":"Uncletopia | Chicago | 5 | All Maps","protocol":17,"map":"koth_lakeside_final","folder":"tf","game":"Team Fortress","app_id":440,"player_count":0,"max_players":24,"Bots":0,"server_type":"Dedicated","server_os":"Linux","password":true,"vac":true,"version":"7708610","steam_id":85568392924866362,"keywords":["cp","nocrits","nodmgspread","uncletopia"],"game_id":440,"stv_port":27016,"stv_name":"Uncletopia | Chicago | 5 | All Maps | STV","players":null},{"server_id":37,"name":"Uncletopia | Chicago | 6 | All Maps","name_short":"chi-6","host":"chi-2.us.uncletopia.com","port":27025,"enabled":true,"region":"us-central","cc":"us","latitude":41.881832,"longitude":-87.62318,"reserved":0,"last_update":"0001-01-01T00:00:00Z","name_a2s":"Uncletopia | Chicago | 6 | All Maps","protocol":17,"map":"pl_swiftwater_final1","folder":"tf","game":"Team Fortress","app_id":440,"player_count":0,"max_players":24,"Bots":0,"server_type":"Dedicated","server_os":"Linux","password":true,"vac":true,"version":"7708610","steam_id":85568392924866363,"keywords":["nocrits","nodmgspread","payload","uncletopia"],"game_id":440,"stv_port":27026,"stv_name":"Uncletopia | Chicago | 6 | All Maps | STV","players":null},{"server_id":38,"name":"Uncletopia | Chicago | 7 | No Payload","name_short":"chi-7","host":"chi-2.us.uncletopia.com","port":27035,"enabled":true,"region":"us-central","cc":"us","latitude":41.881832,"longitude":-87.62318,"reserved":0,"last_update":"0001-01-01T00:00:00Z","name_a2s":"Uncletopia | Chicago | 7 | No Payload","protocol":17,"map":"koth_badlands","folder":"tf","game":"Team Fortress","app_id":440,"player_count":0,"max_players":24,"Bots":0,"server_type":"Dedicated","server_os":"Linux","password":true,"vac":true,"version":"7708610","steam_id":85568392924866364,"keywords":["cp","nocrits","nodmgspread","uncletopia"],"game_id":440,"stv_port":27036,"stv_name":"Uncletopia | Chicago | 7 | No Payload | STV","players":null},{"server_id":39,"name":"Uncletopia | Chicago | 8 | Community","name_short":"chi-8","host":"chi-2.us.uncletopia.com","port":27045,"enabled":true,"region":"us-central","cc":"us","latitude":41.881832,"longitude":-87.62318,"reserved":0,"last_update":"0001-01-01T00:00:00Z","name_a2s":"Uncletopia | Chicago | 8 | Community","protocol":17,"map":"cp_dustbowl","folder":"tf","game":"Team Fortress","app_id":440,"player_count":0,"max_players":24,"Bots":0,"server_type":"Dedicated","server_os":"Linux","password":true,"vac":true,"version":"7708610","steam_id":85568392924866365,"keywords":["cp","nocrits","nodmgspread","uncletopia"],"game_id":440,"stv_port":27046,"stv_name":"Uncletopia | Chicago | 8 | Community | STV","players":null},{"server_id":8,"name":"Uncletopia | Dallas | 1 | All Maps","name_short":"dal-1","host":"dal-1.us.uncletopia.com","port":27015,"enabled":true,"region":"us-central","cc":"us","latitude":32.779167,"longitude":-96.80889,"reserved":0,"last_update":"0001-01-01T00:00:00Z","name_a2s":"Uncletopia | Dallas | 1 | All Maps","protocol":17,"map":"koth_lakeside_final","folder":"tf","game":"Team Fortress","app_id":440,"player_count":0,"max_players":24,"Bots":0,"server_type":"Dedicated","server_os":"Linux","password":true,"vac":true,"version":"7708610","steam_id":85568392924469986,"keywords":["cp","nocrits","nodmgspread","uncletopia"],"game_id":440,"stv_port":27016,"stv_name":"Uncletopia | Dallas | 1 | All Maps | STV","players":null},{"server_id":108,"name":"Uncletopia | Dallas | 2 | All Maps","name_short":"dal-2","host":"dal-1.us.uncletopia.com","port":27025,"enabled":true,"region":"us-central","cc":"us","latitude":32.779167,"longitude":-96.80889,"reserved":0,"last_update":"0001-01-01T00:00:00Z","name_a2s":"Uncletopia | Dallas | 2 | All Maps","protocol":17,"map":"koth_highpass","folder":"tf","game":"Team Fortress","app_id":440,"player_count":0,"max_players":24,"Bots":0,"server_type":"Dedicated","server_os":"Linux","password":true,"vac":true,"version":"7708610","steam_id":85568392924469988,"keywords":["cp","nocrits","nodmgspread","uncletopia"],"game_id":440,"stv_port":27026,"stv_name":"Uncletopia | Dallas | 2 | All Maps | STV","players":null},{"server_id":5,"name":"Uncletopia | Frankfurt | 1 | All Maps","name_short":"frk-1","host":"frk-1.de.uncletopia.com","port":27015,"enabled":true,"region":"eu","cc":"de","latitude":50.110924,"longitude":8.682127,"reserved":0,"last_update":"0001-01-01T00:00:00Z","name_a2s":"Uncletopia | Frankfurt | 1 | All Maps","protocol":17,"map":"koth_viaduct","folder":"tf","game":"Team Fortress","app_id":440,"player_count":25,"max_players":24,"Bots":0,"server_type":"Dedicated","server_os":"Linux","password":true,"vac":true,"version":"7708610","steam_id":85568392924469989,"keywords":["cp","nocrits","nodmgspread","uncletopia"],"game_id":440,"stv_port":27016,"stv_name":"Uncletopia | Frankfurt | 1 | All Maps | STV","players":[{"user_id":541,"name":"washed up","steam_id":76561198275742101,"connected_time":2645000000000,"state":"active","ping":52},{"user_id":570,"name":"Posture Check","steam_id":76561198053897197,"connected_time":687000000000,"state":"active","ping":59},{"user_id":539,"name":"squib","steam_id":76561198049170360,"connected_time":2675000000000,"state":"active","ping":57},{"user_id":568,"name":"big potato #savetf2","steam_id":76561199009525001,"connected_time":950000000000,"state":"active","ping":58},{"user_id":540,"name":"Jag √§r ett anka","steam_id":76561198059978438,"connected_time":2668000000000,"state":"active","ping":74},{"user_id":542,"name":"beanie_snail","steam_id":76561199111476299,"connected_time":2643000000000,"state":"active","ping":62},{"user_id":582,"name":"Alice can't hit pipes","steam_id":76561198052410860,"connected_time":109000000000,"state":"active","ping":142},{"user_id":552,"name":"Krof enjoyer","steam_id":76561199101777637,"connected_time":1563000000000,"state":"active","ping":65},{"user_id":560,"name":"Tohtori gerhard (official)","steam_id":76561198835081622,"connected_time":1227000000000,"state":"active","ping":98},{"user_id":565,"name":"Artemis","steam_id":76561198199091801,"connected_time":1195000000000,"state":"active","ping":49},{"user_id":577,"name":"where is my egg?","steam_id":76561198172542535,"connected_time":344000000000,"state":"active","ping":132},{"user_id":555,"name":"TrocheDrewno","steam_id":76561198043662503,"connected_time":1531000000000,"state":"active","ping":74},{"user_id":563,"name":"Sanctified","steam_id":76561198057092208,"connected_time":1213000000000,"state":"active","ping":64},{"user_id":578,"name":"DayRocketZero","steam_id":76561198331999006,"connected_time":338000000000,"state":"active","ping":67},{"user_id":567,"name":"xXdoge gaming 42069Xx","steam_id":76561198372971096,"connected_time":1128000000000,"state":"active","ping":83},{"user_id":575,"name":"…ò∆ö…í‚ÖÉ…ò∆ö…í‚ÖÉ /./ =)(= \\.\\","steam_id":76561198053339372,"connected_time":497000000000,"state":"active","ping":61},{"user_id":450,"name":"bind m1 \"+attack;kill\"","steam_id":76561198093290934,"connected_time":5872000000000,"state":"active","ping":56},{"user_id":580,"name":"vetzakski","steam_id":76561198988041775,"connected_time":322000000000,"state":"active","ping":82},{"user_id":584,"name":"Alegz","steam_id":76561198287810139,"connected_time":8000000000,"state":"spawning","ping":66},{"user_id":549,"name":"Taha","steam_id":76561199259524970,"connected_time":2296000000000,"state":"active","ping":96},{"user_id":579,"name":"hedonic treadmill","steam_id":76561199114742711,"connected_time":325000000000,"state":"active","ping":84},{"user_id":525,"name":"Jon","steam_id":76561198148858397,"connected_time":3917000000000,"state":"active","ping":53},{"user_id":581,"name":"Akirus","steam_id":76561198369831090,"connected_time":120000000000,"state":"connecting","ping":0},{"user_id":546,"name":"Uncle Lame","steam_id":76561198089003514,"connected_time":2581000000000,"state":"active","ping":50},{"user_id":583,"name":"xavier_xylophone_2001","steam_id":76561198076494034,"connected_time":88000000000,"state":"active","ping":59}]},{"server_id":110,"name":"Uncletopia | Frankfurt | 2 | All Maps","name_short":"frk-2","host":"frk-1.de.uncletopia.com","port":27025,"enabled":true,"region":"eu","cc":"de","latitude":50.110924,"longitude":8.682127,"reserved":0,"last_update":"0001-01-01T00:00:00Z","name_a2s":"Uncletopia | Frankfurt | 2 | All Maps","protocol":17,"map":"cp_dustbowl","folder":"tf","game":"Team Fortress","app_id":440,"player_count":22,"max_players":24,"Bots":0,"server_type":"Dedicated","server_os":"Linux","password":true,"vac":true,"version":"7708610","steam_id":85568392924469990,"keywords":["cp","nocrits","nodmgspread","uncletopia"],"game_id":440,"stv_port":27026,"stv_name":"Uncletopia | Frankfurt | 2 | All Maps | STV","players":[{"user_id":335,"name":"darkwater","steam_id":76561197986978738,"connected_time":733000000000,"state":"active","ping":58},{"user_id":354,"name":"Walter Jr","steam_id":76561199111329270,"connected_time":277000000000,"state":"active","ping":105},{"user_id":343,"name":"padillacampos","steam_id":76561198161923970,"connected_time":653000000000,"state":"active","ping":77},{"user_id":298,"name":"The Bayrisch Brezel","steam_id":76561198061912743,"connected_time":3356000000000,"state":"active","ping":55},{"user_id":337,"name":"BD[PL]","steam_id":76561198115995871,"connected_time":697000000000,"state":"active","ping":89},{"user_id":346,"name":"fmdi","steam_id":76561199433879329,"connected_time":624000000000,"state":"active","ping":74},{"user_id":284,"name":"SuntanPikachu","steam_id":76561198121242476,"connected_time":3612000000000,"state":"active","ping":58},{"user_id":336,"name":"Leibeigener","steam_id":76561199275478305,"connected_time":721000000000,"state":"active","ping":32},{"user_id":349,"name":"TrueSuffering","steam_id":76561198077939179,"connected_time":526000000000,"state":"active","ping":57},{"user_id":328,"name":"BIG LEAN MAN OF THE HOUSE","steam_id":76561198421304016,"connected_time":911000000000,"state":"active","ping":98},{"user_id":355,"name":"MAKENTAKEN","steam_id":76561199127359587,"connected_time":65000000000,"state":"active","ping":89},{"user_id":357,"name":"james","steam_id":76561198067913295,"connected_time":39000000000,"state":"active","ping":74},{"user_id":340,"name":"Harmes","steam_id":76561197982651301,"connected_time":674000000000,"state":"active","ping":87},{"user_id":358,"name":"Ducky[WADZ]üê§","steam_id":76561198060341245,"connected_time":29000000000,"state":"active","ping":59},{"user_id":319,"name":"magnus","steam_id":76561198045570936,"connected_time":1614000000000,"state":"active","ping":80},{"user_id":326,"name":"Windows Vista Cruiser","steam_id":76561198064102233,"connected_time":1096000000000,"state":"active","ping":83},{"user_id":341,"name":"bruh.","steam_id":76561198144593115,"connected_time":672000000000,"state":"active","ping":71},{"user_id":327,"name":"Sir_LewdCow","steam_id":76561198200079686,"connected_time":930000000000,"state":"active","ping":66},{"user_id":345,"name":"Irbynx","steam_id":76561197980421195,"connected_time":638000000000,"state":"active","ping":89},{"user_id":347,"name":"Myes","steam_id":76561198981990566,"connected_time":598000000000,"state":"active","ping":68},{"user_id":351,"name":"TurtleTheSlayerOfHellishBeasts","steam_id":76561199036837091,"connected_time":511000000000,"state":"active","ping":73},{"user_id":353,"name":"Klik","steam_id":76561198891046692,"connected_time":393000000000,"state":"active","ping":61}]},{"server_id":308,"name":"Uncletopia | Frankfurt | 3 | All Maps","name_short":"frk-3","host":"frk-1.de.uncletopia.com","port":27035,"enabled":true,"region":"eu","cc":"de","latitude":50.110924,"longitude":8.682127,"reserved":0,"last_update":"0001-01-01T00:00:00Z","name_a2s":"Uncletopia | Frankfurt | 3 | All Maps","protocol":17,"map":"pl_thundermountain","folder":"tf","game":"Team Fortress","app_id":440,"player_count":24,"max_players":24,"Bots":0,"server_type":"Dedicated","server_os":"Linux","password":true,"vac":true,"version":"7708610","steam_id":85568392924504274,"keywords":["nocrits","nodmgspread","payload","uncletopia"],"game_id":440,"stv_port":27036,"stv_name":"Uncletopia | Frankfurt | 3 | All Maps | STV","players":[{"user_id":187,"name":"cinny","steam_id":76561198832112629,"connected_time":3225000000000,"state":"active","ping":81},{"user_id":169,"name":"stroyo","steam_id":76561198409592046,"connected_time":3973000000000,"state":"active","ping":60},{"user_id":191,"name":"Feesh0","steam_id":76561198113128147,"connected_time":3145000000000,"state":"active","ping":65},{"user_id":218,"name":"kbbq","steam_id":76561198346638308,"connected_time":304000000000,"state":"active","ping":51},{"user_id":202,"name":"üúè Drepp","steam_id":76561197998867164,"connected_time":2172000000000,"state":"active","ping":59},{"user_id":197,"name":"Frenk2.0","steam_id":76561198974256814,"connected_time":2835000000000,"state":"active","ping":74},{"user_id":217,"name":"Deadbeef","steam_id":76561198061532124,"connected_time":311000000000,"state":"active","ping":38},{"user_id":188,"name":"anairat","steam_id":76561198863788240,"connected_time":3214000000000,"state":"active","ping":76},{"user_id":219,"name":"Pure Masse (Evil)","steam_id":76561198078912589,"connected_time":300000000000,"state":"active","ping":48},{"user_id":127,"name":"KAZAM | Tervez","steam_id":76561198045459068,"connected_time":5978000000000,"state":"active","ping":90},{"user_id":203,"name":"SirVitek","steam_id":76561198142961758,"connected_time":2153000000000,"state":"active","ping":67},{"user_id":212,"name":"Boaph","steam_id":76561198119562274,"connected_time":1123000000000,"state":"active","ping":84},{"user_id":222,"name":"Arky","steam_id":76561198096994756,"connected_time":18000000000,"state":"spawning","ping":75},{"user_id":164,"name":"Nick","steam_id":76561198036109469,"connected_time":4149000000000,"state":"active","ping":89},{"user_id":220,"name":"boo_thefeared","steam_id":76561198127967685,"connected_time":284000000000,"state":"active","ping":61},{"user_id":221,"name":"Sylbar","steam_id":76561198065379590,"connected_time":148000000000,"state":"active","ping":61},{"user_id":184,"name":"Millero15","steam_id":76561198143105719,"connected_time":3570000000000,"state":"active","ping":93},{"user_id":209,"name":"ruby (ribbit)","steam_id":76561198040870467,"connected_time":1236000000000,"state":"active","ping":62},{"user_id":196,"name":"AvocadoConstant","steam_id":76561198343031982,"connected_time":2875000000000,"state":"active","ping":76},{"user_id":178,"name":"DERBAS","steam_id":76561198217834727,"connected_time":3756000000000,"state":"active","ping":135},{"user_id":179,"name":"Mentlegen‚Ñ¢","steam_id":76561198045609310,"connected_time":3750000000000,"state":"active","ping":137},{"user_id":206,"name":"sperma gyerek","steam_id":76561198742407927,"connected_time":1788000000000,"state":"active","ping":69},{"user_id":182,"name":"76561198205267113","steam_id":76561198048250715,"connected_time":3716000000000,"state":"active","ping":48},{"user_id":186,"name":"Meh","steam_id":76561198148030229,"connected_time":3404000000000,"state":"active","ping":81}]},{"server_id":309,"name":"Uncletopia | Frankfurt | 4 | All Maps","name_short":"frk-4","host":"frk-1.de.uncletopia.com","port":27045,"enabled":true,"region":"eu","cc":"de","latitude":50.110924,"longitude":8.682127,"reserved":0,"last_update":"0001-01-01T00:00:00Z","name_a2s":"Uncletopia | Frankfurt | 4 | All Maps","protocol":17,"map":"pl_swiftwater_final1","folder":"tf","game":"Team Fortress","app_id":440,"player_count":24,"max_players":24,"Bots":0,"server_type":"Dedicated","server_os":"Linux","password":true,"vac":true,"version":"7708610","steam_id":85568392924504275,"keywords":["nocrits","nodmgspread","payload","uncletopia"],"game_id":440,"stv_port":27046,"stv_name":"Uncletopia | Frankfurt | 4 | All Maps | STV","players":[{"user_id":20,"name":"Yoshikage Kira","steam_id":76561199051752886,"connected_time":3152000000000,"state":"active","ping":48},{"user_id":62,"name":"goofy goober","steam_id":76561198013237629,"connected_time":660000000000,"state":"active","ping":96},{"user_id":22,"name":"Carry Krypl","steam_id":76561198136938121,"connected_time":2964000000000,"state":"active","ping":53},{"user_id":29,"name":"Mor'du","steam_id":76561198274105878,"connected_time":2138000000000,"state":"active","ping":76},{"user_id":26,"name":"CampMaster49","steam_id":76561198353096926,"connected_time":2287000000000,"state":"active","ping":87},{"user_id":67,"name":"pizza time","steam_id":76561199015899793,"connected_time":478000000000,"state":"active","ping":56},{"user_id":30,"name":"DSL","steam_id":76561198186770547,"connected_time":2067000000000,"state":"active","ping":92},{"user_id":65,"name":"Dommy","steam_id":76561197990864747,"connected_time":582000000000,"state":"active","ping":57},{"user_id":32,"name":"benifis163","steam_id":76561198420973492,"connected_time":1986000000000,"state":"active","ping":109},{"user_id":53,"name":"[O\u0026O]YaboiDucki","steam_id":76561198195976589,"connected_time":1296000000000,"state":"active","ping":79},{"user_id":70,"name":"HOI","steam_id":76561198061182117,"connected_time":9000000000,"state":"spawning","ping":87},{"user_id":58,"name":"yeldad","steam_id":76561198447264153,"connected_time":1080000000000,"state":"active","ping":127},{"user_id":41,"name":"Gardvord","steam_id":76561198120715753,"connected_time":1421000000000,"state":"active","ping":66},{"user_id":64,"name":"Silver","steam_id":76561198255119379,"connected_time":639000000000,"state":"active","ping":58},{"user_id":43,"name":"Cats4E","steam_id":76561198403547639,"connected_time":1406000000000,"state":"active","ping":47},{"user_id":44,"name":"Amon Gus","steam_id":76561199094540960,"connected_time":1398000000000,"state":"active","ping":61},{"user_id":61,"name":"Psychicpie","steam_id":76561198126065206,"connected_time":900000000000,"state":"active","ping":46},{"user_id":46,"name":"tendon","steam_id":76561198870764276,"connected_time":1368000000000,"state":"active","ping":75},{"user_id":47,"name":"azzy","steam_id":76561198061293740,"connected_time":1358000000000,"state":"active","ping":83},{"user_id":55,"name":"alexander","steam_id":76561198257069012,"connected_time":1255000000000,"state":"active","ping":68},{"user_id":49,"name":"Taska","steam_id":76561198807325888,"connected_time":1351000000000,"state":"active","ping":98},{"user_id":68,"name":"Karsapaali","steam_id":76561198322322739,"connected_time":189000000000,"state":"active","ping":106},{"user_id":66,"name":"Dr. Le Quack","steam_id":76561197995711176,"connected_time":543000000000,"state":"active","ping":86},{"user_id":52,"name":"guy who snores hooonk mimimi","steam_id":76561198156394435,"connected_time":1333000000000,"state":"active","ping":57}]},{"server_id":310,"name":"Uncletopia | Frankfurt | 5 | All Maps","name_short":"frk-5","host":"frk-1.de.uncletopia.com","port":27055,"enabled":true,"region":"eu","cc":"de","latitude":50.110924,"longitude":8.682127,"reserved":0,"last_update":"0001-01-01T00:00:00Z","name_a2s":"Uncletopia | Frankfurt | 5 | All Maps","protocol":17,"map":"pl_barnblitz","folder":"tf","game":"Team Fortress","app_id":440,"player_count":24,"max_players":24,"Bots":0,"server_type":"Dedicated","server_os":"Linux","password":true,"vac":true,"version":"7708610","steam_id":85568392924504277,"keywords":["nocrits","nodmgspread","payload","uncletopia"],"game_id":440,"stv_port":27056,"stv_name":"Uncletopia | Frankfurt | 5 | All Maps | STV","players":[{"user_id":261,"name":"Jimbox Sat","steam_id":76561199088912150,"connected_time":223000000000,"state":"active","ping":112},{"user_id":211,"name":"Adam Sandler","steam_id":76561198310408309,"connected_time":3957000000000,"state":"active","ping":79},{"user_id":241,"name":"lulu","steam_id":76561199147764133,"connected_time":2001000000000,"state":"active","ping":74},{"user_id":230,"name":"advanced polish lifeform","steam_id":76561198062107879,"connected_time":2774000000000,"state":"active","ping":86},{"user_id":248,"name":"Sandy","steam_id":76561198076426684,"connected_time":1729000000000,"state":"active","ping":93},{"user_id":257,"name":"cez","steam_id":76561198361380956,"connected_time":798000000000,"state":"active","ping":69},{"user_id":209,"name":"Fuktskadad","steam_id":76561198100941313,"connected_time":4246000000000,"state":"active","ping":81},{"user_id":243,"name":"Mike Doe","steam_id":76561198331251922,"connected_time":1854000000000,"state":"active","ping":74},{"user_id":258,"name":"sadhub","steam_id":76561198880883770,"connected_time":797000000000,"state":"active","ping":61},{"user_id":213,"name":"yusef","steam_id":76561198108481078,"connected_time":3894000000000,"state":"active","ping":118},{"user_id":232,"name":"lean","steam_id":76561198860332998,"connected_time":2722000000000,"state":"active","ping":76},{"user_id":264,"name":"Akirus","steam_id":76561198369831090,"connected_time":25000000000,"state":"active","ping":111},{"user_id":262,"name":"eMcP!","steam_id":76561198382509396,"connected_time":210000000000,"state":"active","ping":73},{"user_id":205,"name":"Wayart","steam_id":76561198042051613,"connected_time":4557000000000,"state":"active","ping":74},{"user_id":250,"name":"CiVillain","steam_id":76561198059617732,"connected_time":1689000000000,"state":"active","ping":63},{"user_id":260,"name":"tuukka","steam_id":76561198890409949,"connected_time":612000000000,"state":"active","ping":101},{"user_id":178,"name":"Dapper","steam_id":76561198081694974,"connected_time":5557000000000,"state":"active","ping":58},{"user_id":204,"name":"norespectforthedevil","steam_id":76561197998922218,"connected_time":4650000000000,"state":"active","ping":102},{"user_id":256,"name":"TraishiiLEL","steam_id":76561198394535445,"connected_time":836000000000,"state":"active","ping":54},{"user_id":226,"name":"instant noodles","steam_id":76561198047778351,"connected_time":3114000000000,"state":"active","ping":61},{"user_id":239,"name":"Pastoss","steam_id":76561198379098260,"connected_time":2346000000000,"state":"active","ping":44},{"user_id":234,"name":"souljawitch","steam_id":76561198161859335,"connected_time":2527000000000,"state":"active","ping":87},{"user_id":263,"name":"brtaba","steam_id":76561198796334790,"connected_time":109000000000,"state":"active","ping":56},{"user_id":259,"name":"Joe12000","steam_id":76561198160817969,"connected_time":680000000000,"state":"active","ping":62}]},{"server_id":311,"name":"Uncletopia | Frankfurt | 6 | All Maps","name_short":"frk-6","host":"frk-1.de.uncletopia.com","port":27065,"enabled":true,"region":"eu","cc":"de","latitude":50.110924,"longitude":8.682127,"reserved":0,"last_update":"0001-01-01T00:00:00Z","name_a2s":"Uncletopia | Frankfurt | 6 | All Maps","protocol":17,"map":"cp_snakewater_final1","folder":"tf","game":"Team Fortress","app_id":440,"player_count":0,"max_players":24,"Bots":0,"server_type":"Dedicated","server_os":"Linux","password":true,"vac":true,"version":"7708610","steam_id":85568392924504278,"keywords":["cp","nocrits","nodmgspread","uncletopia"],"game_id":440,"stv_port":27066,"stv_name":"Uncletopia | Frankfurt | 6 | All Maps | STV","players":null},{"server_id":23,"name":"Uncletopia | Frankfurt | 7 | No Payload","name_short":"frk-7","host":"frk-1.de.uncletopia.com","port":27075,"enabled":true,"region":"eu","cc":"de","latitude":50.110924,"longitude":8.682127,"reserved":0,"last_update":"0001-01-01T00:00:00Z","name_a2s":"Uncletopia | Frankfurt | 7 | No Payload","protocol":17,"map":"koth_viaduct","folder":"tf","game":"Team Fortress","app_id":440,"player_count":0,"max_players":24,"Bots":0,"server_type":"Dedicated","server_os":"Linux","password":true,"vac":true,"version":"7708610","steam_id":85568392924742827,"keywords":["cp","nocrits","nodmgspread","uncletopia"],"game_id":440,"stv_port":27076,"stv_name":"Uncletopia | Frankfurt | 7 | No Payload | STV","players":null},{"server_id":24,"name":"Uncletopia | Frankfurt | 8 | Community","name_short":"frk-8","host":"frk-1.de.uncletopia.com","port":27085,"enabled":true,"region":"eu","cc":"de","latitude":50.110924,"longitude":8.682127,"reserved":0,"last_update":"0001-01-01T00:00:00Z","name_a2s":"Uncletopia | Frankfurt | 8 | Community","protocol":17,"map":"workshop/cp_caldera_rc2.ugc2834196889","folder":"tf","game":"Team Fortress","app_id":440,"player_count":0,"max_players":24,"Bots":0,"server_type":"Dedicated","server_os":"Linux","password":true,"vac":true,"version":"7708610","steam_id":85568392924742828,"keywords":["cp","nocrits","nodmgspread","uncletopia"],"game_id":440,"stv_port":27086,"stv_name":"Uncletopia | Frankfurt | 8 | Community | STV","players":null},{"server_id":202,"name":"Uncletopia | Hong Kong | 1 | All Maps","name_short":"hgk-1","host":"hgk-1.hk.uncletopia.com","port":27015,"enabled":true,"region":"asia","cc":"hk","latitude":22.302711,"longitude":114.177216,"reserved":0,"last_update":"0001-01-01T00:00:00Z","name_a2s":"Uncletopia | Hong Kong | 1 | All Maps","protocol":17,"map":"koth_lakeside_final","folder":"tf","game":"Team Fortress","app_id":440,"player_count":0,"max_players":24,"Bots":0,"server_type":"Dedicated","server_os":"Linux","password":true,"vac":true,"version":"7708610","steam_id":85568392924494504,"keywords":["cp","nocrits","nodmgspread","uncletopia"],"game_id":440,"stv_port":27016,"stv_name":"Uncletopia | Hong Kong | 1 | All Maps | STV","players":null},{"server_id":1,"name":"Uncletopia | Los Angeles | 1 | All Maps","name_short":"lax-1","host":"lax-1.us.uncletopia.com","port":27015,"enabled":true,"region":"us-west","cc":"us","latitude":33.94279,"longitude":-118.41004,"reserved":0,"last_update":"0001-01-01T00:00:00Z","name_a2s":"Uncletopia | Los Angeles | 1 | All Maps","protocol":17,"map":"pl_swiftwater_final1","folder":"tf","game":"Team Fortress","app_id":440,"player_count":0,"max_players":24,"Bots":0,"server_type":"Dedicated","server_os":"Linux","password":true,"vac":true,"version":"7708610","steam_id":85568392924469991,"keywords":["nocrits","nodmgspread","payload","uncletopia"],"game_id":440,"stv_port":27016,"stv_name":"Uncletopia | Los Angeles | 1 | All Maps | STV","players":null},{"server_id":112,"name":"Uncletopia | Los Angeles | 2 | All Maps","name_short":"lax-2","host":"lax-1.us.uncletopia.com","port":27025,"enabled":true,"region":"us-west","cc":"us","latitude":33.94279,"longitude":-118.41004,"reserved":0,"last_update":"0001-01-01T00:00:00Z","name_a2s":"Uncletopia | Los Angeles | 2 | All Maps","protocol":17,"map":"pl_snowycoast","folder":"tf","game":"Team Fortress","app_id":440,"player_count":0,"max_players":24,"Bots":0,"server_type":"Dedicated","server_os":"Linux","password":true,"vac":true,"version":"7708610","steam_id":85568392924469992,"keywords":["nocrits","nodmgspread","payload","uncletopia"],"game_id":440,"stv_port":27026,"stv_name":"Uncletopia | Los Angeles | 2 | All Maps | STV","players":null},{"server_id":324,"name":"Uncletopia | Los Angeles | 3 | All Maps","name_short":"lax-3","host":"lax-1.us.uncletopia.com","port":27035,"enabled":true,"region":"us-west","cc":"us","latitude":33.94279,"longitude":-118.41004,"reserved":0,"last_update":"0001-01-01T00:00:00Z","name_a2s":"Uncletopia | Los Angeles | 3 | All Maps","protocol":17,"map":"koth_viaduct","folder":"tf","game":"Team Fortress","app_id":440,"player_count":0,"max_players":24,"Bots":0,"server_type":"Dedicated","server_os":"Linux","password":true,"vac":true,"version":"7708610","steam_id":85568392924510198,"keywords":["cp","nocrits","nodmgspread","uncletopia"],"game_id":440,"stv_port":27036,"stv_name":"Uncletopia | Los Angeles | 3 | All Maps | STV","players":null},{"server_id":25,"name":"Uncletopia | Los Angeles | 4 | No Payload","name_short":"lax-4","host":"lax-1.us.uncletopia.com","port":27045,"enabled":true,"region":"us-west","cc":"us","latitude":33.94279,"longitude":-118.41004,"reserved":0,"last_update":"0001-01-01T00:00:00Z","name_a2s":"Uncletopia | Los Angeles | 4 | No Payload","protocol":17,"map":"cp_mountainlab","folder":"tf","game":"Team Fortress","app_id":440,"player_count":0,"max_players":24,"Bots":0,"server_type":"Dedicated","server_os":"Linux","password":true,"vac":true,"version":"7708610","steam_id":85568392924510199,"keywords":["cp","nocrits","nodmgspread","uncletopia"],"game_id":440,"stv_port":27046,"stv_name":"Uncletopia | Los Angeles | 4 | No Payload | STV","players":null},{"server_id":11,"name":"Uncletopia | London | 1 | All Maps","name_short":"lon-1","host":"lon-1.uk.uncletopia.com","port":27015,"enabled":true,"region":"eu","cc":"gb","latitude":51.509865,"longitude":-0.118092,"reserved":0,"last_update":"0001-01-01T00:00:00Z","name_a2s":"Uncletopia | London | 1 | All Maps","protocol":17,"map":"pl_frontier_final","folder":"tf","game":"Team Fortress","app_id":440,"player_count":20,"max_players":24,"Bots":0,"server_type":"Dedicated","server_os":"Linux","password":true,"vac":true,"version":"7708610","steam_id":85568392924367362,"keywords":["nocrits","nodmgspread","payload","uncletopia"],"game_id":440,"stv_port":27016,"stv_name":"Uncletopia | London | 1 | All Maps | STV","players":[{"user_id":658,"name":"SpyCrab  Erik Twice","steam_id":76561198009710309,"connected_time":39000000000,"state":"active","ping":96},{"user_id":629,"name":"boat","steam_id":76561198044915818,"connected_time":1909000000000,"state":"active","ping":78},{"user_id":654,"name":"rummy","steam_id":76561197997573379,"connected_time":68000000000,"state":"active","ping":33},{"user_id":643,"name":"THEJamiboi","steam_id":76561198034696965,"connected_time":1544000000000,"state":"active","ping":55},{"user_id":650,"name":"Caesium_R4","steam_id":76561198432410602,"connected_time":112000000000,"state":"active","ping":36},{"user_id":651,"name":"yee","steam_id":76561199232322781,"connected_time":96000000000,"state":"active","ping":62},{"user_id":616,"name":"Someone","steam_id":76561199030195879,"connected_time":2360000000000,"state":"active","ping":53},{"user_id":542,"name":"Hermitcrack","steam_id":76561198149216441,"connected_time":4167000000000,"state":"active","ping":75},{"user_id":655,"name":"9TByron","steam_id":76561198086730020,"connected_time":51000000000,"state":"active","ping":33},{"user_id":536,"name":"Kahvi","steam_id":76561198723244199,"connected_time":4257000000000,"state":"active","ping":74},{"user_id":619,"name":"Chrisownage","steam_id":76561198103026982,"connected_time":2259000000000,"state":"active","ping":30},{"user_id":633,"name":"Fat Pigeon","steam_id":76561198817940142,"connected_time":1854000000000,"state":"active","ping":45},{"user_id":539,"name":"Rat head","steam_id":76561198184360615,"connected_time":4205000000000,"state":"active","ping":105},{"user_id":523,"name":"Fran","steam_id":76561199070516960,"connected_time":5477000000000,"state":"active","ping":75},{"user_id":636,"name":"jaime8D","steam_id":76561197980590671,"connected_time":1725000000000,"state":"active","ping":78},{"user_id":423,"name":"Mango","steam_id":76561198139555709,"connected_time":11754000000000,"state":"active","ping":57},{"user_id":656,"name":"Francjirachi","steam_id":76561198070339070,"connected_time":46000000000,"state":"active","ping":60},{"user_id":657,"name":"onku","steam_id":76561199230709660,"connected_time":46000000000,"state":"active","ping":70},{"user_id":645,"name":"avon (they/she)","steam_id":76561198063093802,"connected_time":321000000000,"state":"active","ping":40},{"user_id":444,"name":"–∏–≤–∞–Ω","steam_id":76561198072730591,"connected_time":10408000000000,"state":"active","ping":61}]},{"server_id":114,"name":"Uncletopia | London | 2 | All Maps","name_short":"lon-2","host":"lon-1.uk.uncletopia.com","port":27025,"enabled":true,"region":"eu","cc":"gb","latitude":51.509865,"longitude":-0.118092,"reserved":0,"last_update":"0001-01-01T00:00:00Z","name_a2s":"Uncletopia | London | 2 | All Maps","protocol":17,"map":"koth_cascade","folder":"tf","game":"Team Fortress","app_id":440,"player_count":1,"max_players":24,"Bots":0,"server_type":"Dedicated","server_os":"Linux","password":true,"vac":true,"version":"7708610","steam_id":85568392924470941,"keywords":["cp","nocrits","nodmgspread","uncletopia"],"game_id":440,"stv_port":27026,"stv_name":"Uncletopia | London | 2 | All Maps | STV","players":[{"user_id":12,"name":"mon0","steam_id":76561198924650063,"connected_time":543000000000,"state":"active","ping":48}]},{"server_id":320,"name":"Uncletopia | London | 3 | All Maps","name_short":"lon-3","host":"lon-1.uk.uncletopia.com","port":27035,"enabled":true,"region":"eu","cc":"gb","latitude":51.509865,"longitude":-0.118092,"reserved":0,"last_update":"0001-01-01T00:00:00Z","name_a2s":"Uncletopia | London | 3 | All Maps","protocol":17,"map":"pl_badwater","folder":"tf","game":"Team Fortress","app_id":440,"player_count":24,"max_players":24,"Bots":0,"server_type":"Dedicated","server_os":"Linux","password":true,"vac":true,"version":"7708610","steam_id":85568392924510192,"keywords":["nocrits","nodmgspread","payload","uncletopia"],"game_id":440,"stv_port":27036,"stv_name":"Uncletopia | London | 3 | All Maps | STV","players":[{"user_id":61,"name":"Dolcelatte","steam_id":76561198038501770,"connected_time":1243000000000,"state":"active","ping":60},{"user_id":11,"name":"justin_ (f2p)","steam_id":76561198839843428,"connected_time":5767000000000,"state":"active","ping":129},{"user_id":12,"name":"still the best 1973 #savetf2","steam_id":76561199221139822,"connected_time":5561000000000,"state":"active","ping":88},{"user_id":66,"name":"Kareem","steam_id":76561198364462049,"connected_time":653000000000,"state":"active","ping":99},{"user_id":46,"name":"jffryy","steam_id":76561198248833932,"connected_time":2405000000000,"state":"active","ping":76},{"user_id":74,"name":"„Äå‚óÜRaku‚Ä¢ „Äç","steam_id":76561198059283183,"connected_time":453000000000,"state":"active","ping":82},{"user_id":68,"name":"tngAlfie","steam_id":76561198001399616,"connected_time":567000000000,"state":"active","ping":49},{"user_id":63,"name":"LOBZIK","steam_id":76561198114830120,"connected_time":931000000000,"state":"active","ping":76},{"user_id":60,"name":"aidan","steam_id":76561198972593883,"connected_time":1284000000000,"state":"active","ping":96},{"user_id":62,"name":"3igen3ggy","steam_id":76561197989548015,"connected_time":1233000000000,"state":"active","ping":74},{"user_id":28,"name":"Dominus.","steam_id":76561199065917088,"connected_time":2891000000000,"state":"active","ping":57},{"user_id":32,"name":"Hedj","steam_id":76561198108369687,"connected_time":2715000000000,"state":"active","ping":45},{"user_id":69,"name":"PROFF","steam_id":76561198041632190,"connected_time":565000000000,"state":"active","ping":145},{"user_id":34,"name":"Wolframen","steam_id":76561198074103958,"connected_time":2610000000000,"state":"active","ping":61},{"user_id":65,"name":"hushhx","steam_id":76561198216200092,"connected_time":735000000000,"state":"active","ping":46},{"user_id":77,"name":"Sipsu","steam_id":76561198059424107,"connected_time":77000000000,"state":"active","ping":86},{"user_id":71,"name":"@rthur","steam_id":76561198010152299,"connected_time":554000000000,"state":"active","ping":49},{"user_id":57,"name":"My name is Spencer, Di Spencer","steam_id":76561198152697674,"connected_time":1573000000000,"state":"active","ping":63},{"user_id":39,"name":"bayley","steam_id":76561198117472639,"connected_time":2517000000000,"state":"active","ping":58},{"user_id":56,"name":"Wujek Cacek","steam_id":76561198010267943,"connected_time":1630000000000,"state":"active","ping":75},{"user_id":73,"name":"‚ô• Cirno ‚ô•","steam_id":76561198834982738,"connected_time":550000000000,"state":"active","ping":69},{"user_id":53,"name":"salim shahidy","steam_id":76561198416945706,"connected_time":1715000000000,"state":"active","ping":164},{"user_id":58,"name":"Furkan","steam_id":76561198175613166,"connected_time":1566000000000,"state":"active","ping":109},{"user_id":75,"name":"partizan","steam_id":76561198440837262,"connected_time":312000000000,"state":"active","ping":50}]},{"server_id":321,"name":"Uncletopia | London | 4 | All Maps","name_short":"lon-4","host":"lon-1.uk.uncletopia.com","port":27045,"enabled":true,"region":"eu","cc":"gb","latitude":51.509865,"longitude":-0.118092,"reserved":0,"last_update":"0001-01-01T00:00:00Z","name_a2s":"Uncletopia | London | 4 | All Maps","protocol":17,"map":"koth_highpass","folder":"tf","game":"Team Fortress","app_id":440,"player_count":0,"max_players":24,"Bots":0,"server_type":"Dedicated","server_os":"Linux","password":true,"vac":true,"version":"7708610","steam_id":85568392924510193,"keywords":["cp","nocrits","nodmgspread","uncletopia"],"game_id":440,"stv_port":27046,"stv_name":"Uncletopia | London | 4 | All Maps | STV","players":null},{"server_id":21,"name":"Uncletopia | London | 5 | All Maps","name_short":"lon-5","host":"lon-1.uk.uncletopia.com","port":27055,"enabled":true,"region":"eu","cc":"gb","latitude":51.509865,"longitude":-0.118092,"reserved":0,"last_update":"0001-01-01T00:00:00Z","name_a2s":"Uncletopia | London | 5 | All Maps","protocol":17,"map":"pl_pier","folder":"tf","game":"Team Fortress","app_id":440,"player_count":24,"max_players":24,"Bots":0,"server_type":"Dedicated","server_os":"Linux","password":true,"vac":true,"version":"7708610","steam_id":85568392924742829,"keywords":["nocrits","nodmgspread","payload","uncletopia"],"game_id":440,"stv_port":27056,"stv_name":"Uncletopia | London | 5 | All Maps | STV","players":[{"user_id":119,"name":"Saken","steam_id":76561198049075295,"connected_time":3837000000000,"state":"active","ping":59},{"user_id":153,"name":"Kqyt","steam_id":76561198044885742,"connected_time":1869000000000,"state":"active","ping":63},{"user_id":143,"name":"KeNNy L.O.L","steam_id":76561198041918418,"connected_time":2451000000000,"state":"active","ping":91},{"user_id":117,"name":"cropping","steam_id":76561198026586456,"connected_time":3850000000000,"state":"active","ping":59},{"user_id":168,"name":"Avitz","steam_id":76561197986150359,"connected_time":980000000000,"state":"active","ping":79},{"user_id":118,"name":"lark","steam_id":76561198091724522,"connected_time":3849000000000,"state":"active","ping":60},{"user_id":169,"name":"Blob","steam_id":76561197971418993,"connected_time":843000000000,"state":"active","ping":92},{"user_id":175,"name":"Kanny","steam_id":76561198058810184,"connected_time":263000000000,"state":"active","ping":55},{"user_id":179,"name":"Bell","steam_id":76561199413517335,"connected_time":79000000000,"state":"active","ping":135},{"user_id":178,"name":"dudithebudi","steam_id":76561199112076461,"connected_time":122000000000,"state":"active","ping":48},{"user_id":167,"name":"Linus Mudrocket","steam_id":76561197979606110,"connected_time":991000000000,"state":"active","ping":46},{"user_id":172,"name":"Crimea a bridge","steam_id":76561198030898371,"connected_time":453000000000,"state":"active","ping":85},{"user_id":142,"name":"coachnetworkoperared514","steam_id":76561198236015392,"connected_time":2496000000000,"state":"active","ping":123},{"user_id":145,"name":"Scob","steam_id":76561199130861607,"connected_time":2395000000000,"state":"active","ping":49},{"user_id":165,"name":"Kotlet schabowy","steam_id":76561198048983509,"connected_time":1023000000000,"state":"active","ping":88},{"user_id":137,"name":"Mycka","steam_id":76561198039806469,"connected_time":3176000000000,"state":"active","ping":77},{"user_id":157,"name":"Bonca","steam_id":76561198137503531,"connected_time":1498000000000,"state":"active","ping":78},{"user_id":170,"name":"How do i jump?","steam_id":76561198091734693,"connected_time":742000000000,"state":"active","ping":69},{"user_id":154,"name":"EnchantedCoffee","steam_id":76561198371221467,"connected_time":1655000000000,"state":"active","ping":43},{"user_id":171,"name":"Bombad General Ged","steam_id":76561198079288943,"connected_time":528000000000,"state":"active","ping":127},{"user_id":148,"name":"Hkitchen","steam_id":76561198194779526,"connected_time":2165000000000,"state":"active","ping":37},{"user_id":166,"name":"Brinier","steam_id":76561199012604288,"connected_time":1022000000000,"state":"active","ping":72},{"user_id":141,"name":"your dads bald spot","steam_id":76561199383437138,"connected_time":2817000000000,"state":"active","ping":124},{"user_id":176,"name":"walrusmash","steam_id":76561198117955845,"connected_time":245000000000,"state":"active","ping":136}]},{"server_id":22,"name":"Uncletopia | London | 6 | All Maps","name_short":"lon-6","host":"lon-1.uk.uncletopia.com","port":27065,"enabled":true,"region":"eu","cc":"gb","latitude":51.509865,"longitude":-0.118092,"reserved":0,"last_update":"0001-01-01T00:00:00Z","name_a2s":"Uncletopia | London | 6 | All Maps","protocol":17,"map":"pl_frontier_final","folder":"tf","game":"Team Fortress","app_id":440,"player_count":0,"max_players":24,"Bots":0,"server_type":"Dedicated","server_os":"Linux","password":true,"vac":true,"version":"7708610","steam_id":85568392924742830,"keywords":["nocrits","nodmgspread","payload","uncletopia"],"game_id":440,"stv_port":27066,"stv_name":"Uncletopia | London | 6 | All Maps | STV","players":null},{"server_id":40,"name":"Uncletopia | London | 7 | No Payload","name_short":"lon-7","host":"lon-1.uk.uncletopia.com","port":27075,"enabled":true,"region":"eu","cc":"gb","latitude":51.509865,"longitude":-0.118092,"reserved":0,"last_update":"0001-01-01T00:00:00Z","name_a2s":"Uncletopia | London | 7 | No Payload","protocol":17,"map":"cp_coldfront","folder":"tf","game":"Team Fortress","app_id":440,"player_count":0,"max_players":24,"Bots":0,"server_type":"Dedicated","server_os":"Linux","password":true,"vac":true,"version":"7708610","steam_id":85568392924964314,"keywords":["cp","nocrits","nodmgspread","uncletopia"],"game_id":440,"stv_port":27076,"stv_name":"Uncletopia | London | 7 | No Payload | STV","players":null},{"server_id":41,"name":"Uncletopia | London | 8 | Community","name_short":"lon-8","host":"lon-1.uk.uncletopia.com","port":27085,"enabled":true,"region":"eu","cc":"gb","latitude":51.509865,"longitude":-0.118092,"reserved":0,"last_update":"0001-01-01T00:00:00Z","name_a2s":"Uncletopia | London | 8 | Community","protocol":17,"map":"workshop/cp_sulfur_rc2.ugc619869471","folder":"tf","game":"Team Fortress","app_id":440,"player_count":0,"max_players":24,"Bots":0,"server_type":"Dedicated","server_os":"Linux","password":true,"vac":true,"version":"7708610","steam_id":85568392924964315,"keywords":["cp","nocrits","nodmgspread","uncletopia"],"game_id":440,"stv_port":27086,"stv_name":"Uncletopia | London | 8 | Community | STV","players":null},{"server_id":300,"name":"Uncletopia | Montr√©al | 1 | All Maps","name_short":"mtl-1","host":"mtl-1.ca.uncletopia.com","port":27015,"enabled":true,"region":"us-east","cc":"ca","latitude":45.50889,"longitude":-73.56167,"reserved":0,"last_update":"0001-01-01T00:00:00Z","name_a2s":"Uncletopia | Montr√©al | 1 | All Maps","protocol":17,"map":"pl_borneo","folder":"tf","game":"Team Fortress","app_id":440,"player_count":0,"max_players":24,"Bots":0,"server_type":"Dedicated","server_os":"Linux","password":true,"vac":true,"version":"7708610","steam_id":85568392924500087,"keywords":["nocrits","nodmgspread","payload","uncletopia"],"game_id":440,"stv_port":27016,"stv_name":"Uncletopia | Montr√©al | 1 | All Maps | STV","players":null},{"server_id":301,"name":"Uncletopia | Montr√©al | 2 | All Maps","name_short":"mtl-2","host":"mtl-1.ca.uncletopia.com","port":27025,"enabled":true,"region":"us-east","cc":"ca","latitude":45.50889,"longitude":-73.56167,"reserved":0,"last_update":"0001-01-01T00:00:00Z","name_a2s":"Uncletopia | Montr√©al | 2 | All Maps","protocol":17,"map":"pl_borneo","folder":"tf","game":"Team Fortress","app_id":440,"player_count":0,"max_players":24,"Bots":0,"server_type":"Dedicated","server_os":"Linux","password":true,"vac":true,"version":"7708610","steam_id":85568392924500088,"keywords":["nocrits","nodmgspread","payload","uncletopia"],"game_id":440,"stv_port":27026,"stv_name":"Uncletopia | Montr√©al | 2 | All Maps | STV","players":null},{"server_id":302,"name":"Uncletopia | Montr√©al | 3 | All Maps","name_short":"mtl-3","host":"mtl-1.ca.uncletopia.com","port":27035,"enabled":true,"region":"us-east","cc":"ca","latitude":45.50889,"longitude":-73.56167,"reserved":0,"last_update":"0001-01-01T00:00:00Z","name_a2s":"Uncletopia | Montr√©al | 3 | All Maps","protocol":17,"map":"cp_snakewater_final1","folder":"tf","game":"Team Fortress","app_id":440,"player_count":0,"max_players":24,"Bots":0,"server_type":"Dedicated","server_os":"Linux","password":true,"vac":true,"version":"7708610","steam_id":85568392924500089,"keywords":["cp","nocrits","nodmgspread","uncletopia"],"game_id":440,"stv_port":27036,"stv_name":"Uncletopia | Montr√©al | 3 | All Maps | STV","players":null},{"server_id":303,"name":"Uncletopia | Montr√©al | 4 | No Payload","name_short":"mtl-4","host":"mtl-1.ca.uncletopia.com","port":27045,"enabled":true,"region":"us-east","cc":"ca","latitude":45.50889,"longitude":-73.56167,"reserved":0,"last_update":"0001-01-01T00:00:00Z","name_a2s":"Uncletopia | Montr√©al | 4 | No Payload","protocol":17,"map":"cp_gorge","folder":"tf","game":"Team Fortress","app_id":440,"player_count":0,"max_players":24,"Bots":0,"server_type":"Dedicated","server_os":"Linux","password":true,"vac":true,"version":"7708610","steam_id":85568392924500090,"keywords":["cp","nocrits","nodmgspread","uncletopia"],"game_id":440,"stv_port":27046,"stv_name":"Uncletopia | Montr√©al | 4 | No Payload | STV","players":null},{"server_id":13,"name":"Uncletopia | New York City | 1 | All Maps","name_short":"nyc-1","host":"nyc-1.us.uncletopia.com","port":27015,"enabled":true,"region":"us-east","cc":"us","latitude":40.73061,"longitude":-73.93524,"reserved":0,"last_update":"0001-01-01T00:00:00Z","name_a2s":"Uncletopia | New York City | 1 | All Maps","protocol":17,"map":"pl_swiftwater_final1","folder":"tf","game":"Team Fortress","app_id":440,"player_count":0,"max_players":24,"Bots":0,"server_type":"Dedicated","server_os":"Linux","password":true,"vac":true,"version":"7708610","steam_id":85568392924469993,"keywords":["nocrits","nodmgspread","payload","uncletopia"],"game_id":440,"stv_port":27016,"stv_name":"Uncletopia | New York City | 1 | All Maps | STV","players":null},{"server_id":14,"name":"Uncletopia | New York City | 2 | All Maps","name_short":"nyc-2","host":"nyc-1.us.uncletopia.com","port":27025,"enabled":true,"region":"us-east","cc":"us","latitude":40.73061,"longitude":-73.93524,"reserved":0,"last_update":"0001-01-01T00:00:00Z","name_a2s":"Uncletopia | New York City | 2 | All Maps","protocol":17,"map":"cp_altitude","folder":"tf","game":"Team Fortress","app_id":440,"player_count":0,"max_players":24,"Bots":0,"server_type":"Dedicated","server_os":"Linux","password":true,"vac":true,"version":"7708610","steam_id":85568392924469994,"keywords":["cp","nocrits","nodmgspread","uncletopia"],"game_id":440,"stv_port":27026,"stv_name":"Uncletopia | New York City | 2 | All Maps | STV","players":null},{"server_id":15,"name":"Uncletopia | New York City | 3 | All Maps","name_short":"nyc-3","host":"nyc-1.us.uncletopia.com","port":27035,"enabled":true,"region":"us-east","cc":"us","latitude":40.73061,"longitude":-73.93524,"reserved":0,"last_update":"0001-01-01T00:00:00Z","name_a2s":"Uncletopia | New York City | 3 | All Maps","protocol":17,"map":"koth_cascade","folder":"tf","game":"Team Fortress","app_id":440,"player_count":0,"max_players":24,"Bots":0,"server_type":"Dedicated","server_os":"Linux","password":true,"vac":true,"version":"7708610","steam_id":85568392924742820,"keywords":["cp","nocrits","nodmgspread","uncletopia"],"game_id":440,"stv_port":27036,"stv_name":"Uncletopia | New York City | 3 | All Maps | STV","players":null},{"server_id":16,"name":"Uncletopia | New York City | 4 | Community","name_short":"nyc-4","host":"nyc-1.us.uncletopia.com","port":27045,"enabled":true,"region":"us-east","cc":"us","latitude":40.73061,"longitude":-73.93524,"reserved":0,"last_update":"0001-01-01T00:00:00Z","name_a2s":"Uncletopia | New York City | 4 | Community","protocol":17,"map":"workshop/rd_asteroid_redux_rc9.ugc2154902912","folder":"tf","game":"Team Fortress","app_id":440,"player_count":0,"max_players":24,"Bots":0,"server_type":"Dedicated","server_os":"Linux","password":true,"vac":true,"version":"7708610","steam_id":85568392924742821,"keywords":["beta","nocrits","nodmgspread","rd","uncletopia"],"game_id":440,"stv_port":27046,"stv_name":"Uncletopia | New York City | 4 | Community | STV","players":null},{"server_id":142,"name":"Uncletopia | S√£o Paulo | 1 | All Maps","name_short":"sao-1","host":"sao-1.br.uncletopia.com","port":27015,"enabled":true,"region":"sa","cc":"br","latitude":-23.533773,"longitude":-46.62529,"reserved":0,"last_update":"0001-01-01T00:00:00Z","name_a2s":"Uncletopia | S√£o Paulo | 1 | All Maps","protocol":17,"map":"koth_cascade","folder":"tf","game":"Team Fortress","app_id":440,"player_count":0,"max_players":24,"Bots":0,"server_type":"Dedicated","server_os":"Linux","password":true,"vac":true,"version":"7708610","steam_id":85568392924469996,"keywords":["cp","nocrits","nodmgspread","uncletopia"],"game_id":440,"stv_port":27016,"stv_name":"Uncletopia | S√£o Paulo | 1 | All Maps | STV","players":null},{"server_id":143,"name":"Uncletopia | S√£o Paulo | 2 | All Maps","name_short":"sao-2","host":"sao-2.br.uncletopia.com","port":27015,"enabled":true,"region":"sa","cc":"br","latitude":-23.533773,"longitude":-46.62529,"reserved":0,"last_update":"0001-01-01T00:00:00Z","name_a2s":"Uncletopia | S√£o Paulo | 2 | All Maps","protocol":17,"map":"koth_viaduct","folder":"tf","game":"Team Fortress","app_id":440,"player_count":0,"max_players":24,"Bots":0,"server_type":"Dedicated","server_os":"Linux","password":true,"vac":true,"version":"7708610","steam_id":85568392924485349,"keywords":["cp","nocrits","nodmgspread","uncletopia"],"game_id":440,"stv_port":27016,"stv_name":"Uncletopia | S√£o Paulo | 2 | All Maps | STV","players":null},{"server_id":7,"name":"Uncletopia | Seattle | 1 | All Maps","name_short":"sea-1","host":"sea-1.us.uncletopia.com","port":27015,"enabled":true,"region":"us-west","cc":"us","latitude":47.608013,"longitude":-122.33517,"reserved":0,"last_update":"0001-01-01T00:00:00Z","name_a2s":"Uncletopia | Seattle | 1 | All Maps","protocol":17,"map":"pl_pier","folder":"tf","game":"Team Fortress","app_id":440,"player_count":23,"max_players":24,"Bots":0,"server_type":"Dedicated","server_os":"Linux","password":true,"vac":true,"version":"7708610","steam_id":85568392924469997,"keywords":["nocrits","nodmgspread","payload","uncletopia"],"game_id":440,"stv_port":27016,"stv_name":"Uncletopia | Seattle | 1 | All Maps | STV","players":[{"user_id":132,"name":"Grassman (Cc)","steam_id":76561198026488532,"connected_time":3517000000000,"state":"active","ping":63},{"user_id":88,"name":"Scorpie Doodle","steam_id":76561198021845763,"connected_time":5869000000000,"state":"active","ping":99},{"user_id":142,"name":"Winton Overwat","steam_id":76561199046789832,"connected_time":1936000000000,"state":"active","ping":75},{"user_id":47,"name":"Gachalover","steam_id":76561199231552074,"connected_time":8488000000000,"state":"active","ping":108},{"user_id":162,"name":"Honeybunch","steam_id":76561198014850580,"connected_time":75000000000,"state":"active","ping":35},{"user_id":158,"name":"BOTBOT","steam_id":76561198271928618,"connected_time":83000000000,"state":"active","ping":134},{"user_id":140,"name":"marrimae","steam_id":76561198077579990,"connected_time":2401000000000,"state":"active","ping":129},{"user_id":157,"name":"Shark Sandwich","steam_id":76561198025007938,"connected_time":85000000000,"state":"active","ping":85},{"user_id":131,"name":"cheddabob","steam_id":76561198993259948,"connected_time":3591000000000,"state":"active","ping":49},{"user_id":145,"name":"Chimpish","steam_id":76561199263493270,"connected_time":1798000000000,"state":"active","ping":131},{"user_id":146,"name":"HobHob","steam_id":76561198145646314,"connected_time":1792000000000,"state":"active","ping":127},{"user_id":164,"name":"Dr.Bobert","steam_id":76561198072186001,"connected_time":37000000000,"state":"active","ping":74},{"user_id":160,"name":"primordialheath","steam_id":76561199386942638,"connected_time":77000000000,"state":"active","ping":111},{"user_id":161,"name":"D34dR4bbit","steam_id":76561198167411455,"connected_time":77000000000,"state":"active","ping":51},{"user_id":156,"name":"SirJellyRolls","steam_id":76561198119277244,"connected_time":88000000000,"state":"active","ping":52},{"user_id":154,"name":"LIN‚ô°","steam_id":76561199411560141,"connected_time":1123000000000,"state":"active","ping":44},{"user_id":149,"name":"Spy on cart","steam_id":76561198025466913,"connected_time":1654000000000,"state":"active","ping":66},{"user_id":150,"name":"Mr.Pan","steam_id":76561198069030613,"connected_time":1597000000000,"state":"active","ping":78},{"user_id":155,"name":"Zobozo","steam_id":76561198028954297,"connected_time":842000000000,"state":"active","ping":73},{"user_id":129,"name":"Norman Friend","steam_id":76561199121320640,"connected_time":3748000000000,"state":"active","ping":122},{"user_id":126,"name":"Brandino!","steam_id":76561198000446932,"connected_time":3837000000000,"state":"active","ping":122},{"user_id":163,"name":"TheGrassMan (He/Him)","steam_id":76561198118984048,"connected_time":57000000000,"state":"active","ping":98},{"user_id":165,"name":"Venomous Pastry","steam_id":76561198038999341,"connected_time":36000000000,"state":"active","ping":69}]},{"server_id":119,"name":"Uncletopia | Seattle | 2 | All Maps","name_short":"sea-2","host":"sea-1.us.uncletopia.com","port":27025,"enabled":true,"region":"us-west","cc":"us","latitude":47.608013,"longitude":-122.33517,"reserved":0,"last_update":"0001-01-01T00:00:00Z","name_a2s":"Uncletopia | Seattle | 2 | All Maps","protocol":17,"map":"pl_pier","folder":"tf","game":"Team Fortress","app_id":440,"player_count":0,"max_players":24,"Bots":0,"server_type":"Dedicated","server_os":"Linux","password":true,"vac":true,"version":"7708610","steam_id":85568392924469998,"keywords":["nocrits","nodmgspread","payload","uncletopia"],"game_id":440,"stv_port":27026,"stv_name":"Uncletopia | Seattle | 2 | All Maps | STV","players":null},{"server_id":17,"name":"Uncletopia | San Francisco | 1 | All Maps","name_short":"sfo-1","host":"sfo-1.us.uncletopia.com","port":27015,"enabled":true,"region":"us-west","cc":"us","latitude":37.77397,"longitude":-122.4313,"reserved":0,"last_update":"0001-01-01T00:00:00Z","name_a2s":"Uncletopia | San Francisco | 1 | All Maps","protocol":17,"map":"pl_barnblitz","folder":"tf","game":"Team Fortress","app_id":440,"player_count":0,"max_players":24,"Bots":0,"server_type":"Dedicated","server_os":"Linux","password":true,"vac":true,"version":"7708610","steam_id":85568392924469999,"keywords":["nocrits","nodmgspread","payload","uncletopia"],"game_id":440,"stv_port":27016,"stv_name":"Uncletopia | San Francisco | 1 | All Maps | STV","players":null},{"server_id":18,"name":"Uncletopia | San Francisco | 2 | All Maps","name_short":"sfo-2","host":"sfo-1.us.uncletopia.com","port":27025,"enabled":true,"region":"us-west","cc":"us","latitude":37.77397,"longitude":-122.4313,"reserved":0,"last_update":"0001-01-01T00:00:00Z","name_a2s":"Uncletopia | San Francisco | 2 | All Maps","protocol":17,"map":"pl_upward","folder":"tf","game":"Team Fortress","app_id":440,"player_count":0,"max_players":24,"Bots":0,"server_type":"Dedicated","server_os":"Linux","password":true,"vac":true,"version":"7708610","steam_id":85568392924470000,"keywords":["nocrits","nodmgspread","payload","uncletopia"],"game_id":440,"stv_port":27026,"stv_name":"Uncletopia | San Francisco | 2 | All Maps | STV","players":null},{"server_id":19,"name":"Uncletopia | San Francisco | 3 | No Payload","name_short":"sfo-3","host":"sfo-1.us.uncletopia.com","port":27035,"enabled":true,"region":"us-west","cc":"us","latitude":37.77397,"longitude":-122.4313,"reserved":0,"last_update":"0001-01-01T00:00:00Z","name_a2s":"Uncletopia | San Francisco | 3 | No Payload","protocol":17,"map":"pl_borneo","folder":"tf","game":"Team Fortress","app_id":440,"player_count":0,"max_players":24,"Bots":0,"server_type":"Dedicated","server_os":"Linux","password":true,"vac":true,"version":"7708610","steam_id":85568392924742824,"keywords":["nocrits","nodmgspread","payload","uncletopia"],"game_id":440,"stv_port":27036,"stv_name":"Uncletopia | San Francisco | 3 | No Payload | STV","players":null},{"server_id":20,"name":"Uncletopia | San Francisco | 4 | Community","name_short":"sfo-4","host":"sfo-1.us.uncletopia.com","port":27045,"enabled":true,"region":"us-west","cc":"us","latitude":37.77397,"longitude":-122.4313,"reserved":0,"last_update":"0001-01-01T00:00:00Z","name_a2s":"Uncletopia | San Francisco | 4 | Community","protocol":17,"map":"pl_frontier_final","folder":"tf","game":"Team Fortress","app_id":440,"player_count":0,"max_players":24,"Bots":0,"server_type":"Dedicated","server_os":"Linux","password":true,"vac":true,"version":"7708610","steam_id":85568392924742826,"keywords":["nocrits","nodmgspread","payload","uncletopia"],"game_id":440,"stv_port":27046,"stv_name":"Uncletopia | San Francisco | 4 | Community | STV","players":null},{"server_id":141,"name":"Uncletopia | Sydney | 1 | All Maps","name_short":"syd-1","host":"syd-1.au.uncletopia.com","port":27015,"enabled":true,"region":"au","cc":"au","latitude":-33.865143,"longitude":151.2099,"reserved":0,"last_update":"0001-01-01T00:00:00Z","name_a2s":"Uncletopia | Sydney | 1 | All Maps","protocol":17,"map":"koth_lakeside_final","folder":"tf","game":"Team Fortress","app_id":440,"player_count":0,"max_players":24,"Bots":0,"server_type":"Dedicated","server_os":"Linux","password":true,"vac":true,"version":"7708610","steam_id":85568392924470001,"keywords":["cp","nocrits","nodmgspread","uncletopia"],"game_id":440,"stv_port":27016,"stv_name":"Uncletopia | Sydney | 1 | All Maps | STV","players":null},{"server_id":123,"name":"Uncletopia | Sydney | 2 | All Maps","name_short":"syd-2","host":"syd-1.au.uncletopia.com","port":27025,"enabled":true,"region":"au","cc":"au","latitude":-33.865143,"longitude":151.2099,"reserved":0,"last_update":"0001-01-01T00:00:00Z","name_a2s":"Uncletopia | Sydney | 2 | All Maps","protocol":17,"map":"koth_highpass","folder":"tf","game":"Team Fortress","app_id":440,"player_count":0,"max_players":24,"Bots":0,"server_type":"Dedicated","server_os":"Linux","password":true,"vac":true,"version":"7708610","steam_id":85568392924470002,"keywords":["cp","nocrits","nodmgspread","uncletopia"],"game_id":440,"stv_port":27026,"stv_name":"Uncletopia | Sydney | 2 | All Maps | STV","players":null},{"server_id":395,"name":"Uncletopia | Sydney | 3 | All Maps","name_short":"syd-3","host":"syd-1.au.uncletopia.com","port":27035,"enabled":true,"region":"au","cc":"au","latitude":-33.865143,"longitude":151.2099,"reserved":0,"last_update":"0001-01-01T00:00:00Z","name_a2s":"Uncletopia | Sydney | 3 | All Maps","protocol":17,"map":"koth_highpass","folder":"tf","game":"Team Fortress","app_id":440,"player_count":0,"max_players":24,"Bots":0,"server_type":"Dedicated","server_os":"Linux","password":true,"vac":true,"version":"7708610","steam_id":85568392925194467,"keywords":["cp","nocrits","nodmgspread","uncletopia"],"game_id":440,"stv_port":27036,"stv_name":"Uncletopia | Sydney | 3 | All Maps | STV","players":null},{"server_id":396,"name":"Uncletopia | Sydney | 4 | All Maps","name_short":"syd-4","host":"syd-1.au.uncletopia.com","port":27045,"enabled":true,"region":"au","cc":"au","latitude":-33.865143,"longitude":151.2099,"reserved":0,"last_update":"0001-01-01T00:00:00Z","name_a2s":"Uncletopia | Sydney | 4 | All Maps","protocol":17,"map":"cp_altitude","folder":"tf","game":"Team Fortress","app_id":440,"player_count":0,"max_players":24,"Bots":0,"server_type":"Dedicated","server_os":"Linux","password":true,"vac":true,"version":"7708610","steam_id":85568392925397958,"keywords":["cp","nocrits","nodmgspread","uncletopia"],"game_id":440,"stv_port":27046,"stv_name":"Uncletopia | Sydney | 4 | All Maps | STV","players":null},{"server_id":58,"name":"Uncletopia | Sydney | 5 | No Payload","name_short":"syd-5","host":"syd-1.au.uncletopia.com","port":27055,"enabled":true,"region":"au","cc":"au","latitude":-33.865143,"longitude":151.2099,"reserved":0,"last_update":"0001-01-01T00:00:00Z","name_a2s":"Uncletopia | Sydney | 5 | No Payload","protocol":17,"map":"cp_snakewater_final1","folder":"tf","game":"Team Fortress","app_id":440,"player_count":0,"max_players":24,"Bots":0,"server_type":"Dedicated","server_os":"Linux","password":true,"vac":true,"version":"7708610","steam_id":85568392925397959,"keywords":["cp","nocrits","nodmgspread","uncletopia"],"game_id":440,"stv_port":27056,"stv_name":"Uncletopia | Sydney | 5 | No Payload | STV","players":null},{"server_id":59,"name":"Uncletopia | Sydney | 6 | Community","name_short":"syd-6","host":"syd-1.au.uncletopia.com","port":27065,"enabled":true,"region":"au","cc":"au","latitude":-33.865143,"longitude":151.2099,"reserved":0,"last_update":"0001-01-01T00:00:00Z","name_a2s":"Uncletopia | Sydney | 6 | Community","protocol":17,"map":"workshop/koth_ramjam_v2_b2.ugc2865676487","folder":"tf","game":"Team Fortress","app_id":440,"player_count":0,"max_players":24,"Bots":0,"server_type":"Dedicated","server_os":"Linux","password":true,"vac":true,"version":"7708610","steam_id":85568392925397960,"keywords":["cp","nocrits","nodmgspread","uncletopia"],"game_id":440,"stv_port":27066,"stv_name":"Uncletopia | Sydney | 6 | Community | STV","players":null},{"server_id":49,"name":"Uncletopia | Warsaw | 1 | All Maps","name_short":"waw-1","host":"waw-1.pl.uncletopia.com","port":27015,"enabled":true,"region":"eu","cc":"pl","latitude":52.2297,"longitude":21.017532,"reserved":0,"last_update":"0001-01-01T00:00:00Z","name_a2s":"Uncletopia | Warsaw | 1 | All Maps","protocol":17,"map":"koth_cascade","folder":"tf","game":"Team Fortress","app_id":440,"player_count":0,"max_players":24,"Bots":0,"server_type":"Dedicated","server_os":"Linux","password":true,"vac":true,"version":"7708610","steam_id":85568392925397850,"keywords":["cp","nocrits","nodmgspread","uncletopia"],"game_id":440,"stv_port":27016,"stv_name":"Uncletopia | Warsaw | 1 | All Maps | STV","players":null},{"server_id":50,"name":"Uncletopia | Warsaw | 2 | All Maps","name_short":"waw-2","host":"waw-1.pl.uncletopia.com","port":27025,"enabled":true,"region":"eu","cc":"pl","latitude":52.2297,"longitude":21.017532,"reserved":0,"last_update":"0001-01-01T00:00:00Z","name_a2s":"Uncletopia | Warsaw | 2 | All Maps","protocol":17,"map":"cp_gullywash_final1","folder":"tf","game":"Team Fortress","app_id":440,"player_count":18,"max_players":24,"Bots":0,"server_type":"Dedicated","server_os":"Linux","password":true,"vac":true,"version":"7708610","steam_id":85568392925397851,"keywords":["cp","nocrits","nodmgspread","uncletopia"],"game_id":440,"stv_port":27026,"stv_name":"Uncletopia | Warsaw | 2 | All Maps | STV","players":[{"user_id":31,"name":"atagoncali","steam_id":76561198935505984,"connected_time":2120000000000,"state":"active","ping":98},{"user_id":67,"name":"Haggabah,WhoPliesTheUmbralPath","steam_id":76561198846984399,"connected_time":335000000000,"state":"active","ping":103},{"user_id":68,"name":"sesw","steam_id":76561198057332404,"connected_time":272000000000,"state":"active","ping":86},{"user_id":56,"name":"Duda","steam_id":76561198306177608,"connected_time":953000000000,"state":"active","ping":49},{"user_id":33,"name":"Rob Rotten","steam_id":76561198170543542,"connected_time":2022000000000,"state":"active","ping":119},{"user_id":70,"name":"Spyeter","steam_id":76561198201688495,"connected_time":151000000000,"state":"active","ping":87},{"user_id":66,"name":"Car Gear","steam_id":76561199183213205,"connected_time":344000000000,"state":"active","ping":100},{"user_id":16,"name":"CarbonPan","steam_id":76561198072169983,"connected_time":4432000000000,"state":"active","ping":110},{"user_id":23,"name":"cheveuxbrillantenneig√©39800","steam_id":76561198084056439,"connected_time":3058000000000,"state":"active","ping":84},{"user_id":60,"name":"Stargaming1 [G.E.W.P]","steam_id":76561198253167070,"connected_time":493000000000,"state":"active","ping":77},{"user_id":63,"name":"Jruhh","steam_id":76561198842477772,"connected_time":456000000000,"state":"active","ping":48},{"user_id":35,"name":"Iphy","steam_id":76561198137519489,"connected_time":1986000000000,"state":"active","ping":122},{"user_id":36,"name":"MasterNaglis","steam_id":76561198348834177,"connected_time":1984000000000,"state":"active","ping":82},{"user_id":37,"name":"Borko","steam_id":76561199097266352,"connected_time":1982000000000,"state":"active","ping":90},{"user_id":38,"name":"daddy do right","steam_id":76561198231916584,"connected_time":1979000000000,"state":"active","ping":53},{"user_id":69,"name":"Sverhrazym","steam_id":76561198868708664,"connected_time":257000000000,"state":"active","ping":90},{"user_id":42,"name":"Cranjis McBasketball","steam_id":76561198051290193,"connected_time":1802000000000,"state":"active","ping":75},{"user_id":59,"name":"glyph","steam_id":76561197980736364,"connected_time":701000000000,"state":"active","ping":95}]},{"server_id":51,"name":"Uncletopia | Warsaw | 3 | All Maps","name_short":"waw-3","host":"waw-1.pl.uncletopia.com","port":27035,"enabled":true,"region":"eu","cc":"pl","latitude":52.2297,"longitude":21.017532,"reserved":0,"last_update":"0001-01-01T00:00:00Z","name_a2s":"Uncletopia | Warsaw | 3 | All Maps","protocol":17,"map":"cp_mountainlab","folder":"tf","game":"Team Fortress","app_id":440,"player_count":2,"max_players":24,"Bots":0,"server_type":"Dedicated","server_os":"Linux","password":true,"vac":true,"version":"7708610","steam_id":85568392925397852,"keywords":["cp","nocrits","nodmgspread","uncletopia"],"game_id":440,"stv_port":27036,"stv_name":"Uncletopia | Warsaw | 3 | All Maps | STV","players":[{"user_id":9,"name":"–≥–∏—Ä–æ—Ç—Ç–∞ –∑–∞–æ","steam_id":76561198411852126,"connected_time":1010000000000,"state":"active","ping":101},{"user_id":10,"name":"tortoise","steam_id":76561198295287457,"connected_time":887000000000,"state":"active","ping":103}]},{"server_id":52,"name":"Uncletopia | Warsaw | 4 | All Maps","name_short":"waw-4","host":"waw-1.pl.uncletopia.com","port":27045,"enabled":true,"region":"eu","cc":"pl","latitude":52.2297,"longitude":21.017532,"reserved":0,"last_update":"0001-01-01T00:00:00Z","name_a2s":"Uncletopia | Warsaw | 4 | All Maps","protocol":17,"map":"pl_pier","folder":"tf","game":"Team Fortress","app_id":440,"player_count":0,"max_players":24,"Bots":0,"server_type":"Dedicated","server_os":"Linux","password":true,"vac":true,"version":"7708610","steam_id":85568392925397853,"keywords":["nocrits","nodmgspread","payload","uncletopia"],"game_id":440,"stv_port":27046,"stv_name":"Uncletopia | Warsaw | 4 | All Maps | STV","players":null},{"server_id":53,"name":"Uncletopia | Warsaw | 5 | No Payload","name_short":"waw-5","host":"waw-1.pl.uncletopia.com","port":27055,"enabled":true,"region":"eu","cc":"pl","latitude":52.2297,"longitude":21.017532,"reserved":0,"last_update":"0001-01-01T00:00:00Z","name_a2s":"Uncletopia | Warsaw | 5 | No Payload","protocol":17,"map":"pl_borneo","folder":"tf","game":"Team Fortress","app_id":440,"player_count":0,"max_players":24,"Bots":0,"server_type":"Dedicated","server_os":"Linux","password":true,"vac":true,"version":"7708610","steam_id":85568392925397854,"keywords":["nocrits","nodmgspread","payload","uncletopia"],"game_id":440,"stv_port":27056,"stv_name":"Uncletopia | Warsaw | 5 | No Payload | STV","players":null},{"server_id":54,"name":"Uncletopia | Warsaw | 6 | Community","name_short":"waw-6","host":"waw-1.pl.uncletopia.com","port":27065,"enabled":true,"region":"eu","cc":"pl","latitude":52.2297,"longitude":21.017532,"reserved":0,"last_update":"0001-01-01T00:00:00Z","name_a2s":"Uncletopia | Warsaw | 6 | Community","protocol":17,"map":"pl_swiftwater_final1","folder":"tf","game":"Team Fortress","app_id":440,"player_count":0,"max_players":24,"Bots":0,"server_type":"Dedicated","server_os":"Linux","password":true,"vac":true,"version":"7708610","steam_id":85568392925397856,"keywords":["nocrits","nodmgspread","payload","uncletopia"],"game_id":440,"stv_port":27066,"stv_name":"Uncletopia | Warsaw | 6 | Community | STV","players":null}]}