{"status":true,"message":"","result":[{"server_id":9,"name":"Uncletopia | Atlanta | 1 | All Maps","name_short":"atl-1","host":"atl-1.us.uncletopia.com","port":27015,"enabled":true,"region":"us-east","cc":"us","latitude":33.753746,"longitude":-84.38633,"reserved":0,"last_update":"0001-01-01T00:00:00Z","name_a2s":"Uncletopia | Atlanta | 1 | All Maps","protocol":17,"map":"pl_snowycoast","folder":"tf","game":"Team Fortress","app_id":440,"player_count":0,"max_players":24,"Bots":0,"server_type":"Dedicated","server_os":"Linux","password":true,"vac":true,"version":"7723704","steam_id":85568392924469982,"keywords":["nocrits","nodmgspread","payload","uncletopia"],"game_id":440,"stv_port":27016,"stv_name":"Uncletopia | Atlanta | 1 | All Maps | STV","players":null},{"server_id":400,"name":"Uncletopia | Atlanta | 3 | Stopwatch Beta","name_short":"atl-3","host":"atl-1.us.uncletopia.com","port":27035,"enabled":true,"region":"us-east","cc":"us","latitude":33.753746,"longitude":-84.38633,"reserved":0,"last_update":"0001-01-01T00:00:00Z","name_a2s":"Uncletopia | Atlanta | 3 | Stopwatch Beta","protocol":17,"map":"koth_cascade","folder":"tf","game":"Team Fortress","app_id":440,"player_count":0,"max_players":24,"Bots":0,"server_type":"Dedicated","server_os":"Linux","password":true,"vac":true,"version":"7723704","steam_id":85568392924515187,"keywords":["cp","nocrits","nodmgspread","uncletopia"],"game_id":440,"stv_port":27036,"stv_name":"Uncletopia | Atlanta | 3 | Stopwatch Beta | STV","players":null},{"server_id":401,"name":"Uncletopia | Atlanta | 4 | No Payload","name_short":"atl-4","host":"atl-1.us.uncletopia.com","port":27045,"enabled":true,"region":"us-east","cc":"us","latitude":33.753746,"longitude":-84.38633,"reserved":0,"last_update":"0001-01-01T00:00:00Z","name_a2s":"Uncletopia | Atlanta | 4 | No Payload","protocol":17,"map":"pl_pier","folder":"tf","game":"Team Fortress","app_id":440,"player_count":0,"max_players":24,"Bots":0,"server_type":"Dedicated","server_os":"Linux","password":true,"vac":true,"version":"7723704","steam_id":85568392924515188,"keywords":["nocrits","nodmgspread","payload","uncletopia"],"game_id":440,"stv_port":27046,"stv_name":"Uncletopia | Atlanta | 4 | No Payload | STV","players":null},{"server_id":2,"name":"Uncletopia | Chicago | 1 | All Maps","name_short":"chi-1","host":"chi-1.us.uncletopia.com","port":27015,"enabled":true,"region":"us-central","cc":"us","latitude":41.881832,"longitude":-87.62318,"reserved":0,"last_update":"0001-01-01T00:00:00Z","name_a2s":"Uncletopia | Chicago | 1 | All Maps","protocol":17,"map":"cp_dustbowl","folder":"tf","game":"Team Fortress","app_id":440,"player_count":24,"max_players":24,"Bots":0,"server_type":"Dedicated","server_os":"Linux","password":true,"vac":true,"version":"7723704","steam_id":85568392924469984,"keywords":["cp","nocrits","nodmgspread","uncletopia"],"game_id":440,"stv_port":27016,"stv_name":"Uncletopia | Chicago | 1 | All Maps | STV","players":[{"user_id":102,"name":"xXx_The_REAL_Marge_Simpson_xXx","steam_id":76561199116846851,"connected_time":419000000000,"state":"active","ping":70},{"user_id":86,"name":"Mouth Tea","steam_id":76561198285054047,"connected_time":1054000000000,"state":"active","ping":76},{"user_id":104,"name":"Quentin","steam_id":76561198032941413,"connected_time":348000000000,"state":"active","ping":82},{"user_id":98,"name":"pinglefingle","steam_id":76561198216580197,"connected_time":522000000000,"state":"active","ping":79},{"user_id":106,"name":"i will invert your dna sequence","steam_id":76561198067994868,"connected_time":229000000000,"state":"active","ping":61},{"user_id":107,"name":"Chromatic","steam_id":76561198355976286,"connected_time":216000000000,"state":"active","ping":134},{"user_id":101,"name":"Kiss Master","steam_id":76561198289572271,"connected_time":442000000000,"state":"active","ping":63},{"user_id":89,"name":"gen","steam_id":76561199118569153,"connected_time":1009000000000,"state":"active","ping":56},{"user_id":108,"name":"CheeseCake488","steam_id":76561199407617942,"connected_time":165000000000,"state":"active","ping":134},{"user_id":31,"name":"mireiaguitart3","steam_id":76561198880549961,"connected_time":5257000000000,"state":"active","ping":158},{"user_id":24,"name":"snake9544","steam_id":76561198083076205,"connected_time":5720000000000,"state":"active","ping":162},{"user_id":55,"name":"dosimeter","steam_id":76561198039608940,"connected_time":3363000000000,"state":"active","ping":98},{"user_id":77,"name":"cyclops","steam_id":76561197970370198,"connected_time":1514000000000,"state":"active","ping":50},{"user_id":73,"name":"LividALX","steam_id":76561198145429015,"connected_time":1763000000000,"state":"active","ping":68},{"user_id":65,"name":"About That Gift I Owed Ya","steam_id":76561198071506287,"connected_time":2375000000000,"state":"active","ping":106},{"user_id":67,"name":"Ghosty","steam_id":76561199229629421,"connected_time":2351000000000,"state":"active","ping":91},{"user_id":109,"name":"Jonas Destark","steam_id":76561198030327441,"connected_time":162000000000,"state":"active","ping":136},{"user_id":59,"name":"Dude Named Bob","steam_id":76561198310448093,"connected_time":2981000000000,"state":"active","ping":45},{"user_id":70,"name":"PunishedJoe","steam_id":76561199105539011,"connected_time":2111000000000,"state":"active","ping":65},{"user_id":93,"name":"Gibby","steam_id":76561199336569123,"connected_time":943000000000,"state":"active","ping":100},{"user_id":96,"name":"Haunted","steam_id":76561199049154642,"connected_time":808000000000,"state":"active","ping":60},{"user_id":54,"name":"New Memes","steam_id":76561198009656676,"connected_time":3609000000000,"state":"active","ping":74},{"user_id":84,"name":"Admiral Angry","steam_id":76561198058199206,"connected_time":1065000000000,"state":"active","ping":55},{"user_id":75,"name":"shoes","steam_id":76561198044104086,"connected_time":1645000000000,"state":"active","ping":85}]},{"server_id":106,"name":"Uncletopia | Chicago | 2 | All Maps","name_short":"chi-2","host":"chi-1.us.uncletopia.com","port":27025,"enabled":true,"region":"us-central","cc":"us","latitude":41.881832,"longitude":-87.62318,"reserved":0,"last_update":"0001-01-01T00:00:00Z","name_a2s":"Uncletopia | Chicago | 2 | All Maps","protocol":17,"map":"koth_highpass","folder":"tf","game":"Team Fortress","app_id":440,"player_count":0,"max_players":24,"Bots":0,"server_type":"Dedicated","server_os":"Linux","password":true,"vac":true,"version":"7723704","steam_id":85568392924469985,"keywords":["cp","nocrits","nodmgspread","uncletopia"],"game_id":440,"stv_port":27026,"stv_name":"Uncletopia | Chicago | 2 | All Maps | STV","players":null},{"server_id":402,"name":"Uncletopia | Chicago | 3 | All Maps","name_short":"chi-3","host":"chi-1.us.uncletopia.com","port":27035,"enabled":true,"region":"us-central","cc":"us","latitude":41.881832,"longitude":-87.62318,"reserved":0,"last_update":"0001-01-01T00:00:00Z","name_a2s":"Uncletopia | Chicago | 3 | All Maps","protocol":17,"map":"pl_frontier_final","folder":"tf","game":"Team Fortress","app_id":440,"player_count":0,"max_players":24,"Bots":0,"server_type":"Dedicated","server_os":"Linux","password":true,"vac":true,"version":"7723704","steam_id":85568392924515191,"keywords":["nocrits","nodmgspread","payload","uncletopia"],"game_id":440,"stv_port":27036,"stv_name":"Uncletopia | Chicago | 3 | All Maps | STV","players":null},{"server_id":403,"name":"Uncletopia | Chicago | 4 | All Maps","name_short":"chi-4","host":"chi-1.us.uncletopia.com","port":27045,"enabled":true,"region":"us-central","cc":"us","latitude":41.881832,"longitude":-87.62318,"reserved":0,"last_update":"0001-01-01T00:00:00Z","name_a2s":"Uncletopia | Chicago | 4 | All Maps","protocol":17,"map":"pl_pier","folder":"tf","game":"Team Fortress","app_id":440,"player_count":0,"max_players":24,"Bots":0,"server_type":"Dedicated","server_os":"Linux","password":true,"vac":true,"version":"7723704","steam_id":85568392924515193,"keywords":["nocrits","nodmgspread","payload","uncletopia"],"game_id":440,"stv_port":27046,"stv_name":"Uncletopia | Chicago | 4 | All Maps | STV","players":null},{"server_id":36,"name":"Uncletopia | Chicago | 5 | All Maps","name_short":"chi-5","host":"chi-2.us.uncletopia.com","port":27015,"enabled":true,"region":"us-central","cc":"us","latitude":41.881832,"longitude":-87.62318,"reserved":0,"last_update":"0001-01-01T00:00:00Z","name_a2s":"Uncletopia | Chicago | 5 | All Maps","protocol":17,"map":"cp_altitude","folder":"tf","game":"Team Fortress","app_id":440,"player_count":0,"max_players":24,"Bots":0,"server_type":"Dedicated","server_os":"Linux","password":true,"vac":true,"version":"7723704","steam_id":85568392924866362,"keywords":["cp","nocrits","nodmgspread","uncletopia"],"game_id":440,"stv_port":27016,"stv_name":"Uncletopia | Chicago | 5 | All Maps | STV","players":null},{"server_id":37,"name":"Uncletopia | Chicago | 6 | All Maps","name_short":"chi-6","host":"chi-2.us.uncletopia.com","port":27025,"enabled":true,"region":"us-central","cc":"us","latitude":41.881832,"longitude":-87.62318,"reserved":0,"last_update":"0001-01-01T00:00:00Z","name_a2s":"Uncletopia | Chicago | 6 | All Maps","protocol":17,"map":"pl_swiftwater_final1","folder":"tf","game":"Team Fortress","app_id":440,"player_count":0,"max_players":24,"Bots":0,"server_type":"Dedicated","server_os":"Linux","password":true,"vac":true,"version":"7723704","steam_id":85568392924866363,"keywords":["nocrits","nodmgspread","payload","uncletopia"],"game_id":440,"stv_port":27026,"stv_name":"Uncletopia | Chicago | 6 | All Maps | STV","players":null},{"server_id":38,"name":"Uncletopia | Chicago | 7 | Stopwatch Beta","name_short":"chi-7","host":"chi-2.us.uncletopia.com","port":27035,"enabled":true,"region":"us-central","cc":"us","latitude":41.881832,"longitude":-87.62318,"reserved":0,"last_update":"0001-01-01T00:00:00Z","name_a2s":"Uncletopia | Chicago | 7 | Stopwatch Beta","protocol":17,"map":"pl_upward","folder":"tf","game":"Team Fortress","app_id":440,"player_count":0,"max_players":24,"Bots":0,"server_type":"Dedicated","server_os":"Linux","password":true,"vac":true,"version":"7723704","steam_id":85568392924866364,"keywords":["nocrits","nodmgspread","payload","uncletopia"],"game_id":440,"stv_port":27036,"stv_name":"Uncletopia | Chicago | 7 | Stopwatch Beta | STV","players":null},{"server_id":39,"name":"Uncletopia | Chicago | 8 | Community","name_short":"chi-8","host":"chi-2.us.uncletopia.com","port":27045,"enabled":true,"region":"us-central","cc":"us","latitude":41.881832,"longitude":-87.62318,"reserved":0,"last_update":"0001-01-01T00:00:00Z","name_a2s":"Uncletopia | Chicago | 8 | Community","protocol":17,"map":"pl_frontier_final","folder":"tf","game":"Team Fortress","app_id":440,"player_count":0,"max_players":24,"Bots":0,"server_type":"Dedicated","server_os":"Linux","password":true,"vac":true,"version":"7723704","steam_id":85568392924866365,"keywords":["nocrits","nodmgspread","payload","uncletopia"],"game_id":440,"stv_port":27046,"stv_name":"Uncletopia | Chicago | 8 | Community | STV","players":null},{"server_id":8,"name":"Uncletopia | Dallas | 1 | All Maps","name_short":"dal-1","host":"dal-1.us.uncletopia.com","port":27015,"enabled":true,"region":"us-central","cc":"us","latitude":32.779167,"longitude":-96.80889,"reserved":0,"last_update":"0001-01-01T00:00:00Z","name_a2s":"Uncletopia | Dallas | 1 | All Maps","protocol":17,"map":"pl_frontier_final","folder":"tf","game":"Team Fortress","app_id":440,"player_count":0,"max_players":24,"Bots":0,"server_type":"Dedicated","server_os":"Linux","password":true,"vac":true,"version":"7723704","steam_id":85568392924469986,"keywords":["nocrits","nodmgspread","payload","uncletopia"],"game_id":440,"stv_port":27016,"stv_name":"Uncletopia | Dallas | 1 | All Maps | STV","players":null},{"server_id":108,"name":"Uncletopia | Dallas | 2 | All Maps","name_short":"dal-2","host":"dal-1.us.uncletopia.com","port":27025,"enabled":true,"region":"us-central","cc":"us","latitude":32.779167,"longitude":-96.80889,"reserved":0,"last_update":"0001-01-01T00:00:00Z","name_a2s":"Uncletopia | Dallas | 2 | All Maps","protocol":17,"map":"pl_borneo","folder":"tf","game":"Team Fortress","app_id":440,"player_count":0,"max_players":24,"Bots":0,"server_type":"Dedicated","server_os":"Linux","password":true,"vac":true,"version":"7723704","steam_id":85568392924469988,"keywords":["nocrits","nodmgspread","payload","uncletopia"],"game_id":440,"stv_port":27026,"stv_name":"Uncletopia | Dallas | 2 | All Maps | STV","players":null},{"server_id":5,"name":"Uncletopia | Frankfurt | 1 | All Maps","name_short":"frk-1","host":"frk-1.de.uncletopia.com","port":27015,"enabled":true,"region":"eu","cc":"de","latitude":50.110924,"longitude":8.682127,"reserved":0,"last_update":"0001-01-01T00:00:00Z","name_a2s":"Uncletopia | Frankfurt | 1 | All Maps","protocol":17,"map":"pl_upward","folder":"tf","game":"Team Fortress","app_id":440,"player_count":24,"max_players":24,"Bots":0,"server_type":"Dedicated","server_os":"Linux","password":true,"vac":true,"version":"7723704","steam_id":85568392924469989,"keywords":["nocrits","nodmgspread","payload","uncletopia"],"game_id":440,"stv_port":27016,"stv_name":"Uncletopia | Frankfurt | 1 | All Maps | STV","players":[{"user_id":79,"name":"Leeroy Jenkins","steam_id":76561198137210227,"connected_time":2377000000000,"state":"active","ping":64},{"user_id":87,"name":"North Vietnamese Medic","steam_id":76561199152530722,"connected_time":1971000000000,"state":"active","ping":85},{"user_id":146,"name":"Assassin","steam_id":76561199016050401,"connected_time":444000000000,"state":"active","ping":127},{"user_id":129,"name":"Milosz52","steam_id":76561199060940204,"connected_time":1042000000000,"state":"active","ping":77},{"user_id":137,"name":"pl_z≈Çawoda","steam_id":76561198040588109,"connected_time":871000000000,"state":"active","ping":68},{"user_id":147,"name":"ToxychDaPacket","steam_id":76561198191216334,"connected_time":430000000000,"state":"active","ping":111},{"user_id":152,"name":"Cobb Salads","steam_id":76561197971140507,"connected_time":301000000000,"state":"active","ping":80},{"user_id":130,"name":"nox","steam_id":76561198287360892,"connected_time":1019000000000,"state":"active","ping":59},{"user_id":149,"name":"Marginal","steam_id":76561198935566138,"connected_time":410000000000,"state":"active","ping":63},{"user_id":104,"name":"soopeli","steam_id":76561198003350251,"connected_time":1609000000000,"state":"active","ping":63},{"user_id":150,"name":"GingerBread","steam_id":76561198884845539,"connected_time":380000000000,"state":"active","ping":114},{"user_id":110,"name":"PONCHO 90","steam_id":76561198412197820,"connected_time":1436000000000,"state":"active","ping":70},{"user_id":63,"name":"Andreus","steam_id":76561199403926001,"connected_time":3122000000000,"state":"active","ping":68},{"user_id":134,"name":"Slimeby","steam_id":76561198353438688,"connected_time":926000000000,"state":"active","ping":83},{"user_id":54,"name":"Cippo95","steam_id":76561198255311582,"connected_time":3551000000000,"state":"active","ping":75},{"user_id":153,"name":"üÉî Nugg1t(sme/lly)","steam_id":76561198065652251,"connected_time":297000000000,"state":"active","ping":37},{"user_id":57,"name":"Leto","steam_id":76561198419429742,"connected_time":3436000000000,"state":"active","ping":60},{"user_id":103,"name":"JP3","steam_id":76561197970963576,"connected_time":1707000000000,"state":"active","ping":60},{"user_id":98,"name":"'_'","steam_id":76561198120264459,"connected_time":1839000000000,"state":"active","ping":60},{"user_id":151,"name":"holmr","steam_id":76561198852172820,"connected_time":374000000000,"state":"active","ping":61},{"user_id":154,"name":"OrangeBanana","steam_id":76561199230233875,"connected_time":281000000000,"state":"active","ping":64},{"user_id":78,"name":"Bounter","steam_id":76561198072614188,"connected_time":2382000000000,"state":"active","ping":71},{"user_id":99,"name":"next gen f7ool","steam_id":76561198279952779,"connected_time":1822000000000,"state":"active","ping":145},{"user_id":156,"name":"(f2p) Patient Zero#savetf2","steam_id":76561199352819594,"connected_time":48000000000,"state":"spawning","ping":114}]},{"server_id":110,"name":"Uncletopia | Frankfurt | 2 | All Maps","name_short":"frk-2","host":"frk-1.de.uncletopia.com","port":27025,"enabled":true,"region":"eu","cc":"de","latitude":50.110924,"longitude":8.682127,"reserved":0,"last_update":"0001-01-01T00:00:00Z","name_a2s":"Uncletopia | Frankfurt | 2 | All Maps","protocol":17,"map":"pl_rumford_event","folder":"tf","game":"Team Fortress","app_id":440,"player_count":24,"max_players":24,"Bots":0,"server_type":"Dedicated","server_os":"Linux","password":true,"vac":true,"version":"7723704","steam_id":85568392924469990,"keywords":["nocrits","nodmgspread","payload","uncletopia"],"game_id":440,"stv_port":27026,"stv_name":"Uncletopia | Frankfurt | 2 | All Maps | STV","players":[{"user_id":203,"name":"Ultimo","steam_id":76561198061802565,"connected_time":2039000000000,"state":"active","ping":96},{"user_id":235,"name":"Zeripo","steam_id":76561198079537847,"connected_time":155000000000,"state":"active","ping":66},{"user_id":214,"name":"r06u3","steam_id":76561198254099253,"connected_time":1735000000000,"state":"active","ping":170},{"user_id":139,"name":"generic alias","steam_id":76561198271607226,"connected_time":7226000000000,"state":"active","ping":88},{"user_id":222,"name":"–ò–Ω—Å–ø–µ–∫—Ç–æ—Ä –ê—Ç–∞—Å","steam_id":76561199175688390,"connected_time":1606000000000,"state":"active","ping":75},{"user_id":175,"name":"Lena ^^","steam_id":76561199435586696,"connected_time":4641000000000,"state":"active","ping":91},{"user_id":241,"name":"rawvez","steam_id":76561199445594860,"connected_time":51000000000,"state":"spawning","ping":98},{"user_id":225,"name":"PixelHyde","steam_id":76561198040878617,"connected_time":1267000000000,"state":"active","ping":67},{"user_id":144,"name":"Gordon Birdman","steam_id":76561198013382324,"connected_time":6705000000000,"state":"active","ping":75},{"user_id":230,"name":"Grote piemel","steam_id":76561198166357571,"connected_time":870000000000,"state":"active","ping":58},{"user_id":237,"name":"Buff Engineer","steam_id":76561199091472451,"connected_time":87000000000,"state":"active","ping":59},{"user_id":211,"name":"Duda","steam_id":76561198306177608,"connected_time":1766000000000,"state":"active","ping":69},{"user_id":207,"name":"Koli","steam_id":76561197992428783,"connected_time":1838000000000,"state":"active","ping":45},{"user_id":188,"name":"Jin","steam_id":76561198248878364,"connected_time":3303000000000,"state":"active","ping":41},{"user_id":167,"name":":/","steam_id":76561199382587543,"connected_time":5158000000000,"state":"active","ping":56},{"user_id":234,"name":"EmoNemo","steam_id":76561198160270119,"connected_time":532000000000,"state":"active","ping":76},{"user_id":238,"name":"Torrii","steam_id":76561198307916635,"connected_time":86000000000,"state":"active","ping":75},{"user_id":233,"name":"antisympanex","steam_id":76561198286513490,"connected_time":806000000000,"state":"active","ping":94},{"user_id":239,"name":"Alfred Schroom","steam_id":76561198117990411,"connected_time":65000000000,"state":"active","ping":91},{"user_id":217,"name":"Plop_","steam_id":76561198112567921,"connected_time":1707000000000,"state":"active","ping":45},{"user_id":224,"name":"The Bayrisch Brezel","steam_id":76561198061912743,"connected_time":1313000000000,"state":"active","ping":53},{"user_id":231,"name":"SCRAMMMBLED","steam_id":76561197998307746,"connected_time":822000000000,"state":"active","ping":66},{"user_id":240,"name":"FackaYou","steam_id":76561198193036090,"connected_time":62000000000,"state":"active","ping":76},{"user_id":221,"name":"desu","steam_id":76561198052878585,"connected_time":1674000000000,"state":"active","ping":139}]},{"server_id":308,"name":"Uncletopia | Frankfurt | 3 | All Maps","name_short":"frk-3","host":"frk-1.de.uncletopia.com","port":27035,"enabled":true,"region":"eu","cc":"de","latitude":50.110924,"longitude":8.682127,"reserved":0,"last_update":"0001-01-01T00:00:00Z","name_a2s":"Uncletopia | Frankfurt | 3 | All Maps","protocol":17,"map":"pl_pier","folder":"tf","game":"Team Fortress","app_id":440,"player_count":24,"max_players":24,"Bots":0,"server_type":"Dedicated","server_os":"Linux","password":true,"vac":true,"version":"7723704","steam_id":85568392924504274,"keywords":["nocrits","nodmgspread","payload","uncletopia"],"game_id":440,"stv_port":27036,"stv_name":"Uncletopia | Frankfurt | 3 | All Maps | STV","players":[{"user_id":249,"name":"Iru","steam_id":76561198077602040,"connected_time":2961000000000,"state":"active","ping":60},{"user_id":241,"name":"Crazedspicy","steam_id":76561199004590962,"connected_time":3631000000000,"state":"active","ping":54},{"user_id":259,"name":"1_M_W","steam_id":76561199091749430,"connected_time":2046000000000,"state":"active","ping":84},{"user_id":264,"name":"Reeeeeeeeee80","steam_id":76561199438276394,"connected_time":1166000000000,"state":"active","ping":89},{"user_id":274,"name":"we eaten beans","steam_id":76561198184912569,"connected_time":144000000000,"state":"active","ping":150},{"user_id":273,"name":"big up liquid richard","steam_id":76561198053764422,"connected_time":203000000000,"state":"active","ping":59},{"user_id":275,"name":"Kobeni car ( :D )","steam_id":76561199052772727,"connected_time":108000000000,"state":"active","ping":65},{"user_id":240,"name":"prosto crabic","steam_id":76561198294473783,"connected_time":3656000000000,"state":"active","ping":103},{"user_id":244,"name":"VIN WEASEL","steam_id":76561198014387066,"connected_time":3538000000000,"state":"active","ping":49},{"user_id":219,"name":"PLUTO","steam_id":76561198312436128,"connected_time":4651000000000,"state":"active","ping":121},{"user_id":248,"name":"Maerk","steam_id":76561199119121016,"connected_time":2977000000000,"state":"active","ping":77},{"user_id":255,"name":"bola typu ≈õwiƒôta","steam_id":76561199145943588,"connected_time":2305000000000,"state":"active","ping":78},{"user_id":238,"name":"Nick","steam_id":76561198036109469,"connected_time":3722000000000,"state":"active","ping":98},{"user_id":269,"name":"E","steam_id":76561198166340115,"connected_time":590000000000,"state":"active","ping":67},{"user_id":262,"name":"Piox","steam_id":76561198125689157,"connected_time":1383000000000,"state":"active","ping":78},{"user_id":270,"name":"System","steam_id":76561199442503973,"connected_time":429000000000,"state":"active","ping":38},{"user_id":204,"name":"SugipuLaur","steam_id":76561199138556623,"connected_time":5151000000000,"state":"active","ping":76},{"user_id":272,"name":"drew","steam_id":76561198012304706,"connected_time":269000000000,"state":"active","ping":90},{"user_id":276,"name":"Jamie Hyneman","steam_id":76561198364121077,"connected_time":85000000000,"state":"active","ping":101},{"user_id":257,"name":"Seeker","steam_id":76561198873052772,"connected_time":2289000000000,"state":"active","ping":70},{"user_id":208,"name":"0______0","steam_id":76561198118695421,"connected_time":5058000000000,"state":"active","ping":71},{"user_id":268,"name":"zoro","steam_id":76561198083657017,"connected_time":756000000000,"state":"active","ping":89},{"user_id":254,"name":"ayuumi","steam_id":76561198796327257,"connected_time":2328000000000,"state":"active","ping":52},{"user_id":263,"name":"Pabs :D","steam_id":76561198000016962,"connected_time":1383000000000,"state":"active","ping":60}]},{"server_id":309,"name":"Uncletopia | Frankfurt | 4 | All Maps","name_short":"frk-4","host":"frk-1.de.uncletopia.com","port":27045,"enabled":true,"region":"eu","cc":"de","latitude":50.110924,"longitude":8.682127,"reserved":0,"last_update":"0001-01-01T00:00:00Z","name_a2s":"Uncletopia | Frankfurt | 4 | All Maps","protocol":17,"map":"pl_upward","folder":"tf","game":"Team Fortress","app_id":440,"player_count":24,"max_players":24,"Bots":0,"server_type":"Dedicated","server_os":"Linux","password":true,"vac":true,"version":"7723704","steam_id":85568392924504275,"keywords":["nocrits","nodmgspread","payload","uncletopia"],"game_id":440,"stv_port":27046,"stv_name":"Uncletopia | Frankfurt | 4 | All Maps | STV","players":[{"user_id":14,"name":"Kili","steam_id":76561198138456346,"connected_time":2900000000000,"state":"active","ping":65},{"user_id":15,"name":"I have no idea","steam_id":76561199387825419,"connected_time":2469000000000,"state":"active","ping":113},{"user_id":52,"name":"Rycuryk","steam_id":76561198130325647,"connected_time":91000000000,"state":"active","ping":61},{"user_id":18,"name":"Cota (IS BACK IN TOWN)","steam_id":76561198213417613,"connected_time":1722000000000,"state":"active","ping":84},{"user_id":20,"name":"Vertically Challenged","steam_id":76561198257158275,"connected_time":1329000000000,"state":"active","ping":150},{"user_id":21,"name":"Toothpaste Milkshake","steam_id":76561198982674420,"connected_time":1160000000000,"state":"active","ping":62},{"user_id":22,"name":"GigaGuenther","steam_id":76561198257633868,"connected_time":1156000000000,"state":"active","ping":63},{"user_id":50,"name":"jge","steam_id":76561198123186387,"connected_time":313000000000,"state":"active","ping":47},{"user_id":49,"name":"alvinulv","steam_id":76561198024487177,"connected_time":320000000000,"state":"active","ping":60},{"user_id":25,"name":"nos narco","steam_id":76561198194327061,"connected_time":1027000000000,"state":"active","ping":64},{"user_id":26,"name":"Gebagemid","steam_id":76561198003684717,"connected_time":1023000000000,"state":"active","ping":64},{"user_id":32,"name":"Ooze","steam_id":76561198039642637,"connected_time":772000000000,"state":"active","ping":84},{"user_id":29,"name":"Yona_Man_Jones","steam_id":76561198986032201,"connected_time":866000000000,"state":"active","ping":100},{"user_id":36,"name":"sHIFTINGvORTEX","steam_id":76561198231648332,"connected_time":751000000000,"state":"active","ping":68},{"user_id":47,"name":"Just_Random_Stuf","steam_id":76561199000503438,"connected_time":491000000000,"state":"active","ping":73},{"user_id":53,"name":"‚Üì im with stupid ‚Üë","steam_id":76561198031573426,"connected_time":84000000000,"state":"active","ping":61},{"user_id":34,"name":"Icarus300","steam_id":76561198015125766,"connected_time":757000000000,"state":"active","ping":89},{"user_id":35,"name":"Neto","steam_id":76561198201204507,"connected_time":754000000000,"state":"active","ping":102},{"user_id":38,"name":"well that escalated quickly","steam_id":76561198295305088,"connected_time":737000000000,"state":"active","ping":48},{"user_id":39,"name":"Rakade","steam_id":76561198053594326,"connected_time":709000000000,"state":"active","ping":80},{"user_id":41,"name":"‚ñ∫hAppser‚óÑ","steam_id":76561198255221005,"connected_time":691000000000,"state":"active","ping":81},{"user_id":42,"name":"Brudny Mnich","steam_id":76561198975584732,"connected_time":684000000000,"state":"active","ping":73},{"user_id":45,"name":"Hedj","steam_id":76561198108369687,"connected_time":580000000000,"state":"active","ping":48},{"user_id":51,"name":"your_local_penguin","steam_id":76561199224954346,"connected_time":259000000000,"state":"active","ping":92}]},{"server_id":310,"name":"Uncletopia | Frankfurt | 5 | All Maps","name_short":"frk-5","host":"frk-1.de.uncletopia.com","port":27055,"enabled":true,"region":"eu","cc":"de","latitude":50.110924,"longitude":8.682127,"reserved":0,"last_update":"0001-01-01T00:00:00Z","name_a2s":"Uncletopia | Frankfurt | 5 | All Maps","protocol":17,"map":"pl_upward","folder":"tf","game":"Team Fortress","app_id":440,"player_count":24,"max_players":24,"Bots":0,"server_type":"Dedicated","server_os":"Linux","password":true,"vac":true,"version":"7723704","steam_id":85568392924504277,"keywords":["nocrits","nodmgspread","payload","uncletopia"],"game_id":440,"stv_port":27056,"stv_name":"Uncletopia | Frankfurt | 5 | All Maps | STV","players":[{"user_id":226,"name":"ImABush","steam_id":76561198304471896,"connected_time":811000000000,"state":"active","ping":53},{"user_id":229,"name":"lolimsogreat21","steam_id":76561199052033788,"connected_time":796000000000,"state":"active","ping":69},{"user_id":233,"name":"pano","steam_id":76561198157446722,"connected_time":754000000000,"state":"active","ping":61},{"user_id":133,"name":"Passionatly Drunk Irishman","steam_id":76561198372536459,"connected_time":7589000000000,"state":"active","ping":60},{"user_id":238,"name":"Purplenoogie","steam_id":76561198081872160,"connected_time":250000000000,"state":"active","ping":51},{"user_id":224,"name":"holykyckling","steam_id":76561198040661615,"connected_time":883000000000,"state":"active","ping":75},{"user_id":215,"name":"delta man","steam_id":76561198204491245,"connected_time":2387000000000,"state":"active","ping":132},{"user_id":217,"name":"Svilar","steam_id":76561198828348612,"connected_time":2370000000000,"state":"active","ping":57},{"user_id":234,"name":"indigoneüë®üé§","steam_id":76561198374503618,"connected_time":549000000000,"state":"active","ping":68},{"user_id":203,"name":"thekoolest88","steam_id":76561199022415672,"connected_time":3274000000000,"state":"active","ping":149},{"user_id":216,"name":"Joejee","steam_id":76561199122423976,"connected_time":2385000000000,"state":"active","ping":73},{"user_id":211,"name":"banrab","steam_id":76561198083615367,"connected_time":2874000000000,"state":"active","ping":54},{"user_id":240,"name":"BrickBobBrick","steam_id":76561198931770279,"connected_time":191000000000,"state":"active","ping":63},{"user_id":239,"name":"Sunbroke","steam_id":76561198880254865,"connected_time":244000000000,"state":"active","ping":64},{"user_id":200,"name":"galaxy","steam_id":76561198164819022,"connected_time":3411000000000,"state":"active","ping":59},{"user_id":214,"name":"luma","steam_id":76561198081649669,"connected_time":2482000000000,"state":"active","ping":62},{"user_id":227,"name":"Wester","steam_id":76561198062486823,"connected_time":810000000000,"state":"active","ping":75},{"user_id":193,"name":"DSL","steam_id":76561198186770547,"connected_time":3894000000000,"state":"active","ping":92},{"user_id":237,"name":"dpy","steam_id":76561198019146955,"connected_time":433000000000,"state":"active","ping":73},{"user_id":202,"name":"KFC Enjoyer","steam_id":76561198840259819,"connected_time":3307000000000,"state":"active","ping":45},{"user_id":235,"name":"Dr. WAH","steam_id":76561198297778149,"connected_time":513000000000,"state":"active","ping":73},{"user_id":232,"name":"noamshor","steam_id":76561198974556515,"connected_time":782000000000,"state":"active","ping":125},{"user_id":167,"name":"videogames1000","steam_id":76561198086976963,"connected_time":4860000000000,"state":"active","ping":90},{"user_id":236,"name":"Dr. Bacsi b√°csi #MEDIC","steam_id":76561198114830093,"connected_time":476000000000,"state":"active","ping":66}]},{"server_id":311,"name":"Uncletopia | Frankfurt | 6 | All Maps","name_short":"frk-6","host":"frk-1.de.uncletopia.com","port":27065,"enabled":true,"region":"eu","cc":"de","latitude":50.110924,"longitude":8.682127,"reserved":0,"last_update":"0001-01-01T00:00:00Z","name_a2s":"Uncletopia | Frankfurt | 6 | All Maps","protocol":17,"map":"koth_cascade","folder":"tf","game":"Team Fortress","app_id":440,"player_count":3,"max_players":24,"Bots":0,"server_type":"Dedicated","server_os":"Linux","password":true,"vac":true,"version":"7723704","steam_id":85568392924504278,"keywords":["cp","nocrits","nodmgspread","uncletopia"],"game_id":440,"stv_port":27066,"stv_name":"Uncletopia | Frankfurt | 6 | All Maps | STV","players":[{"user_id":12,"name":"r0nja_ | tfdb.tf","steam_id":76561197963298322,"connected_time":236000000000,"state":"active","ping":74},{"user_id":13,"name":"donal rump","steam_id":76561198136239861,"connected_time":207000000000,"state":"active","ping":46},{"user_id":14,"name":"quack","steam_id":76561198121003465,"connected_time":162000000000,"state":"active","ping":61}]},{"server_id":23,"name":"Uncletopia | Frankfurt | 7 | Stopwatch Beta","name_short":"frk-7","host":"frk-1.de.uncletopia.com","port":27075,"enabled":true,"region":"eu","cc":"de","latitude":50.110924,"longitude":8.682127,"reserved":0,"last_update":"0001-01-01T00:00:00Z","name_a2s":"Uncletopia | Frankfurt | 7 | Stopwatch Beta","protocol":17,"map":"pl_swiftwater_final1","folder":"tf","game":"Team Fortress","app_id":440,"player_count":23,"max_players":24,"Bots":0,"server_type":"Dedicated","server_os":"Linux","password":true,"vac":true,"version":"7723704","steam_id":85568392924742827,"keywords":["nocrits","nodmgspread","payload","uncletopia"],"game_id":440,"stv_port":27076,"stv_name":"Uncletopia | Frankfurt | 7 | Stopwatch Beta | STV","players":[{"user_id":98,"name":"dusty","steam_id":76561199011977567,"connected_time":1496000000000,"state":"active","ping":57},{"user_id":37,"name":"ronnie","steam_id":76561198377533237,"connected_time":3243000000000,"state":"active","ping":67},{"user_id":101,"name":"I-I","steam_id":76561198267969436,"connected_time":1353000000000,"state":"active","ping":58},{"user_id":96,"name":"little gamer","steam_id":76561198129693991,"connected_time":1689000000000,"state":"active","ping":114},{"user_id":14,"name":"Malik794","steam_id":76561198967164437,"connected_time":3853000000000,"state":"active","ping":102},{"user_id":117,"name":"K.V. #RemoveRandomCrits","steam_id":76561197994832993,"connected_time":945000000000,"state":"active","ping":68},{"user_id":100,"name":"roblan11","steam_id":76561198066839258,"connected_time":1428000000000,"state":"active","ping":50},{"user_id":120,"name":"sixth infernal circle","steam_id":76561199042470246,"connected_time":743000000000,"state":"active","ping":46},{"user_id":121,"name":"3igen3ggy","steam_id":76561197989548015,"connected_time":728000000000,"state":"active","ping":67},{"user_id":113,"name":"Ged","steam_id":76561198079288943,"connected_time":1048000000000,"state":"active","ping":112},{"user_id":22,"name":"NZN_pro","steam_id":76561198862334903,"connected_time":3620000000000,"state":"active","ping":151},{"user_id":90,"name":"Bob Salami","steam_id":76561198150681340,"connected_time":1855000000000,"state":"active","ping":81},{"user_id":104,"name":"eazyteazer","steam_id":76561198970822998,"connected_time":1280000000000,"state":"active","ping":93},{"user_id":116,"name":"uranium.muncher.235","steam_id":76561198352926998,"connected_time":967000000000,"state":"active","ping":103},{"user_id":105,"name":"gamer man","steam_id":76561198436817109,"connected_time":1276000000000,"state":"active","ping":72},{"user_id":63,"name":"kret","steam_id":76561198435353837,"connected_time":2570000000000,"state":"active","ping":56},{"user_id":125,"name":"Astrya","steam_id":76561198091242337,"connected_time":224000000000,"state":"active","ping":53},{"user_id":86,"name":"Uncle Lame","steam_id":76561198089003514,"connected_time":1982000000000,"state":"active","ping":50},{"user_id":108,"name":"TG morlo^","steam_id":76561198249301650,"connected_time":1236000000000,"state":"active","ping":43},{"user_id":73,"name":"Michael","steam_id":76561198003146906,"connected_time":2329000000000,"state":"active","ping":60},{"user_id":110,"name":"FatalRyhme","steam_id":76561198018713483,"connected_time":1164000000000,"state":"active","ping":89},{"user_id":111,"name":"eggslut","steam_id":76561198010752241,"connected_time":1153000000000,"state":"active","ping":75},{"user_id":124,"name":"Rat head","steam_id":76561198184360615,"connected_time":262000000000,"state":"active","ping":104}]},{"server_id":24,"name":"Uncletopia | Frankfurt | 8 | Community","name_short":"frk-8","host":"frk-1.de.uncletopia.com","port":27085,"enabled":true,"region":"eu","cc":"de","latitude":50.110924,"longitude":8.682127,"reserved":0,"last_update":"0001-01-01T00:00:00Z","name_a2s":"Uncletopia | Frankfurt | 8 | Community","protocol":17,"map":"pl_frontier_final","folder":"tf","game":"Team Fortress","app_id":440,"player_count":0,"max_players":24,"Bots":0,"server_type":"Dedicated","server_os":"Linux","password":true,"vac":true,"version":"7723704","steam_id":85568392924742828,"keywords":["nocrits","nodmgspread","payload","uncletopia"],"game_id":440,"stv_port":27086,"stv_name":"Uncletopia | Frankfurt | 8 | Community | STV","players":null},{"server_id":202,"name":"Uncletopia | Hong Kong | 1 | All Maps","name_short":"hgk-1","host":"hgk-1.hk.uncletopia.com","port":27015,"enabled":true,"region":"asia","cc":"hk","latitude":22.302711,"longitude":114.177216,"reserved":0,"last_update":"0001-01-01T00:00:00Z","name_a2s":"Uncletopia | Hong Kong | 1 | All Maps","protocol":17,"map":"pl_barnblitz","folder":"tf","game":"Team Fortress","app_id":440,"player_count":24,"max_players":24,"Bots":0,"server_type":"Dedicated","server_os":"Linux","password":true,"vac":true,"version":"7723704","steam_id":85568392924494504,"keywords":["nocrits","nodmgspread","payload","uncletopia"],"game_id":440,"stv_port":27016,"stv_name":"Uncletopia | Hong Kong | 1 | All Maps | STV","players":[{"user_id":307,"name":"bistek","steam_id":76561198230213828,"connected_time":3870000000000,"state":"active","ping":65},{"user_id":314,"name":"Buttman","steam_id":76561198044693388,"connected_time":3326000000000,"state":"active","ping":48},{"user_id":254,"name":"brizzard","steam_id":76561198048438653,"connected_time":7283000000000,"state":"active","ping":47},{"user_id":291,"name":"Corhix","steam_id":76561198968706355,"connected_time":5404000000000,"state":"active","ping":40},{"user_id":260,"name":"Pillboi","steam_id":76561198011172886,"connected_time":7069000000000,"state":"active","ping":45},{"user_id":303,"name":"killman47","steam_id":76561198348487408,"connected_time":4487000000000,"state":"active","ping":41},{"user_id":320,"name":"cellum95","steam_id":76561198172146871,"connected_time":3106000000000,"state":"active","ping":61},{"user_id":346,"name":"ZeniaPY (Playing on Wacom)","steam_id":76561198404352831,"connected_time":1414000000000,"state":"active","ping":58},{"user_id":321,"name":"Noyour","steam_id":76561198323259830,"connected_time":3031000000000,"state":"active","ping":123},{"user_id":350,"name":"Jimi Hen-Dicks Excrements","steam_id":76561198826565047,"connected_time":879000000000,"state":"active","ping":84},{"user_id":322,"name":"Gemini Rights By Steve Lacy","steam_id":76561198400698408,"connected_time":2873000000000,"state":"active","ping":85},{"user_id":161,"name":"Bertengkar","steam_id":76561198213031155,"connected_time":14278000000000,"state":"active","ping":101},{"user_id":352,"name":"click on back","steam_id":76561198059439540,"connected_time":775000000000,"state":"active","ping":41},{"user_id":357,"name":"TomProPlayer","steam_id":76561199223292521,"connected_time":737000000000,"state":"active","ping":65},{"user_id":288,"name":"L√∫d","steam_id":76561198828840546,"connected_time":5533000000000,"state":"active","ping":90},{"user_id":351,"name":"Saggle","steam_id":76561198056075147,"connected_time":847000000000,"state":"active","ping":126},{"user_id":328,"name":"silversol","steam_id":76561198004570036,"connected_time":2779000000000,"state":"active","ping":96},{"user_id":327,"name":"j_rex","steam_id":76561198132473926,"connected_time":2790000000000,"state":"active","ping":61},{"user_id":299,"name":"+W+","steam_id":76561197997220367,"connected_time":4775000000000,"state":"active","ping":51},{"user_id":337,"name":"17","steam_id":76561198241530712,"connected_time":1991000000000,"state":"active","ping":60},{"user_id":324,"name":"Momoxhien","steam_id":76561198414997429,"connected_time":2873000000000,"state":"active","ping":63},{"user_id":338,"name":"rachel","steam_id":76561198057200043,"connected_time":1991000000000,"state":"active","ping":88},{"user_id":348,"name":"Wakiiiz","steam_id":76561198850134590,"connected_time":1299000000000,"state":"active","ping":61},{"user_id":362,"name":"Banana Milk","steam_id":76561198005156257,"connected_time":388000000000,"state":"active","ping":132}]},{"server_id":1,"name":"Uncletopia | Los Angeles | 1 | All Maps","name_short":"lax-1","host":"lax-1.us.uncletopia.com","port":27015,"enabled":true,"region":"us-west","cc":"us","latitude":33.94279,"longitude":-118.41004,"reserved":0,"last_update":"0001-01-01T00:00:00Z","name_a2s":"Uncletopia | Los Angeles | 1 | All Maps","protocol":17,"map":"pl_snowycoast","folder":"tf","game":"Team Fortress","app_id":440,"player_count":0,"max_players":24,"Bots":0,"server_type":"Dedicated","server_os":"Linux","password":true,"vac":true,"version":"7723704","steam_id":85568392924469991,"keywords":["nocrits","nodmgspread","payload","uncletopia"],"game_id":440,"stv_port":27016,"stv_name":"Uncletopia | Los Angeles | 1 | All Maps | STV","players":null},{"server_id":112,"name":"Uncletopia | Los Angeles | 2 | All Maps","name_short":"lax-2","host":"lax-1.us.uncletopia.com","port":27025,"enabled":true,"region":"us-west","cc":"us","latitude":33.94279,"longitude":-118.41004,"reserved":0,"last_update":"0001-01-01T00:00:00Z","name_a2s":"Uncletopia | Los Angeles | 2 | All Maps","protocol":17,"map":"koth_viaduct","folder":"tf","game":"Team Fortress","app_id":440,"player_count":0,"max_players":24,"Bots":0,"server_type":"Dedicated","server_os":"Linux","password":true,"vac":true,"version":"7723704","steam_id":85568392924469992,"keywords":["cp","nocrits","nodmgspread","uncletopia"],"game_id":440,"stv_port":27026,"stv_name":"Uncletopia | Los Angeles | 2 | All Maps | STV","players":null},{"server_id":324,"name":"Uncletopia | Los Angeles | 3 | All Maps","name_short":"lax-3","host":"lax-1.us.uncletopia.com","port":27035,"enabled":true,"region":"us-west","cc":"us","latitude":33.94279,"longitude":-118.41004,"reserved":0,"last_update":"0001-01-01T00:00:00Z","name_a2s":"Uncletopia | Los Angeles | 3 | All Maps","protocol":17,"map":"koth_viaduct","folder":"tf","game":"Team Fortress","app_id":440,"player_count":0,"max_players":24,"Bots":0,"server_type":"Dedicated","server_os":"Linux","password":true,"vac":true,"version":"7723704","steam_id":85568392924510198,"keywords":["cp","nocrits","nodmgspread","uncletopia"],"game_id":440,"stv_port":27036,"stv_name":"Uncletopia | Los Angeles | 3 | All Maps | STV","players":null},{"server_id":25,"name":"Uncletopia | Los Angeles | 4 | Stopwatch Beta","name_short":"lax-4","host":"lax-1.us.uncletopia.com","port":27045,"enabled":true,"region":"us-west","cc":"us","latitude":33.94279,"longitude":-118.41004,"reserved":0,"last_update":"0001-01-01T00:00:00Z","name_a2s":"Uncletopia | Los Angeles | 4 | Stopwatch Beta","protocol":17,"map":"cp_sunshine","folder":"tf","game":"Team Fortress","app_id":440,"player_count":0,"max_players":24,"Bots":0,"server_type":"Dedicated","server_os":"Linux","password":true,"vac":true,"version":"7723704","steam_id":85568392924510199,"keywords":["cp","nocrits","nodmgspread","uncletopia"],"game_id":440,"stv_port":27046,"stv_name":"Uncletopia | Los Angeles | 4 | Stopwatch Beta | STV","players":null},{"server_id":11,"name":"Uncletopia | London | 1 | All Maps","name_short":"lon-1","host":"lon-1.uk.uncletopia.com","port":27015,"enabled":true,"region":"eu","cc":"gb","latitude":51.509865,"longitude":-0.118092,"reserved":0,"last_update":"0001-01-01T00:00:00Z","name_a2s":"Uncletopia | London | 1 | All Maps","protocol":17,"map":"pl_swiftwater_final1","folder":"tf","game":"Team Fortress","app_id":440,"player_count":24,"max_players":24,"Bots":0,"server_type":"Dedicated","server_os":"Linux","password":true,"vac":true,"version":"7723704","steam_id":85568392924367362,"keywords":["nocrits","nodmgspread","payload","uncletopia"],"game_id":440,"stv_port":27016,"stv_name":"Uncletopia | London | 1 | All Maps | STV","players":[{"user_id":144,"name":"Comfy Monkey","steam_id":76561197998434936,"connected_time":1082000000000,"state":"active","ping":116},{"user_id":147,"name":"kbbq","steam_id":76561198346638308,"connected_time":1050000000000,"state":"active","ping":58},{"user_id":165,"name":"NoobfromHell","steam_id":76561198394221491,"connected_time":184000000000,"state":"active","ping":62},{"user_id":155,"name":"Celtins","steam_id":76561198839837475,"connected_time":925000000000,"state":"active","ping":53},{"user_id":106,"name":"Thesis","steam_id":76561199308784371,"connected_time":2856000000000,"state":"active","ping":56},{"user_id":162,"name":"Uncle Nicky","steam_id":76561198063275767,"connected_time":466000000000,"state":"active","ping":34},{"user_id":160,"name":"Flare","steam_id":76561198039098320,"connected_time":651000000000,"state":"active","ping":54},{"user_id":163,"name":"Soph","steam_id":76561198131688853,"connected_time":275000000000,"state":"active","ping":45},{"user_id":143,"name":"43291842381","steam_id":76561198038160325,"connected_time":1088000000000,"state":"active","ping":90},{"user_id":145,"name":"F1-M","steam_id":76561198198409875,"connected_time":1080000000000,"state":"active","ping":124},{"user_id":157,"name":"Nonwhal","steam_id":76561198367938399,"connected_time":798000000000,"state":"active","ping":118},{"user_id":158,"name":"Kurage","steam_id":76561198021221288,"connected_time":749000000000,"state":"active","ping":74},{"user_id":148,"name":"Wrabchev* Just_Smile","steam_id":76561198040645344,"connected_time":1047000000000,"state":"active","ping":79},{"user_id":161,"name":"booda","steam_id":76561198154395512,"connected_time":625000000000,"state":"active","ping":88},{"user_id":70,"name":"goofy goober","steam_id":76561198013237629,"connected_time":4661000000000,"state":"active","ping":98},{"user_id":117,"name":"Circular","steam_id":76561198001536710,"connected_time":2202000000000,"state":"active","ping":44},{"user_id":139,"name":"JugoTopia","steam_id":76561197996067209,"connected_time":1109000000000,"state":"active","ping":124},{"user_id":114,"name":"lupe.-","steam_id":76561198079813788,"connected_time":2456000000000,"state":"active","ping":82},{"user_id":164,"name":"bANji","steam_id":76561198108898161,"connected_time":260000000000,"state":"active","ping":55},{"user_id":150,"name":"TheBeardedM1G","steam_id":76561198040208946,"connected_time":1043000000000,"state":"active","ping":50},{"user_id":153,"name":"cat on my lap","steam_id":76561198101292843,"connected_time":983000000000,"state":"active","ping":47},{"user_id":154,"name":"Chocofrolik","steam_id":76561198454779847,"connected_time":983000000000,"state":"active","ping":59},{"user_id":93,"name":"Suomenjuusto","steam_id":76561198991491758,"connected_time":4104000000000,"state":"active","ping":90},{"user_id":95,"name":"Lapa Mato","steam_id":76561199052049475,"connected_time":4014000000000,"state":"active","ping":93}]},{"server_id":114,"name":"Uncletopia | London | 2 | All Maps","name_short":"lon-2","host":"lon-1.uk.uncletopia.com","port":27025,"enabled":true,"region":"eu","cc":"gb","latitude":51.509865,"longitude":-0.118092,"reserved":0,"last_update":"0001-01-01T00:00:00Z","name_a2s":"Uncletopia | London | 2 | All Maps","protocol":17,"map":"koth_lakeside_final","folder":"tf","game":"Team Fortress","app_id":440,"player_count":1,"max_players":24,"Bots":0,"server_type":"Dedicated","server_os":"Linux","password":true,"vac":true,"version":"7723704","steam_id":85568392924470941,"keywords":["cp","nocrits","nodmgspread","uncletopia"],"game_id":440,"stv_port":27026,"stv_name":"Uncletopia | London | 2 | All Maps | STV","players":[{"user_id":12,"name":"Texas Red","steam_id":76561199069782779,"connected_time":144000000000,"state":"active","ping":67}]},{"server_id":320,"name":"Uncletopia | London | 3 | All Maps","name_short":"lon-3","host":"lon-1.uk.uncletopia.com","port":27035,"enabled":true,"region":"eu","cc":"gb","latitude":51.509865,"longitude":-0.118092,"reserved":0,"last_update":"0001-01-01T00:00:00Z","name_a2s":"Uncletopia | London | 3 | All Maps","protocol":17,"map":"pl_rumford_event","folder":"tf","game":"Team Fortress","app_id":440,"player_count":23,"max_players":24,"Bots":0,"server_type":"Dedicated","server_os":"Linux","password":true,"vac":true,"version":"7723704","steam_id":85568392924510192,"keywords":["nocrits","nodmgspread","payload","uncletopia"],"game_id":440,"stv_port":27036,"stv_name":"Uncletopia | London | 3 | All Maps | STV","players":[{"user_id":314,"name":"s‚Äôil vous pla√Æt","steam_id":76561197960467762,"connected_time":1622000000000,"state":"active","ping":84},{"user_id":326,"name":"GodOfGobboz","steam_id":76561198154677956,"connected_time":914000000000,"state":"active","ping":74},{"user_id":301,"name":"dotdotdot","steam_id":76561198057628751,"connected_time":2830000000000,"state":"active","ping":60},{"user_id":327,"name":"Ginger","steam_id":76561198427885745,"connected_time":909000000000,"state":"active","ping":94},{"user_id":328,"name":"soil.dirt.earth","steam_id":76561198014377623,"connected_time":905000000000,"state":"active","ping":53},{"user_id":330,"name":"Egtu","steam_id":76561198013757235,"connected_time":852000000000,"state":"active","ping":70},{"user_id":329,"name":"arartics","steam_id":76561199226483498,"connected_time":898000000000,"state":"active","ping":121},{"user_id":310,"name":"willo","steam_id":76561198034442999,"connected_time":2267000000000,"state":"active","ping":57},{"user_id":256,"name":"LAMC","steam_id":76561199066888917,"connected_time":6604000000000,"state":"active","ping":70},{"user_id":298,"name":"TEN YEARS IN THE JOINT","steam_id":76561198393528841,"connected_time":2956000000000,"state":"active","ping":96},{"user_id":313,"name":"Zero","steam_id":76561199383267408,"connected_time":1930000000000,"state":"active","ping":132},{"user_id":337,"name":"maakgis","steam_id":76561198851703804,"connected_time":295000000000,"state":"active","ping":125},{"user_id":316,"name":"XX PRO SPY GAMING XX","steam_id":76561198146180114,"connected_time":1597000000000,"state":"active","ping":86},{"user_id":331,"name":"Him","steam_id":76561198086400484,"connected_time":844000000000,"state":"active","ping":73},{"user_id":321,"name":"R!not","steam_id":76561197986328786,"connected_time":1109000000000,"state":"active","ping":45},{"user_id":285,"name":"The Fighting Doll","steam_id":76561197990347787,"connected_time":3973000000000,"state":"active","ping":47},{"user_id":320,"name":"Xayir","steam_id":76561198079566786,"connected_time":1418000000000,"state":"active","ping":72},{"user_id":325,"name":"OhMyGrosch","steam_id":76561198361193051,"connected_time":923000000000,"state":"active","ping":40},{"user_id":333,"name":"InsectKing","steam_id":76561199013519071,"connected_time":837000000000,"state":"active","ping":41},{"user_id":334,"name":"Shamanoud #cp_canterlot_wg_b2","steam_id":76561198181984875,"connected_time":833000000000,"state":"active","ping":90},{"user_id":317,"name":"Cap'n Scurvy Swine","steam_id":76561199013058420,"connected_time":1556000000000,"state":"active","ping":75},{"user_id":309,"name":"Joffe Pistol","steam_id":76561197993849325,"connected_time":2309000000000,"state":"active","ping":64},{"user_id":335,"name":"Krauserik7","steam_id":76561198263204577,"connected_time":790000000000,"state":"active","ping":85}]},{"server_id":321,"name":"Uncletopia | London | 4 | All Maps","name_short":"lon-4","host":"lon-1.uk.uncletopia.com","port":27045,"enabled":true,"region":"eu","cc":"gb","latitude":51.509865,"longitude":-0.118092,"reserved":0,"last_update":"0001-01-01T00:00:00Z","name_a2s":"Uncletopia | London | 4 | All Maps","protocol":17,"map":"koth_lakeside_final","folder":"tf","game":"Team Fortress","app_id":440,"player_count":0,"max_players":24,"Bots":0,"server_type":"Dedicated","server_os":"Linux","password":true,"vac":true,"version":"7723704","steam_id":85568392924510193,"keywords":["cp","nocrits","nodmgspread","uncletopia"],"game_id":440,"stv_port":27046,"stv_name":"Uncletopia | London | 4 | All Maps | STV","players":null},{"server_id":21,"name":"Uncletopia | London | 5 | All Maps","name_short":"lon-5","host":"lon-1.uk.uncletopia.com","port":27055,"enabled":true,"region":"eu","cc":"gb","latitude":51.509865,"longitude":-0.118092,"reserved":0,"last_update":"0001-01-01T00:00:00Z","name_a2s":"Uncletopia | London | 5 | All Maps","protocol":17,"map":"koth_viaduct","folder":"tf","game":"Team Fortress","app_id":440,"player_count":0,"max_players":24,"Bots":0,"server_type":"Dedicated","server_os":"Linux","password":true,"vac":true,"version":"7723704","steam_id":85568392924742829,"keywords":["cp","nocrits","nodmgspread","uncletopia"],"game_id":440,"stv_port":27056,"stv_name":"Uncletopia | London | 5 | All Maps | STV","players":null},{"server_id":22,"name":"Uncletopia | London | 6 | All Maps","name_short":"lon-6","host":"lon-1.uk.uncletopia.com","port":27065,"enabled":true,"region":"eu","cc":"gb","latitude":51.509865,"longitude":-0.118092,"reserved":0,"last_update":"0001-01-01T00:00:00Z","name_a2s":"Uncletopia | London | 6 | All Maps","protocol":17,"map":"pl_badwater","folder":"tf","game":"Team Fortress","app_id":440,"player_count":24,"max_players":24,"Bots":0,"server_type":"Dedicated","server_os":"Linux","password":true,"vac":true,"version":"7723704","steam_id":85568392924742830,"keywords":["nocrits","nodmgspread","payload","uncletopia"],"game_id":440,"stv_port":27066,"stv_name":"Uncletopia | London | 6 | All Maps | STV","players":[{"user_id":8,"name":"A Cat","steam_id":76561198221549132,"connected_time":2826000000000,"state":"active","ping":36},{"user_id":53,"name":"Okonell[HUN]","steam_id":76561198032216617,"connected_time":572000000000,"state":"active","ping":78},{"user_id":51,"name":"zaleek69","steam_id":76561198058877595,"connected_time":670000000000,"state":"active","ping":68},{"user_id":11,"name":"water bottle","steam_id":76561199141538535,"connected_time":2610000000000,"state":"active","ping":41},{"user_id":56,"name":"jingleboob","steam_id":76561198097507847,"connected_time":312000000000,"state":"active","ping":81},{"user_id":17,"name":"jankomit","steam_id":76561198043024857,"connected_time":2118000000000,"state":"active","ping":84},{"user_id":18,"name":"Kahvi","steam_id":76561198723244199,"connected_time":1901000000000,"state":"active","ping":75},{"user_id":19,"name":"Nika","steam_id":76561198355965587,"connected_time":1889000000000,"state":"active","ping":64},{"user_id":20,"name":"SynthBox3","steam_id":76561199094075745,"connected_time":1854000000000,"state":"active","ping":113},{"user_id":54,"name":"Baconater","steam_id":76561199002315210,"connected_time":563000000000,"state":"active","ping":34},{"user_id":22,"name":"Maya #transrights","steam_id":76561198290614621,"connected_time":1826000000000,"state":"active","ping":53},{"user_id":47,"name":"Adam Sandler","steam_id":76561198310408309,"connected_time":733000000000,"state":"active","ping":45},{"user_id":24,"name":"–ù—ñ–∫—ñ—Ç—Ä–æ–Ω","steam_id":76561198044401080,"connected_time":1680000000000,"state":"active","ping":68},{"user_id":58,"name":"b","steam_id":76561198170649510,"connected_time":252000000000,"state":"active","ping":134},{"user_id":57,"name":"Heat seeking missile","steam_id":76561198026160958,"connected_time":298000000000,"state":"active","ping":59},{"user_id":27,"name":"Jayco","steam_id":76561198122497262,"connected_time":1622000000000,"state":"active","ping":50},{"user_id":59,"name":"I wuv you \u003c3","steam_id":76561199436238409,"connected_time":240000000000,"state":"active","ping":90},{"user_id":29,"name":"TMC","steam_id":76561198077956157,"connected_time":1615000000000,"state":"active","ping":44},{"user_id":31,"name":"LegoKatt","steam_id":76561198064536870,"connected_time":1568000000000,"state":"active","ping":84},{"user_id":50,"name":"Creative","steam_id":76561198835034247,"connected_time":674000000000,"state":"active","ping":91},{"user_id":39,"name":"spillr-.-","steam_id":76561198031330889,"connected_time":1440000000000,"state":"active","ping":66},{"user_id":62,"name":"Jingleboob's 1# Elf","steam_id":76561198067204908,"connected_time":101000000000,"state":"active","ping":55},{"user_id":61,"name":"·¥ò…™·¥èŒõ ∆éÍûç‚ä•","steam_id":76561198276912938,"connected_time":224000000000,"state":"active","ping":113},{"user_id":41,"name":"Windows Vista Cruiser","steam_id":76561198064102233,"connected_time":1389000000000,"state":"active","ping":65}]},{"server_id":40,"name":"Uncletopia | London | 7 | No Payload","name_short":"lon-7","host":"lon-1.uk.uncletopia.com","port":27075,"enabled":true,"region":"eu","cc":"gb","latitude":51.509865,"longitude":-0.118092,"reserved":0,"last_update":"0001-01-01T00:00:00Z","name_a2s":"Uncletopia | London | 7 | No Payload","protocol":17,"map":"koth_viaduct","folder":"tf","game":"Team Fortress","app_id":440,"player_count":0,"max_players":24,"Bots":0,"server_type":"Dedicated","server_os":"Linux","password":true,"vac":true,"version":"7723704","steam_id":85568392924964314,"keywords":["cp","nocrits","nodmgspread","uncletopia"],"game_id":440,"stv_port":27076,"stv_name":"Uncletopia | London | 7 | No Payload | STV","players":null},{"server_id":41,"name":"Uncletopia | London | 8 | Community","name_short":"lon-8","host":"lon-1.uk.uncletopia.com","port":27085,"enabled":true,"region":"eu","cc":"gb","latitude":51.509865,"longitude":-0.118092,"reserved":0,"last_update":"0001-01-01T00:00:00Z","name_a2s":"Uncletopia | London | 8 | Community","protocol":17,"map":"koth_highpass","folder":"tf","game":"Team Fortress","app_id":440,"player_count":0,"max_players":24,"Bots":0,"server_type":"Dedicated","server_os":"Linux","password":true,"vac":true,"version":"7723704","steam_id":85568392924964315,"keywords":["cp","nocrits","nodmgspread","uncletopia"],"game_id":440,"stv_port":27086,"stv_name":"Uncletopia | London | 8 | Community | STV","players":null},{"server_id":300,"name":"Uncletopia | Montr√©al | 1 | All Maps","name_short":"mtl-1","host":"mtl-1.ca.uncletopia.com","port":27015,"enabled":true,"region":"us-east","cc":"ca","latitude":45.50889,"longitude":-73.56167,"reserved":0,"last_update":"0001-01-01T00:00:00Z","name_a2s":"Uncletopia | Montr√©al | 1 | All Maps","protocol":17,"map":"pl_snowycoast","folder":"tf","game":"Team Fortress","app_id":440,"player_count":0,"max_players":24,"Bots":0,"server_type":"Dedicated","server_os":"Linux","password":true,"vac":true,"version":"7723704","steam_id":85568392924500087,"keywords":["nocrits","nodmgspread","payload","uncletopia"],"game_id":440,"stv_port":27016,"stv_name":"Uncletopia | Montr√©al | 1 | All Maps | STV","players":null},{"server_id":301,"name":"Uncletopia | Montr√©al | 2 | All Maps","name_short":"mtl-2","host":"mtl-1.ca.uncletopia.com","port":27025,"enabled":true,"region":"us-east","cc":"ca","latitude":45.50889,"longitude":-73.56167,"reserved":0,"last_update":"0001-01-01T00:00:00Z","name_a2s":"Uncletopia | Montr√©al | 2 | All Maps","protocol":17,"map":"cp_process_final","folder":"tf","game":"Team Fortress","app_id":440,"player_count":0,"max_players":24,"Bots":0,"server_type":"Dedicated","server_os":"Linux","password":true,"vac":true,"version":"7723704","steam_id":85568392924500088,"keywords":["cp","nocrits","nodmgspread","uncletopia"],"game_id":440,"stv_port":27026,"stv_name":"Uncletopia | Montr√©al | 2 | All Maps | STV","players":null},{"server_id":302,"name":"Uncletopia | Montr√©al | 3 | All Maps","name_short":"mtl-3","host":"mtl-1.ca.uncletopia.com","port":27035,"enabled":true,"region":"us-east","cc":"ca","latitude":45.50889,"longitude":-73.56167,"reserved":0,"last_update":"0001-01-01T00:00:00Z","name_a2s":"Uncletopia | Montr√©al | 3 | All Maps","protocol":17,"map":"pl_barnblitz","folder":"tf","game":"Team Fortress","app_id":440,"player_count":0,"max_players":24,"Bots":0,"server_type":"Dedicated","server_os":"Linux","password":true,"vac":true,"version":"7723704","steam_id":85568392924500089,"keywords":["nocrits","nodmgspread","payload","uncletopia"],"game_id":440,"stv_port":27036,"stv_name":"Uncletopia | Montr√©al | 3 | All Maps | STV","players":null},{"server_id":303,"name":"Uncletopia | Montr√©al | 4 | No Payload","name_short":"mtl-4","host":"mtl-1.ca.uncletopia.com","port":27045,"enabled":true,"region":"us-east","cc":"ca","latitude":45.50889,"longitude":-73.56167,"reserved":0,"last_update":"0001-01-01T00:00:00Z","name_a2s":"Uncletopia | Montr√©al | 4 | No Payload","protocol":17,"map":"koth_cascade","folder":"tf","game":"Team Fortress","app_id":440,"player_count":0,"max_players":24,"Bots":0,"server_type":"Dedicated","server_os":"Linux","password":true,"vac":true,"version":"7723704","steam_id":85568392924500090,"keywords":["cp","nocrits","nodmgspread","uncletopia"],"game_id":440,"stv_port":27046,"stv_name":"Uncletopia | Montr√©al | 4 | No Payload | STV","players":null},{"server_id":13,"name":"Uncletopia | New York City | 1 | All Maps","name_short":"nyc-1","host":"nyc-1.us.uncletopia.com","port":27015,"enabled":true,"region":"us-east","cc":"us","latitude":40.73061,"longitude":-73.93524,"reserved":0,"last_update":"0001-01-01T00:00:00Z","name_a2s":"Uncletopia | New York City | 1 | All Maps","protocol":17,"map":"cp_sunshine","folder":"tf","game":"Team Fortress","app_id":440,"player_count":12,"max_players":24,"Bots":0,"server_type":"Dedicated","server_os":"Linux","password":true,"vac":true,"version":"7723704","steam_id":85568392924469993,"keywords":["cp","nocrits","nodmgspread","uncletopia"],"game_id":440,"stv_port":27016,"stv_name":"Uncletopia | New York City | 1 | All Maps | STV","players":[{"user_id":22,"name":"Feleeg","steam_id":76561198452866612,"connected_time":1191000000000,"state":"active","ping":44},{"user_id":39,"name":"Cranjis McBasketball","steam_id":76561198051290193,"connected_time":170000000000,"state":"active","ping":123},{"user_id":30,"name":"Rugbmilk","steam_id":76561199389283507,"connected_time":738000000000,"state":"active","ping":65},{"user_id":40,"name":"Crow","steam_id":76561198064799398,"connected_time":149000000000,"state":"active","ping":75},{"user_id":10,"name":"Samus","steam_id":76561198121933439,"connected_time":2926000000000,"state":"active","ping":45},{"user_id":33,"name":"swag commander in chief","steam_id":76561198143132686,"connected_time":537000000000,"state":"active","ping":100},{"user_id":20,"name":"Hot bunny women in your area","steam_id":76561198329460312,"connected_time":1352000000000,"state":"active","ping":74},{"user_id":21,"name":"y40GHAI","steam_id":76561198990823135,"connected_time":1263000000000,"state":"active","ping":185},{"user_id":27,"name":"Geo","steam_id":76561198151099964,"connected_time":872000000000,"state":"active","ping":68},{"user_id":41,"name":"ThreatLvl9 (she/her)","steam_id":76561198079410533,"connected_time":127000000000,"state":"active","ping":61},{"user_id":29,"name":"Bendy_Tank","steam_id":76561199438911774,"connected_time":824000000000,"state":"active","ping":126},{"user_id":42,"name":"Thessalonians 5:26","steam_id":76561199236719411,"connected_time":64000000000,"state":"active","ping":80}]},{"server_id":14,"name":"Uncletopia | New York City | 2 | All Maps","name_short":"nyc-2","host":"nyc-1.us.uncletopia.com","port":27025,"enabled":true,"region":"us-east","cc":"us","latitude":40.73061,"longitude":-73.93524,"reserved":0,"last_update":"0001-01-01T00:00:00Z","name_a2s":"Uncletopia | New York City | 2 | All Maps","protocol":17,"map":"pl_barnblitz","folder":"tf","game":"Team Fortress","app_id":440,"player_count":0,"max_players":24,"Bots":0,"server_type":"Dedicated","server_os":"Linux","password":true,"vac":true,"version":"7723704","steam_id":85568392924469994,"keywords":["nocrits","nodmgspread","payload","uncletopia"],"game_id":440,"stv_port":27026,"stv_name":"Uncletopia | New York City | 2 | All Maps | STV","players":null},{"server_id":15,"name":"Uncletopia | New York City | 3 | Stopwatch Beta","name_short":"nyc-3","host":"nyc-1.us.uncletopia.com","port":27035,"enabled":true,"region":"us-east","cc":"us","latitude":40.73061,"longitude":-73.93524,"reserved":0,"last_update":"0001-01-01T00:00:00Z","name_a2s":"Uncletopia | New York City | 3 | Stopwatch Beta","protocol":17,"map":"cp_sunshine","folder":"tf","game":"Team Fortress","app_id":440,"player_count":0,"max_players":24,"Bots":0,"server_type":"Dedicated","server_os":"Linux","password":true,"vac":true,"version":"7723704","steam_id":85568392924742820,"keywords":["cp","nocrits","nodmgspread","uncletopia"],"game_id":440,"stv_port":27036,"stv_name":"Uncletopia | New York City | 3 | Stopwatch Beta | STV","players":null},{"server_id":16,"name":"Uncletopia | New York City | 4 | Community","name_short":"nyc-4","host":"nyc-1.us.uncletopia.com","port":27045,"enabled":true,"region":"us-east","cc":"us","latitude":40.73061,"longitude":-73.93524,"reserved":0,"last_update":"0001-01-01T00:00:00Z","name_a2s":"Uncletopia | New York City | 4 | Community","protocol":17,"map":"pl_frontier_final","folder":"tf","game":"Team Fortress","app_id":440,"player_count":0,"max_players":24,"Bots":0,"server_type":"Dedicated","server_os":"Linux","password":true,"vac":true,"version":"7723704","steam_id":85568392924742821,"keywords":["nocrits","nodmgspread","payload","uncletopia"],"game_id":440,"stv_port":27046,"stv_name":"Uncletopia | New York City | 4 | Community | STV","players":null},{"server_id":142,"name":"Uncletopia | S√£o Paulo | 1 | All Maps","name_short":"sao-1","host":"sao-1.br.uncletopia.com","port":27015,"enabled":true,"region":"sa","cc":"br","latitude":-23.533773,"longitude":-46.62529,"reserved":0,"last_update":"0001-01-01T00:00:00Z","name_a2s":"Uncletopia | S√£o Paulo | 1 | All Maps","protocol":17,"map":"pl_badwater","folder":"tf","game":"Team Fortress","app_id":440,"player_count":0,"max_players":24,"Bots":0,"server_type":"Dedicated","server_os":"Linux","password":true,"vac":true,"version":"7723704","steam_id":85568392924469996,"keywords":["nocrits","nodmgspread","payload","uncletopia"],"game_id":440,"stv_port":27016,"stv_name":"Uncletopia | S√£o Paulo | 1 | All Maps | STV","players":null},{"server_id":143,"name":"Uncletopia | S√£o Paulo | 2 | All Maps","name_short":"sao-2","host":"sao-2.br.uncletopia.com","port":27015,"enabled":true,"region":"sa","cc":"br","latitude":-23.533773,"longitude":-46.62529,"reserved":0,"last_update":"0001-01-01T00:00:00Z","name_a2s":"Uncletopia | S√£o Paulo | 2 | All Maps","protocol":17,"map":"pl_frontier_final","folder":"tf","game":"Team Fortress","app_id":440,"player_count":0,"max_players":24,"Bots":0,"server_type":"Dedicated","server_os":"Linux","password":true,"vac":true,"version":"7723704","steam_id":85568392924485349,"keywords":["nocrits","nodmgspread","payload","uncletopia"],"game_id":440,"stv_port":27016,"stv_name":"Uncletopia | S√£o Paulo | 2 | All Maps | STV","players":null},{"server_id":7,"name":"Uncletopia | Seattle | 1 | All Maps","name_short":"sea-1","host":"sea-1.us.uncletopia.com","port":27015,"enabled":true,"region":"us-west","cc":"us","latitude":47.608013,"longitude":-122.33517,"reserved":0,"last_update":"0001-01-01T00:00:00Z","name_a2s":"Uncletopia | Seattle | 1 | All Maps","protocol":17,"map":"koth_highpass","folder":"tf","game":"Team Fortress","app_id":440,"player_count":0,"max_players":24,"Bots":0,"server_type":"Dedicated","server_os":"Linux","password":true,"vac":true,"version":"7723704","steam_id":85568392924469997,"keywords":["cp","nocrits","nodmgspread","uncletopia"],"game_id":440,"stv_port":27016,"stv_name":"Uncletopia | Seattle | 1 | All Maps | STV","players":null},{"server_id":119,"name":"Uncletopia | Seattle | 2 | All Maps","name_short":"sea-2","host":"sea-1.us.uncletopia.com","port":27025,"enabled":true,"region":"us-west","cc":"us","latitude":47.608013,"longitude":-122.33517,"reserved":0,"last_update":"0001-01-01T00:00:00Z","name_a2s":"Uncletopia | Seattle | 2 | All Maps","protocol":17,"map":"koth_viaduct","folder":"tf","game":"Team Fortress","app_id":440,"player_count":0,"max_players":24,"Bots":0,"server_type":"Dedicated","server_os":"Linux","password":true,"vac":true,"version":"7723704","steam_id":85568392924469998,"keywords":["cp","nocrits","nodmgspread","uncletopia"],"game_id":440,"stv_port":27026,"stv_name":"Uncletopia | Seattle | 2 | All Maps | STV","players":null},{"server_id":406,"name":"Uncletopia | Seattle | 3 | Stopwatch Beta","name_short":"sea-3","host":"sea-1.us.uncletopia.com","port":27035,"enabled":true,"region":"us-west","cc":"us","latitude":47.608013,"longitude":-122.33517,"reserved":0,"last_update":"0001-01-01T00:00:00Z","name_a2s":"Uncletopia | Seattle | 3 | Stopwatch Beta","protocol":17,"map":"cp_altitude","folder":"tf","game":"Team Fortress","app_id":440,"player_count":0,"max_players":24,"Bots":0,"server_type":"Dedicated","server_os":"Linux","password":true,"vac":false,"version":"7723704","steam_id":0,"keywords":["cp","nocrits","nodmgspread","uncletopia"],"game_id":440,"stv_port":27036,"stv_name":"Uncletopia | Seattle | 3 | Stopwatch Beta | STV","players":null},{"server_id":17,"name":"Uncletopia | San Francisco | 1 | All Maps","name_short":"sfo-1","host":"sfo-1.us.uncletopia.com","port":27015,"enabled":true,"region":"us-west","cc":"us","latitude":37.77397,"longitude":-122.4313,"reserved":0,"last_update":"0001-01-01T00:00:00Z","name_a2s":"Uncletopia | San Francisco | 1 | All Maps","protocol":17,"map":"pl_swiftwater_final1","folder":"tf","game":"Team Fortress","app_id":440,"player_count":0,"max_players":24,"Bots":0,"server_type":"Dedicated","server_os":"Linux","password":true,"vac":true,"version":"7723704","steam_id":85568392924469999,"keywords":["nocrits","nodmgspread","payload","uncletopia"],"game_id":440,"stv_port":27016,"stv_name":"Uncletopia | San Francisco | 1 | All Maps | STV","players":null},{"server_id":18,"name":"Uncletopia | San Francisco | 2 | All Maps","name_short":"sfo-2","host":"sfo-1.us.uncletopia.com","port":27025,"enabled":true,"region":"us-west","cc":"us","latitude":37.77397,"longitude":-122.4313,"reserved":0,"last_update":"0001-01-01T00:00:00Z","name_a2s":"Uncletopia | San Francisco | 2 | All Maps","protocol":17,"map":"pl_borneo","folder":"tf","game":"Team Fortress","app_id":440,"player_count":0,"max_players":24,"Bots":0,"server_type":"Dedicated","server_os":"Linux","password":true,"vac":true,"version":"7723704","steam_id":85568392924470000,"keywords":["nocrits","nodmgspread","payload","uncletopia"],"game_id":440,"stv_port":27026,"stv_name":"Uncletopia | San Francisco | 2 | All Maps | STV","players":null},{"server_id":19,"name":"Uncletopia | San Francisco | 3 | Stopwatch Beta","name_short":"sfo-3","host":"sfo-1.us.uncletopia.com","port":27035,"enabled":true,"region":"us-west","cc":"us","latitude":37.77397,"longitude":-122.4313,"reserved":0,"last_update":"0001-01-01T00:00:00Z","name_a2s":"Uncletopia | San Francisco | 3 | Stopwatch Beta","protocol":17,"map":"cp_gullywash_final1","folder":"tf","game":"Team Fortress","app_id":440,"player_count":0,"max_players":24,"Bots":0,"server_type":"Dedicated","server_os":"Linux","password":true,"vac":true,"version":"7723704","steam_id":85568392924742824,"keywords":["cp","nocrits","nodmgspread","uncletopia"],"game_id":440,"stv_port":27036,"stv_name":"Uncletopia | San Francisco | 3 | Stopwatch Beta | STV","players":null},{"server_id":20,"name":"Uncletopia | San Francisco | 4 | Community","name_short":"sfo-4","host":"sfo-1.us.uncletopia.com","port":27045,"enabled":true,"region":"us-west","cc":"us","latitude":37.77397,"longitude":-122.4313,"reserved":0,"last_update":"0001-01-01T00:00:00Z","name_a2s":"Uncletopia | San Francisco | 4 | Community","protocol":17,"map":"koth_cascade","folder":"tf","game":"Team Fortress","app_id":440,"player_count":0,"max_players":24,"Bots":0,"server_type":"Dedicated","server_os":"Linux","password":true,"vac":true,"version":"7723704","steam_id":85568392924742826,"keywords":["cp","nocrits","nodmgspread","uncletopia"],"game_id":440,"stv_port":27046,"stv_name":"Uncletopia | San Francisco | 4 | Community | STV","players":null},{"server_id":141,"name":"Uncletopia | Sydney | 1 | All Maps","name_short":"syd-1","host":"syd-1.au.uncletopia.com","port":27015,"enabled":true,"region":"au","cc":"au","latitude":-33.865143,"longitude":151.2099,"reserved":0,"last_update":"0001-01-01T00:00:00Z","name_a2s":"Uncletopia | Sydney | 1 | All Maps","protocol":17,"map":"pl_pier","folder":"tf","game":"Team Fortress","app_id":440,"player_count":0,"max_players":24,"Bots":0,"server_type":"Dedicated","server_os":"Linux","password":true,"vac":true,"version":"7723704","steam_id":85568392924470001,"keywords":["nocrits","nodmgspread","payload","uncletopia"],"game_id":440,"stv_port":27016,"stv_name":"Uncletopia | Sydney | 1 | All Maps | STV","players":null},{"server_id":123,"name":"Uncletopia | Sydney | 2 | All Maps","name_short":"syd-2","host":"syd-1.au.uncletopia.com","port":27025,"enabled":true,"region":"au","cc":"au","latitude":-33.865143,"longitude":151.2099,"reserved":0,"last_update":"0001-01-01T00:00:00Z","name_a2s":"Uncletopia | Sydney | 2 | All Maps","protocol":17,"map":"cp_dustbowl","folder":"tf","game":"Team Fortress","app_id":440,"player_count":21,"max_players":24,"Bots":0,"server_type":"Dedicated","server_os":"Linux","password":true,"vac":true,"version":"7723704","steam_id":85568392924470002,"keywords":["cp","nocrits","nodmgspread","uncletopia"],"game_id":440,"stv_port":27026,"stv_name":"Uncletopia | Sydney | 2 | All Maps | STV","players":[{"user_id":362,"name":"el [?!]","steam_id":76561198077802034,"connected_time":1188000000000,"state":"active","ping":72},{"user_id":373,"name":"FocusedLoop","steam_id":76561198281140980,"connected_time":101000000000,"state":"active","ping":61},{"user_id":352,"name":"floppinv2","steam_id":76561198213566569,"connected_time":1752000000000,"state":"active","ping":95},{"user_id":363,"name":"Dr Rags","steam_id":76561198179481430,"connected_time":1053000000000,"state":"active","ping":93},{"user_id":357,"name":"yons","steam_id":76561198083920784,"connected_time":1597000000000,"state":"active","ping":60},{"user_id":337,"name":"Pissbaby","steam_id":76561198360222919,"connected_time":2570000000000,"state":"active","ping":53},{"user_id":375,"name":"LightningBlock","steam_id":76561198289997742,"connected_time":7000000000,"state":"active","ping":69},{"user_id":365,"name":"jabu","steam_id":76561198044343775,"connected_time":722000000000,"state":"active","ping":50},{"user_id":312,"name":"Grecko","steam_id":76561198032976002,"connected_time":4375000000000,"state":"active","ping":56},{"user_id":374,"name":"mukining","steam_id":76561199089100718,"connected_time":97000000000,"state":"active","ping":62},{"user_id":351,"name":"Jiffy360","steam_id":76561198149550772,"connected_time":1776000000000,"state":"active","ping":94},{"user_id":334,"name":"bluey","steam_id":76561198355125370,"connected_time":2756000000000,"state":"active","ping":47},{"user_id":368,"name":"hajime","steam_id":76561198256203208,"connected_time":468000000000,"state":"active","ping":153},{"user_id":319,"name":"Priince","steam_id":76561198057802660,"connected_time":4025000000000,"state":"active","ping":83},{"user_id":369,"name":"jcoll444","steam_id":76561198143025380,"connected_time":450000000000,"state":"active","ping":60},{"user_id":311,"name":"gave my love to a shooting star","steam_id":76561197990537324,"connected_time":4542000000000,"state":"active","ping":105},{"user_id":358,"name":"merkier","steam_id":76561198006943216,"connected_time":1592000000000,"state":"active","ping":70},{"user_id":359,"name":"toast","steam_id":76561198045163288,"connected_time":1588000000000,"state":"active","ping":53},{"user_id":343,"name":"enemy gamer","steam_id":76561198127848228,"connected_time":2336000000000,"state":"active","ping":63},{"user_id":327,"name":"Soru","steam_id":76561198010844786,"connected_time":3224000000000,"state":"active","ping":60},{"user_id":329,"name":"„Äé eunity „Äè","steam_id":76561198058929004,"connected_time":3200000000000,"state":"active","ping":97}]},{"server_id":395,"name":"Uncletopia | Sydney | 3 | All Maps","name_short":"syd-3","host":"syd-1.au.uncletopia.com","port":27035,"enabled":true,"region":"au","cc":"au","latitude":-33.865143,"longitude":151.2099,"reserved":0,"last_update":"0001-01-01T00:00:00Z","name_a2s":"Uncletopia | Sydney | 3 | All Maps","protocol":17,"map":"cp_altitude","folder":"tf","game":"Team Fortress","app_id":440,"player_count":0,"max_players":24,"Bots":0,"server_type":"Dedicated","server_os":"Linux","password":true,"vac":true,"version":"7723704","steam_id":85568392925194467,"keywords":["cp","nocrits","nodmgspread","uncletopia"],"game_id":440,"stv_port":27036,"stv_name":"Uncletopia | Sydney | 3 | All Maps | STV","players":null},{"server_id":396,"name":"Uncletopia | Sydney | 4 | All Maps","name_short":"syd-4","host":"syd-1.au.uncletopia.com","port":27045,"enabled":true,"region":"au","cc":"au","latitude":-33.865143,"longitude":151.2099,"reserved":0,"last_update":"0001-01-01T00:00:00Z","name_a2s":"Uncletopia | Sydney | 4 | All Maps","protocol":17,"map":"koth_cascade","folder":"tf","game":"Team Fortress","app_id":440,"player_count":0,"max_players":24,"Bots":0,"server_type":"Dedicated","server_os":"Linux","password":true,"vac":true,"version":"7723704","steam_id":85568392925397958,"keywords":["cp","nocrits","nodmgspread","uncletopia"],"game_id":440,"stv_port":27046,"stv_name":"Uncletopia | Sydney | 4 | All Maps | STV","players":null},{"server_id":58,"name":"Uncletopia | Sydney | 5 | Stopwatch Beta","name_short":"syd-5","host":"syd-1.au.uncletopia.com","port":27055,"enabled":true,"region":"au","cc":"au","latitude":-33.865143,"longitude":151.2099,"reserved":0,"last_update":"0001-01-01T00:00:00Z","name_a2s":"Uncletopia | Sydney | 5 | Stopwatch Beta","protocol":17,"map":"cp_altitude","folder":"tf","game":"Team Fortress","app_id":440,"player_count":0,"max_players":24,"Bots":0,"server_type":"Dedicated","server_os":"Linux","password":true,"vac":true,"version":"7723704","steam_id":85568392925397959,"keywords":["cp","nocrits","nodmgspread","uncletopia"],"game_id":440,"stv_port":27056,"stv_name":"Uncletopia | Sydney | 5 | Stopwatch Beta | STV","players":null},{"server_id":59,"name":"Uncletopia | Sydney | 6 | Community","name_short":"syd-6","host":"syd-1.au.uncletopia.com","port":27065,"enabled":true,"region":"au","cc":"au","latitude":-33.865143,"longitude":151.2099,"reserved":0,"last_update":"0001-01-01T00:00:00Z","name_a2s":"Uncletopia | Sydney | 6 | Community","protocol":17,"map":"workshop/pl_eruption_b8c.ugc2865677281","folder":"tf","game":"Team Fortress","app_id":440,"player_count":0,"max_players":24,"Bots":0,"server_type":"Dedicated","server_os":"Linux","password":true,"vac":true,"version":"7723704","steam_id":85568392925397960,"keywords":["nocrits","nodmgspread","payload","uncletopia"],"game_id":440,"stv_port":27066,"stv_name":"Uncletopia | Sydney | 6 | Community | STV","players":null},{"server_id":49,"name":"Uncletopia | Warsaw | 1 | All Maps","name_short":"waw-1","host":"waw-1.pl.uncletopia.com","port":27015,"enabled":true,"region":"eu","cc":"pl","latitude":52.2297,"longitude":21.017532,"reserved":0,"last_update":"0001-01-01T00:00:00Z","name_a2s":"Uncletopia | Warsaw | 1 | All Maps","protocol":17,"map":"cp_dustbowl","folder":"tf","game":"Team Fortress","app_id":440,"player_count":0,"max_players":24,"Bots":0,"server_type":"Dedicated","server_os":"Linux","password":true,"vac":true,"version":"7723704","steam_id":85568392925397850,"keywords":["cp","nocrits","nodmgspread","uncletopia"],"game_id":440,"stv_port":27016,"stv_name":"Uncletopia | Warsaw | 1 | All Maps | STV","players":null},{"server_id":50,"name":"Uncletopia | Warsaw | 2 | All Maps","name_short":"waw-2","host":"waw-1.pl.uncletopia.com","port":27025,"enabled":true,"region":"eu","cc":"pl","latitude":52.2297,"longitude":21.017532,"reserved":0,"last_update":"0001-01-01T00:00:00Z","name_a2s":"Uncletopia | Warsaw | 2 | All Maps","protocol":17,"map":"pl_barnblitz","folder":"tf","game":"Team Fortress","app_id":440,"player_count":0,"max_players":24,"Bots":0,"server_type":"Dedicated","server_os":"Linux","password":true,"vac":true,"version":"7723704","steam_id":85568392925397851,"keywords":["nocrits","nodmgspread","payload","uncletopia"],"game_id":440,"stv_port":27026,"stv_name":"Uncletopia | Warsaw | 2 | All Maps | STV","players":null},{"server_id":51,"name":"Uncletopia | Warsaw | 3 | All Maps","name_short":"waw-3","host":"waw-1.pl.uncletopia.com","port":27035,"enabled":true,"region":"eu","cc":"pl","latitude":52.2297,"longitude":21.017532,"reserved":0,"last_update":"0001-01-01T00:00:00Z","name_a2s":"Uncletopia | Warsaw | 3 | All Maps","protocol":17,"map":"pl_barnblitz","folder":"tf","game":"Team Fortress","app_id":440,"player_count":0,"max_players":24,"Bots":0,"server_type":"Dedicated","server_os":"Linux","password":true,"vac":true,"version":"7723704","steam_id":85568392925397852,"keywords":["nocrits","nodmgspread","payload","uncletopia"],"game_id":440,"stv_port":27036,"stv_name":"Uncletopia | Warsaw | 3 | All Maps | STV","players":null},{"server_id":52,"name":"Uncletopia | Warsaw | 4 | All Maps","name_short":"waw-4","host":"waw-1.pl.uncletopia.com","port":27045,"enabled":true,"region":"eu","cc":"pl","latitude":52.2297,"longitude":21.017532,"reserved":0,"last_update":"0001-01-01T00:00:00Z","name_a2s":"Uncletopia | Warsaw | 4 | All Maps","protocol":17,"map":"koth_viaduct","folder":"tf","game":"Team Fortress","app_id":440,"player_count":0,"max_players":24,"Bots":0,"server_type":"Dedicated","server_os":"Linux","password":true,"vac":true,"version":"7723704","steam_id":85568392925397853,"keywords":["cp","nocrits","nodmgspread","uncletopia"],"game_id":440,"stv_port":27046,"stv_name":"Uncletopia | Warsaw | 4 | All Maps | STV","players":null},{"server_id":53,"name":"Uncletopia | Warsaw | 5 | Stopwatch Beta","name_short":"waw-5","host":"waw-1.pl.uncletopia.com","port":27055,"enabled":true,"region":"eu","cc":"pl","latitude":52.2297,"longitude":21.017532,"reserved":0,"last_update":"0001-01-01T00:00:00Z","name_a2s":"Uncletopia | Warsaw | 5 | Stopwatch Beta","protocol":17,"map":"cp_sunshine","folder":"tf","game":"Team Fortress","app_id":440,"player_count":0,"max_players":24,"Bots":0,"server_type":"Dedicated","server_os":"Linux","password":true,"vac":true,"version":"7723704","steam_id":85568392925397854,"keywords":["cp","nocrits","nodmgspread","uncletopia"],"game_id":440,"stv_port":27056,"stv_name":"Uncletopia | Warsaw | 5 | Stopwatch Beta | STV","players":null},{"server_id":54,"name":"Uncletopia | Warsaw | 6 | Community","name_short":"waw-6","host":"waw-1.pl.uncletopia.com","port":27065,"enabled":true,"region":"eu","cc":"pl","latitude":52.2297,"longitude":21.017532,"reserved":0,"last_update":"0001-01-01T00:00:00Z","name_a2s":"Uncletopia | Warsaw | 6 | Community","protocol":17,"map":"pl_snowycoast","folder":"tf","game":"Team Fortress","app_id":440,"player_count":0,"max_players":24,"Bots":0,"server_type":"Dedicated","server_os":"Linux","password":true,"vac":true,"version":"7723704","steam_id":85568392925397856,"keywords":["nocrits","nodmgspread","payload","uncletopia"],"game_id":440,"stv_port":27066,"stv_name":"Uncletopia | Warsaw | 6 | Community | STV","players":null}]}