{"status":true,"message":"","result":[{"server_id":9,"name":"Uncletopia | Atlanta | 1 | All Maps","name_short":"atl-1","host":"atl-1.us.uncletopia.com","port":27015,"enabled":true,"region":"us-east","cc":"us","latitude":33.753746,"longitude":-84.38633,"reserved":0,"last_update":"0001-01-01T00:00:00Z","name_a2s":"Uncletopia | Atlanta | 1 | All Maps","protocol":17,"map":"pl_snowycoast","folder":"tf","game":"Team Fortress","app_id":440,"player_count":24,"max_players":24,"Bots":0,"server_type":"Dedicated","server_os":"Linux","password":true,"vac":true,"version":"7757534","steam_id":85568392924469982,"keywords":["nocrits","nodmgspread","payload","uncletopia"],"game_id":440,"stv_port":27016,"stv_name":"Uncletopia | Atlanta | 1 | All Maps | STV","players":[{"user_id":70,"name":"Bambi's Mom","steam_id":76561199120483390,"connected_time":2426000000000,"state":"active","ping":97},{"user_id":92,"name":"enolteiii","steam_id":76561198140843225,"connected_time":1021000000000,"state":"active","ping":125},{"user_id":22,"name":"Towns","steam_id":76561198984662863,"connected_time":4857000000000,"state":"active","ping":56},{"user_id":89,"name":"Squish #1","steam_id":76561198087713516,"connected_time":1066000000000,"state":"active","ping":60},{"user_id":57,"name":"Vanya","steam_id":76561198042631561,"connected_time":3524000000000,"state":"active","ping":102},{"user_id":61,"name":"JimmyNeutron","steam_id":76561197993353322,"connected_time":3050000000000,"state":"active","ping":83},{"user_id":82,"name":"snuppy","steam_id":76561199157666657,"connected_time":1649000000000,"state":"active","ping":73},{"user_id":58,"name":"Serene Salamander","steam_id":76561198001094770,"connected_time":3420000000000,"state":"active","ping":108},{"user_id":88,"name":"ATL1 | Pango","steam_id":76561198069811545,"connected_time":1083000000000,"state":"active","ping":46},{"user_id":84,"name":"Jhonejay","steam_id":76561198071299850,"connected_time":1626000000000,"state":"active","ping":73},{"user_id":79,"name":"Decolour","steam_id":76561199045608372,"connected_time":1657000000000,"state":"active","ping":71},{"user_id":65,"name":"Johnny Lawrence #JohnnyMaxxing","steam_id":76561199367141671,"connected_time":2651000000000,"state":"active","ping":68},{"user_id":80,"name":"Davy Jones","steam_id":76561198956823243,"connected_time":1656000000000,"state":"active","ping":47},{"user_id":98,"name":"Red Bull Enjoyer","steam_id":76561199057730282,"connected_time":480000000000,"state":"active","ping":93},{"user_id":77,"name":"RED1 | snoops","steam_id":76561197986760351,"connected_time":1668000000000,"state":"active","ping":75},{"user_id":90,"name":"BambuBabyPackRunner","steam_id":76561198320866421,"connected_time":1065000000000,"state":"active","ping":54},{"user_id":96,"name":"edelyn","steam_id":76561198815644949,"connected_time":650000000000,"state":"active","ping":43},{"user_id":95,"name":"oklama","steam_id":76561198397009880,"connected_time":663000000000,"state":"active","ping":55},{"user_id":78,"name":"Onyx","steam_id":76561198275349640,"connected_time":1668000000000,"state":"active","ping":76},{"user_id":71,"name":"IcemanF12","steam_id":76561198140010054,"connected_time":2423000000000,"state":"active","ping":74},{"user_id":94,"name":"LukeLeal","steam_id":76561198049822995,"connected_time":697000000000,"state":"active","ping":161},{"user_id":97,"name":"Aribari","steam_id":76561198117327938,"connected_time":570000000000,"state":"active","ping":89},{"user_id":63,"name":"alt1icyy","steam_id":76561198968001329,"connected_time":2991000000000,"state":"active","ping":46},{"user_id":67,"name":"SlickStick04","steam_id":76561199016580456,"connected_time":2571000000000,"state":"active","ping":69}]},{"server_id":400,"name":"Uncletopia | Atlanta | 3 | Community","name_short":"atl-3","host":"atl-1.us.uncletopia.com","port":27035,"enabled":true,"region":"us-east","cc":"us","latitude":33.753746,"longitude":-84.38633,"reserved":0,"last_update":"0001-01-01T00:00:00Z","name_a2s":"Uncletopia | Atlanta | 3 | Community","protocol":17,"map":"workshop/cp_reckoner_rc6.ugc674719999","folder":"tf","game":"Team Fortress","app_id":440,"player_count":0,"max_players":24,"Bots":0,"server_type":"Dedicated","server_os":"Linux","password":true,"vac":true,"version":"7757534","steam_id":85568392924515187,"keywords":["cp","nocrits","nodmgspread","uncletopia"],"game_id":440,"stv_port":27036,"stv_name":"Uncletopia | Atlanta | 3 | Community | STV","players":null},{"server_id":401,"name":"Uncletopia | Atlanta | 4 | No Payload","name_short":"atl-4","host":"atl-1.us.uncletopia.com","port":27045,"enabled":true,"region":"us-east","cc":"us","latitude":33.753746,"longitude":-84.38633,"reserved":0,"last_update":"0001-01-01T00:00:00Z","name_a2s":"","protocol":0,"map":"","folder":"","game":"","app_id":0,"player_count":0,"max_players":0,"Bots":0,"server_type":"","server_os":"","password":false,"vac":false,"version":"","steam_id":0,"keywords":null,"game_id":0,"stv_port":0,"stv_name":"","players":null},{"server_id":2,"name":"Uncletopia | Chicago | 1 | All Maps","name_short":"chi-1","host":"chi-1.us.uncletopia.com","port":27015,"enabled":true,"region":"us-central","cc":"us","latitude":41.881832,"longitude":-87.62318,"reserved":0,"last_update":"0001-01-01T00:00:00Z","name_a2s":"Uncletopia | Chicago | 1 | All Maps","protocol":17,"map":"pl_borneo","folder":"tf","game":"Team Fortress","app_id":440,"player_count":24,"max_players":24,"Bots":0,"server_type":"Dedicated","server_os":"Linux","password":true,"vac":true,"version":"7757534","steam_id":85568392924469984,"keywords":["nocrits","nodmgspread","payload","uncletopia"],"game_id":440,"stv_port":27016,"stv_name":"Uncletopia | Chicago | 1 | All Maps | STV","players":[{"user_id":200,"name":"sheep","steam_id":76561198172943006,"connected_time":621000000000,"state":"active","ping":47},{"user_id":186,"name":"Wahter","steam_id":76561198068654532,"connected_time":1925000000000,"state":"active","ping":104},{"user_id":206,"name":"Brock Obama","steam_id":76561198094643755,"connected_time":206000000000,"state":"active","ping":62},{"user_id":204,"name":"|WS| Don't_Taze_Me_Bro","steam_id":76561198043289495,"connected_time":216000000000,"state":"active","ping":71},{"user_id":210,"name":"Pixler544","steam_id":76561198240575132,"connected_time":180000000000,"state":"active","ping":79},{"user_id":205,"name":"sheep girl \u003c3","steam_id":76561198068189558,"connected_time":210000000000,"state":"active","ping":91},{"user_id":183,"name":"Fake Uncle","steam_id":76561198880227689,"connected_time":1945000000000,"state":"active","ping":54},{"user_id":128,"name":"I can't heal","steam_id":76561198039763676,"connected_time":8462000000000,"state":"active","ping":103},{"user_id":216,"name":"-W3E- grim10465","steam_id":76561198045698581,"connected_time":5000000000,"state":"spawning","ping":59},{"user_id":188,"name":"General Jimbo","steam_id":76561198075426735,"connected_time":1899000000000,"state":"active","ping":82},{"user_id":112,"name":"ProtoFeveren","steam_id":76561198096196467,"connected_time":10309000000000,"state":"active","ping":63},{"user_id":173,"name":"Kohbold","steam_id":76561198996480140,"connected_time":3268000000000,"state":"active","ping":93},{"user_id":176,"name":"Microreo","steam_id":76561198006966554,"connected_time":2799000000000,"state":"active","ping":65},{"user_id":213,"name":"PzVIIIMaus","steam_id":76561198346559365,"connected_time":155000000000,"state":"active","ping":38},{"user_id":207,"name":"Joy","steam_id":76561199027530000,"connected_time":190000000000,"state":"active","ping":64},{"user_id":162,"name":"Wiggles","steam_id":76561197964143762,"connected_time":5494000000000,"state":"active","ping":72},{"user_id":198,"name":"‚ùÄSkye_Rose‚ùÄ","steam_id":76561198042797798,"connected_time":825000000000,"state":"active","ping":71},{"user_id":197,"name":"Owl Pacino","steam_id":76561197979970666,"connected_time":875000000000,"state":"active","ping":56},{"user_id":80,"name":"Ris","steam_id":76561198073840980,"connected_time":12962000000000,"state":"active","ping":66},{"user_id":192,"name":"Big Phony","steam_id":76561199092395311,"connected_time":1182000000000,"state":"active","ping":67},{"user_id":214,"name":"ash","steam_id":76561198127890645,"connected_time":55000000000,"state":"active","ping":75},{"user_id":209,"name":"rept","steam_id":76561198022100969,"connected_time":182000000000,"state":"active","ping":49},{"user_id":202,"name":"shadow wizard","steam_id":76561198165212575,"connected_time":418000000000,"state":"active","ping":74},{"user_id":212,"name":"Dietrich","steam_id":76561198028163840,"connected_time":169000000000,"state":"active","ping":89}]},{"server_id":106,"name":"Uncletopia | Chicago | 2 | All Maps","name_short":"chi-2","host":"chi-1.us.uncletopia.com","port":27025,"enabled":true,"region":"us-central","cc":"us","latitude":41.881832,"longitude":-87.62318,"reserved":0,"last_update":"0001-01-01T00:00:00Z","name_a2s":"Uncletopia | Chicago | 2 | All Maps","protocol":17,"map":"pl_snowycoast","folder":"tf","game":"Team Fortress","app_id":440,"player_count":17,"max_players":24,"Bots":0,"server_type":"Dedicated","server_os":"Linux","password":true,"vac":true,"version":"7757534","steam_id":85568392924469985,"keywords":["nocrits","nodmgspread","payload","uncletopia"],"game_id":440,"stv_port":27026,"stv_name":"Uncletopia | Chicago | 2 | All Maps | STV","players":[{"user_id":233,"name":".jpg","steam_id":76561198137237377,"connected_time":89000000000,"state":"active","ping":65},{"user_id":234,"name":"NaTuRaL","steam_id":76561197967979228,"connected_time":60000000000,"state":"active","ping":140},{"user_id":181,"name":"jpuck","steam_id":76561198025018960,"connected_time":3947000000000,"state":"active","ping":64},{"user_id":211,"name":"ZyberTheTrilogy","steam_id":76561199224319852,"connected_time":1547000000000,"state":"active","ping":122},{"user_id":199,"name":"Recursive Gamer","steam_id":76561198042102952,"connected_time":2834000000000,"state":"active","ping":64},{"user_id":235,"name":"FatCuddlyBear","steam_id":76561198133613253,"connected_time":51000000000,"state":"active","ping":76},{"user_id":236,"name":"Se√±or_Awesome","steam_id":76561197995206768,"connected_time":44000000000,"state":"spawning","ping":84},{"user_id":237,"name":"Jester","steam_id":76561198153102922,"connected_time":38000000000,"state":"active","ping":73},{"user_id":238,"name":"wizardheap","steam_id":76561198085951272,"connected_time":38000000000,"state":"active","ping":63},{"user_id":202,"name":"Funny Skeleton Man","steam_id":76561198264262564,"connected_time":2329000000000,"state":"active","ping":66},{"user_id":239,"name":"Sebastien from FedEx","steam_id":76561199205213473,"connected_time":11000000000,"state":"spawning","ping":71},{"user_id":183,"name":"Glory","steam_id":76561198013975080,"connected_time":3941000000000,"state":"active","ping":76},{"user_id":230,"name":"uniwu - BUFF THE SPEED","steam_id":76561198864421290,"connected_time":170000000000,"state":"active","ping":56},{"user_id":223,"name":"scrub","steam_id":76561198284916494,"connected_time":1206000000000,"state":"active","ping":49},{"user_id":218,"name":"MAXIMUM OVERDRIVE","steam_id":76561198113992547,"connected_time":1412000000000,"state":"active","ping":84},{"user_id":229,"name":"Pyrovision Enthusiast","steam_id":76561198211892779,"connected_time":386000000000,"state":"active","ping":61},{"user_id":225,"name":"threethree","steam_id":76561198177354155,"connected_time":1136000000000,"state":"active","ping":71}]},{"server_id":402,"name":"Uncletopia | Chicago | 3 | All Maps","name_short":"chi-3","host":"chi-1.us.uncletopia.com","port":27035,"enabled":true,"region":"us-central","cc":"us","latitude":41.881832,"longitude":-87.62318,"reserved":0,"last_update":"0001-01-01T00:00:00Z","name_a2s":"Uncletopia | Chicago | 3 | All Maps","protocol":17,"map":"cp_badlands","folder":"tf","game":"Team Fortress","app_id":440,"player_count":24,"max_players":24,"Bots":0,"server_type":"Dedicated","server_os":"Linux","password":true,"vac":true,"version":"7757534","steam_id":85568392924515191,"keywords":["cp","nocrits","nodmgspread","uncletopia"],"game_id":440,"stv_port":27036,"stv_name":"Uncletopia | Chicago | 3 | All Maps | STV","players":[{"user_id":177,"name":"yitz","steam_id":76561198375575841,"connected_time":2550000000000,"state":"active","ping":49},{"user_id":188,"name":"A Fruit","steam_id":76561198951830050,"connected_time":1699000000000,"state":"active","ping":73},{"user_id":66,"name":"Uso","steam_id":76561198012093238,"connected_time":8367000000000,"state":"active","ping":51},{"user_id":189,"name":"Cuttle's Fish","steam_id":76561198280483257,"connected_time":1674000000000,"state":"active","ping":58},{"user_id":149,"name":"FRANKY!!!","steam_id":76561199211305343,"connected_time":4271000000000,"state":"active","ping":93},{"user_id":176,"name":"dr spwewps","steam_id":76561198144784420,"connected_time":2598000000000,"state":"active","ping":62},{"user_id":152,"name":"girlboss","steam_id":76561197989019617,"connected_time":3853000000000,"state":"active","ping":47},{"user_id":190,"name":"merge without looking","steam_id":76561198056702628,"connected_time":1650000000000,"state":"active","ping":59},{"user_id":175,"name":"aaron123","steam_id":76561198184669555,"connected_time":2617000000000,"state":"active","ping":89},{"user_id":138,"name":"Apple Crisp","steam_id":76561198129518886,"connected_time":4958000000000,"state":"active","ping":81},{"user_id":201,"name":"Young-OG","steam_id":76561198058800479,"connected_time":1236000000000,"state":"active","ping":82},{"user_id":183,"name":"Ifrit","steam_id":76561198044730782,"connected_time":2409000000000,"state":"active","ping":90},{"user_id":210,"name":"nnobi","steam_id":76561198878729277,"connected_time":408000000000,"state":"active","ping":76},{"user_id":206,"name":"carrot cake","steam_id":76561198055174915,"connected_time":763000000000,"state":"active","ping":63},{"user_id":203,"name":"Antknee","steam_id":76561198263793809,"connected_time":1204000000000,"state":"active","ping":75},{"user_id":199,"name":"derz","steam_id":76561198010742216,"connected_time":1309000000000,"state":"active","ping":60},{"user_id":204,"name":"HeartlessWinner","steam_id":76561198376336908,"connected_time":931000000000,"state":"active","ping":73},{"user_id":180,"name":"Acro Banwagon","steam_id":76561198092451804,"connected_time":2511000000000,"state":"active","ping":71},{"user_id":205,"name":"TheDieeg","steam_id":76561199443116996,"connected_time":817000000000,"state":"active","ping":100},{"user_id":209,"name":"[OC2TM] CF-TF2","steam_id":76561198145893044,"connected_time":525000000000,"state":"active","ping":78},{"user_id":208,"name":"Fresh0c0","steam_id":76561198271933283,"connected_time":607000000000,"state":"active","ping":58},{"user_id":195,"name":"pink","steam_id":76561198143290835,"connected_time":1437000000000,"state":"active","ping":56},{"user_id":196,"name":"terrapieseven","steam_id":76561198072062415,"connected_time":1432000000000,"state":"active","ping":73},{"user_id":200,"name":"Funny Street Legend","steam_id":76561198275625984,"connected_time":1308000000000,"state":"active","ping":75}]},{"server_id":403,"name":"Uncletopia | Chicago | 4 | All Maps","name_short":"chi-4","host":"chi-1.us.uncletopia.com","port":27045,"enabled":true,"region":"us-central","cc":"us","latitude":41.881832,"longitude":-87.62318,"reserved":0,"last_update":"0001-01-01T00:00:00Z","name_a2s":"Uncletopia | Chicago | 4 | All Maps","protocol":17,"map":"pl_upward","folder":"tf","game":"Team Fortress","app_id":440,"player_count":24,"max_players":24,"Bots":0,"server_type":"Dedicated","server_os":"Linux","password":true,"vac":true,"version":"7757534","steam_id":85568392924515193,"keywords":["nocrits","nodmgspread","payload","uncletopia"],"game_id":440,"stv_port":27046,"stv_name":"Uncletopia | Chicago | 4 | All Maps | STV","players":[{"user_id":250,"name":"NETTASTINI","steam_id":76561199135904313,"connected_time":102000000000,"state":"active","ping":90},{"user_id":242,"name":"Spazz","steam_id":76561198036167494,"connected_time":879000000000,"state":"active","ping":35},{"user_id":231,"name":"Beejamoose","steam_id":76561198083117844,"connected_time":2204000000000,"state":"active","ping":78},{"user_id":237,"name":"HollyBlocky","steam_id":76561198030156100,"connected_time":1945000000000,"state":"active","ping":68},{"user_id":246,"name":"Iron","steam_id":76561198247918478,"connected_time":661000000000,"state":"active","ping":58},{"user_id":247,"name":"ball","steam_id":76561198811738907,"connected_time":627000000000,"state":"active","ping":71},{"user_id":244,"name":"Rin \"Hindwing\" Redtail","steam_id":76561199074865638,"connected_time":873000000000,"state":"active","ping":72},{"user_id":249,"name":"Bobato Chaps","steam_id":76561198065103552,"connected_time":258000000000,"state":"active","ping":52},{"user_id":182,"name":"M@verick","steam_id":76561198006363519,"connected_time":4766000000000,"state":"active","ping":70},{"user_id":211,"name":"Jimbabwe","steam_id":76561198065373807,"connected_time":3255000000000,"state":"active","ping":63},{"user_id":239,"name":"LocaKola","steam_id":76561198173435430,"connected_time":1918000000000,"state":"active","ping":68},{"user_id":232,"name":"TheLonliestThelonius","steam_id":76561198097657243,"connected_time":2202000000000,"state":"active","ping":71},{"user_id":222,"name":"RedSock","steam_id":76561198161243404,"connected_time":2678000000000,"state":"active","ping":42},{"user_id":226,"name":"MR.THE TOASTER","steam_id":76561199109565739,"connected_time":2320000000000,"state":"active","ping":92},{"user_id":210,"name":"Mattron1","steam_id":76561198012270524,"connected_time":3332000000000,"state":"active","ping":81},{"user_id":233,"name":"THE CUMEST LORD","steam_id":76561198061412592,"connected_time":2189000000000,"state":"active","ping":69},{"user_id":194,"name":"ShadBad","steam_id":76561198248287390,"connected_time":4305000000000,"state":"active","ping":107},{"user_id":248,"name":"Giacomo","steam_id":76561198058560798,"connected_time":535000000000,"state":"active","ping":57},{"user_id":241,"name":"vmoney160","steam_id":76561198053516110,"connected_time":1221000000000,"state":"active","ping":68},{"user_id":245,"name":"Cave Dweller","steam_id":76561198374825685,"connected_time":870000000000,"state":"active","ping":103},{"user_id":220,"name":"flop","steam_id":76561199230528008,"connected_time":3147000000000,"state":"active","ping":119},{"user_id":229,"name":"I'm Confused","steam_id":76561198156746320,"connected_time":2263000000000,"state":"active","ping":43},{"user_id":235,"name":"memeboi679","steam_id":76561199048375084,"connected_time":2141000000000,"state":"active","ping":57},{"user_id":219,"name":"epitome","steam_id":76561198834412436,"connected_time":3171000000000,"state":"active","ping":71}]},{"server_id":36,"name":"Uncletopia | Chicago | 5 | All Maps","name_short":"chi-5","host":"chi-2.us.uncletopia.com","port":27015,"enabled":true,"region":"us-central","cc":"us","latitude":41.881832,"longitude":-87.62318,"reserved":0,"last_update":"0001-01-01T00:00:00Z","name_a2s":"Uncletopia | Chicago | 5 | All Maps","protocol":17,"map":"ctf_doublecross","folder":"tf","game":"Team Fortress","app_id":440,"player_count":10,"max_players":24,"Bots":0,"server_type":"Dedicated","server_os":"Linux","password":true,"vac":true,"version":"7757534","steam_id":85568392924866362,"keywords":["ctf","nocrits","nodmgspread","uncletopia"],"game_id":440,"stv_port":27016,"stv_name":"Uncletopia | Chicago | 5 | All Maps | STV","players":[{"user_id":8,"name":"The World's Softest Sandwich","steam_id":76561198015577707,"connected_time":3910000000000,"state":"active","ping":75},{"user_id":9,"name":"Fresh Lychee","steam_id":76561198045399559,"connected_time":3771000000000,"state":"active","ping":53},{"user_id":25,"name":"turd ferguson","steam_id":76561198071620782,"connected_time":370000000000,"state":"active","ping":86},{"user_id":12,"name":"AltersFalter","steam_id":76561199095678212,"connected_time":2696000000000,"state":"active","ping":82},{"user_id":16,"name":"Griffin","steam_id":76561198159339442,"connected_time":1523000000000,"state":"active","ping":65},{"user_id":20,"name":"SolidMetagross","steam_id":76561199087165586,"connected_time":968000000000,"state":"active","ping":70},{"user_id":17,"name":"RedMustrd","steam_id":76561199246218857,"connected_time":1441000000000,"state":"active","ping":79},{"user_id":19,"name":"anti air turret","steam_id":76561199079513908,"connected_time":1181000000000,"state":"active","ping":191},{"user_id":27,"name":"puppyonline_","steam_id":76561198253574099,"connected_time":249000000000,"state":"active","ping":56},{"user_id":28,"name":"King Cotton","steam_id":76561198292444376,"connected_time":165000000000,"state":"active","ping":75}]},{"server_id":37,"name":"Uncletopia | Chicago | 6 | All Maps","name_short":"chi-6","host":"chi-2.us.uncletopia.com","port":27025,"enabled":true,"region":"us-central","cc":"us","latitude":41.881832,"longitude":-87.62318,"reserved":0,"last_update":"0001-01-01T00:00:00Z","name_a2s":"Uncletopia | Chicago | 6 | All Maps","protocol":17,"map":"cp_5gorge","folder":"tf","game":"Team Fortress","app_id":440,"player_count":23,"max_players":24,"Bots":0,"server_type":"Dedicated","server_os":"Linux","password":true,"vac":true,"version":"7757534","steam_id":85568392924866363,"keywords":["cp","nocrits","nodmgspread","uncletopia"],"game_id":440,"stv_port":27026,"stv_name":"Uncletopia | Chicago | 6 | All Maps | STV","players":[{"user_id":73,"name":"Tanker6115","steam_id":76561198354085983,"connected_time":3630000000000,"state":"active","ping":80},{"user_id":104,"name":"ScRoMpY","steam_id":76561198312058142,"connected_time":1751000000000,"state":"active","ping":71},{"user_id":105,"name":"Chimpanzee","steam_id":76561198850387282,"connected_time":1747000000000,"state":"active","ping":83},{"user_id":128,"name":"Kevin the Minion","steam_id":76561198052380794,"connected_time":245000000000,"state":"active","ping":86},{"user_id":125,"name":"GRONT","steam_id":76561198040464533,"connected_time":303000000000,"state":"active","ping":64},{"user_id":95,"name":"Soul Garg Plushy","steam_id":76561198044480181,"connected_time":2383000000000,"state":"active","ping":53},{"user_id":98,"name":"Skashur","steam_id":76561198364924060,"connected_time":2230000000000,"state":"active","ping":71},{"user_id":133,"name":"FOX927011","steam_id":76561198117831095,"connected_time":109000000000,"state":"active","ping":82},{"user_id":103,"name":"TheSquirrelofHuscurl","steam_id":76561198073379623,"connected_time":1802000000000,"state":"active","ping":78},{"user_id":115,"name":"Hauntedtoaster","steam_id":76561198034655610,"connected_time":851000000000,"state":"active","ping":85},{"user_id":119,"name":"BIG DICK","steam_id":76561198295042981,"connected_time":754000000000,"state":"active","ping":58},{"user_id":25,"name":"Jake","steam_id":76561198018166984,"connected_time":6938000000000,"state":"active","ping":58},{"user_id":120,"name":"Arilotl (she/her)","steam_id":76561199057752358,"connected_time":750000000000,"state":"active","ping":73},{"user_id":44,"name":"tyg","steam_id":76561198056246867,"connected_time":5606000000000,"state":"active","ping":66},{"user_id":64,"name":"Average Engineer Main","steam_id":76561197999657118,"connected_time":4833000000000,"state":"active","ping":88},{"user_id":113,"name":"how do i girl???","steam_id":76561198050290565,"connected_time":1373000000000,"state":"active","ping":89},{"user_id":114,"name":"Lunacy","steam_id":76561199386273760,"connected_time":887000000000,"state":"active","ping":106},{"user_id":126,"name":".jpg","steam_id":76561198137237377,"connected_time":293000000000,"state":"connecting","ping":0},{"user_id":56,"name":"RedDragon232","steam_id":76561199093424575,"connected_time":5188000000000,"state":"active","ping":82},{"user_id":47,"name":"eWVra2Vy","steam_id":76561198453565942,"connected_time":5480000000000,"state":"active","ping":106},{"user_id":84,"name":"Cheeeeeeeen","steam_id":76561198986388085,"connected_time":3099000000000,"state":"active","ping":111},{"user_id":110,"name":"Training Arc","steam_id":76561198038832034,"connected_time":1696000000000,"state":"active","ping":103},{"user_id":134,"name":"Roloman11","steam_id":76561198308927283,"connected_time":82000000000,"state":"active","ping":61}]},{"server_id":38,"name":"Uncletopia | Chicago | 7 | Stopwatch Beta","name_short":"chi-7","host":"chi-2.us.uncletopia.com","port":27035,"enabled":true,"region":"us-central","cc":"us","latitude":41.881832,"longitude":-87.62318,"reserved":0,"last_update":"0001-01-01T00:00:00Z","name_a2s":"Uncletopia | Chicago | 7 | Stopwatch Beta","protocol":17,"map":"koth_viaduct","folder":"tf","game":"Team Fortress","app_id":440,"player_count":0,"max_players":24,"Bots":0,"server_type":"Dedicated","server_os":"Linux","password":true,"vac":true,"version":"7757534","steam_id":85568392924866364,"keywords":["cp","nocrits","nodmgspread","uncletopia"],"game_id":440,"stv_port":27036,"stv_name":"Uncletopia | Chicago | 7 | Stopwatch Beta | STV","players":null},{"server_id":39,"name":"Uncletopia | Chicago | 8 | Community","name_short":"chi-8","host":"chi-2.us.uncletopia.com","port":27045,"enabled":true,"region":"us-central","cc":"us","latitude":41.881832,"longitude":-87.62318,"reserved":0,"last_update":"0001-01-01T00:00:00Z","name_a2s":"Uncletopia | Chicago | 8 | Community","protocol":17,"map":"koth_lakeside_final","folder":"tf","game":"Team Fortress","app_id":440,"player_count":0,"max_players":24,"Bots":0,"server_type":"Dedicated","server_os":"Linux","password":true,"vac":true,"version":"7757534","steam_id":85568392924866365,"keywords":["cp","nocrits","nodmgspread","uncletopia"],"game_id":440,"stv_port":27046,"stv_name":"Uncletopia | Chicago | 8 | Community | STV","players":null},{"server_id":8,"name":"Uncletopia | Dallas | 1 | All Maps","name_short":"dal-1","host":"dal-1.us.uncletopia.com","port":27015,"enabled":true,"region":"us-central","cc":"us","latitude":32.779167,"longitude":-96.80889,"reserved":0,"last_update":"0001-01-01T00:00:00Z","name_a2s":"Uncletopia | Dallas | 1 | All Maps","protocol":17,"map":"cp_dustbowl","folder":"tf","game":"Team Fortress","app_id":440,"player_count":24,"max_players":24,"Bots":0,"server_type":"Dedicated","server_os":"Linux","password":true,"vac":true,"version":"7757534","steam_id":85568392924469986,"keywords":["cp","nocrits","nodmgspread","uncletopia"],"game_id":440,"stv_port":27016,"stv_name":"Uncletopia | Dallas | 1 | All Maps | STV","players":[{"user_id":69,"name":"WAAGGHH Enjoyer","steam_id":76561198974205333,"connected_time":2512000000000,"state":"active","ping":171},{"user_id":88,"name":"radiohead enjoyer","steam_id":76561198397662124,"connected_time":2000000000000,"state":"active","ping":63},{"user_id":15,"name":"jturner1nm","steam_id":76561198344493652,"connected_time":5891000000000,"state":"active","ping":94},{"user_id":125,"name":"HarryjusttHarry","steam_id":76561198982810452,"connected_time":20000000000,"state":"active","ping":87},{"user_id":80,"name":"Spoober","steam_id":76561199155644513,"connected_time":2344000000000,"state":"active","ping":89},{"user_id":117,"name":"luigigario","steam_id":76561198881262416,"connected_time":380000000000,"state":"active","ping":89},{"user_id":118,"name":"name ONE round planet","steam_id":76561199059257565,"connected_time":358000000000,"state":"active","ping":84},{"user_id":97,"name":"Der Munchkin[2098]","steam_id":76561197998833309,"connected_time":1674000000000,"state":"active","ping":73},{"user_id":111,"name":"dRAGONkILLER5610","steam_id":76561198070923665,"connected_time":570000000000,"state":"active","ping":102},{"user_id":99,"name":"Entreezy","steam_id":76561198271093809,"connected_time":1523000000000,"state":"active","ping":108},{"user_id":123,"name":"Firedust19","steam_id":76561198153238631,"connected_time":200000000000,"state":"active","ping":94},{"user_id":112,"name":"Dictator Noodle","steam_id":76561198277243768,"connected_time":569000000000,"state":"active","ping":71},{"user_id":98,"name":"nav","steam_id":76561198872608266,"connected_time":1613000000000,"state":"active","ping":99},{"user_id":105,"name":"LuciD","steam_id":76561198242842394,"connected_time":1083000000000,"state":"active","ping":82},{"user_id":114,"name":"Memesus","steam_id":76561199362236174,"connected_time":561000000000,"state":"active","ping":173},{"user_id":102,"name":"ROADKILL RANDY","steam_id":76561199161322235,"connected_time":1351000000000,"state":"active","ping":61},{"user_id":100,"name":"Gr8alex #KILLTF2","steam_id":76561198227675960,"connected_time":1516000000000,"state":"active","ping":86},{"user_id":116,"name":"Jennifer Aniston's Nipples","steam_id":76561198086107548,"connected_time":527000000000,"state":"active","ping":43},{"user_id":110,"name":"Sad_Pepe","steam_id":76561199014989291,"connected_time":638000000000,"state":"active","ping":39},{"user_id":119,"name":"Crippling Debt","steam_id":76561198850664215,"connected_time":356000000000,"state":"active","ping":125},{"user_id":121,"name":"MEDIC!","steam_id":76561198149344029,"connected_time":351000000000,"state":"active","ping":80},{"user_id":77,"name":"Satori Komeiji","steam_id":76561198158211423,"connected_time":2382000000000,"state":"active","ping":73},{"user_id":122,"name":"Pinetree w/ apples.","steam_id":76561198105411709,"connected_time":267000000000,"state":"active","ping":107},{"user_id":108,"name":"nach","steam_id":76561198040640135,"connected_time":890000000000,"state":"active","ping":86}]},{"server_id":108,"name":"Uncletopia | Dallas | 2 | All Maps","name_short":"dal-2","host":"dal-1.us.uncletopia.com","port":27025,"enabled":true,"region":"us-central","cc":"us","latitude":32.779167,"longitude":-96.80889,"reserved":0,"last_update":"0001-01-01T00:00:00Z","name_a2s":"Uncletopia | Dallas | 2 | All Maps","protocol":17,"map":"cp_altitude","folder":"tf","game":"Team Fortress","app_id":440,"player_count":0,"max_players":24,"Bots":0,"server_type":"Dedicated","server_os":"Linux","password":true,"vac":true,"version":"7757534","steam_id":85568392924469988,"keywords":["cp","nocrits","nodmgspread","uncletopia"],"game_id":440,"stv_port":27026,"stv_name":"Uncletopia | Dallas | 2 | All Maps | STV","players":null},{"server_id":5,"name":"Uncletopia | Frankfurt | 1 | All Maps","name_short":"frk-1","host":"frk-1.de.uncletopia.com","port":27015,"enabled":true,"region":"eu","cc":"de","latitude":50.110924,"longitude":8.682127,"reserved":0,"last_update":"0001-01-01T00:00:00Z","name_a2s":"Uncletopia | Frankfurt | 1 | All Maps","protocol":17,"map":"pl_swiftwater_final1","folder":"tf","game":"Team Fortress","app_id":440,"player_count":25,"max_players":24,"Bots":0,"server_type":"Dedicated","server_os":"Linux","password":true,"vac":true,"version":"7757534","steam_id":85568392924469989,"keywords":["nocrits","nodmgspread","payload","uncletopia"],"game_id":440,"stv_port":27016,"stv_name":"Uncletopia | Frankfurt | 1 | All Maps | STV","players":[{"user_id":504,"name":"Salih","steam_id":76561198287934839,"connected_time":164000000000,"state":"active","ping":46},{"user_id":501,"name":"NotChloe","steam_id":76561198080658092,"connected_time":204000000000,"state":"active","ping":74},{"user_id":453,"name":"lyudmilakh","steam_id":76561198362779878,"connected_time":2735000000000,"state":"active","ping":79},{"user_id":502,"name":"masterpiSS","steam_id":76561198323290950,"connected_time":192000000000,"state":"active","ping":84},{"user_id":503,"name":"Aroo","steam_id":76561198132601368,"connected_time":178000000000,"state":"active","ping":71},{"user_id":455,"name":"„ÉÜ„Ç§„É´„Çπ","steam_id":76561198022403271,"connected_time":2702000000000,"state":"active","ping":45},{"user_id":491,"name":"Bgm_","steam_id":76561198056452044,"connected_time":1351000000000,"state":"active","ping":61},{"user_id":505,"name":"Marty‚Ñ¢","steam_id":76561198060073673,"connected_time":149000000000,"state":"active","ping":60},{"user_id":464,"name":"Quartzy","steam_id":76561198313301520,"connected_time":2442000000000,"state":"active","ping":48},{"user_id":506,"name":"whatever","steam_id":76561198095943461,"connected_time":148000000000,"state":"active","ping":60},{"user_id":490,"name":"Caliban","steam_id":76561197999696839,"connected_time":1439000000000,"state":"active","ping":103},{"user_id":494,"name":"Menty","steam_id":76561198036748212,"connected_time":983000000000,"state":"active","ping":46},{"user_id":513,"name":"TJ1212","steam_id":76561199013575313,"connected_time":35000000000,"state":"active","ping":77},{"user_id":507,"name":"hud_saytext_time 0","steam_id":76561198010327228,"connected_time":138000000000,"state":"active","ping":69},{"user_id":508,"name":"Malfonse","steam_id":76561197989557545,"connected_time":118000000000,"state":"active","ping":74},{"user_id":397,"name":"2ka","steam_id":76561198343747394,"connected_time":5022000000000,"state":"active","ping":60},{"user_id":499,"name":"doopsuiker","steam_id":76561198025916703,"connected_time":261000000000,"state":"active","ping":78},{"user_id":509,"name":"Silva_mlon","steam_id":76561199310242047,"connected_time":115000000000,"state":"active","ping":74},{"user_id":496,"name":"Raivop","steam_id":76561197980854307,"connected_time":916000000000,"state":"active","ping":97},{"user_id":510,"name":"Bumblebee","steam_id":76561198033551105,"connected_time":104000000000,"state":"active","ping":64},{"user_id":434,"name":"‚®Ç","steam_id":76561198087800030,"connected_time":3726000000000,"state":"active","ping":85},{"user_id":511,"name":"Creb","steam_id":76561198984970920,"connected_time":50000000000,"state":"connecting","ping":0},{"user_id":495,"name":"Lemon","steam_id":76561198188535947,"connected_time":947000000000,"state":"active","ping":84},{"user_id":498,"name":"FWDTRKR","steam_id":76561198060369427,"connected_time":608000000000,"state":"active","ping":142},{"user_id":512,"name":"very nice","steam_id":76561198120166752,"connected_time":48000000000,"state":"active","ping":76}]},{"server_id":110,"name":"Uncletopia | Frankfurt | 2 | All Maps","name_short":"frk-2","host":"frk-1.de.uncletopia.com","port":27025,"enabled":true,"region":"eu","cc":"de","latitude":50.110924,"longitude":8.682127,"reserved":0,"last_update":"0001-01-01T00:00:00Z","name_a2s":"Uncletopia | Frankfurt | 2 | All Maps","protocol":17,"map":"koth_highpass","folder":"tf","game":"Team Fortress","app_id":440,"player_count":18,"max_players":24,"Bots":0,"server_type":"Dedicated","server_os":"Linux","password":true,"vac":true,"version":"7757534","steam_id":85568392924469990,"keywords":["cp","nocrits","nodmgspread","uncletopia"],"game_id":440,"stv_port":27026,"stv_name":"Uncletopia | Frankfurt | 2 | All Maps | STV","players":[{"user_id":900,"name":"Swedde","steam_id":76561198297296440,"connected_time":1718000000000,"state":"active","ping":73},{"user_id":930,"name":"No,Why?","steam_id":76561198888755969,"connected_time":351000000000,"state":"active","ping":210},{"user_id":932,"name":"beer thief","steam_id":76561198126524735,"connected_time":219000000000,"state":"active","ping":65},{"user_id":908,"name":"SK:NaikoN Piss|xit?","steam_id":76561199033423134,"connected_time":1266000000000,"state":"active","ping":70},{"user_id":906,"name":"Prox","steam_id":76561198351490981,"connected_time":1459000000000,"state":"active","ping":54},{"user_id":918,"name":"Shruk","steam_id":76561198126398022,"connected_time":955000000000,"state":"active","ping":66},{"user_id":909,"name":"Cormdawg","steam_id":76561198336483216,"connected_time":1250000000000,"state":"active","ping":61},{"user_id":917,"name":"Raivo","steam_id":76561198388750592,"connected_time":1050000000000,"state":"spawning","ping":86},{"user_id":912,"name":"¬Ø\\_(„ÉÑ)_/¬Ø","steam_id":76561198202199609,"connected_time":1119000000000,"state":"active","ping":80},{"user_id":929,"name":"guys? guys?","steam_id":76561198157749464,"connected_time":440000000000,"state":"active","ping":79},{"user_id":914,"name":"Burgoo_King","steam_id":76561198133572225,"connected_time":1096000000000,"state":"spawning","ping":63},{"user_id":915,"name":"Gardvord","steam_id":76561198120715753,"connected_time":1088000000000,"state":"active","ping":80},{"user_id":919,"name":"cracker","steam_id":76561198062107879,"connected_time":953000000000,"state":"active","ping":77},{"user_id":920,"name":"big hoops","steam_id":76561198004703799,"connected_time":939000000000,"state":"active","ping":45},{"user_id":928,"name":"Makasim:)","steam_id":76561198816061842,"connected_time":530000000000,"state":"active","ping":72},{"user_id":922,"name":"BlinkedUp","steam_id":76561198249985618,"connected_time":891000000000,"state":"active","ping":58},{"user_id":924,"name":"leminsc8","steam_id":76561198825084995,"connected_time":868000000000,"state":"spawning","ping":46},{"user_id":926,"name":"Michael","steam_id":76561198003146906,"connected_time":821000000000,"state":"active","ping":51}]},{"server_id":308,"name":"Uncletopia | Frankfurt | 3 | All Maps","name_short":"frk-3","host":"frk-1.de.uncletopia.com","port":27035,"enabled":true,"region":"eu","cc":"de","latitude":50.110924,"longitude":8.682127,"reserved":0,"last_update":"0001-01-01T00:00:00Z","name_a2s":"Uncletopia | Frankfurt | 3 | All Maps","protocol":17,"map":"pl_barnblitz","folder":"tf","game":"Team Fortress","app_id":440,"player_count":24,"max_players":24,"Bots":0,"server_type":"Dedicated","server_os":"Linux","password":true,"vac":true,"version":"7757534","steam_id":85568392924504274,"keywords":["nocrits","nodmgspread","payload","uncletopia"],"game_id":440,"stv_port":27036,"stv_name":"Uncletopia | Frankfurt | 3 | All Maps | STV","players":[{"user_id":299,"name":"Jack","steam_id":76561198079575891,"connected_time":695000000000,"state":"active","ping":66},{"user_id":309,"name":"Kakograf","steam_id":76561198148375639,"connected_time":211000000000,"state":"active","ping":86},{"user_id":289,"name":"Louki","steam_id":76561198150080041,"connected_time":1053000000000,"state":"active","ping":60},{"user_id":292,"name":"Gekko","steam_id":76561198869884227,"connected_time":867000000000,"state":"active","ping":91},{"user_id":278,"name":"KajaStorm","steam_id":76561199215842872,"connected_time":1626000000000,"state":"active","ping":129},{"user_id":307,"name":"JohkupohkuXD","steam_id":76561198391108762,"connected_time":235000000000,"state":"active","ping":84},{"user_id":305,"name":"sysanin","steam_id":76561198056649495,"connected_time":248000000000,"state":"active","ping":86},{"user_id":293,"name":"DrippinFat","steam_id":76561198018170682,"connected_time":842000000000,"state":"active","ping":90},{"user_id":294,"name":"dominus.","steam_id":76561199065917088,"connected_time":825000000000,"state":"active","ping":62},{"user_id":303,"name":"leteszem a cigit","steam_id":76561198273042780,"connected_time":582000000000,"state":"active","ping":67},{"user_id":295,"name":"coach","steam_id":76561198301675800,"connected_time":757000000000,"state":"active","ping":61},{"user_id":306,"name":"‚ù§ToxicAngel‚ù§","steam_id":76561198062208751,"connected_time":246000000000,"state":"active","ping":60},{"user_id":273,"name":"MovingIsOverRated","steam_id":76561198385633292,"connected_time":1959000000000,"state":"active","ping":100},{"user_id":297,"name":"Mr.Cold","steam_id":76561198356368580,"connected_time":753000000000,"state":"active","ping":73},{"user_id":308,"name":"Milca_11","steam_id":76561198848650365,"connected_time":231000000000,"state":"active","ping":111},{"user_id":298,"name":"Pingu","steam_id":76561198207966532,"connected_time":712000000000,"state":"active","ping":68},{"user_id":310,"name":"wolffy","steam_id":76561198083145076,"connected_time":210000000000,"state":"active","ping":52},{"user_id":311,"name":"Kylul_","steam_id":76561198042981061,"connected_time":200000000000,"state":"active","ping":60},{"user_id":312,"name":"DrExplosive","steam_id":76561198063678579,"connected_time":195000000000,"state":"active","ping":72},{"user_id":314,"name":"Creb","steam_id":76561198984970920,"connected_time":23000000000,"state":"spawning","ping":108},{"user_id":302,"name":"madman hesus","steam_id":76561198159702599,"connected_time":615000000000,"state":"active","ping":79},{"user_id":304,"name":"doodad","steam_id":76561198010323493,"connected_time":567000000000,"state":"active","ping":62},{"user_id":265,"name":"breedable","steam_id":76561198010300032,"connected_time":2485000000000,"state":"active","ping":62},{"user_id":272,"name":"Crooked Soybean","steam_id":76561198837706438,"connected_time":2087000000000,"state":"active","ping":74}]},{"server_id":309,"name":"Uncletopia | Frankfurt | 4 | All Maps","name_short":"frk-4","host":"frk-1.de.uncletopia.com","port":27045,"enabled":true,"region":"eu","cc":"de","latitude":50.110924,"longitude":8.682127,"reserved":0,"last_update":"0001-01-01T00:00:00Z","name_a2s":"Uncletopia | Frankfurt | 4 | All Maps","protocol":17,"map":"pl_borneo","folder":"tf","game":"Team Fortress","app_id":440,"player_count":24,"max_players":24,"Bots":0,"server_type":"Dedicated","server_os":"Linux","password":true,"vac":true,"version":"7757534","steam_id":85568392924504275,"keywords":["nocrits","nodmgspread","payload","uncletopia"],"game_id":440,"stv_port":27046,"stv_name":"Uncletopia | Frankfurt | 4 | All Maps | STV","players":[{"user_id":154,"name":"cinny","steam_id":76561198832112629,"connected_time":1593000000000,"state":"active","ping":84},{"user_id":146,"name":"Fancy","steam_id":76561198350658462,"connected_time":2176000000000,"state":"active","ping":75},{"user_id":170,"name":"Nickbro101","steam_id":76561198044271692,"connected_time":424000000000,"state":"active","ping":60},{"user_id":119,"name":"Mr. Pickles #SaveTF2","steam_id":76561199210183560,"connected_time":3561000000000,"state":"active","ping":138},{"user_id":149,"name":"Udinese Dion","steam_id":76561198067931573,"connected_time":1830000000000,"state":"active","ping":44},{"user_id":155,"name":"jovi_","steam_id":76561198449280552,"connected_time":1592000000000,"state":"active","ping":63},{"user_id":151,"name":"dunduu","steam_id":76561198875240717,"connected_time":1675000000000,"state":"active","ping":62},{"user_id":171,"name":"Rubi","steam_id":76561198139410003,"connected_time":98000000000,"state":"active","ping":89},{"user_id":102,"name":"Fat Pigeon","steam_id":76561198817940142,"connected_time":4876000000000,"state":"active","ping":47},{"user_id":159,"name":"ICEBORN GAUNTLET","steam_id":76561198051283300,"connected_time":842000000000,"state":"active","ping":64},{"user_id":168,"name":"Risemonger","steam_id":76561198326896596,"connected_time":471000000000,"state":"active","ping":48},{"user_id":160,"name":"Er Pomata","steam_id":76561198133085347,"connected_time":789000000000,"state":"active","ping":58},{"user_id":162,"name":"mark the shot misser","steam_id":76561198309246388,"connected_time":778000000000,"state":"active","ping":45},{"user_id":157,"name":"SlwoF√∏","steam_id":76561198049663931,"connected_time":1586000000000,"state":"active","ping":59},{"user_id":139,"name":"mt","steam_id":76561197961319303,"connected_time":2682000000000,"state":"active","ping":55},{"user_id":89,"name":"PizzaPete123","steam_id":76561198089478290,"connected_time":6182000000000,"state":"active","ping":59},{"user_id":97,"name":"hora","steam_id":76561198404470526,"connected_time":5533000000000,"state":"active","ping":90},{"user_id":163,"name":"Nostradamus","steam_id":76561198349792686,"connected_time":765000000000,"state":"active","ping":64},{"user_id":165,"name":"Doriian","steam_id":76561198071438810,"connected_time":655000000000,"state":"active","ping":75},{"user_id":166,"name":"X-tis","steam_id":76561198043837480,"connected_time":590000000000,"state":"active","ping":75},{"user_id":92,"name":"Thibob","steam_id":76561198000541852,"connected_time":5938000000000,"state":"active","ping":61},{"user_id":167,"name":"Superiumentarius","steam_id":76561198081642249,"connected_time":505000000000,"state":"active","ping":54},{"user_id":93,"name":"Ryz","steam_id":76561198050802856,"connected_time":5928000000000,"state":"active","ping":49},{"user_id":152,"name":"Adrenaline","steam_id":76561197970852048,"connected_time":1667000000000,"state":"active","ping":60}]},{"server_id":310,"name":"Uncletopia | Frankfurt | 5 | All Maps","name_short":"frk-5","host":"frk-1.de.uncletopia.com","port":27055,"enabled":true,"region":"eu","cc":"de","latitude":50.110924,"longitude":8.682127,"reserved":0,"last_update":"0001-01-01T00:00:00Z","name_a2s":"Uncletopia | Frankfurt | 5 | All Maps","protocol":17,"map":"koth_lakeside_final","folder":"tf","game":"Team Fortress","app_id":440,"player_count":0,"max_players":24,"Bots":0,"server_type":"Dedicated","server_os":"Linux","password":true,"vac":true,"version":"7757534","steam_id":85568392924504277,"keywords":["cp","nocrits","nodmgspread","uncletopia"],"game_id":440,"stv_port":27056,"stv_name":"Uncletopia | Frankfurt | 5 | All Maps | STV","players":null},{"server_id":311,"name":"Uncletopia | Frankfurt | 6 | All Maps","name_short":"frk-6","host":"frk-1.de.uncletopia.com","port":27065,"enabled":true,"region":"eu","cc":"de","latitude":50.110924,"longitude":8.682127,"reserved":0,"last_update":"0001-01-01T00:00:00Z","name_a2s":"Uncletopia | Frankfurt | 6 | All Maps","protocol":17,"map":"pl_upward","folder":"tf","game":"Team Fortress","app_id":440,"player_count":24,"max_players":24,"Bots":0,"server_type":"Dedicated","server_os":"Linux","password":true,"vac":true,"version":"7757534","steam_id":85568392924504278,"keywords":["nocrits","nodmgspread","payload","uncletopia"],"game_id":440,"stv_port":27066,"stv_name":"Uncletopia | Frankfurt | 6 | All Maps | STV","players":[{"user_id":278,"name":"Dark Mimo","steam_id":76561198349648942,"connected_time":10531000000000,"state":"active","ping":90},{"user_id":396,"name":"fresh prince of no hair","steam_id":76561198064342804,"connected_time":4647000000000,"state":"active","ping":76},{"user_id":385,"name":"Kvicha Kvaratskhelia","steam_id":76561198179339326,"connected_time":5105000000000,"state":"active","ping":84},{"user_id":442,"name":"Mowelic","steam_id":76561198873641222,"connected_time":1247000000000,"state":"active","ping":83},{"user_id":455,"name":"Vershal Smershal","steam_id":76561198116223995,"connected_time":101000000000,"state":"active","ping":60},{"user_id":458,"name":"rein","steam_id":76561198067856323,"connected_time":42000000000,"state":"active","ping":91},{"user_id":421,"name":"d00bie","steam_id":76561198025295218,"connected_time":2813000000000,"state":"active","ping":70},{"user_id":452,"name":"Egor Pomidor","steam_id":76561199175688390,"connected_time":672000000000,"state":"active","ping":75},{"user_id":419,"name":"my head + the wall = \u003c3","steam_id":76561198058012525,"connected_time":2975000000000,"state":"active","ping":71},{"user_id":365,"name":"Spieller","steam_id":76561198057197847,"connected_time":5438000000000,"state":"active","ping":78},{"user_id":405,"name":"Charrky","steam_id":76561198054398642,"connected_time":4070000000000,"state":"active","ping":56},{"user_id":457,"name":"cryne","steam_id":76561198042120598,"connected_time":74000000000,"state":"active","ping":75},{"user_id":422,"name":"Average","steam_id":76561198158411479,"connected_time":2758000000000,"state":"active","ping":78},{"user_id":443,"name":"QUASO","steam_id":76561198295305088,"connected_time":1232000000000,"state":"active","ping":53},{"user_id":434,"name":"íÜúkrAkríÜú","steam_id":76561198375924355,"connected_time":1467000000000,"state":"active","ping":80},{"user_id":454,"name":"Telivan","steam_id":76561198026048940,"connected_time":302000000000,"state":"active","ping":109},{"user_id":444,"name":"Kepucz","steam_id":76561197977634244,"connected_time":1226000000000,"state":"active","ping":60},{"user_id":445,"name":"„ÇØ„Ç±„Ç§","steam_id":76561198215122444,"connected_time":1221000000000,"state":"active","ping":168},{"user_id":387,"name":"flora","steam_id":76561197994492154,"connected_time":5036000000000,"state":"active","ping":75},{"user_id":435,"name":"‚ô´‚òÖXriasp‚òÖ‚ô´","steam_id":76561198104721321,"connected_time":1423000000000,"state":"active","ping":75},{"user_id":446,"name":"Crisps","steam_id":76561198088973774,"connected_time":1219000000000,"state":"active","ping":46},{"user_id":447,"name":"fabacher","steam_id":76561198057905272,"connected_time":1196000000000,"state":"active","ping":62},{"user_id":432,"name":"player","steam_id":76561198054474684,"connected_time":1830000000000,"state":"active","ping":80},{"user_id":456,"name":"---","steam_id":76561198027463207,"connected_time":78000000000,"state":"active","ping":61}]},{"server_id":23,"name":"Uncletopia | Frankfurt | 7 | Stopwatch Beta","name_short":"frk-7","host":"frk-1.de.uncletopia.com","port":27075,"enabled":true,"region":"eu","cc":"de","latitude":50.110924,"longitude":8.682127,"reserved":0,"last_update":"0001-01-01T00:00:00Z","name_a2s":"Uncletopia | Frankfurt | 7 | Stopwatch Beta","protocol":17,"map":"pl_borneo","folder":"tf","game":"Team Fortress","app_id":440,"player_count":0,"max_players":24,"Bots":0,"server_type":"Dedicated","server_os":"Linux","password":true,"vac":true,"version":"7757534","steam_id":85568392924742827,"keywords":["nocrits","nodmgspread","payload","uncletopia"],"game_id":440,"stv_port":27076,"stv_name":"Uncletopia | Frankfurt | 7 | Stopwatch Beta | STV","players":null},{"server_id":24,"name":"Uncletopia | Frankfurt | 8 | Community","name_short":"frk-8","host":"frk-1.de.uncletopia.com","port":27085,"enabled":true,"region":"eu","cc":"de","latitude":50.110924,"longitude":8.682127,"reserved":0,"last_update":"0001-01-01T00:00:00Z","name_a2s":"Uncletopia | Frankfurt | 8 | Community","protocol":17,"map":"workshop/cp_sulfur_rc2.ugc619869471","folder":"tf","game":"Team Fortress","app_id":440,"player_count":0,"max_players":24,"Bots":0,"server_type":"Dedicated","server_os":"Linux","password":true,"vac":true,"version":"7757534","steam_id":85568392924742828,"keywords":["cp","nocrits","nodmgspread","uncletopia"],"game_id":440,"stv_port":27086,"stv_name":"Uncletopia | Frankfurt | 8 | Community | STV","players":null},{"server_id":202,"name":"Uncletopia | Hong Kong | 1 | All Maps","name_short":"hgk-1","host":"hgk-1.hk.uncletopia.com","port":27015,"enabled":true,"region":"asia","cc":"hk","latitude":22.302711,"longitude":114.177216,"reserved":0,"last_update":"0001-01-01T00:00:00Z","name_a2s":"Uncletopia | Hong Kong | 1 | All Maps","protocol":17,"map":"koth_viaduct","folder":"tf","game":"Team Fortress","app_id":440,"player_count":0,"max_players":24,"Bots":0,"server_type":"Dedicated","server_os":"Linux","password":true,"vac":true,"version":"7757534","steam_id":85568392924494504,"keywords":["cp","nocrits","nodmgspread","uncletopia"],"game_id":440,"stv_port":27016,"stv_name":"Uncletopia | Hong Kong | 1 | All Maps | STV","players":null},{"server_id":1,"name":"Uncletopia | Los Angeles | 1 | All Maps","name_short":"lax-1","host":"lax-1.us.uncletopia.com","port":27015,"enabled":true,"region":"us-west","cc":"us","latitude":33.94279,"longitude":-118.41004,"reserved":0,"last_update":"0001-01-01T00:00:00Z","name_a2s":"Uncletopia | Los Angeles | 1 | All Maps","protocol":17,"map":"cp_process_final","folder":"tf","game":"Team Fortress","app_id":440,"player_count":0,"max_players":24,"Bots":0,"server_type":"Dedicated","server_os":"Linux","password":true,"vac":true,"version":"7757534","steam_id":85568392924469991,"keywords":["cp","nocrits","nodmgspread","uncletopia"],"game_id":440,"stv_port":27016,"stv_name":"Uncletopia | Los Angeles | 1 | All Maps | STV","players":null},{"server_id":112,"name":"Uncletopia | Los Angeles | 2 | All Maps","name_short":"lax-2","host":"lax-1.us.uncletopia.com","port":27025,"enabled":true,"region":"us-west","cc":"us","latitude":33.94279,"longitude":-118.41004,"reserved":0,"last_update":"0001-01-01T00:00:00Z","name_a2s":"Uncletopia | Los Angeles | 2 | All Maps","protocol":17,"map":"koth_highpass","folder":"tf","game":"Team Fortress","app_id":440,"player_count":1,"max_players":24,"Bots":0,"server_type":"Dedicated","server_os":"Linux","password":true,"vac":true,"version":"7757534","steam_id":85568392924469992,"keywords":["cp","nocrits","nodmgspread","uncletopia"],"game_id":440,"stv_port":27026,"stv_name":"Uncletopia | Los Angeles | 2 | All Maps | STV","players":[{"user_id":24,"name":"uskthedwarf","steam_id":76561199076096095,"connected_time":196000000000,"state":"active","ping":120}]},{"server_id":324,"name":"Uncletopia | Los Angeles | 3 | All Maps","name_short":"lax-3","host":"lax-1.us.uncletopia.com","port":27035,"enabled":true,"region":"us-west","cc":"us","latitude":33.94279,"longitude":-118.41004,"reserved":0,"last_update":"0001-01-01T00:00:00Z","name_a2s":"Uncletopia | Los Angeles | 3 | All Maps","protocol":17,"map":"cp_dustbowl","folder":"tf","game":"Team Fortress","app_id":440,"player_count":1,"max_players":24,"Bots":0,"server_type":"Dedicated","server_os":"Linux","password":true,"vac":true,"version":"7757534","steam_id":85568392924510198,"keywords":["cp","nocrits","nodmgspread","uncletopia"],"game_id":440,"stv_port":27036,"stv_name":"Uncletopia | Los Angeles | 3 | All Maps | STV","players":[{"user_id":6,"name":"Ashified21","steam_id":76561199357672686,"connected_time":385000000000,"state":"active","ping":69}]},{"server_id":25,"name":"Uncletopia | Los Angeles | 4 | Stopwatch Beta","name_short":"lax-4","host":"lax-1.us.uncletopia.com","port":27045,"enabled":true,"region":"us-west","cc":"us","latitude":33.94279,"longitude":-118.41004,"reserved":0,"last_update":"0001-01-01T00:00:00Z","name_a2s":"Uncletopia | Los Angeles | 4 | Stopwatch Beta","protocol":17,"map":"cp_dustbowl","folder":"tf","game":"Team Fortress","app_id":440,"player_count":0,"max_players":24,"Bots":0,"server_type":"Dedicated","server_os":"Linux","password":true,"vac":true,"version":"7757534","steam_id":85568392924510199,"keywords":["cp","nocrits","nodmgspread","uncletopia"],"game_id":440,"stv_port":27046,"stv_name":"Uncletopia | Los Angeles | 4 | Stopwatch Beta | STV","players":null},{"server_id":11,"name":"Uncletopia | London | 1 | All Maps","name_short":"lon-1","host":"lon-1.uk.uncletopia.com","port":27015,"enabled":true,"region":"eu","cc":"gb","latitude":51.509865,"longitude":-0.118092,"reserved":0,"last_update":"0001-01-01T00:00:00Z","name_a2s":"Uncletopia | London | 1 | All Maps","protocol":17,"map":"pl_badwater","folder":"tf","game":"Team Fortress","app_id":440,"player_count":24,"max_players":24,"Bots":0,"server_type":"Dedicated","server_os":"Linux","password":true,"vac":true,"version":"7757534","steam_id":85568392924367362,"keywords":["nocrits","nodmgspread","payload","uncletopia"],"game_id":440,"stv_port":27016,"stv_name":"Uncletopia | London | 1 | All Maps | STV","players":[{"user_id":229,"name":"Doomz","steam_id":76561198029147860,"connected_time":1659000000000,"state":"active","ping":131},{"user_id":215,"name":"Bo","steam_id":76561198023975550,"connected_time":2662000000000,"state":"active","ping":59},{"user_id":245,"name":"Max Andrew","steam_id":76561198158955194,"connected_time":976000000000,"state":"active","ping":68},{"user_id":254,"name":"mei","steam_id":76561198028078806,"connected_time":511000000000,"state":"active","ping":61},{"user_id":158,"name":"Spajro","steam_id":76561198257383813,"connected_time":7105000000000,"state":"active","ping":55},{"user_id":250,"name":"moser23","steam_id":76561197960543171,"connected_time":637000000000,"state":"active","ping":62},{"user_id":258,"name":"VolcanicArts","steam_id":76561198063453246,"connected_time":343000000000,"state":"active","ping":52},{"user_id":232,"name":"Shun Rosen","steam_id":76561198012823909,"connected_time":1600000000000,"state":"active","ping":134},{"user_id":217,"name":"Wardruna96","steam_id":76561199057083828,"connected_time":2650000000000,"state":"active","ping":90},{"user_id":249,"name":"generic alias","steam_id":76561198271607226,"connected_time":664000000000,"state":"active","ping":92},{"user_id":235,"name":"robsan","steam_id":76561198137375391,"connected_time":1525000000000,"state":"active","ping":78},{"user_id":256,"name":"fl1p","steam_id":76561198148565659,"connected_time":384000000000,"state":"active","ping":74},{"user_id":233,"name":"Blupgo Beurbgunha√ºr","steam_id":76561198280566565,"connected_time":1580000000000,"state":"active","ping":97},{"user_id":144,"name":"tapeworms!","steam_id":76561198069649097,"connected_time":8509000000000,"state":"active","ping":45},{"user_id":193,"name":"wasto-/-‚Ñ¢","steam_id":76561198102888038,"connected_time":4756000000000,"state":"active","ping":58},{"user_id":214,"name":"game boyËé∑ËÉúËÄÖ","steam_id":76561198106049954,"connected_time":2728000000000,"state":"active","ping":66},{"user_id":190,"name":"Lyra","steam_id":76561198043601838,"connected_time":5174000000000,"state":"active","ping":60},{"user_id":201,"name":"Raymus","steam_id":76561198021330407,"connected_time":4149000000000,"state":"active","ping":59},{"user_id":243,"name":"Lessoz","steam_id":76561199211572036,"connected_time":1261000000000,"state":"active","ping":91},{"user_id":234,"name":"FatalRyhme","steam_id":76561198018713483,"connected_time":1560000000000,"state":"active","ping":91},{"user_id":237,"name":"Ar|es","steam_id":76561198819160313,"connected_time":1521000000000,"state":"active","ping":88},{"user_id":227,"name":"‚ú™ Danny","steam_id":76561198104483241,"connected_time":1703000000000,"state":"active","ping":52},{"user_id":244,"name":"lant420","steam_id":76561198206673920,"connected_time":1050000000000,"state":"active","ping":90},{"user_id":247,"name":"cazador","steam_id":76561198123096922,"connected_time":790000000000,"state":"active","ping":102}]},{"server_id":114,"name":"Uncletopia | London | 2 | All Maps","name_short":"lon-2","host":"lon-1.uk.uncletopia.com","port":27025,"enabled":true,"region":"eu","cc":"gb","latitude":51.509865,"longitude":-0.118092,"reserved":0,"last_update":"0001-01-01T00:00:00Z","name_a2s":"Uncletopia | London | 2 | All Maps","protocol":17,"map":"pl_frontier_final","folder":"tf","game":"Team Fortress","app_id":440,"player_count":24,"max_players":24,"Bots":0,"server_type":"Dedicated","server_os":"Linux","password":true,"vac":true,"version":"7757534","steam_id":85568392924470941,"keywords":["nocrits","nodmgspread","payload","uncletopia"],"game_id":440,"stv_port":27026,"stv_name":"Uncletopia | London | 2 | All Maps | STV","players":[{"user_id":374,"name":"‚ò≠ybercat","steam_id":76561198014070417,"connected_time":756000000000,"state":"active","ping":66},{"user_id":333,"name":"deflox","steam_id":76561198087450635,"connected_time":3407000000000,"state":"active","ping":46},{"user_id":369,"name":"Lognes","steam_id":76561198076569769,"connected_time":1340000000000,"state":"active","ping":56},{"user_id":330,"name":"Major","steam_id":76561198086483282,"connected_time":3462000000000,"state":"active","ping":48},{"user_id":360,"name":"Breadcrab","steam_id":76561198015924039,"connected_time":1884000000000,"state":"active","ping":71},{"user_id":361,"name":"harizzment","steam_id":76561198890409949,"connected_time":1855000000000,"state":"active","ping":103},{"user_id":352,"name":"Scuutte","steam_id":76561198105496293,"connected_time":2513000000000,"state":"active","ping":88},{"user_id":354,"name":"gibb (official)","steam_id":76561198074097655,"connected_time":2307000000000,"state":"active","ping":36},{"user_id":350,"name":"Ummdustry","steam_id":76561198063470477,"connected_time":2763000000000,"state":"active","ping":49},{"user_id":371,"name":"Cane","steam_id":76561197976831215,"connected_time":1050000000000,"state":"active","ping":84},{"user_id":372,"name":"Greggy","steam_id":76561198273319865,"connected_time":963000000000,"state":"active","ping":86},{"user_id":376,"name":"$n√òw","steam_id":76561198238781028,"connected_time":306000000000,"state":"active","ping":109},{"user_id":362,"name":"umbrella leaf","steam_id":76561198299372487,"connected_time":1850000000000,"state":"active","ping":57},{"user_id":353,"name":"frosty","steam_id":76561198094560834,"connected_time":2444000000000,"state":"active","ping":45},{"user_id":375,"name":"Fartmaster","steam_id":76561198079280482,"connected_time":611000000000,"state":"active","ping":99},{"user_id":358,"name":"Hyperek","steam_id":76561198130797464,"connected_time":1897000000000,"state":"active","ping":80},{"user_id":365,"name":"Mor'du","steam_id":76561198274105878,"connected_time":1833000000000,"state":"active","ping":93},{"user_id":368,"name":"Big They/Them is watching YOU","steam_id":76561198307598168,"connected_time":1528000000000,"state":"active","ping":59},{"user_id":378,"name":"Desj","steam_id":76561198114212636,"connected_time":28000000000,"state":"active","ping":45},{"user_id":377,"name":"cross!","steam_id":76561198310779120,"connected_time":84000000000,"state":"active","ping":43},{"user_id":355,"name":"Borat","steam_id":76561198122226417,"connected_time":2114000000000,"state":"active","ping":43},{"user_id":200,"name":"Hexagon","steam_id":76561198151205758,"connected_time":11577000000000,"state":"active","ping":57},{"user_id":359,"name":"Dwevy","steam_id":76561198090379437,"connected_time":1893000000000,"state":"active","ping":56},{"user_id":367,"name":"R A S M U S","steam_id":76561198279799226,"connected_time":1820000000000,"state":"active","ping":69}]},{"server_id":320,"name":"Uncletopia | London | 3 | All Maps","name_short":"lon-3","host":"lon-1.uk.uncletopia.com","port":27035,"enabled":true,"region":"eu","cc":"gb","latitude":51.509865,"longitude":-0.118092,"reserved":0,"last_update":"0001-01-01T00:00:00Z","name_a2s":"Uncletopia | London | 3 | All Maps","protocol":17,"map":"pl_swiftwater_final1","folder":"tf","game":"Team Fortress","app_id":440,"player_count":24,"max_players":24,"Bots":0,"server_type":"Dedicated","server_os":"Linux","password":true,"vac":true,"version":"7757534","steam_id":85568392924510192,"keywords":["nocrits","nodmgspread","payload","uncletopia"],"game_id":440,"stv_port":27036,"stv_name":"Uncletopia | London | 3 | All Maps | STV","players":[{"user_id":560,"name":"6CO2 + 6H2O ‚Üí C6H12O6 + 6O2","steam_id":76561198981516715,"connected_time":2508000000000,"state":"active","ping":53},{"user_id":530,"name":"Relix18144","steam_id":76561199202454318,"connected_time":3987000000000,"state":"active","ping":104},{"user_id":481,"name":"Xoukz","steam_id":76561198356014540,"connected_time":6959000000000,"state":"active","ping":103},{"user_id":575,"name":"Orange","steam_id":76561198431114889,"connected_time":1480000000000,"state":"active","ping":99},{"user_id":552,"name":"sock","steam_id":76561199117597830,"connected_time":2645000000000,"state":"active","ping":131},{"user_id":548,"name":"Gorgeous George","steam_id":76561198144256544,"connected_time":3070000000000,"state":"active","ping":47},{"user_id":568,"name":"Mr Lidl","steam_id":76561198426522902,"connected_time":1935000000000,"state":"active","ping":54},{"user_id":587,"name":"Sensa","steam_id":76561198170939811,"connected_time":388000000000,"state":"active","ping":60},{"user_id":591,"name":"Choruptian","steam_id":76561198017686366,"connected_time":227000000000,"state":"active","ping":75},{"user_id":551,"name":"Jackleg Joel","steam_id":76561198271636476,"connected_time":2681000000000,"state":"active","ping":69},{"user_id":550,"name":"static","steam_id":76561198836825741,"connected_time":2949000000000,"state":"active","ping":42},{"user_id":514,"name":"Onceknown1","steam_id":76561198120580611,"connected_time":4908000000000,"state":"active","ping":63},{"user_id":589,"name":"Langers","steam_id":76561198046966693,"connected_time":362000000000,"state":"active","ping":45},{"user_id":559,"name":"lm","steam_id":76561198836754631,"connected_time":2512000000000,"state":"active","ping":45},{"user_id":592,"name":"Rubikal12","steam_id":76561199017681186,"connected_time":171000000000,"state":"active","ping":69},{"user_id":590,"name":"Sultan Mohammad S√ºleyman II.","steam_id":76561198124568025,"connected_time":343000000000,"state":"active","ping":44},{"user_id":579,"name":"Diggity","steam_id":76561198297157085,"connected_time":1388000000000,"state":"active","ping":31},{"user_id":516,"name":"ceruleanix","steam_id":76561198159100379,"connected_time":4877000000000,"state":"active","ping":65},{"user_id":574,"name":"TallestPerson","steam_id":76561198097923550,"connected_time":1689000000000,"state":"active","ping":57},{"user_id":570,"name":"Endi","steam_id":76561198914938199,"connected_time":1826000000000,"state":"active","ping":102},{"user_id":582,"name":"Kestrel","steam_id":76561198144033005,"connected_time":772000000000,"state":"active","ping":49},{"user_id":581,"name":"King crimson","steam_id":76561199160267373,"connected_time":1371000000000,"state":"active","ping":81},{"user_id":538,"name":"regimiro","steam_id":76561198120457008,"connected_time":3810000000000,"state":"active","ping":52},{"user_id":558,"name":"...","steam_id":76561198969234594,"connected_time":2543000000000,"state":"active","ping":78}]},{"server_id":321,"name":"Uncletopia | London | 4 | All Maps","name_short":"lon-4","host":"lon-1.uk.uncletopia.com","port":27045,"enabled":true,"region":"eu","cc":"gb","latitude":51.509865,"longitude":-0.118092,"reserved":0,"last_update":"0001-01-01T00:00:00Z","name_a2s":"Uncletopia | London | 4 | All Maps","protocol":17,"map":"cp_sunshine","folder":"tf","game":"Team Fortress","app_id":440,"player_count":0,"max_players":24,"Bots":0,"server_type":"Dedicated","server_os":"Linux","password":true,"vac":true,"version":"7757534","steam_id":85568392924510193,"keywords":["cp","nocrits","nodmgspread","uncletopia"],"game_id":440,"stv_port":27046,"stv_name":"Uncletopia | London | 4 | All Maps | STV","players":null},{"server_id":21,"name":"Uncletopia | London | 5 | All Maps","name_short":"lon-5","host":"lon-1.uk.uncletopia.com","port":27055,"enabled":true,"region":"eu","cc":"gb","latitude":51.509865,"longitude":-0.118092,"reserved":0,"last_update":"0001-01-01T00:00:00Z","name_a2s":"Uncletopia | London | 5 | All Maps","protocol":17,"map":"koth_viaduct","folder":"tf","game":"Team Fortress","app_id":440,"player_count":0,"max_players":24,"Bots":0,"server_type":"Dedicated","server_os":"Linux","password":true,"vac":true,"version":"7757534","steam_id":85568392924742829,"keywords":["cp","nocrits","nodmgspread","uncletopia"],"game_id":440,"stv_port":27056,"stv_name":"Uncletopia | London | 5 | All Maps | STV","players":null},{"server_id":22,"name":"Uncletopia | London | 6 | All Maps","name_short":"lon-6","host":"lon-1.uk.uncletopia.com","port":27065,"enabled":true,"region":"eu","cc":"gb","latitude":51.509865,"longitude":-0.118092,"reserved":0,"last_update":"0001-01-01T00:00:00Z","name_a2s":"Uncletopia | London | 6 | All Maps","protocol":17,"map":"koth_highpass","folder":"tf","game":"Team Fortress","app_id":440,"player_count":0,"max_players":24,"Bots":0,"server_type":"Dedicated","server_os":"Linux","password":true,"vac":true,"version":"7757534","steam_id":85568392924742830,"keywords":["cp","nocrits","nodmgspread","uncletopia"],"game_id":440,"stv_port":27066,"stv_name":"Uncletopia | London | 6 | All Maps | STV","players":null},{"server_id":40,"name":"Uncletopia | London | 7 | No Payload","name_short":"lon-7","host":"lon-1.uk.uncletopia.com","port":27075,"enabled":true,"region":"eu","cc":"gb","latitude":51.509865,"longitude":-0.118092,"reserved":0,"last_update":"0001-01-01T00:00:00Z","name_a2s":"Uncletopia | London | 7 | No Payload","protocol":17,"map":"koth_highpass","folder":"tf","game":"Team Fortress","app_id":440,"player_count":0,"max_players":24,"Bots":0,"server_type":"Dedicated","server_os":"Linux","password":true,"vac":true,"version":"7757534","steam_id":85568392924964314,"keywords":["cp","nocrits","nodmgspread","uncletopia"],"game_id":440,"stv_port":27076,"stv_name":"Uncletopia | London | 7 | No Payload | STV","players":null},{"server_id":41,"name":"Uncletopia | London | 8 | Community","name_short":"lon-8","host":"lon-1.uk.uncletopia.com","port":27085,"enabled":true,"region":"eu","cc":"gb","latitude":51.509865,"longitude":-0.118092,"reserved":0,"last_update":"0001-01-01T00:00:00Z","name_a2s":"Uncletopia | London | 8 | Community","protocol":17,"map":"workshop/koth_ashville_final.ugc2130459942","folder":"tf","game":"Team Fortress","app_id":440,"player_count":22,"max_players":24,"Bots":0,"server_type":"Dedicated","server_os":"Linux","password":true,"vac":true,"version":"7757534","steam_id":85568392924964315,"keywords":["cp","nocrits","nodmgspread","uncletopia"],"game_id":440,"stv_port":27086,"stv_name":"Uncletopia | London | 8 | Community | STV","players":[{"user_id":381,"name":"Monsteh","steam_id":76561198325898181,"connected_time":642000000000,"state":"active","ping":74},{"user_id":368,"name":"Daddyflabburger","steam_id":76561198104352907,"connected_time":1727000000000,"state":"active","ping":58},{"user_id":393,"name":"thebananabomb00","steam_id":76561198296409283,"connected_time":61000000000,"state":"active","ping":89},{"user_id":394,"name":"ZackPlay3r","steam_id":76561198416075558,"connected_time":32000000000,"state":"active","ping":136},{"user_id":366,"name":"Flyffmario","steam_id":76561198044770177,"connected_time":1820000000000,"state":"active","ping":82},{"user_id":363,"name":"gagalak","steam_id":76561198089979108,"connected_time":1876000000000,"state":"active","ping":97},{"user_id":395,"name":"Krabs","steam_id":76561198161679477,"connected_time":13000000000,"state":"spawning","ping":62},{"user_id":387,"name":"The real Postal Dude","steam_id":76561198799097492,"connected_time":337000000000,"state":"active","ping":45},{"user_id":383,"name":"Ôº¥rendyÔº¨emon","steam_id":76561198158957324,"connected_time":506000000000,"state":"active","ping":61},{"user_id":369,"name":"Wattoz","steam_id":76561198127779511,"connected_time":1721000000000,"state":"active","ping":60},{"user_id":379,"name":"gh0stguard","steam_id":76561198929754131,"connected_time":791000000000,"state":"active","ping":95},{"user_id":376,"name":"Rodia","steam_id":76561197968293161,"connected_time":1110000000000,"state":"active","ping":75},{"user_id":384,"name":"Average meme enjoyer","steam_id":76561199087566663,"connected_time":490000000000,"state":"active","ping":162},{"user_id":353,"name":"Avoonix","steam_id":76561198186954897,"connected_time":2428000000000,"state":"active","ping":65},{"user_id":253,"name":"Sleepy","steam_id":76561198037193555,"connected_time":7542000000000,"state":"active","ping":75},{"user_id":386,"name":"Gaming Time","steam_id":76561198880018556,"connected_time":420000000000,"state":"active","ping":100},{"user_id":389,"name":"Yassine","steam_id":76561198140565712,"connected_time":323000000000,"state":"active","ping":46},{"user_id":254,"name":"L√∂√∂paLiidg","steam_id":76561198049466154,"connected_time":7535000000000,"state":"active","ping":101},{"user_id":392,"name":"Nyguus","steam_id":76561198198944159,"connected_time":211000000000,"state":"active","ping":134},{"user_id":365,"name":"Bat in a thousand","steam_id":76561198320506848,"connected_time":1832000000000,"state":"active","ping":62},{"user_id":333,"name":"upward enjoyer","steam_id":76561198055389492,"connected_time":3477000000000,"state":"active","ping":39},{"user_id":372,"name":"EGirlGang","steam_id":76561198257435792,"connected_time":1516000000000,"state":"active","ping":84}]},{"server_id":300,"name":"Uncletopia | Montr√©al | 1 | All Maps","name_short":"mtl-1","host":"mtl-1.ca.uncletopia.com","port":27015,"enabled":true,"region":"us-east","cc":"ca","latitude":45.50889,"longitude":-73.56167,"reserved":0,"last_update":"0001-01-01T00:00:00Z","name_a2s":"Uncletopia | Montr√©al | 1 | All Maps","protocol":17,"map":"cp_altitude","folder":"tf","game":"Team Fortress","app_id":440,"player_count":0,"max_players":24,"Bots":0,"server_type":"Dedicated","server_os":"Linux","password":true,"vac":true,"version":"7757534","steam_id":85568392924500087,"keywords":["cp","nocrits","nodmgspread","uncletopia"],"game_id":440,"stv_port":27016,"stv_name":"Uncletopia | Montr√©al | 1 | All Maps | STV","players":null},{"server_id":301,"name":"Uncletopia | Montr√©al | 2 | All Maps","name_short":"mtl-2","host":"mtl-1.ca.uncletopia.com","port":27025,"enabled":true,"region":"us-east","cc":"ca","latitude":45.50889,"longitude":-73.56167,"reserved":0,"last_update":"0001-01-01T00:00:00Z","name_a2s":"Uncletopia | Montr√©al | 2 | All Maps","protocol":17,"map":"cp_sunshine","folder":"tf","game":"Team Fortress","app_id":440,"player_count":0,"max_players":24,"Bots":0,"server_type":"Dedicated","server_os":"Linux","password":true,"vac":true,"version":"7757534","steam_id":85568392924500088,"keywords":["cp","nocrits","nodmgspread","uncletopia"],"game_id":440,"stv_port":27026,"stv_name":"Uncletopia | Montr√©al | 2 | All Maps | STV","players":null},{"server_id":302,"name":"Uncletopia | Montr√©al | 3 | All Maps","name_short":"mtl-3","host":"mtl-1.ca.uncletopia.com","port":27035,"enabled":true,"region":"us-east","cc":"ca","latitude":45.50889,"longitude":-73.56167,"reserved":0,"last_update":"0001-01-01T00:00:00Z","name_a2s":"Uncletopia | Montr√©al | 3 | All Maps","protocol":17,"map":"pl_frontier_final","folder":"tf","game":"Team Fortress","app_id":440,"player_count":6,"max_players":24,"Bots":0,"server_type":"Dedicated","server_os":"Linux","password":true,"vac":true,"version":"7757534","steam_id":85568392924500089,"keywords":["nocrits","nodmgspread","payload","uncletopia"],"game_id":440,"stv_port":27036,"stv_name":"Uncletopia | Montr√©al | 3 | All Maps | STV","players":[{"user_id":3,"name":"spood'E","steam_id":76561198930386804,"connected_time":1802000000000,"state":"active","ping":74},{"user_id":4,"name":"Smokey","steam_id":76561198870461639,"connected_time":1784000000000,"state":"active","ping":97},{"user_id":5,"name":"ConTheMan9876","steam_id":76561199090814577,"connected_time":1059000000000,"state":"active","ping":100},{"user_id":6,"name":"a mass hallucination","steam_id":76561198259092181,"connected_time":435000000000,"state":"active","ping":73},{"user_id":7,"name":"Cookie","steam_id":76561197991769843,"connected_time":364000000000,"state":"active","ping":44},{"user_id":8,"name":"\u003c blank \u003e","steam_id":76561199383789041,"connected_time":192000000000,"state":"active","ping":165}]},{"server_id":303,"name":"Uncletopia | Montr√©al | 4 | No Payload","name_short":"mtl-4","host":"mtl-1.ca.uncletopia.com","port":27045,"enabled":true,"region":"us-east","cc":"ca","latitude":45.50889,"longitude":-73.56167,"reserved":0,"last_update":"0001-01-01T00:00:00Z","name_a2s":"Uncletopia | Montr√©al | 4 | No Payload","protocol":17,"map":"pl_pier","folder":"tf","game":"Team Fortress","app_id":440,"player_count":0,"max_players":24,"Bots":0,"server_type":"Dedicated","server_os":"Linux","password":true,"vac":true,"version":"7757534","steam_id":85568392924500090,"keywords":["nocrits","nodmgspread","payload","uncletopia"],"game_id":440,"stv_port":27046,"stv_name":"Uncletopia | Montr√©al | 4 | No Payload | STV","players":null},{"server_id":13,"name":"Uncletopia | New York City | 1 | All Maps","name_short":"nyc-1","host":"nyc-1.us.uncletopia.com","port":27015,"enabled":true,"region":"us-east","cc":"us","latitude":40.73061,"longitude":-73.93524,"reserved":0,"last_update":"0001-01-01T00:00:00Z","name_a2s":"Uncletopia | New York City | 1 | All Maps","protocol":17,"map":"koth_highpass","folder":"tf","game":"Team Fortress","app_id":440,"player_count":0,"max_players":24,"Bots":0,"server_type":"Dedicated","server_os":"Linux","password":true,"vac":true,"version":"7757534","steam_id":85568392924469993,"keywords":["cp","nocrits","nodmgspread","uncletopia"],"game_id":440,"stv_port":27016,"stv_name":"Uncletopia | New York City | 1 | All Maps | STV","players":null},{"server_id":14,"name":"Uncletopia | New York City | 2 | All Maps","name_short":"nyc-2","host":"nyc-1.us.uncletopia.com","port":27025,"enabled":true,"region":"us-east","cc":"us","latitude":40.73061,"longitude":-73.93524,"reserved":0,"last_update":"0001-01-01T00:00:00Z","name_a2s":"Uncletopia | New York City | 2 | All Maps","protocol":17,"map":"pl_barnblitz","folder":"tf","game":"Team Fortress","app_id":440,"player_count":24,"max_players":24,"Bots":0,"server_type":"Dedicated","server_os":"Linux","password":true,"vac":true,"version":"7757534","steam_id":85568392924469994,"keywords":["nocrits","nodmgspread","payload","uncletopia"],"game_id":440,"stv_port":27026,"stv_name":"Uncletopia | New York City | 2 | All Maps | STV","players":[{"user_id":47,"name":"MurpAMurp","steam_id":76561198374437261,"connected_time":1015000000000,"state":"active","ping":69},{"user_id":54,"name":"cow farmer","steam_id":76561198249206656,"connected_time":600000000000,"state":"active","ping":62},{"user_id":11,"name":"crunchy and spicy wasp snack","steam_id":76561199322728703,"connected_time":2895000000000,"state":"active","ping":62},{"user_id":55,"name":"LunarrD","steam_id":76561198811220107,"connected_time":289000000000,"state":"active","ping":75},{"user_id":14,"name":"jdkjdsjsdjdfsfsdfffg","steam_id":76561198338950292,"connected_time":2604000000000,"state":"active","ping":58},{"user_id":48,"name":"medic enthusiast","steam_id":76561198323031964,"connected_time":986000000000,"state":"active","ping":88},{"user_id":17,"name":"ObsessedNerd505","steam_id":76561199045531456,"connected_time":2245000000000,"state":"active","ping":63},{"user_id":18,"name":"Rick Assley","steam_id":76561198365019199,"connected_time":2234000000000,"state":"active","ping":75},{"user_id":19,"name":"kingslayer","steam_id":76561198328109873,"connected_time":2231000000000,"state":"active","ping":56},{"user_id":37,"name":"Kacey","steam_id":76561198017063317,"connected_time":1895000000000,"state":"active","ping":66},{"user_id":49,"name":"Shuu","steam_id":76561199199180558,"connected_time":963000000000,"state":"active","ping":49},{"user_id":42,"name":"Edfan","steam_id":76561198021299904,"connected_time":1495000000000,"state":"active","ping":67},{"user_id":24,"name":"Tying the knot","steam_id":76561198247794130,"connected_time":1997000000000,"state":"active","ping":68},{"user_id":25,"name":"toastman","steam_id":76561198207073088,"connected_time":1983000000000,"state":"active","ping":87},{"user_id":50,"name":"·ö†·õí·õû·ö∏ ·õ°·õ†·õù canid·õá","steam_id":76561198103496593,"connected_time":933000000000,"state":"active","ping":61},{"user_id":57,"name":"Ace Of Spades","steam_id":76561198975240411,"connected_time":32000000000,"state":"active","ping":139},{"user_id":51,"name":"FROYO EEPER","steam_id":76561198406252824,"connected_time":919000000000,"state":"active","ping":120},{"user_id":46,"name":"Lin","steam_id":76561198143746480,"connected_time":1042000000000,"state":"active","ping":145},{"user_id":52,"name":"Blessed_Hero","steam_id":76561198048218995,"connected_time":884000000000,"state":"active","ping":55},{"user_id":31,"name":"creeeeeee","steam_id":76561198392539722,"connected_time":1973000000000,"state":"active","ping":80},{"user_id":44,"name":"Bother","steam_id":76561198336750909,"connected_time":1113000000000,"state":"active","ping":35},{"user_id":33,"name":"yeyoi","steam_id":76561198069821885,"connected_time":1954000000000,"state":"active","ping":55},{"user_id":34,"name":"Super","steam_id":76561199179611350,"connected_time":1950000000000,"state":"active","ping":80},{"user_id":56,"name":"Deterrent","steam_id":76561198256763734,"connected_time":238000000000,"state":"active","ping":70}]},{"server_id":15,"name":"Uncletopia | New York City | 3 | Stopwatch Beta","name_short":"nyc-3","host":"nyc-1.us.uncletopia.com","port":27035,"enabled":true,"region":"us-east","cc":"us","latitude":40.73061,"longitude":-73.93524,"reserved":0,"last_update":"0001-01-01T00:00:00Z","name_a2s":"Uncletopia | New York City | 3 | Stopwatch Beta","protocol":17,"map":"workshop/pl_summercoast_rc8e.ugc1761528829","folder":"tf","game":"Team Fortress","app_id":440,"player_count":0,"max_players":24,"Bots":0,"server_type":"Dedicated","server_os":"Linux","password":true,"vac":true,"version":"7757534","steam_id":85568392924742820,"keywords":["nocrits","nodmgspread","payload","uncletopia"],"game_id":440,"stv_port":27036,"stv_name":"Uncletopia | New York City | 3 | Stopwatch Beta | STV","players":null},{"server_id":16,"name":"Uncletopia | New York City | 4 | Community","name_short":"nyc-4","host":"nyc-1.us.uncletopia.com","port":27045,"enabled":true,"region":"us-east","cc":"us","latitude":40.73061,"longitude":-73.93524,"reserved":0,"last_update":"0001-01-01T00:00:00Z","name_a2s":"Uncletopia | New York City | 4 | Community","protocol":17,"map":"workshop/pl_corrode_rc2.ugc546577989","folder":"tf","game":"Team Fortress","app_id":440,"player_count":0,"max_players":24,"Bots":0,"server_type":"Dedicated","server_os":"Linux","password":true,"vac":true,"version":"7757534","steam_id":85568392924742821,"keywords":["nocrits","nodmgspread","payload","uncletopia"],"game_id":440,"stv_port":27046,"stv_name":"Uncletopia | New York City | 4 | Community | STV","players":null},{"server_id":142,"name":"Uncletopia | S√£o Paulo | 1 | All Maps","name_short":"sao-1","host":"sao-1.br.uncletopia.com","port":27015,"enabled":true,"region":"sa","cc":"br","latitude":-23.533773,"longitude":-46.62529,"reserved":0,"last_update":"0001-01-01T00:00:00Z","name_a2s":"Uncletopia | S√£o Paulo | 1 | All Maps","protocol":17,"map":"cp_altitude","folder":"tf","game":"Team Fortress","app_id":440,"player_count":2,"max_players":24,"Bots":0,"server_type":"Dedicated","server_os":"Linux","password":true,"vac":true,"version":"7757534","steam_id":85568392924469996,"keywords":["cp","nocrits","nodmgspread","uncletopia"],"game_id":440,"stv_port":27016,"stv_name":"Uncletopia | S√£o Paulo | 1 | All Maps | STV","players":[{"user_id":11,"name":"Pokki","steam_id":76561199028646953,"connected_time":957000000000,"state":"active","ping":53},{"user_id":12,"name":"soggytelevision","steam_id":76561199466056537,"connected_time":919000000000,"state":"active","ping":195}]},{"server_id":143,"name":"Uncletopia | S√£o Paulo | 2 | All Maps","name_short":"sao-2","host":"sao-2.br.uncletopia.com","port":27015,"enabled":true,"region":"sa","cc":"br","latitude":-23.533773,"longitude":-46.62529,"reserved":0,"last_update":"0001-01-01T00:00:00Z","name_a2s":"Uncletopia | S√£o Paulo | 2 | All Maps","protocol":17,"map":"pl_snowycoast","folder":"tf","game":"Team Fortress","app_id":440,"player_count":4,"max_players":24,"Bots":0,"server_type":"Dedicated","server_os":"Linux","password":true,"vac":true,"version":"7757534","steam_id":85568392924485349,"keywords":["nocrits","nodmgspread","payload","uncletopia"],"game_id":440,"stv_port":27016,"stv_name":"Uncletopia | S√£o Paulo | 2 | All Maps | STV","players":[{"user_id":21,"name":"burrildo_11","steam_id":76561199163140389,"connected_time":3082000000000,"state":"active","ping":63},{"user_id":31,"name":"Somos campeones ‚òÖ‚òÖ‚òÖ","steam_id":76561199017999458,"connected_time":8000000000,"state":"spawning","ping":85},{"user_id":29,"name":"HeadShotGamerBR","steam_id":76561198116856702,"connected_time":634000000000,"state":"active","ping":79},{"user_id":28,"name":"Rick Astley Gaming","steam_id":76561199088485755,"connected_time":1462000000000,"state":"active","ping":70}]},{"server_id":7,"name":"Uncletopia | Seattle | 1 | All Maps","name_short":"sea-1","host":"sea-1.us.uncletopia.com","port":27015,"enabled":true,"region":"us-west","cc":"us","latitude":47.608013,"longitude":-122.33517,"reserved":0,"last_update":"0001-01-01T00:00:00Z","name_a2s":"Uncletopia | Seattle | 1 | All Maps","protocol":17,"map":"pl_upward","folder":"tf","game":"Team Fortress","app_id":440,"player_count":24,"max_players":24,"Bots":0,"server_type":"Dedicated","server_os":"Linux","password":true,"vac":true,"version":"7757534","steam_id":85568392924469997,"keywords":["nocrits","nodmgspread","payload","uncletopia"],"game_id":440,"stv_port":27016,"stv_name":"Uncletopia | Seattle | 1 | All Maps | STV","players":[{"user_id":200,"name":"‚úø PoutyBun ‚úø","steam_id":76561197965762847,"connected_time":2315000000000,"state":"active","ping":32},{"user_id":197,"name":"ORANGE","steam_id":76561198000401769,"connected_time":2998000000000,"state":"active","ping":49},{"user_id":212,"name":"HollowMan","steam_id":76561198967266827,"connected_time":1125000000000,"state":"active","ping":142},{"user_id":232,"name":"Achi","steam_id":76561199097601364,"connected_time":550000000000,"state":"active","ping":156},{"user_id":211,"name":"–≥—Ä—É—Å—Ç–Ω—ã–π","steam_id":76561198274550638,"connected_time":1252000000000,"state":"active","ping":112},{"user_id":163,"name":"resting neutral face","steam_id":76561197999259502,"connected_time":5662000000000,"state":"active","ping":60},{"user_id":9,"name":"rebel","steam_id":76561198026049308,"connected_time":17422000000000,"state":"active","ping":45},{"user_id":231,"name":"Lochness_monster","steam_id":76561198417831973,"connected_time":595000000000,"state":"active","ping":61},{"user_id":227,"name":"shy guy","steam_id":76561198151246059,"connected_time":670000000000,"state":"active","ping":69},{"user_id":205,"name":"Themasterman75","steam_id":76561199385573293,"connected_time":2144000000000,"state":"active","ping":82},{"user_id":131,"name":"Tibetan Pop Star","steam_id":76561198844903984,"connected_time":9099000000000,"state":"active","ping":92},{"user_id":224,"name":"Spooby","steam_id":76561198168114366,"connected_time":923000000000,"state":"active","ping":108},{"user_id":234,"name":"Somewhat-Good Spy Main","steam_id":76561199002231382,"connected_time":225000000000,"state":"active","ping":137},{"user_id":228,"name":"s t o n e","steam_id":76561197994525046,"connected_time":659000000000,"state":"active","ping":115},{"user_id":203,"name":"Ê¢ÖÂçöÁΩóÂ§´ÊñØÂü∫","steam_id":76561199208549381,"connected_time":2212000000000,"state":"active","ping":72},{"user_id":233,"name":"crumblejon","steam_id":76561198111273302,"connected_time":406000000000,"state":"active","ping":60},{"user_id":229,"name":"Dyson","steam_id":76561199081837220,"connected_time":643000000000,"state":"active","ping":114},{"user_id":204,"name":"Saturn","steam_id":76561198043870818,"connected_time":2211000000000,"state":"active","ping":83},{"user_id":55,"name":"Little Linguine","steam_id":76561198816986370,"connected_time":15249000000000,"state":"active","ping":64},{"user_id":171,"name":"noelleleleleleee","steam_id":76561198844676860,"connected_time":5491000000000,"state":"active","ping":153},{"user_id":230,"name":"BasedGod","steam_id":76561198061177973,"connected_time":606000000000,"state":"active","ping":59},{"user_id":37,"name":"THE NUT","steam_id":76561198067813626,"connected_time":16494000000000,"state":"active","ping":46},{"user_id":222,"name":"worker","steam_id":76561198039608940,"connected_time":1018000000000,"state":"active","ping":64},{"user_id":210,"name":"1dk","steam_id":76561198135104742,"connected_time":1481000000000,"state":"active","ping":45}]},{"server_id":119,"name":"Uncletopia | Seattle | 2 | All Maps","name_short":"sea-2","host":"sea-1.us.uncletopia.com","port":27025,"enabled":true,"region":"us-west","cc":"us","latitude":47.608013,"longitude":-122.33517,"reserved":0,"last_update":"0001-01-01T00:00:00Z","name_a2s":"Uncletopia | Seattle | 2 | All Maps","protocol":17,"map":"cp_dustbowl","folder":"tf","game":"Team Fortress","app_id":440,"player_count":24,"max_players":24,"Bots":0,"server_type":"Dedicated","server_os":"Linux","password":true,"vac":true,"version":"7757534","steam_id":85568392924469998,"keywords":["cp","nocrits","nodmgspread","uncletopia"],"game_id":440,"stv_port":27026,"stv_name":"Uncletopia | Seattle | 2 | All Maps | STV","players":[{"user_id":44,"name":"BamboozleMcdoozle","steam_id":76561198166510167,"connected_time":1210000000000,"state":"active","ping":93},{"user_id":22,"name":"Dosario","steam_id":76561198298095535,"connected_time":2748000000000,"state":"active","ping":61},{"user_id":47,"name":"wolfninja","steam_id":76561199218099629,"connected_time":1081000000000,"state":"active","ping":111},{"user_id":51,"name":"CertifiedCereal","steam_id":76561198055027895,"connected_time":1003000000000,"state":"active","ping":117},{"user_id":59,"name":"Strikerbolt","steam_id":76561199095622897,"connected_time":824000000000,"state":"active","ping":78},{"user_id":55,"name":"plat","steam_id":76561198974178569,"connected_time":863000000000,"state":"active","ping":52},{"user_id":65,"name":"imadabest","steam_id":76561199123304377,"connected_time":589000000000,"state":"active","ping":101},{"user_id":31,"name":"Oktayey","steam_id":76561198143213426,"connected_time":1934000000000,"state":"active","ping":62},{"user_id":73,"name":"Spiderfight1","steam_id":76561199189991528,"connected_time":217000000000,"state":"active","ping":226},{"user_id":71,"name":"challen","steam_id":76561197961277967,"connected_time":328000000000,"state":"active","ping":62},{"user_id":63,"name":"Captain Scoundrel","steam_id":76561198412322703,"connected_time":690000000000,"state":"active","ping":108},{"user_id":48,"name":"Cricket","steam_id":76561198074541498,"connected_time":1053000000000,"state":"active","ping":115},{"user_id":37,"name":"YahYeeterson","steam_id":76561198120480906,"connected_time":1443000000000,"state":"active","ping":65},{"user_id":39,"name":"BlueToffe","steam_id":76561198295178024,"connected_time":1361000000000,"state":"active","ping":60},{"user_id":40,"name":"dearender","steam_id":76561199427644498,"connected_time":1331000000000,"state":"active","ping":73},{"user_id":42,"name":"Alpharius","steam_id":76561197996284353,"connected_time":1310000000000,"state":"active","ping":72},{"user_id":66,"name":"EEBIGAA","steam_id":76561198056535988,"connected_time":531000000000,"state":"active","ping":74},{"user_id":49,"name":"Zoo Keeper Engie","steam_id":76561198064380111,"connected_time":1042000000000,"state":"active","ping":122},{"user_id":70,"name":"DrD","steam_id":76561198067266383,"connected_time":392000000000,"state":"active","ping":38},{"user_id":58,"name":"Whomsticot","steam_id":76561198406721885,"connected_time":836000000000,"state":"active","ping":73},{"user_id":60,"name":"Chad the Sex Haver","steam_id":76561198058236528,"connected_time":793000000000,"state":"active","ping":86},{"user_id":61,"name":"DiscoTraveler","steam_id":76561199240168088,"connected_time":766000000000,"state":"active","ping":102},{"user_id":68,"name":"AlphonsetheFish","steam_id":76561198038020208,"connected_time":524000000000,"state":"active","ping":139},{"user_id":72,"name":"Nekomata","steam_id":76561198191536489,"connected_time":266000000000,"state":"active","ping":93}]},{"server_id":406,"name":"Uncletopia | Seattle | 3 | Stopwatch Beta","name_short":"sea-3","host":"sea-1.us.uncletopia.com","port":27035,"enabled":true,"region":"us-west","cc":"us","latitude":47.608013,"longitude":-122.33517,"reserved":0,"last_update":"0001-01-01T00:00:00Z","name_a2s":"Uncletopia | Seattle | 3 | Stopwatch Beta","protocol":17,"map":"cp_process_final","folder":"tf","game":"Team Fortress","app_id":440,"player_count":0,"max_players":24,"Bots":0,"server_type":"Dedicated","server_os":"Linux","password":true,"vac":true,"version":"7757534","steam_id":85568392924515217,"keywords":["cp","nocrits","nodmgspread","uncletopia"],"game_id":440,"stv_port":27036,"stv_name":"Uncletopia | Seattle | 3 | Stopwatch Beta | STV","players":null},{"server_id":17,"name":"Uncletopia | San Francisco | 1 | All Maps","name_short":"sfo-1","host":"sfo-1.us.uncletopia.com","port":27015,"enabled":true,"region":"us-west","cc":"us","latitude":37.77397,"longitude":-122.4313,"reserved":0,"last_update":"0001-01-01T00:00:00Z","name_a2s":"Uncletopia | San Francisco | 1 | All Maps","protocol":17,"map":"pl_pier","folder":"tf","game":"Team Fortress","app_id":440,"player_count":24,"max_players":24,"Bots":0,"server_type":"Dedicated","server_os":"Linux","password":true,"vac":true,"version":"7757534","steam_id":85568392924469999,"keywords":["nocrits","nodmgspread","payload","uncletopia"],"game_id":440,"stv_port":27016,"stv_name":"Uncletopia | San Francisco | 1 | All Maps | STV","players":[{"user_id":166,"name":"MasterAqua","steam_id":76561198044807380,"connected_time":331000000000,"state":"active","ping":94},{"user_id":16,"name":"hersheybargame","steam_id":76561199162003623,"connected_time":10820000000000,"state":"active","ping":52},{"user_id":148,"name":"Sacrificial Wormy","steam_id":76561198054539200,"connected_time":1880000000000,"state":"active","ping":70},{"user_id":169,"name":"alexalexalex","steam_id":76561198188619990,"connected_time":4000000000,"state":"spawning","ping":193},{"user_id":162,"name":"Mugen","steam_id":76561198411174773,"connected_time":567000000000,"state":"active","ping":55},{"user_id":127,"name":"spacetoven","steam_id":76561198115821131,"connected_time":3310000000000,"state":"active","ping":46},{"user_id":135,"name":"butcher pete","steam_id":76561197963872739,"connected_time":2886000000000,"state":"active","ping":33},{"user_id":153,"name":"corbenis","steam_id":76561199012442511,"connected_time":1374000000000,"state":"active","ping":77},{"user_id":167,"name":"RocketofPanda(It/They)","steam_id":76561198133133187,"connected_time":51000000000,"state":"active","ping":70},{"user_id":95,"name":"my palisman would be a polarbea","steam_id":76561199060224916,"connected_time":5018000000000,"state":"active","ping":66},{"user_id":98,"name":"kitsu ‚ô•","steam_id":76561198091741658,"connected_time":4955000000000,"state":"active","ping":63},{"user_id":149,"name":"i am weed","steam_id":76561198419896433,"connected_time":1877000000000,"state":"active","ping":60},{"user_id":111,"name":"Pine Tree","steam_id":76561198112323877,"connected_time":4327000000000,"state":"active","ping":138},{"user_id":164,"name":"Gutsfree","steam_id":76561198047701548,"connected_time":344000000000,"state":"active","ping":105},{"user_id":165,"name":"soldlemon","steam_id":76561199034747133,"connected_time":339000000000,"state":"active","ping":84},{"user_id":112,"name":"green bean","steam_id":76561198113099204,"connected_time":4293000000000,"state":"active","ping":40},{"user_id":154,"name":"oil","steam_id":76561198099980149,"connected_time":1294000000000,"state":"active","ping":50},{"user_id":145,"name":"grape","steam_id":76561197993980328,"connected_time":1976000000000,"state":"active","ping":90},{"user_id":81,"name":"ThatGamingKiwi","steam_id":76561199170522237,"connected_time":6173000000000,"state":"active","ping":131},{"user_id":156,"name":"J415","steam_id":76561199194276068,"connected_time":770000000000,"state":"active","ping":67},{"user_id":159,"name":"dddumb510","steam_id":76561198030793492,"connected_time":718000000000,"state":"active","ping":65},{"user_id":168,"name":"berserker_tf2 yt","steam_id":76561198303464488,"connected_time":14000000000,"state":"active","ping":67},{"user_id":146,"name":"SparklingSquids","steam_id":76561199245793673,"connected_time":1944000000000,"state":"active","ping":81},{"user_id":152,"name":"biggamerpro","steam_id":76561198309760791,"connected_time":1398000000000,"state":"active","ping":116}]},{"server_id":18,"name":"Uncletopia | San Francisco | 2 | All Maps","name_short":"sfo-2","host":"sfo-1.us.uncletopia.com","port":27025,"enabled":true,"region":"us-west","cc":"us","latitude":37.77397,"longitude":-122.4313,"reserved":0,"last_update":"0001-01-01T00:00:00Z","name_a2s":"Uncletopia | San Francisco | 2 | All Maps","protocol":17,"map":"koth_viaduct","folder":"tf","game":"Team Fortress","app_id":440,"player_count":0,"max_players":24,"Bots":0,"server_type":"Dedicated","server_os":"Linux","password":true,"vac":true,"version":"7757534","steam_id":85568392924470000,"keywords":["cp","nocrits","nodmgspread","uncletopia"],"game_id":440,"stv_port":27026,"stv_name":"Uncletopia | San Francisco | 2 | All Maps | STV","players":null},{"server_id":19,"name":"Uncletopia | San Francisco | 3 | Stopwatch Beta","name_short":"sfo-3","host":"sfo-1.us.uncletopia.com","port":27035,"enabled":true,"region":"us-west","cc":"us","latitude":37.77397,"longitude":-122.4313,"reserved":0,"last_update":"0001-01-01T00:00:00Z","name_a2s":"Uncletopia | San Francisco | 3 | Stopwatch Beta","protocol":17,"map":"workshop/pl_barnblitz_pro7.ugc582280235","folder":"tf","game":"Team Fortress","app_id":440,"player_count":0,"max_players":24,"Bots":0,"server_type":"Dedicated","server_os":"Linux","password":true,"vac":true,"version":"7757534","steam_id":85568392924742824,"keywords":["nocrits","nodmgspread","payload","uncletopia"],"game_id":440,"stv_port":27036,"stv_name":"Uncletopia | San Francisco | 3 | Stopwatch Beta | STV","players":null},{"server_id":20,"name":"Uncletopia | San Francisco | 4 | Community","name_short":"sfo-4","host":"sfo-1.us.uncletopia.com","port":27045,"enabled":true,"region":"us-west","cc":"us","latitude":37.77397,"longitude":-122.4313,"reserved":0,"last_update":"0001-01-01T00:00:00Z","name_a2s":"Uncletopia | San Francisco | 4 | Community","protocol":17,"map":"workshop/pl_cashworks_final1.ugc2904065412","folder":"tf","game":"Team Fortress","app_id":440,"player_count":0,"max_players":24,"Bots":0,"server_type":"Dedicated","server_os":"Linux","password":true,"vac":true,"version":"7757534","steam_id":85568392924742826,"keywords":["nocrits","nodmgspread","payload","uncletopia"],"game_id":440,"stv_port":27046,"stv_name":"Uncletopia | San Francisco | 4 | Community | STV","players":null},{"server_id":141,"name":"Uncletopia | Sydney | 1 | All Maps","name_short":"syd-1","host":"syd-1.au.uncletopia.com","port":27015,"enabled":true,"region":"au","cc":"au","latitude":-33.865143,"longitude":151.2099,"reserved":0,"last_update":"0001-01-01T00:00:00Z","name_a2s":"Uncletopia | Sydney | 1 | All Maps","protocol":17,"map":"pl_frontier_final","folder":"tf","game":"Team Fortress","app_id":440,"player_count":0,"max_players":24,"Bots":0,"server_type":"Dedicated","server_os":"Linux","password":true,"vac":true,"version":"7757534","steam_id":85568392924470001,"keywords":["nocrits","nodmgspread","payload","uncletopia"],"game_id":440,"stv_port":27016,"stv_name":"Uncletopia | Sydney | 1 | All Maps | STV","players":null},{"server_id":123,"name":"Uncletopia | Sydney | 2 | All Maps","name_short":"syd-2","host":"syd-1.au.uncletopia.com","port":27025,"enabled":true,"region":"au","cc":"au","latitude":-33.865143,"longitude":151.2099,"reserved":0,"last_update":"0001-01-01T00:00:00Z","name_a2s":"Uncletopia | Sydney | 2 | All Maps","protocol":17,"map":"cp_altitude","folder":"tf","game":"Team Fortress","app_id":440,"player_count":0,"max_players":24,"Bots":0,"server_type":"Dedicated","server_os":"Linux","password":true,"vac":true,"version":"7757534","steam_id":85568392924470002,"keywords":["cp","nocrits","nodmgspread","uncletopia"],"game_id":440,"stv_port":27026,"stv_name":"Uncletopia | Sydney | 2 | All Maps | STV","players":null},{"server_id":395,"name":"Uncletopia | Sydney | 3 | All Maps","name_short":"syd-3","host":"syd-1.au.uncletopia.com","port":27035,"enabled":true,"region":"au","cc":"au","latitude":-33.865143,"longitude":151.2099,"reserved":0,"last_update":"0001-01-01T00:00:00Z","name_a2s":"Uncletopia | Sydney | 3 | All Maps","protocol":17,"map":"koth_lakeside_final","folder":"tf","game":"Team Fortress","app_id":440,"player_count":0,"max_players":24,"Bots":0,"server_type":"Dedicated","server_os":"Linux","password":true,"vac":true,"version":"7757534","steam_id":85568392925194467,"keywords":["cp","nocrits","nodmgspread","uncletopia"],"game_id":440,"stv_port":27036,"stv_name":"Uncletopia | Sydney | 3 | All Maps | STV","players":null},{"server_id":396,"name":"Uncletopia | Sydney | 4 | All Maps","name_short":"syd-4","host":"syd-1.au.uncletopia.com","port":27045,"enabled":true,"region":"au","cc":"au","latitude":-33.865143,"longitude":151.2099,"reserved":0,"last_update":"0001-01-01T00:00:00Z","name_a2s":"Uncletopia | Sydney | 4 | All Maps","protocol":17,"map":"koth_viaduct","folder":"tf","game":"Team Fortress","app_id":440,"player_count":0,"max_players":24,"Bots":0,"server_type":"Dedicated","server_os":"Linux","password":true,"vac":true,"version":"7757534","steam_id":85568392925397958,"keywords":["cp","nocrits","nodmgspread","uncletopia"],"game_id":440,"stv_port":27046,"stv_name":"Uncletopia | Sydney | 4 | All Maps | STV","players":null},{"server_id":58,"name":"Uncletopia | Sydney | 5 | Stopwatch Beta","name_short":"syd-5","host":"syd-1.au.uncletopia.com","port":27055,"enabled":true,"region":"au","cc":"au","latitude":-33.865143,"longitude":151.2099,"reserved":0,"last_update":"0001-01-01T00:00:00Z","name_a2s":"Uncletopia | Sydney | 5 | Stopwatch Beta","protocol":17,"map":"koth_cascade","folder":"tf","game":"Team Fortress","app_id":440,"player_count":0,"max_players":24,"Bots":0,"server_type":"Dedicated","server_os":"Linux","password":true,"vac":true,"version":"7757534","steam_id":85568392925397959,"keywords":["cp","nocrits","nodmgspread","uncletopia"],"game_id":440,"stv_port":27056,"stv_name":"Uncletopia | Sydney | 5 | Stopwatch Beta | STV","players":null},{"server_id":59,"name":"Uncletopia | Sydney | 6 | Community","name_short":"syd-6","host":"syd-1.au.uncletopia.com","port":27065,"enabled":true,"region":"au","cc":"au","latitude":-33.865143,"longitude":151.2099,"reserved":0,"last_update":"0001-01-01T00:00:00Z","name_a2s":"Uncletopia | Sydney | 6 | Community","protocol":17,"map":"workshop/koth_ramjam_rc1.ugc459778887","folder":"tf","game":"Team Fortress","app_id":440,"player_count":0,"max_players":24,"Bots":0,"server_type":"Dedicated","server_os":"Linux","password":true,"vac":true,"version":"7757534","steam_id":85568392925397960,"keywords":["cp","nocrits","nodmgspread","uncletopia"],"game_id":440,"stv_port":27066,"stv_name":"Uncletopia | Sydney | 6 | Community | STV","players":null},{"server_id":49,"name":"Uncletopia | Warsaw | 1 | All Maps","name_short":"waw-1","host":"waw-1.pl.uncletopia.com","port":27015,"enabled":true,"region":"eu","cc":"pl","latitude":52.2297,"longitude":21.017532,"reserved":0,"last_update":"0001-01-01T00:00:00Z","name_a2s":"","protocol":0,"map":"","folder":"","game":"","app_id":0,"player_count":0,"max_players":0,"Bots":0,"server_type":"","server_os":"","password":false,"vac":false,"version":"","steam_id":0,"keywords":null,"game_id":0,"stv_port":0,"stv_name":"","players":null},{"server_id":50,"name":"Uncletopia | Warsaw | 2 | All Maps","name_short":"waw-2","host":"waw-1.pl.uncletopia.com","port":27025,"enabled":true,"region":"eu","cc":"pl","latitude":52.2297,"longitude":21.017532,"reserved":0,"last_update":"0001-01-01T00:00:00Z","name_a2s":"Uncletopia | Warsaw | 2 | All Maps","protocol":17,"map":"koth_highpass","folder":"tf","game":"Team Fortress","app_id":440,"player_count":0,"max_players":24,"Bots":0,"server_type":"Dedicated","server_os":"Linux","password":true,"vac":true,"version":"7757534","steam_id":85568392925397851,"keywords":["cp","nocrits","nodmgspread","uncletopia"],"game_id":440,"stv_port":27026,"stv_name":"Uncletopia | Warsaw | 2 | All Maps | STV","players":null},{"server_id":51,"name":"Uncletopia | Warsaw | 3 | All Maps","name_short":"waw-3","host":"waw-1.pl.uncletopia.com","port":27035,"enabled":true,"region":"eu","cc":"pl","latitude":52.2297,"longitude":21.017532,"reserved":0,"last_update":"0001-01-01T00:00:00Z","name_a2s":"Uncletopia | Warsaw | 3 | All Maps","protocol":17,"map":"koth_lakeside_final","folder":"tf","game":"Team Fortress","app_id":440,"player_count":0,"max_players":24,"Bots":0,"server_type":"Dedicated","server_os":"Linux","password":true,"vac":true,"version":"7757534","steam_id":85568392925397852,"keywords":["cp","nocrits","nodmgspread","uncletopia"],"game_id":440,"stv_port":27036,"stv_name":"Uncletopia | Warsaw | 3 | All Maps | STV","players":null},{"server_id":52,"name":"Uncletopia | Warsaw | 4 | All Maps","name_short":"waw-4","host":"waw-1.pl.uncletopia.com","port":27045,"enabled":true,"region":"eu","cc":"pl","latitude":52.2297,"longitude":21.017532,"reserved":0,"last_update":"0001-01-01T00:00:00Z","name_a2s":"Uncletopia | Warsaw | 4 | All Maps","protocol":17,"map":"cp_process_final","folder":"tf","game":"Team Fortress","app_id":440,"player_count":0,"max_players":24,"Bots":0,"server_type":"Dedicated","server_os":"Linux","password":true,"vac":true,"version":"7757534","steam_id":85568392925397853,"keywords":["cp","nocrits","nodmgspread","uncletopia"],"game_id":440,"stv_port":27046,"stv_name":"Uncletopia | Warsaw | 4 | All Maps | STV","players":null},{"server_id":53,"name":"Uncletopia | Warsaw | 5 | Stopwatch Beta","name_short":"waw-5","host":"waw-1.pl.uncletopia.com","port":27055,"enabled":true,"region":"eu","cc":"pl","latitude":52.2297,"longitude":21.017532,"reserved":0,"last_update":"0001-01-01T00:00:00Z","name_a2s":"Uncletopia | Warsaw | 5 | Stopwatch Beta","protocol":17,"map":"pl_pier","folder":"tf","game":"Team Fortress","app_id":440,"player_count":0,"max_players":24,"Bots":0,"server_type":"Dedicated","server_os":"Linux","password":true,"vac":true,"version":"7757534","steam_id":85568392925397854,"keywords":["nocrits","nodmgspread","payload","uncletopia"],"game_id":440,"stv_port":27056,"stv_name":"Uncletopia | Warsaw | 5 | Stopwatch Beta | STV","players":null},{"server_id":54,"name":"Uncletopia | Warsaw | 6 | Community","name_short":"waw-6","host":"waw-1.pl.uncletopia.com","port":27065,"enabled":true,"region":"eu","cc":"pl","latitude":52.2297,"longitude":21.017532,"reserved":0,"last_update":"0001-01-01T00:00:00Z","name_a2s":"Uncletopia | Warsaw | 6 | Community","protocol":17,"map":"koth_highpass","folder":"tf","game":"Team Fortress","app_id":440,"player_count":0,"max_players":24,"Bots":0,"server_type":"Dedicated","server_os":"Linux","password":true,"vac":true,"version":"7757534","steam_id":85568392925397856,"keywords":["cp","nocrits","nodmgspread","uncletopia"],"game_id":440,"stv_port":27066,"stv_name":"Uncletopia | Warsaw | 6 | Community | STV","players":null}]}