{"status":true,"message":"","result":[{"server_id":9,"name":"Uncletopia | Atlanta | 1 | All Maps","name_short":"atl-1","host":"atl-1.us.uncletopia.com","port":27015,"enabled":true,"region":"us-east","cc":"us","latitude":33.753746,"longitude":-84.38633,"reserved":0,"last_update":"0001-01-01T00:00:00Z","name_a2s":"Uncletopia | Atlanta | 1 | All Maps","protocol":17,"map":"cp_dustbowl","folder":"tf","game":"Team Fortress","app_id":440,"player_count":0,"max_players":24,"Bots":0,"server_type":"Dedicated","server_os":"Linux","password":true,"vac":true,"version":"7961495","steam_id":85568392924469982,"keywords":["cp","nocrits","nodmgspread","uncletopia"],"game_id":440,"stv_port":27016,"stv_name":"Uncletopia | Atlanta | 1 | All Maps | STV","players":null},{"server_id":104,"name":"Uncletopia | Atlanta | 2 | All Maps","name_short":"atl-2","host":"atl-1.us.uncletopia.com","port":27025,"enabled":true,"region":"us-east","cc":"us","latitude":33.753746,"longitude":-84.38633,"reserved":0,"last_update":"0001-01-01T00:00:00Z","name_a2s":"Uncletopia | Atlanta | 2 | All Maps","protocol":17,"map":"koth_cascade","folder":"tf","game":"Team Fortress","app_id":440,"player_count":0,"max_players":24,"Bots":0,"server_type":"Dedicated","server_os":"Linux","password":true,"vac":true,"version":"7961495","steam_id":85568392924469983,"keywords":["cp","nocrits","nodmgspread","uncletopia"],"game_id":440,"stv_port":27026,"stv_name":"Uncletopia | Atlanta | 2 | All Maps | STV","players":null},{"server_id":400,"name":"Uncletopia | Atlanta | 3 | Stopwatch","name_short":"atl-3","host":"atl-1.us.uncletopia.com","port":27035,"enabled":true,"region":"us-east","cc":"us","latitude":33.753746,"longitude":-84.38633,"reserved":0,"last_update":"0001-01-01T00:00:00Z","name_a2s":"Uncletopia | Atlanta | 3 | Stopwatch","protocol":17,"map":"pl_badwater","folder":"tf","game":"Team Fortress","app_id":440,"player_count":0,"max_players":24,"Bots":0,"server_type":"Dedicated","server_os":"Linux","password":true,"vac":true,"version":"7961495","steam_id":85568392924515187,"keywords":["nocrits","nodmgspread","payload","uncletopia"],"game_id":440,"stv_port":27036,"stv_name":"Uncletopia | Atlanta | 3 | Stopwatch | STV","players":null},{"server_id":401,"name":"Uncletopia | Atlanta | 4 | Community","name_short":"atl-4","host":"atl-1.us.uncletopia.com","port":27045,"enabled":true,"region":"us-east","cc":"us","latitude":33.753746,"longitude":-84.38633,"reserved":0,"last_update":"0001-01-01T00:00:00Z","name_a2s":"Uncletopia | Atlanta | 4 | Community","protocol":17,"map":"cp_sunshine","folder":"tf","game":"Team Fortress","app_id":440,"player_count":0,"max_players":24,"Bots":0,"server_type":"Dedicated","server_os":"Linux","password":true,"vac":true,"version":"7961495","steam_id":85568392924515188,"keywords":["cp","nocrits","nodmgspread","uncletopia"],"game_id":440,"stv_port":27046,"stv_name":"Uncletopia | Atlanta | 4 | Community | STV","players":null},{"server_id":2,"name":"Uncletopia | Chicago | 1 | All Maps","name_short":"chi-1","host":"chi-1.us.uncletopia.com","port":27015,"enabled":true,"region":"us-central","cc":"us","latitude":41.881832,"longitude":-87.62318,"reserved":0,"last_update":"0001-01-01T00:00:00Z","name_a2s":"Uncletopia | Chicago | 1 | All Maps","protocol":17,"map":"koth_lakeside_final","folder":"tf","game":"Team Fortress","app_id":440,"player_count":24,"max_players":24,"Bots":0,"server_type":"Dedicated","server_os":"Linux","password":true,"vac":true,"version":"7961495","steam_id":85568392924469984,"keywords":["cp","nocrits","nodmgspread","uncletopia"],"game_id":440,"stv_port":27016,"stv_name":"Uncletopia | Chicago | 1 | All Maps | STV","players":[{"user_id":285,"name":"Das Psycho","steam_id":76561198064615020,"connected_time":1870000000000,"state":"active","ping":65},{"user_id":302,"name":"object permanence","steam_id":76561198050393061,"connected_time":202000000000,"state":"active","ping":68},{"user_id":267,"name":"TheAlmightyG","steam_id":76561198235946096,"connected_time":4411000000000,"state":"active","ping":92},{"user_id":261,"name":"Kraftlos","steam_id":76561198074350350,"connected_time":4934000000000,"state":"active","ping":73},{"user_id":299,"name":"Hooked","steam_id":76561198007302139,"connected_time":284000000000,"state":"active","ping":76},{"user_id":305,"name":"Cobrakid1968","steam_id":76561198106262346,"connected_time":6000000000,"state":"spawning","ping":72},{"user_id":237,"name":"your moms car","steam_id":76561199389283507,"connected_time":6436000000000,"state":"active","ping":69},{"user_id":298,"name":"Ike Yard","steam_id":76561197998954523,"connected_time":791000000000,"state":"active","ping":75},{"user_id":297,"name":"Crackhead Energy","steam_id":76561198263847667,"connected_time":1214000000000,"state":"active","ping":66},{"user_id":279,"name":"Celestial Bodies","steam_id":76561198212572955,"connected_time":2976000000000,"state":"active","ping":79},{"user_id":271,"name":"loser","steam_id":76561198259380127,"connected_time":3331000000000,"state":"active","ping":59},{"user_id":294,"name":"Ras","steam_id":76561198123546775,"connected_time":1257000000000,"state":"active","ping":72},{"user_id":300,"name":"0bliv","steam_id":76561198122715915,"connected_time":213000000000,"state":"active","ping":193},{"user_id":253,"name":"what","steam_id":76561198082336619,"connected_time":5282000000000,"state":"active","ping":77},{"user_id":289,"name":"American Dad","steam_id":76561198059711448,"connected_time":1458000000000,"state":"active","ping":86},{"user_id":291,"name":"Stacks63bs","steam_id":76561198067797130,"connected_time":1405000000000,"state":"active","ping":85},{"user_id":232,"name":"THORNFIELDGAMER","steam_id":76561199087167473,"connected_time":6504000000000,"state":"active","ping":93},{"user_id":303,"name":"Oddball","steam_id":76561198040440984,"connected_time":202000000000,"state":"active","ping":74},{"user_id":304,"name":"DiscoTraveler","steam_id":76561199240168088,"connected_time":202000000000,"state":"active","ping":64},{"user_id":250,"name":"Vin","steam_id":76561198043601929,"connected_time":5560000000000,"state":"active","ping":118},{"user_id":252,"name":"Mr_Frosty","steam_id":76561199380389079,"connected_time":5311000000000,"state":"active","ping":87},{"user_id":269,"name":"capybara","steam_id":76561198798828328,"connected_time":4178000000000,"state":"active","ping":56},{"user_id":276,"name":"giant_dork","steam_id":76561199105606956,"connected_time":3269000000000,"state":"active","ping":72},{"user_id":278,"name":"Lia_Rein","steam_id":76561198151569597,"connected_time":3079000000000,"state":"active","ping":147}]},{"server_id":106,"name":"Uncletopia | Chicago | 2 | All Maps","name_short":"chi-2","host":"chi-1.us.uncletopia.com","port":27025,"enabled":true,"region":"us-central","cc":"us","latitude":41.881832,"longitude":-87.62318,"reserved":0,"last_update":"0001-01-01T00:00:00Z","name_a2s":"Uncletopia | Chicago | 2 | All Maps","protocol":17,"map":"koth_viaduct","folder":"tf","game":"Team Fortress","app_id":440,"player_count":24,"max_players":24,"Bots":0,"server_type":"Dedicated","server_os":"Linux","password":true,"vac":true,"version":"7961495","steam_id":85568392924469985,"keywords":["cp","nocrits","nodmgspread","uncletopia"],"game_id":440,"stv_port":27026,"stv_name":"Uncletopia | Chicago | 2 | All Maps | STV","players":[{"user_id":412,"name":"Singular Rooster","steam_id":76561197983872657,"connected_time":1249000000000,"state":"active","ping":66},{"user_id":399,"name":"Fentanyl Frank","steam_id":76561198225910596,"connected_time":1888000000000,"state":"active","ping":59},{"user_id":414,"name":"Reiken","steam_id":76561198311649404,"connected_time":993000000000,"state":"active","ping":83},{"user_id":415,"name":"Yeezuz","steam_id":76561198448209430,"connected_time":974000000000,"state":"active","ping":79},{"user_id":334,"name":"pelt","steam_id":76561197993593754,"connected_time":6558000000000,"state":"active","ping":47},{"user_id":388,"name":"Erm... Krill Issue?","steam_id":76561198859118263,"connected_time":2505000000000,"state":"active","ping":70},{"user_id":426,"name":"Dongus","steam_id":76561197979056451,"connected_time":276000000000,"state":"active","ping":90},{"user_id":424,"name":"Ricky Dicky Doo Dah Grimes","steam_id":76561198143221900,"connected_time":486000000000,"state":"active","ping":61},{"user_id":368,"name":"Mailguy","steam_id":76561199066183834,"connected_time":4005000000000,"state":"active","ping":61},{"user_id":398,"name":"✙ Braeska ✙","steam_id":76561198144348365,"connected_time":1958000000000,"state":"active","ping":71},{"user_id":408,"name":"fresco","steam_id":76561199101199477,"connected_time":1495000000000,"state":"active","ping":64},{"user_id":410,"name":"Modest","steam_id":76561198065643694,"connected_time":1375000000000,"state":"active","ping":81},{"user_id":396,"name":"Harlow's Revolver","steam_id":76561198893285805,"connected_time":1969000000000,"state":"active","ping":64},{"user_id":417,"name":"Eiss","steam_id":76561198343183806,"connected_time":945000000000,"state":"active","ping":64},{"user_id":411,"name":"The Fiend","steam_id":76561199229771413,"connected_time":1289000000000,"state":"active","ping":61},{"user_id":425,"name":"Comfy!","steam_id":76561198008818346,"connected_time":413000000000,"state":"active","ping":85},{"user_id":370,"name":"Neopyth","steam_id":76561198031868427,"connected_time":3962000000000,"state":"active","ping":70},{"user_id":421,"name":"Chaos Lich","steam_id":76561198010393452,"connected_time":831000000000,"state":"active","ping":69},{"user_id":404,"name":"Artixes","steam_id":76561198379574232,"connected_time":1701000000000,"state":"active","ping":59},{"user_id":427,"name":"ʜᴀʀᴠ","steam_id":76561199224251631,"connected_time":273000000000,"state":"active","ping":50},{"user_id":419,"name":"Vision Spire","steam_id":76561198095923905,"connected_time":933000000000,"state":"active","ping":59},{"user_id":420,"name":"TheoLynwood","steam_id":76561198079596878,"connected_time":859000000000,"state":"active","ping":70},{"user_id":405,"name":"Im totally a hacker","steam_id":76561198888005736,"connected_time":1662000000000,"state":"active","ping":75},{"user_id":359,"name":"abel","steam_id":76561199401467297,"connected_time":4615000000000,"state":"active","ping":164}]},{"server_id":402,"name":"Uncletopia | Chicago | 3 | All Maps","name_short":"chi-3","host":"chi-1.us.uncletopia.com","port":27035,"enabled":true,"region":"us-central","cc":"us","latitude":41.881832,"longitude":-87.62318,"reserved":0,"last_update":"0001-01-01T00:00:00Z","name_a2s":"Uncletopia | Chicago | 3 | All Maps","protocol":17,"map":"pl_frontier_final","folder":"tf","game":"Team Fortress","app_id":440,"player_count":24,"max_players":24,"Bots":0,"server_type":"Dedicated","server_os":"Linux","password":true,"vac":true,"version":"7961495","steam_id":85568392924515191,"keywords":["nocrits","nodmgspread","payload","uncletopia"],"game_id":440,"stv_port":27036,"stv_name":"Uncletopia | Chicago | 3 | All Maps | STV","players":[{"user_id":108,"name":"Wheat","steam_id":76561198106270789,"connected_time":410000000000,"state":"active","ping":58},{"user_id":80,"name":"gretchling","steam_id":76561198046111695,"connected_time":1748000000000,"state":"active","ping":64},{"user_id":105,"name":"MMAD","steam_id":76561198026446420,"connected_time":433000000000,"state":"active","ping":78},{"user_id":73,"name":"RabbitGaming696","steam_id":76561198334811317,"connected_time":2415000000000,"state":"active","ping":80},{"user_id":101,"name":"!cav","steam_id":76561198041535102,"connected_time":662000000000,"state":"active","ping":75},{"user_id":82,"name":"ctf_well","steam_id":76561198016826181,"connected_time":1709000000000,"state":"active","ping":74},{"user_id":121,"name":"Snoman","steam_id":76561197969248675,"connected_time":77000000000,"state":"active","ping":79},{"user_id":75,"name":"SQ | Work-Mann","steam_id":76561198136662801,"connected_time":2169000000000,"state":"active","ping":71},{"user_id":102,"name":"corntent","steam_id":76561198824847948,"connected_time":640000000000,"state":"active","ping":62},{"user_id":107,"name":"my terror world wide","steam_id":76561198206177593,"connected_time":420000000000,"state":"active","ping":105},{"user_id":109,"name":"Kirb","steam_id":76561198257549534,"connected_time":398000000000,"state":"active","ping":95},{"user_id":95,"name":"Coolcat","steam_id":76561198180933957,"connected_time":1006000000000,"state":"active","ping":58},{"user_id":118,"name":"Elias","steam_id":76561198106431732,"connected_time":149000000000,"state":"active","ping":59},{"user_id":83,"name":"mild mannered mystery man","steam_id":76561198072095399,"connected_time":1691000000000,"state":"active","ping":52},{"user_id":117,"name":"Big Bill Haywood","steam_id":76561198142290733,"connected_time":304000000000,"state":"active","ping":63},{"user_id":89,"name":"Gotta Move That Gear Up","steam_id":76561197993467034,"connected_time":1151000000000,"state":"active","ping":49},{"user_id":90,"name":"martyr","steam_id":76561198074894671,"connected_time":1139000000000,"state":"active","ping":105},{"user_id":76,"name":"dr peppah chug!","steam_id":76561198068835693,"connected_time":2124000000000,"state":"active","ping":95},{"user_id":66,"name":"Thotimus Begonimus","steam_id":76561197970275938,"connected_time":2946000000000,"state":"active","ping":59},{"user_id":92,"name":"please don't cry, you have swag","steam_id":76561198048992536,"connected_time":1120000000000,"state":"active","ping":75},{"user_id":120,"name":"kashroomski","steam_id":76561198057076267,"connected_time":118000000000,"state":"active","ping":77},{"user_id":115,"name":"sweglord227","steam_id":76561198415510262,"connected_time":336000000000,"state":"active","ping":57},{"user_id":68,"name":"Metbol","steam_id":76561198001362410,"connected_time":2859000000000,"state":"active","ping":87},{"user_id":116,"name":"garfield","steam_id":76561198114119308,"connected_time":329000000000,"state":"active","ping":74}]},{"server_id":403,"name":"Uncletopia | Chicago | 4 | All Maps","name_short":"chi-4","host":"chi-1.us.uncletopia.com","port":27045,"enabled":true,"region":"us-central","cc":"us","latitude":41.881832,"longitude":-87.62318,"reserved":0,"last_update":"0001-01-01T00:00:00Z","name_a2s":"Uncletopia | Chicago | 4 | All Maps","protocol":17,"map":"pl_goldrush","folder":"tf","game":"Team Fortress","app_id":440,"player_count":24,"max_players":24,"Bots":0,"server_type":"Dedicated","server_os":"Linux","password":true,"vac":true,"version":"7961495","steam_id":85568392924515193,"keywords":["nocrits","nodmgspread","payload","uncletopia"],"game_id":440,"stv_port":27046,"stv_name":"Uncletopia | Chicago | 4 | All Maps | STV","players":[{"user_id":460,"name":"JucaPirama","steam_id":76561198004473680,"connected_time":5679000000000,"state":"active","ping":183},{"user_id":552,"name":"Hoob.egfug","steam_id":76561197980557818,"connected_time":430000000000,"state":"active","ping":82},{"user_id":542,"name":"GRonimo Gaming","steam_id":76561199112510683,"connected_time":700000000000,"state":"active","ping":91},{"user_id":551,"name":"Indigolake","steam_id":76561198202215807,"connected_time":494000000000,"state":"active","ping":85},{"user_id":555,"name":"StretchySnail59","steam_id":76561198073535005,"connected_time":316000000000,"state":"active","ping":46},{"user_id":559,"name":"crazyabe111","steam_id":76561198407686352,"connected_time":54000000000,"state":"active","ping":79},{"user_id":550,"name":"jxh300","steam_id":76561199196579894,"connected_time":575000000000,"state":"active","ping":72},{"user_id":549,"name":"Chuckles","steam_id":76561198340110176,"connected_time":608000000000,"state":"active","ping":64},{"user_id":531,"name":"Slasher69","steam_id":76561198027679752,"connected_time":955000000000,"state":"active","ping":81},{"user_id":467,"name":"The All-Seeing Tim","steam_id":76561198075510786,"connected_time":5457000000000,"state":"active","ping":74},{"user_id":547,"name":"YoteDab McFapDab.jpg","steam_id":76561197984870380,"connected_time":650000000000,"state":"active","ping":114},{"user_id":558,"name":"Sprit ♥","steam_id":76561198268780781,"connected_time":71000000000,"state":"active","ping":56},{"user_id":522,"name":"zacmattsmith","steam_id":76561199027704149,"connected_time":2256000000000,"state":"active","ping":84},{"user_id":527,"name":"4pi3","steam_id":76561199093363610,"connected_time":1939000000000,"state":"active","ping":87},{"user_id":518,"name":"my pitbull eats women under 5'7","steam_id":76561198142756572,"connected_time":2591000000000,"state":"active","ping":75},{"user_id":525,"name":"fly","steam_id":76561199003715735,"connected_time":1970000000000,"state":"active","ping":119},{"user_id":520,"name":"Nazo","steam_id":76561197972314320,"connected_time":2506000000000,"state":"active","ping":81},{"user_id":545,"name":"Tritium","steam_id":76561198043305626,"connected_time":685000000000,"state":"active","ping":105},{"user_id":521,"name":"Fern","steam_id":76561198043781842,"connected_time":2490000000000,"state":"active","ping":78},{"user_id":501,"name":"A Cat","steam_id":76561198221549132,"connected_time":3789000000000,"state":"active","ping":124},{"user_id":509,"name":"LiMPs","steam_id":76561198176806234,"connected_time":3210000000000,"state":"active","ping":93},{"user_id":497,"name":"chrissweep","steam_id":76561198072826791,"connected_time":3878000000000,"state":"active","ping":71},{"user_id":546,"name":"tgirl swag","steam_id":76561198128164970,"connected_time":685000000000,"state":"active","ping":110},{"user_id":556,"name":"Zero","steam_id":76561198033384990,"connected_time":316000000000,"state":"active","ping":58}]},{"server_id":36,"name":"Uncletopia | Chicago | 5 | All Maps","name_short":"chi-5","host":"chi-2.us.uncletopia.com","port":27015,"enabled":true,"region":"us-central","cc":"us","latitude":41.881832,"longitude":-87.62318,"reserved":0,"last_update":"0001-01-01T00:00:00Z","name_a2s":"Uncletopia | Chicago | 5 | All Maps","protocol":17,"map":"koth_king","folder":"tf","game":"Team Fortress","app_id":440,"player_count":24,"max_players":24,"Bots":0,"server_type":"Dedicated","server_os":"Linux","password":true,"vac":true,"version":"7961495","steam_id":85568392924866362,"keywords":["cp","nocrits","nodmgspread","uncletopia"],"game_id":440,"stv_port":27016,"stv_name":"Uncletopia | Chicago | 5 | All Maps | STV","players":[{"user_id":403,"name":"owlbortch","steam_id":76561198042849350,"connected_time":1768000000000,"state":"active","ping":75},{"user_id":404,"name":"Lex","steam_id":76561198069948353,"connected_time":1671000000000,"state":"active","ping":88},{"user_id":413,"name":"HanakoToast","steam_id":76561198045233131,"connected_time":454000000000,"state":"active","ping":104},{"user_id":409,"name":"Kartyac","steam_id":76561197991069005,"connected_time":811000000000,"state":"active","ping":77},{"user_id":400,"name":"emerge","steam_id":76561198186882891,"connected_time":1864000000000,"state":"active","ping":82},{"user_id":367,"name":"Yummy Kabobz","steam_id":76561198067661705,"connected_time":3711000000000,"state":"active","ping":66},{"user_id":415,"name":"Strange Festive Femboy","steam_id":76561198050385093,"connected_time":243000000000,"state":"active","ping":90},{"user_id":310,"name":"graham crackr","steam_id":76561199072720886,"connected_time":7622000000000,"state":"active","ping":65},{"user_id":381,"name":"Waos","steam_id":76561198329179651,"connected_time":2677000000000,"state":"active","ping":112},{"user_id":385,"name":"Ander","steam_id":76561198014468512,"connected_time":2633000000000,"state":"active","ping":65},{"user_id":419,"name":"jorjor wells","steam_id":76561199073429082,"connected_time":79000000000,"state":"active","ping":69},{"user_id":410,"name":"Lain","steam_id":76561198029303534,"connected_time":757000000000,"state":"active","ping":61},{"user_id":420,"name":"6 million bees","steam_id":76561198400438007,"connected_time":67000000000,"state":"active","ping":49},{"user_id":397,"name":"Fraglin","steam_id":76561198124964000,"connected_time":2239000000000,"state":"active","ping":102},{"user_id":389,"name":"King Cotton","steam_id":76561198292444376,"connected_time":2582000000000,"state":"active","ping":97},{"user_id":379,"name":"Slip","steam_id":76561199057232579,"connected_time":2916000000000,"state":"active","ping":60},{"user_id":421,"name":"sheeesh","steam_id":76561198038080028,"connected_time":62000000000,"state":"active","ping":101},{"user_id":418,"name":"starfungus","steam_id":76561198158312789,"connected_time":159000000000,"state":"active","ping":96},{"user_id":361,"name":"Oh No! It's Twister!","steam_id":76561198016791916,"connected_time":4394000000000,"state":"active","ping":90},{"user_id":411,"name":"Captain","steam_id":76561198155723294,"connected_time":605000000000,"state":"active","ping":64},{"user_id":422,"name":"shadowtaco69","steam_id":76561198112453714,"connected_time":61000000000,"state":"active","ping":87},{"user_id":394,"name":"mini boss","steam_id":76561198062763756,"connected_time":2487000000000,"state":"active","ping":54},{"user_id":360,"name":"Hot Cheese Sundae","steam_id":76561198061189527,"connected_time":4521000000000,"state":"active","ping":74},{"user_id":417,"name":"loli armpit enjoyer","steam_id":76561199507120210,"connected_time":170000000000,"state":"active","ping":57}]},{"server_id":37,"name":"Uncletopia | Chicago | 6 | All Maps","name_short":"chi-6","host":"chi-2.us.uncletopia.com","port":27025,"enabled":true,"region":"us-central","cc":"us","latitude":41.881832,"longitude":-87.62318,"reserved":0,"last_update":"0001-01-01T00:00:00Z","name_a2s":"Uncletopia | Chicago | 6 | All Maps","protocol":17,"map":"koth_lakeside_final","folder":"tf","game":"Team Fortress","app_id":440,"player_count":24,"max_players":24,"Bots":0,"server_type":"Dedicated","server_os":"Linux","password":true,"vac":true,"version":"7961495","steam_id":85568392924866363,"keywords":["cp","nocrits","nodmgspread","uncletopia"],"game_id":440,"stv_port":27026,"stv_name":"Uncletopia | Chicago | 6 | All Maps | STV","players":[{"user_id":105,"name":"Wafflemouth","steam_id":76561198086040614,"connected_time":1432000000000,"state":"active","ping":59},{"user_id":119,"name":"PGT diceroller521","steam_id":76561198100048412,"connected_time":903000000000,"state":"active","ping":55},{"user_id":84,"name":"D.T. Katze","steam_id":76561198002280813,"connected_time":3126000000000,"state":"active","ping":97},{"user_id":122,"name":"3ggsalad3","steam_id":76561199386969191,"connected_time":506000000000,"state":"active","ping":45},{"user_id":95,"name":"wile smells :3","steam_id":76561197968351430,"connected_time":2353000000000,"state":"active","ping":97},{"user_id":109,"name":"goonggingginggaang","steam_id":76561198061397427,"connected_time":1163000000000,"state":"active","ping":73},{"user_id":49,"name":"cool beans","steam_id":76561198321591685,"connected_time":5848000000000,"state":"active","ping":75},{"user_id":82,"name":"the sewer man","steam_id":76561198308817394,"connected_time":3278000000000,"state":"active","ping":65},{"user_id":116,"name":"Blue-Lobster-Gaming","steam_id":76561199220578772,"connected_time":986000000000,"state":"active","ping":104},{"user_id":96,"name":"PlaseNec6","steam_id":76561198130098823,"connected_time":2342000000000,"state":"active","ping":60},{"user_id":98,"name":"Chad","steam_id":76561199013400087,"connected_time":2290000000000,"state":"active","ping":81},{"user_id":117,"name":"Firedust19","steam_id":76561198153238631,"connected_time":962000000000,"state":"active","ping":112},{"user_id":106,"name":"walrus","steam_id":76561198057853319,"connected_time":1412000000000,"state":"active","ping":74},{"user_id":108,"name":"green bean","steam_id":76561198113099204,"connected_time":1324000000000,"state":"active","ping":81},{"user_id":100,"name":"CoffeeZombi","steam_id":76561198172708053,"connected_time":2153000000000,"state":"active","ping":76},{"user_id":107,"name":"Nobody","steam_id":76561198286486517,"connected_time":1407000000000,"state":"active","ping":75},{"user_id":121,"name":"Dr. Nobotnik","steam_id":76561198357339092,"connected_time":823000000000,"state":"active","ping":95},{"user_id":110,"name":"toss","steam_id":76561198024060038,"connected_time":1148000000000,"state":"active","ping":61},{"user_id":91,"name":"☼ gamble","steam_id":76561198074180953,"connected_time":3039000000000,"state":"active","ping":63},{"user_id":31,"name":"Bunt","steam_id":76561198124477567,"connected_time":6686000000000,"state":"active","ping":70},{"user_id":104,"name":"A jpeg of Robert Downey Jr","steam_id":76561198993010853,"connected_time":1670000000000,"state":"active","ping":72},{"user_id":113,"name":"jordanfer111","steam_id":76561198044993097,"connected_time":1058000000000,"state":"active","ping":104},{"user_id":120,"name":"The Glute Guardian","steam_id":76561198189330642,"connected_time":857000000000,"state":"active","ping":106},{"user_id":123,"name":"Jin Gulilo","steam_id":76561198065151242,"connected_time":297000000000,"state":"active","ping":87}]},{"server_id":38,"name":"Uncletopia | Chicago | 7 | Stopwatch","name_short":"chi-7","host":"chi-2.us.uncletopia.com","port":27035,"enabled":true,"region":"us-central","cc":"us","latitude":41.881832,"longitude":-87.62318,"reserved":0,"last_update":"0001-01-01T00:00:00Z","name_a2s":"Uncletopia | Chicago | 7 | Stopwatch","protocol":17,"map":"workshop/koth_ramjam_rc1.ugc459778887","folder":"tf","game":"Team Fortress","app_id":440,"player_count":0,"max_players":24,"Bots":0,"server_type":"Dedicated","server_os":"Linux","password":true,"vac":true,"version":"7961495","steam_id":85568392924866364,"keywords":["cp","nocrits","nodmgspread","uncletopia"],"game_id":440,"stv_port":27036,"stv_name":"Uncletopia | Chicago | 7 | Stopwatch | STV","players":null},{"server_id":39,"name":"Uncletopia | Chicago | 8 | Community","name_short":"chi-8","host":"chi-2.us.uncletopia.com","port":27045,"enabled":true,"region":"us-central","cc":"us","latitude":41.881832,"longitude":-87.62318,"reserved":0,"last_update":"0001-01-01T00:00:00Z","name_a2s":"Uncletopia | Chicago | 8 | Community","protocol":17,"map":"workshop/koth_slaughter_rc1.ugc1712845210","folder":"tf","game":"Team Fortress","app_id":440,"player_count":0,"max_players":24,"Bots":0,"server_type":"Dedicated","server_os":"Linux","password":true,"vac":true,"version":"7961495","steam_id":85568392924866365,"keywords":["cp","nocrits","nodmgspread","uncletopia"],"game_id":440,"stv_port":27046,"stv_name":"Uncletopia | Chicago | 8 | Community | STV","players":null},{"server_id":8,"name":"Uncletopia | Dallas | 1 | All Maps","name_short":"dal-1","host":"dal-1.us.uncletopia.com","port":27015,"enabled":true,"region":"us-central","cc":"us","latitude":32.779167,"longitude":-96.80889,"reserved":0,"last_update":"0001-01-01T00:00:00Z","name_a2s":"Uncletopia | Dallas | 1 | All Maps","protocol":17,"map":"cp_gravelpit","folder":"tf","game":"Team Fortress","app_id":440,"player_count":21,"max_players":24,"Bots":0,"server_type":"Dedicated","server_os":"Linux","password":true,"vac":true,"version":"7961495","steam_id":85568392924469986,"keywords":["cp","nocrits","nodmgspread","uncletopia"],"game_id":440,"stv_port":27016,"stv_name":"Uncletopia | Dallas | 1 | All Maps | STV","players":[{"user_id":237,"name":"Derblitz","steam_id":76561198040953176,"connected_time":520000000000,"state":"connecting","ping":84},{"user_id":183,"name":"Gungus Dingaling","steam_id":76561198018270898,"connected_time":3860000000000,"state":"connecting","ping":56},{"user_id":185,"name":"DivineBanana","steam_id":76561198026529731,"connected_time":3830000000000,"state":"connecting","ping":93},{"user_id":218,"name":"GalaxyDoug32","steam_id":76561197997126305,"connected_time":2232000000000,"state":"connecting","ping":127},{"user_id":210,"name":"JacobOneHundredPercentWholeWhea","steam_id":76561198045992418,"connected_time":2628000000000,"state":"connecting","ping":130},{"user_id":233,"name":"Cat in a fedora","steam_id":76561198187502875,"connected_time":713000000000,"state":"connecting","ping":106},{"user_id":228,"name":"ihave80hp","steam_id":76561199251621911,"connected_time":867000000000,"state":"connecting","ping":69},{"user_id":221,"name":"Baby gaming","steam_id":76561198867319323,"connected_time":2060000000000,"state":"connecting","ping":87},{"user_id":211,"name":"Bea","steam_id":76561198197928515,"connected_time":2621000000000,"state":"connecting","ping":74},{"user_id":236,"name":"Pan","steam_id":76561198880991847,"connected_time":660000000000,"state":"connecting","ping":63},{"user_id":207,"name":"SAGE(सगे*)","steam_id":76561198811114074,"connected_time":2708000000000,"state":"connecting","ping":70},{"user_id":217,"name":"Hyper","steam_id":76561199102864718,"connected_time":2395000000000,"state":"connecting","ping":90},{"user_id":206,"name":"duddlee","steam_id":76561198030052564,"connected_time":2763000000000,"state":"connecting","ping":130},{"user_id":235,"name":"VOLCANIC BIRD ENEMY","steam_id":76561198366299848,"connected_time":701000000000,"state":"connecting","ping":88},{"user_id":159,"name":"A Gamer [F2P]","steam_id":76561198138712892,"connected_time":5784000000000,"state":"connecting","ping":52},{"user_id":214,"name":"hobojoemama","steam_id":76561198108345568,"connected_time":2604000000000,"state":"connecting","ping":88},{"user_id":225,"name":"Sweet anal juice","steam_id":76561198056037219,"connected_time":1256000000000,"state":"connecting","ping":60},{"user_id":238,"name":"ATL1 | to4st","steam_id":76561198981009008,"connected_time":265000000000,"state":"connecting","ping":90},{"user_id":205,"name":"puppy girl","steam_id":76561198325980914,"connected_time":2883000000000,"state":"connecting","ping":62},{"user_id":202,"name":"Dustbowl Enjoyer™","steam_id":76561198036441270,"connected_time":3237000000000,"state":"connecting","ping":127},{"user_id":208,"name":"fortniteGamer747","steam_id":76561197987878886,"connected_time":2689000000000,"state":"connecting","ping":205}]},{"server_id":108,"name":"Uncletopia | Dallas | 2 | All Maps","name_short":"dal-2","host":"dal-1.us.uncletopia.com","port":27025,"enabled":true,"region":"us-central","cc":"us","latitude":32.779167,"longitude":-96.80889,"reserved":0,"last_update":"0001-01-01T00:00:00Z","name_a2s":"Uncletopia | Dallas | 2 | All Maps","protocol":17,"map":"cp_snakewater_final1","folder":"tf","game":"Team Fortress","app_id":440,"player_count":24,"max_players":24,"Bots":0,"server_type":"Dedicated","server_os":"Linux","password":true,"vac":true,"version":"7961495","steam_id":85568392924469988,"keywords":["cp","nocrits","nodmgspread","uncletopia"],"game_id":440,"stv_port":27026,"stv_name":"Uncletopia | Dallas | 2 | All Maps | STV","players":[{"user_id":245,"name":"E4Estrogen","steam_id":76561198085813708,"connected_time":3345000000000,"state":"active","ping":69},{"user_id":174,"name":"NFL.com","steam_id":76561198113405376,"connected_time":10881000000000,"state":"active","ping":76},{"user_id":269,"name":"Mr. Warcrimes (B.F.B.L)","steam_id":76561198154254733,"connected_time":1138000000000,"state":"active","ping":84},{"user_id":252,"name":"newgrounds1004","steam_id":76561199471951160,"connected_time":2474000000000,"state":"active","ping":59},{"user_id":249,"name":"freesia","steam_id":76561198127525888,"connected_time":3077000000000,"state":"active","ping":46},{"user_id":270,"name":"big bug buttz","steam_id":76561198115106008,"connected_time":1106000000000,"state":"active","ping":156},{"user_id":240,"name":"get scrongled, idiot","steam_id":76561198115874625,"connected_time":3840000000000,"state":"active","ping":97},{"user_id":242,"name":"gooselover42069","steam_id":76561198059562839,"connected_time":3549000000000,"state":"active","ping":62},{"user_id":268,"name":"jailbreak","steam_id":76561198802085218,"connected_time":1161000000000,"state":"active","ping":56},{"user_id":271,"name":"LX-24","steam_id":76561198016168993,"connected_time":1091000000000,"state":"active","ping":106},{"user_id":278,"name":"Phosu","steam_id":76561198180162801,"connected_time":30000000000,"state":"active","ping":61},{"user_id":266,"name":"dax","steam_id":76561198045335319,"connected_time":1175000000000,"state":"active","ping":101},{"user_id":267,"name":"Major Moxy","steam_id":76561198120989933,"connected_time":1173000000000,"state":"active","ping":46},{"user_id":205,"name":"schmuck","steam_id":76561198143789773,"connected_time":7580000000000,"state":"active","ping":50},{"user_id":258,"name":"the meat man","steam_id":76561198037921140,"connected_time":2346000000000,"state":"active","ping":65},{"user_id":264,"name":"Spoinga Bob","steam_id":76561198172772014,"connected_time":1227000000000,"state":"active","ping":86},{"user_id":275,"name":"femboy =＾● ⋏ ●＾=","steam_id":76561199052450127,"connected_time":167000000000,"state":"connecting","ping":142},{"user_id":276,"name":"DrSkizerz","steam_id":76561199192964063,"connected_time":166000000000,"state":"active","ping":49},{"user_id":277,"name":"TechnoBear2099","steam_id":76561198238863596,"connected_time":34000000000,"state":"active","ping":45},{"user_id":216,"name":"Big Yoshi","steam_id":76561199160576376,"connected_time":6999000000000,"state":"active","ping":95},{"user_id":262,"name":"cupsovietxeno","steam_id":76561198997539399,"connected_time":1559000000000,"state":"active","ping":90},{"user_id":244,"name":"Menacing","steam_id":76561198009093788,"connected_time":3482000000000,"state":"active","ping":33},{"user_id":265,"name":"ridge","steam_id":76561198381568825,"connected_time":1223000000000,"state":"active","ping":93},{"user_id":248,"name":"Darkshadows","steam_id":76561198051424894,"connected_time":3320000000000,"state":"active","ping":93}]},{"server_id":404,"name":"Uncletopia | Dallas | 3 | All Maps","name_short":"dal-3","host":"dal-1.us.uncletopia.com","port":27035,"enabled":true,"region":"us-central","cc":"us","latitude":32.779167,"longitude":-96.80889,"reserved":0,"last_update":"0001-01-01T00:00:00Z","name_a2s":"Uncletopia | Dallas | 3 | All Maps","protocol":17,"map":"koth_lakeside_final","folder":"tf","game":"Team Fortress","app_id":440,"player_count":7,"max_players":24,"Bots":0,"server_type":"Dedicated","server_os":"Linux","password":true,"vac":true,"version":"7961495","steam_id":85568392924515219,"keywords":["cp","nocrits","nodmgspread","uncletopia"],"game_id":440,"stv_port":27036,"stv_name":"Uncletopia | Dallas | 3 | All Maps | STV","players":[{"user_id":18,"name":"Cosmo","steam_id":76561197984119828,"connected_time":150000000000,"state":"active","ping":58},{"user_id":11,"name":"Vuncc","steam_id":76561198062529768,"connected_time":1340000000000,"state":"active","ping":57},{"user_id":15,"name":"artemisjackson2","steam_id":76561199094686268,"connected_time":600000000000,"state":"active","ping":96},{"user_id":23,"name":"Piss Goblin","steam_id":76561198945800020,"connected_time":72000000000,"state":"active","ping":97},{"user_id":20,"name":"Unwavering Flavor","steam_id":76561198053306065,"connected_time":97000000000,"state":"active","ping":44},{"user_id":22,"name":"killer fish from san diego","steam_id":76561198875612039,"connected_time":83000000000,"state":"active","ping":74},{"user_id":24,"name":"Goat","steam_id":76561198068447650,"connected_time":61000000000,"state":"active","ping":60}]},{"server_id":405,"name":"Uncletopia | Dallas | 4 | Community","name_short":"dal-4","host":"dal-1.us.uncletopia.com","port":27045,"enabled":true,"region":"us-central","cc":"us","latitude":32.779167,"longitude":-96.80889,"reserved":0,"last_update":"0001-01-01T00:00:00Z","name_a2s":"Uncletopia | Dallas | 4 | Community","protocol":17,"map":"workshop/pl_cactuscanyon_redux_final2.ugc2579644293","folder":"tf","game":"Team Fortress","app_id":440,"player_count":0,"max_players":24,"Bots":0,"server_type":"Dedicated","server_os":"Linux","password":true,"vac":true,"version":"7961495","steam_id":85568392924515220,"keywords":["nocrits","nodmgspread","payload","uncletopia"],"game_id":440,"stv_port":27046,"stv_name":"Uncletopia | Dallas | 4 | Community | STV","players":null},{"server_id":5,"name":"Uncletopia | Frankfurt | 1 | All Maps","name_short":"frk-1","host":"frk-1.de.uncletopia.com","port":27015,"enabled":true,"region":"eu","cc":"de","latitude":50.110924,"longitude":8.682127,"reserved":0,"last_update":"0001-01-01T00:00:00Z","name_a2s":"Uncletopia | Frankfurt | 1 | All Maps","protocol":17,"map":"cp_snakewater_final1","folder":"tf","game":"Team Fortress","app_id":440,"player_count":0,"max_players":24,"Bots":0,"server_type":"Dedicated","server_os":"Linux","password":true,"vac":true,"version":"7961495","steam_id":85568392924469989,"keywords":["cp","nocrits","nodmgspread","uncletopia"],"game_id":440,"stv_port":27016,"stv_name":"Uncletopia | Frankfurt | 1 | All Maps | STV","players":null},{"server_id":110,"name":"Uncletopia | Frankfurt | 2 | All Maps","name_short":"frk-2","host":"frk-1.de.uncletopia.com","port":27025,"enabled":true,"region":"eu","cc":"de","latitude":50.110924,"longitude":8.682127,"reserved":0,"last_update":"0001-01-01T00:00:00Z","name_a2s":"Uncletopia | Frankfurt | 2 | All Maps","protocol":17,"map":"pl_snowycoast","folder":"tf","game":"Team Fortress","app_id":440,"player_count":3,"max_players":24,"Bots":0,"server_type":"Dedicated","server_os":"Linux","password":true,"vac":true,"version":"7961495","steam_id":85568392924469990,"keywords":["nocrits","nodmgspread","payload","uncletopia"],"game_id":440,"stv_port":27026,"stv_name":"Uncletopia | Frankfurt | 2 | All Maps | STV","players":[{"user_id":664,"name":"jacob","steam_id":76561198982417906,"connected_time":332000000000,"state":"active","ping":60},{"user_id":640,"name":"swiss","steam_id":76561198202369220,"connected_time":1891000000000,"state":"active","ping":71},{"user_id":645,"name":"golfmastr","steam_id":76561198993144124,"connected_time":1435000000000,"state":"active","ping":107}]},{"server_id":308,"name":"Uncletopia | Frankfurt | 3 | All Maps","name_short":"frk-3","host":"frk-1.de.uncletopia.com","port":27035,"enabled":true,"region":"eu","cc":"de","latitude":50.110924,"longitude":8.682127,"reserved":0,"last_update":"0001-01-01T00:00:00Z","name_a2s":"Uncletopia | Frankfurt | 3 | All Maps","protocol":17,"map":"koth_lakeside_final","folder":"tf","game":"Team Fortress","app_id":440,"player_count":0,"max_players":24,"Bots":0,"server_type":"Dedicated","server_os":"Linux","password":true,"vac":true,"version":"7961495","steam_id":85568392924504274,"keywords":["cp","nocrits","nodmgspread","uncletopia"],"game_id":440,"stv_port":27036,"stv_name":"Uncletopia | Frankfurt | 3 | All Maps | STV","players":null},{"server_id":309,"name":"Uncletopia | Frankfurt | 4 | All Maps","name_short":"frk-4","host":"frk-1.de.uncletopia.com","port":27045,"enabled":true,"region":"eu","cc":"de","latitude":50.110924,"longitude":8.682127,"reserved":0,"last_update":"0001-01-01T00:00:00Z","name_a2s":"Uncletopia | Frankfurt | 4 | All Maps","protocol":17,"map":"koth_highpass","folder":"tf","game":"Team Fortress","app_id":440,"player_count":0,"max_players":24,"Bots":0,"server_type":"Dedicated","server_os":"Linux","password":true,"vac":true,"version":"7961495","steam_id":85568392924504275,"keywords":["cp","nocrits","nodmgspread","uncletopia"],"game_id":440,"stv_port":27046,"stv_name":"Uncletopia | Frankfurt | 4 | All Maps | STV","players":null},{"server_id":310,"name":"Uncletopia | Frankfurt | 5 | All Maps","name_short":"frk-5","host":"frk-1.de.uncletopia.com","port":27055,"enabled":true,"region":"eu","cc":"de","latitude":50.110924,"longitude":8.682127,"reserved":0,"last_update":"0001-01-01T00:00:00Z","name_a2s":"Uncletopia | Frankfurt | 5 | All Maps","protocol":17,"map":"cp_snakewater_final1","folder":"tf","game":"Team Fortress","app_id":440,"player_count":0,"max_players":24,"Bots":0,"server_type":"Dedicated","server_os":"Linux","password":true,"vac":true,"version":"7961495","steam_id":85568392924504277,"keywords":["cp","nocrits","nodmgspread","uncletopia"],"game_id":440,"stv_port":27056,"stv_name":"Uncletopia | Frankfurt | 5 | All Maps | STV","players":null},{"server_id":311,"name":"Uncletopia | Frankfurt | 6 | All Maps","name_short":"frk-6","host":"frk-1.de.uncletopia.com","port":27065,"enabled":true,"region":"eu","cc":"de","latitude":50.110924,"longitude":8.682127,"reserved":0,"last_update":"0001-01-01T00:00:00Z","name_a2s":"Uncletopia | Frankfurt | 6 | All Maps","protocol":17,"map":"cp_process_final","folder":"tf","game":"Team Fortress","app_id":440,"player_count":24,"max_players":24,"Bots":0,"server_type":"Dedicated","server_os":"Linux","password":true,"vac":true,"version":"7961495","steam_id":85568392924504278,"keywords":["cp","nocrits","nodmgspread","uncletopia"],"game_id":440,"stv_port":27066,"stv_name":"Uncletopia | Frankfurt | 6 | All Maps | STV","players":[{"user_id":286,"name":"TidB","steam_id":76561198055342304,"connected_time":454000000000,"state":"active","ping":41},{"user_id":273,"name":"Not A Fake Uncletopia Server","steam_id":76561198152871288,"connected_time":662000000000,"state":"active","ping":85},{"user_id":257,"name":"Tumajarbisaun","steam_id":76561198029296012,"connected_time":1162000000000,"state":"active","ping":56},{"user_id":227,"name":"Frager","steam_id":76561198323411853,"connected_time":3996000000000,"state":"active","ping":75},{"user_id":274,"name":"Kenny Savage","steam_id":76561199049383900,"connected_time":559000000000,"state":"active","ping":65},{"user_id":261,"name":"Perpetual Pub Push","steam_id":76561198256714846,"connected_time":1039000000000,"state":"active","ping":58},{"user_id":275,"name":"Wiverny","steam_id":76561198061954999,"connected_time":553000000000,"state":"active","ping":40},{"user_id":276,"name":"*Stare*","steam_id":76561199072209884,"connected_time":552000000000,"state":"active","ping":68},{"user_id":278,"name":"Ephix","steam_id":76561197977164055,"connected_time":544000000000,"state":"active","ping":44},{"user_id":279,"name":"shenanigan","steam_id":76561198043452925,"connected_time":530000000000,"state":"active","ping":99},{"user_id":265,"name":"Imperial City Guard","steam_id":76561198083355845,"connected_time":984000000000,"state":"active","ping":54},{"user_id":281,"name":"Bajas","steam_id":76561198179339326,"connected_time":500000000000,"state":"active","ping":75},{"user_id":282,"name":"Vershal Smershal","steam_id":76561198116223995,"connected_time":498000000000,"state":"active","ping":58},{"user_id":272,"name":"smrk","steam_id":76561198066926098,"connected_time":729000000000,"state":"active","ping":48},{"user_id":283,"name":"󠁳","steam_id":76561199169154431,"connected_time":490000000000,"state":"active","ping":46},{"user_id":289,"name":"Aoshi","steam_id":76561198043868358,"connected_time":394000000000,"state":"active","ping":61},{"user_id":198,"name":"finbar","steam_id":76561198056812396,"connected_time":5327000000000,"state":"active","ping":82},{"user_id":285,"name":"agent youppii","steam_id":76561198055264447,"connected_time":475000000000,"state":"active","ping":65},{"user_id":266,"name":"AetheR","steam_id":76561198005418838,"connected_time":962000000000,"state":"active","ping":71},{"user_id":291,"name":"Bounty","steam_id":76561198032698137,"connected_time":180000000000,"state":"active","ping":59},{"user_id":223,"name":"Lucky Number 13","steam_id":76561198043951279,"connected_time":4280000000000,"state":"active","ping":73},{"user_id":287,"name":"else1","steam_id":76561197996558319,"connected_time":443000000000,"state":"active","ping":75},{"user_id":288,"name":"elijah","steam_id":76561198093936708,"connected_time":414000000000,"state":"active","ping":62},{"user_id":290,"name":"The Last Canadian #Save-TF2","steam_id":76561199274612493,"connected_time":383000000000,"state":"active","ping":168}]},{"server_id":23,"name":"Uncletopia | Frankfurt | 7 | Stopwatch","name_short":"frk-7","host":"frk-1.de.uncletopia.com","port":27075,"enabled":true,"region":"eu","cc":"de","latitude":50.110924,"longitude":8.682127,"reserved":0,"last_update":"0001-01-01T00:00:00Z","name_a2s":"Uncletopia | Frankfurt | 7 | Stopwatch","protocol":17,"map":"pl_frontier_final","folder":"tf","game":"Team Fortress","app_id":440,"player_count":0,"max_players":24,"Bots":0,"server_type":"Dedicated","server_os":"Linux","password":true,"vac":true,"version":"7961495","steam_id":85568392924742827,"keywords":["nocrits","nodmgspread","payload","uncletopia"],"game_id":440,"stv_port":27076,"stv_name":"Uncletopia | Frankfurt | 7 | Stopwatch | STV","players":null},{"server_id":24,"name":"Uncletopia | Frankfurt | 8 | Community","name_short":"frk-8","host":"frk-1.de.uncletopia.com","port":27085,"enabled":true,"region":"eu","cc":"de","latitude":50.110924,"longitude":8.682127,"reserved":0,"last_update":"0001-01-01T00:00:00Z","name_a2s":"Uncletopia | Frankfurt | 8 | Community","protocol":17,"map":"workshop/koth_ashville_final.ugc2130459942","folder":"tf","game":"Team Fortress","app_id":440,"player_count":1,"max_players":24,"Bots":0,"server_type":"Dedicated","server_os":"Linux","password":true,"vac":true,"version":"7961495","steam_id":85568392924742828,"keywords":["cp","nocrits","nodmgspread","uncletopia"],"game_id":440,"stv_port":27086,"stv_name":"Uncletopia | Frankfurt | 8 | Community | STV","players":[{"user_id":31,"name":"FarisKO","steam_id":76561198259234555,"connected_time":146000000000,"state":"active","ping":207}]},{"server_id":202,"name":"Uncletopia | Hong Kong | 1 | All Maps","name_short":"hgk-1","host":"hgk-1.hk.uncletopia.com","port":27015,"enabled":true,"region":"asia","cc":"hk","latitude":22.302711,"longitude":114.177216,"reserved":0,"last_update":"0001-01-01T00:00:00Z","name_a2s":"Uncletopia | Hong Kong | 1 | All Maps","protocol":17,"map":"pl_frontier_final","folder":"tf","game":"Team Fortress","app_id":440,"player_count":0,"max_players":24,"Bots":0,"server_type":"Dedicated","server_os":"Linux","password":true,"vac":true,"version":"7961495","steam_id":85568392924494504,"keywords":["nocrits","nodmgspread","payload","uncletopia"],"game_id":440,"stv_port":27016,"stv_name":"Uncletopia | Hong Kong | 1 | All Maps | STV","players":null},{"server_id":1,"name":"Uncletopia | Los Angeles | 1 | All Maps","name_short":"lax-1","host":"lax-1.us.uncletopia.com","port":27015,"enabled":true,"region":"us-west","cc":"us","latitude":33.94279,"longitude":-118.41004,"reserved":0,"last_update":"0001-01-01T00:00:00Z","name_a2s":"Uncletopia | Los Angeles | 1 | All Maps","protocol":17,"map":"plr_bananabay","folder":"tf","game":"Team Fortress","app_id":440,"player_count":24,"max_players":24,"Bots":0,"server_type":"Dedicated","server_os":"Linux","password":true,"vac":true,"version":"7961495","steam_id":85568392924469991,"keywords":["nocrits","nodmgspread","payload","uncletopia"],"game_id":440,"stv_port":27016,"stv_name":"Uncletopia | Los Angeles | 1 | All Maps | STV","players":[{"user_id":150,"name":"Ockulus","steam_id":76561199069638460,"connected_time":967000000000,"state":"active","ping":49},{"user_id":131,"name":"Markachinno","steam_id":76561198093956017,"connected_time":2644000000000,"state":"active","ping":50},{"user_id":107,"name":"rat","steam_id":76561198130412963,"connected_time":4011000000000,"state":"active","ping":84},{"user_id":167,"name":"Rat Cycle","steam_id":76561198113364714,"connected_time":304000000000,"state":"active","ping":102},{"user_id":153,"name":"OldCheese","steam_id":76561199208623418,"connected_time":829000000000,"state":"active","ping":62},{"user_id":168,"name":"BigNut","steam_id":76561198073570489,"connected_time":277000000000,"state":"active","ping":98},{"user_id":102,"name":"Jimmy","steam_id":76561198857959855,"connected_time":4556000000000,"state":"active","ping":48},{"user_id":144,"name":"Brastion","steam_id":76561198257707303,"connected_time":1348000000000,"state":"active","ping":93},{"user_id":174,"name":"Kickbuts600","steam_id":76561199123685201,"connected_time":113000000000,"state":"active","ping":62},{"user_id":157,"name":"SoCal Kaizer","steam_id":76561198334361081,"connected_time":692000000000,"state":"active","ping":69},{"user_id":152,"name":"Callie","steam_id":76561198131833567,"connected_time":847000000000,"state":"active","ping":75},{"user_id":154,"name":"Tarluk","steam_id":76561198079645112,"connected_time":783000000000,"state":"active","ping":46},{"user_id":169,"name":"Mad Dog","steam_id":76561198093145692,"connected_time":270000000000,"state":"active","ping":99},{"user_id":110,"name":"Bad Medic Girlfriend","steam_id":76561198294054569,"connected_time":3778000000000,"state":"active","ping":122},{"user_id":111,"name":"duck duck quack","steam_id":76561198803753163,"connected_time":3748000000000,"state":"active","ping":142},{"user_id":148,"name":"Seshreb","steam_id":76561198846614634,"connected_time":1243000000000,"state":"active","ping":63},{"user_id":160,"name":"`:[;\"}K':/A/;`/Y\u003e,/O:/\"}|`","steam_id":76561198159808379,"connected_time":665000000000,"state":"active","ping":46},{"user_id":162,"name":"Captain Underbelly","steam_id":76561198811270935,"connected_time":615000000000,"state":"active","ping":85},{"user_id":170,"name":"Vv","steam_id":76561199052196750,"connected_time":262000000000,"state":"active","ping":82},{"user_id":171,"name":"hideyochest","steam_id":76561198090366059,"connected_time":261000000000,"state":"active","ping":76},{"user_id":176,"name":"Dov-Ah-Bob","steam_id":76561198147798338,"connected_time":6000000000,"state":"spawning","ping":231},{"user_id":175,"name":"Windows Vista Home Premium","steam_id":76561198043764863,"connected_time":99000000000,"state":"active","ping":51},{"user_id":135,"name":"SanitysEdge","steam_id":76561198130732813,"connected_time":2367000000000,"state":"active","ping":47},{"user_id":161,"name":"mosieb","steam_id":76561198159372907,"connected_time":637000000000,"state":"active","ping":65}]},{"server_id":112,"name":"Uncletopia | Los Angeles | 2 | All Maps","name_short":"lax-2","host":"lax-1.us.uncletopia.com","port":27025,"enabled":true,"region":"us-west","cc":"us","latitude":33.94279,"longitude":-118.41004,"reserved":0,"last_update":"0001-01-01T00:00:00Z","name_a2s":"Uncletopia | Los Angeles | 2 | All Maps","protocol":17,"map":"koth_lakeside_final","folder":"tf","game":"Team Fortress","app_id":440,"player_count":0,"max_players":24,"Bots":0,"server_type":"Dedicated","server_os":"Linux","password":true,"vac":true,"version":"7961495","steam_id":85568392924469992,"keywords":["cp","nocrits","nodmgspread","uncletopia"],"game_id":440,"stv_port":27026,"stv_name":"Uncletopia | Los Angeles | 2 | All Maps | STV","players":null},{"server_id":324,"name":"Uncletopia | Los Angeles | 3 | All Maps","name_short":"lax-3","host":"lax-1.us.uncletopia.com","port":27035,"enabled":true,"region":"us-west","cc":"us","latitude":33.94279,"longitude":-118.41004,"reserved":0,"last_update":"0001-01-01T00:00:00Z","name_a2s":"Uncletopia | Los Angeles | 3 | All Maps","protocol":17,"map":"pl_pier","folder":"tf","game":"Team Fortress","app_id":440,"player_count":24,"max_players":24,"Bots":0,"server_type":"Dedicated","server_os":"Linux","password":true,"vac":true,"version":"7961495","steam_id":85568392924510198,"keywords":["nocrits","nodmgspread","payload","uncletopia"],"game_id":440,"stv_port":27036,"stv_name":"Uncletopia | Los Angeles | 3 | All Maps | STV","players":[{"user_id":19,"name":"viedoamges","steam_id":76561198025295263,"connected_time":2277000000000,"state":"active","ping":86},{"user_id":21,"name":"OxOoxen841","steam_id":76561198297981993,"connected_time":2211000000000,"state":"active","ping":119},{"user_id":67,"name":"paypur -rng","steam_id":76561198214370515,"connected_time":698000000000,"state":"active","ping":59},{"user_id":51,"name":"Sussin'","steam_id":76561198059813696,"connected_time":1320000000000,"state":"active","ping":108},{"user_id":64,"name":"Purl","steam_id":76561198392974816,"connected_time":879000000000,"state":"active","ping":98},{"user_id":61,"name":"EightySix","steam_id":76561198186678831,"connected_time":1059000000000,"state":"active","ping":58},{"user_id":72,"name":"Gürt","steam_id":76561198801805642,"connected_time":588000000000,"state":"active","ping":114},{"user_id":52,"name":"The Businessman","steam_id":76561198352531234,"connected_time":1286000000000,"state":"active","ping":86},{"user_id":71,"name":"1000 Ping","steam_id":76561198098330939,"connected_time":627000000000,"state":"active","ping":73},{"user_id":29,"name":"gas station tweaker","steam_id":76561198264288798,"connected_time":1688000000000,"state":"active","ping":59},{"user_id":73,"name":"NOT a cuck","steam_id":76561198095121758,"connected_time":464000000000,"state":"active","ping":59},{"user_id":48,"name":"Chuck Mcgill","steam_id":76561198353745820,"connected_time":1424000000000,"state":"active","ping":73},{"user_id":32,"name":"Hectic_Puppy (bday in 3 DAYS)","steam_id":76561198111645213,"connected_time":1648000000000,"state":"active","ping":48},{"user_id":74,"name":"👁 sumixodic","steam_id":76561198090770710,"connected_time":229000000000,"state":"active","ping":72},{"user_id":53,"name":"Sasuri","steam_id":76561198404769732,"connected_time":1240000000000,"state":"active","ping":54},{"user_id":57,"name":"imfkin","steam_id":76561199436476950,"connected_time":1147000000000,"state":"active","ping":89},{"user_id":36,"name":"d4ngerd4n","steam_id":76561198043758735,"connected_time":1568000000000,"state":"active","ping":48},{"user_id":39,"name":"Other Players, My One Weakness","steam_id":76561197989247588,"connected_time":1536000000000,"state":"active","ping":78},{"user_id":40,"name":"Decapitation Station","steam_id":76561198201796098,"connected_time":1529000000000,"state":"active","ping":110},{"user_id":55,"name":"Melonfrog","steam_id":76561198389885427,"connected_time":1205000000000,"state":"active","ping":53},{"user_id":56,"name":"k'ouft","steam_id":76561198080207021,"connected_time":1202000000000,"state":"active","ping":53},{"user_id":43,"name":"Clockwork0613","steam_id":76561198987121123,"connected_time":1500000000000,"state":"active","ping":80},{"user_id":63,"name":"Overmeme","steam_id":76561199455124144,"connected_time":1030000000000,"state":"active","ping":89}]},{"server_id":25,"name":"Uncletopia | Los Angeles | 4 | Stopwatch","name_short":"lax-4","host":"lax-1.us.uncletopia.com","port":27045,"enabled":true,"region":"us-west","cc":"us","latitude":33.94279,"longitude":-118.41004,"reserved":0,"last_update":"0001-01-01T00:00:00Z","name_a2s":"Uncletopia | Los Angeles | 4 | Stopwatch","protocol":17,"map":"pl_barnblitz","folder":"tf","game":"Team Fortress","app_id":440,"player_count":0,"max_players":24,"Bots":0,"server_type":"Dedicated","server_os":"Linux","password":true,"vac":true,"version":"7961495","steam_id":85568392924510199,"keywords":["nocrits","nodmgspread","payload","uncletopia"],"game_id":440,"stv_port":27046,"stv_name":"Uncletopia | Los Angeles | 4 | Stopwatch | STV","players":null},{"server_id":11,"name":"Uncletopia | London | 1 | All Maps","name_short":"lon-1","host":"lon-1.uk.uncletopia.com","port":27015,"enabled":true,"region":"eu","cc":"gb","latitude":51.509865,"longitude":-0.118092,"reserved":0,"last_update":"0001-01-01T00:00:00Z","name_a2s":"Uncletopia | London | 1 | All Maps","protocol":17,"map":"cp_altitude","folder":"tf","game":"Team Fortress","app_id":440,"player_count":23,"max_players":24,"Bots":0,"server_type":"Dedicated","server_os":"Linux","password":true,"vac":true,"version":"7961495","steam_id":85568392924367362,"keywords":["cp","nocrits","nodmgspread","uncletopia"],"game_id":440,"stv_port":27016,"stv_name":"Uncletopia | London | 1 | All Maps | STV","players":[{"user_id":907,"name":"BreadBubbles","steam_id":76561198174332826,"connected_time":1235000000000,"state":"active","ping":51},{"user_id":870,"name":"goff","steam_id":76561198118989010,"connected_time":5615000000000,"state":"active","ping":50},{"user_id":879,"name":"ashley","steam_id":76561198448551449,"connected_time":4692000000000,"state":"active","ping":37},{"user_id":785,"name":"shooer!","steam_id":76561198110531281,"connected_time":14636000000000,"state":"active","ping":71},{"user_id":893,"name":"Cabbch","steam_id":76561198045955679,"connected_time":3436000000000,"state":"active","ping":45},{"user_id":896,"name":"Finkaksu Devourer of Sour Candy","steam_id":76561198201389163,"connected_time":3001000000000,"state":"active","ping":68},{"user_id":831,"name":"ber","steam_id":76561197993892057,"connected_time":9560000000000,"state":"active","ping":91},{"user_id":857,"name":"Trapezoid","steam_id":76561198059369295,"connected_time":7103000000000,"state":"active","ping":78},{"user_id":727,"name":"whimsy.","steam_id":76561198878171763,"connected_time":19655000000000,"state":"active","ping":47},{"user_id":909,"name":"Hannü","steam_id":76561197969886128,"connected_time":956000000000,"state":"active","ping":54},{"user_id":911,"name":"Maveth","steam_id":76561198315021197,"connected_time":64000000000,"state":"active","ping":137},{"user_id":880,"name":"Clown :o)","steam_id":76561198074657015,"connected_time":4523000000000,"state":"active","ping":57},{"user_id":899,"name":"Laru","steam_id":76561197998838438,"connected_time":2762000000000,"state":"active","ping":77},{"user_id":878,"name":"sora (live :3)","steam_id":76561198096547662,"connected_time":5392000000000,"state":"active","ping":47},{"user_id":906,"name":"GoblinGaming (Albert Fan)","steam_id":76561198360395476,"connected_time":1246000000000,"state":"active","ping":31},{"user_id":887,"name":"Minimi","steam_id":76561198873850443,"connected_time":4235000000000,"state":"active","ping":46},{"user_id":901,"name":"rigel_","steam_id":76561198148640847,"connected_time":1553000000000,"state":"active","ping":83},{"user_id":900,"name":"Hardlight","steam_id":76561198128064834,"connected_time":2563000000000,"state":"active","ping":70},{"user_id":862,"name":"Lyra","steam_id":76561198043601838,"connected_time":6546000000000,"state":"active","ping":60},{"user_id":891,"name":"♡ Birdy ♡","steam_id":76561198139632682,"connected_time":3726000000000,"state":"active","ping":90},{"user_id":908,"name":"Marquis de Hoto","steam_id":76561198080687708,"connected_time":1223000000000,"state":"active","ping":77},{"user_id":877,"name":"Tre3","steam_id":76561198054795379,"connected_time":5487000000000,"state":"active","ping":61},{"user_id":895,"name":"albert","steam_id":76561198353496134,"connected_time":3013000000000,"state":"active","ping":49}]},{"server_id":114,"name":"Uncletopia | London | 2 | All Maps","name_short":"lon-2","host":"lon-1.uk.uncletopia.com","port":27025,"enabled":true,"region":"eu","cc":"gb","latitude":51.509865,"longitude":-0.118092,"reserved":0,"last_update":"0001-01-01T00:00:00Z","name_a2s":"Uncletopia | London | 2 | All Maps","protocol":17,"map":"koth_viaduct","folder":"tf","game":"Team Fortress","app_id":440,"player_count":24,"max_players":24,"Bots":0,"server_type":"Dedicated","server_os":"Linux","password":true,"vac":true,"version":"7961495","steam_id":85568392924470941,"keywords":["cp","nocrits","nodmgspread","uncletopia"],"game_id":440,"stv_port":27026,"stv_name":"Uncletopia | London | 2 | All Maps | STV","players":[{"user_id":544,"name":"grr","steam_id":76561199429407130,"connected_time":567000000000,"state":"active","ping":79},{"user_id":475,"name":"sherwood","steam_id":76561198021513207,"connected_time":4254000000000,"state":"active","ping":45},{"user_id":517,"name":"Talya","steam_id":76561198313256566,"connected_time":1961000000000,"state":"active","ping":61},{"user_id":556,"name":"SavageLucario39","steam_id":76561199455012132,"connected_time":291000000000,"state":"active","ping":162},{"user_id":474,"name":"sel","steam_id":76561198049891411,"connected_time":4305000000000,"state":"active","ping":45},{"user_id":546,"name":"1 toke 4 mars bars","steam_id":76561198056460000,"connected_time":527000000000,"state":"active","ping":45},{"user_id":547,"name":"RBV","steam_id":76561198370445644,"connected_time":524000000000,"state":"active","ping":79},{"user_id":552,"name":"R8N - Obismal","steam_id":76561198007482714,"connected_time":390000000000,"state":"active","ping":81},{"user_id":460,"name":"sokige","steam_id":76561198167112371,"connected_time":5140000000000,"state":"active","ping":105},{"user_id":550,"name":"Drunkenkidney","steam_id":76561197995116708,"connected_time":494000000000,"state":"active","ping":60},{"user_id":537,"name":"alpha","steam_id":76561198250491640,"connected_time":1251000000000,"state":"active","ping":43},{"user_id":557,"name":"Mentlegen","steam_id":76561198064764010,"connected_time":99000000000,"state":"active","ping":122},{"user_id":541,"name":"Zamorocian","steam_id":76561198076604017,"connected_time":612000000000,"state":"active","ping":36},{"user_id":531,"name":"FearHaze","steam_id":76561198000591267,"connected_time":1410000000000,"state":"active","ping":56},{"user_id":551,"name":"HilldogGaming♛","steam_id":76561198082209322,"connected_time":424000000000,"state":"active","ping":67},{"user_id":555,"name":"reaganomics lamborghini","steam_id":76561198141529682,"connected_time":332000000000,"state":"active","ping":164},{"user_id":532,"name":"Average Chinese Man","steam_id":76561199076883472,"connected_time":1407000000000,"state":"active","ping":82},{"user_id":489,"name":"[P-roc] BadJacKS","steam_id":76561197972666377,"connected_time":3454000000000,"state":"active","ping":60},{"user_id":553,"name":"Sploigy","steam_id":76561197985773614,"connected_time":371000000000,"state":"active","ping":74},{"user_id":534,"name":"The Thinker","steam_id":76561198174510235,"connected_time":1357000000000,"state":"active","ping":47},{"user_id":558,"name":"昭和天皇","steam_id":76561198082071538,"connected_time":64000000000,"state":"active","ping":59},{"user_id":536,"name":"The Twice-Gorped Morp","steam_id":76561198052636352,"connected_time":1282000000000,"state":"active","ping":46},{"user_id":539,"name":"Hankel Tom (The Hankeler)","steam_id":76561199446367874,"connected_time":1039000000000,"state":"active","ping":158},{"user_id":525,"name":"sarcasticsatan69","steam_id":76561198407566842,"connected_time":1659000000000,"state":"active","ping":53}]},{"server_id":320,"name":"Uncletopia | London | 3 | All Maps","name_short":"lon-3","host":"lon-1.uk.uncletopia.com","port":27035,"enabled":true,"region":"eu","cc":"gb","latitude":51.509865,"longitude":-0.118092,"reserved":0,"last_update":"0001-01-01T00:00:00Z","name_a2s":"Uncletopia | London | 3 | All Maps","protocol":17,"map":"pl_snowycoast","folder":"tf","game":"Team Fortress","app_id":440,"player_count":24,"max_players":24,"Bots":0,"server_type":"Dedicated","server_os":"Linux","password":true,"vac":true,"version":"7961495","steam_id":85568392924510192,"keywords":["nocrits","nodmgspread","payload","uncletopia"],"game_id":440,"stv_port":27036,"stv_name":"Uncletopia | London | 3 | All Maps | STV","players":[{"user_id":317,"name":"Ryan Gosling (Literally me)","steam_id":76561198438150893,"connected_time":1660000000000,"state":"active","ping":97},{"user_id":287,"name":"CornerPin","steam_id":76561198041202334,"connected_time":3906000000000,"state":"active","ping":89},{"user_id":306,"name":"Pan","steam_id":76561198436871448,"connected_time":1978000000000,"state":"active","ping":40},{"user_id":328,"name":"Maximilian1359","steam_id":76561198152439608,"connected_time":532000000000,"state":"active","ping":68},{"user_id":307,"name":"lawn","steam_id":76561198001243486,"connected_time":1964000000000,"state":"active","ping":45},{"user_id":308,"name":"chillrend_morphs_high_lod6","steam_id":76561198452963141,"connected_time":1948000000000,"state":"active","ping":90},{"user_id":319,"name":"engie?","steam_id":76561198331852832,"connected_time":1504000000000,"state":"active","ping":143},{"user_id":285,"name":"waffle toaster","steam_id":76561198799089628,"connected_time":3918000000000,"state":"active","ping":42},{"user_id":315,"name":"bowchika wowa #SlavaUkraine","steam_id":76561198159564550,"connected_time":1719000000000,"state":"active","ping":74},{"user_id":301,"name":"ketamine","steam_id":76561198057104208,"connected_time":2441000000000,"state":"active","ping":99},{"user_id":309,"name":"Nomakh","steam_id":76561198096414653,"connected_time":1940000000000,"state":"active","ping":91},{"user_id":327,"name":"orange","steam_id":76561198963378933,"connected_time":564000000000,"state":"active","ping":43},{"user_id":312,"name":"Steen","steam_id":76561198122992510,"connected_time":1776000000000,"state":"active","ping":49},{"user_id":280,"name":"Spageti","steam_id":76561198074122906,"connected_time":4129000000000,"state":"active","ping":85},{"user_id":333,"name":"bongo","steam_id":76561198015489880,"connected_time":473000000000,"state":"active","ping":33},{"user_id":311,"name":"zayd","steam_id":76561198895235231,"connected_time":1838000000000,"state":"active","ping":50},{"user_id":329,"name":"Assassin+","steam_id":76561197994310420,"connected_time":530000000000,"state":"active","ping":61},{"user_id":299,"name":"Air","steam_id":76561198271025518,"connected_time":2728000000000,"state":"active","ping":96},{"user_id":335,"name":"DragonflyXL","steam_id":76561198146649957,"connected_time":361000000000,"state":"active","ping":53},{"user_id":331,"name":"sheryl","steam_id":76561198088624259,"connected_time":506000000000,"state":"active","ping":62},{"user_id":326,"name":"Borat","steam_id":76561198122226417,"connected_time":568000000000,"state":"active","ping":44},{"user_id":336,"name":"joachym","steam_id":76561198428579761,"connected_time":311000000000,"state":"active","ping":76},{"user_id":332,"name":"applier of the lotion","steam_id":76561198798803845,"connected_time":506000000000,"state":"active","ping":46},{"user_id":320,"name":"SuperBob103","steam_id":76561199175360012,"connected_time":1344000000000,"state":"active","ping":46}]},{"server_id":321,"name":"Uncletopia | London | 4 | All Maps","name_short":"lon-4","host":"lon-1.uk.uncletopia.com","port":27045,"enabled":true,"region":"eu","cc":"gb","latitude":51.509865,"longitude":-0.118092,"reserved":0,"last_update":"0001-01-01T00:00:00Z","name_a2s":"Uncletopia | London | 4 | All Maps","protocol":17,"map":"koth_viaduct","folder":"tf","game":"Team Fortress","app_id":440,"player_count":0,"max_players":24,"Bots":0,"server_type":"Dedicated","server_os":"Linux","password":true,"vac":true,"version":"7961495","steam_id":85568392924510193,"keywords":["cp","nocrits","nodmgspread","uncletopia"],"game_id":440,"stv_port":27046,"stv_name":"Uncletopia | London | 4 | All Maps | STV","players":null},{"server_id":21,"name":"Uncletopia | London | 5 | All Maps","name_short":"lon-5","host":"lon-1.uk.uncletopia.com","port":27055,"enabled":true,"region":"eu","cc":"gb","latitude":51.509865,"longitude":-0.118092,"reserved":0,"last_update":"0001-01-01T00:00:00Z","name_a2s":"Uncletopia | London | 5 | All Maps","protocol":17,"map":"cp_dustbowl","folder":"tf","game":"Team Fortress","app_id":440,"player_count":0,"max_players":24,"Bots":0,"server_type":"Dedicated","server_os":"Linux","password":true,"vac":true,"version":"7961495","steam_id":85568392924742829,"keywords":["cp","nocrits","nodmgspread","uncletopia"],"game_id":440,"stv_port":27056,"stv_name":"Uncletopia | London | 5 | All Maps | STV","players":null},{"server_id":22,"name":"Uncletopia | London | 6 | All Maps","name_short":"lon-6","host":"lon-1.uk.uncletopia.com","port":27065,"enabled":true,"region":"eu","cc":"gb","latitude":51.509865,"longitude":-0.118092,"reserved":0,"last_update":"0001-01-01T00:00:00Z","name_a2s":"Uncletopia | London | 6 | All Maps","protocol":17,"map":"koth_lakeside_final","folder":"tf","game":"Team Fortress","app_id":440,"player_count":0,"max_players":24,"Bots":0,"server_type":"Dedicated","server_os":"Linux","password":true,"vac":true,"version":"7961495","steam_id":85568392924742830,"keywords":["cp","nocrits","nodmgspread","uncletopia"],"game_id":440,"stv_port":27066,"stv_name":"Uncletopia | London | 6 | All Maps | STV","players":null},{"server_id":40,"name":"Uncletopia | London | 7 | Stopwatch","name_short":"lon-7","host":"lon-1.uk.uncletopia.com","port":27075,"enabled":true,"region":"eu","cc":"gb","latitude":51.509865,"longitude":-0.118092,"reserved":0,"last_update":"0001-01-01T00:00:00Z","name_a2s":"Uncletopia | London | 7 | Stopwatch","protocol":17,"map":"pl_borneo","folder":"tf","game":"Team Fortress","app_id":440,"player_count":0,"max_players":24,"Bots":0,"server_type":"Dedicated","server_os":"Linux","password":true,"vac":true,"version":"7961495","steam_id":85568392924964314,"keywords":["nocrits","nodmgspread","payload","uncletopia"],"game_id":440,"stv_port":27076,"stv_name":"Uncletopia | London | 7 | Stopwatch | STV","players":null},{"server_id":41,"name":"Uncletopia | London | 8 | Community","name_short":"lon-8","host":"lon-1.uk.uncletopia.com","port":27085,"enabled":true,"region":"eu","cc":"gb","latitude":51.509865,"longitude":-0.118092,"reserved":0,"last_update":"0001-01-01T00:00:00Z","name_a2s":"Uncletopia | London | 8 | Community","protocol":17,"map":"workshop/cp_logjam_rc12.ugc454812035","folder":"tf","game":"Team Fortress","app_id":440,"player_count":0,"max_players":24,"Bots":0,"server_type":"Dedicated","server_os":"Linux","password":true,"vac":true,"version":"7961495","steam_id":85568392924964315,"keywords":["cp","nocrits","nodmgspread","uncletopia"],"game_id":440,"stv_port":27086,"stv_name":"Uncletopia | London | 8 | Community | STV","players":null},{"server_id":300,"name":"Uncletopia | Montréal | 1 | One Thousand Uncles","name_short":"mtl-1","host":"mtl-1.ca.uncletopia.com","port":27015,"enabled":true,"region":"us-east","cc":"ca","latitude":45.50889,"longitude":-73.56167,"reserved":0,"last_update":"0001-01-01T00:00:00Z","name_a2s":"","protocol":0,"map":"","folder":"","game":"","app_id":0,"player_count":7,"max_players":0,"Bots":0,"server_type":"","server_os":"","password":false,"vac":false,"version":"","steam_id":0,"keywords":null,"game_id":0,"stv_port":0,"stv_name":"","players":[{"user_id":87,"name":"Grand Wizard","steam_id":76561199382783363,"connected_time":2193000000000,"state":"active","ping":76},{"user_id":105,"name":"Rhutebeer","steam_id":76561198018302761,"connected_time":1036000000000,"state":"active","ping":105},{"user_id":106,"name":"FlameEmerald","steam_id":76561198407696514,"connected_time":941000000000,"state":"active","ping":75},{"user_id":107,"name":"Theflyingshark","steam_id":76561198184823505,"connected_time":934000000000,"state":"active","ping":65},{"user_id":108,"name":"DurpyChimiChanGa","steam_id":76561199101447065,"connected_time":931000000000,"state":"active","ping":78},{"user_id":109,"name":"Green","steam_id":76561198122688711,"connected_time":882000000000,"state":"active","ping":73},{"user_id":111,"name":"Huey","steam_id":76561198972816386,"connected_time":294000000000,"state":"active","ping":81}]},{"server_id":301,"name":"Uncletopia | Montréal | 2 | One Thousand Uncles","name_short":"mtl-2","host":"mtl-1.ca.uncletopia.com","port":27025,"enabled":true,"region":"us-east","cc":"ca","latitude":45.50889,"longitude":-73.56167,"reserved":0,"last_update":"0001-01-01T00:00:00Z","name_a2s":"","protocol":0,"map":"","folder":"","game":"","app_id":0,"player_count":0,"max_players":0,"Bots":0,"server_type":"","server_os":"","password":false,"vac":false,"version":"","steam_id":0,"keywords":null,"game_id":0,"stv_port":0,"stv_name":"","players":null},{"server_id":302,"name":"Uncletopia | Montréal | 3 | One Thousand Uncles","name_short":"mtl-3","host":"mtl-1.ca.uncletopia.com","port":27035,"enabled":true,"region":"us-east","cc":"ca","latitude":45.50889,"longitude":-73.56167,"reserved":0,"last_update":"0001-01-01T00:00:00Z","name_a2s":"","protocol":0,"map":"","folder":"","game":"","app_id":0,"player_count":0,"max_players":0,"Bots":0,"server_type":"","server_os":"","password":false,"vac":false,"version":"","steam_id":0,"keywords":null,"game_id":0,"stv_port":0,"stv_name":"","players":null},{"server_id":13,"name":"Uncletopia | New York City | 1 | All Maps","name_short":"nyc-1","host":"nyc-1.us.uncletopia.com","port":27015,"enabled":true,"region":"us-east","cc":"us","latitude":40.73061,"longitude":-73.93524,"reserved":0,"last_update":"0001-01-01T00:00:00Z","name_a2s":"Uncletopia | New York City | 1 | All Maps","protocol":17,"map":"cp_sunshine","folder":"tf","game":"Team Fortress","app_id":440,"player_count":21,"max_players":24,"Bots":0,"server_type":"Dedicated","server_os":"Linux","password":true,"vac":true,"version":"7961495","steam_id":85568392924469993,"keywords":["cp","nocrits","nodmgspread","uncletopia"],"game_id":440,"stv_port":27016,"stv_name":"Uncletopia | New York City | 1 | All Maps | STV","players":[{"user_id":188,"name":"oppenheimer style","steam_id":76561198026664629,"connected_time":7124000000000,"state":"spawning","ping":84},{"user_id":265,"name":"Nicholas Deckolas","steam_id":76561198005301468,"connected_time":39000000000,"state":"spawning","ping":88},{"user_id":223,"name":"Hugecliff","steam_id":76561198044288534,"connected_time":4798000000000,"state":"spawning","ping":108},{"user_id":250,"name":"Pi Guy","steam_id":76561199071784224,"connected_time":1815000000000,"state":"spawning","ping":85},{"user_id":196,"name":"The Undead Knight","steam_id":76561198010654500,"connected_time":5867000000000,"state":"spawning","ping":94},{"user_id":256,"name":"TMKPresents","steam_id":76561198118999995,"connected_time":1628000000000,"state":"spawning","ping":85},{"user_id":249,"name":"Tony Pizza","steam_id":76561198276513608,"connected_time":1955000000000,"state":"spawning","ping":193},{"user_id":189,"name":"Frost ♥","steam_id":76561198168870617,"connected_time":6998000000000,"state":"spawning","ping":94},{"user_id":268,"name":"the spy from team defense fort ","steam_id":76561199112194007,"connected_time":27000000000,"state":"connecting","ping":64},{"user_id":261,"name":"jackass","steam_id":76561198209380493,"connected_time":1123000000000,"state":"spawning","ping":47},{"user_id":243,"name":"Novasylum","steam_id":76561198014984813,"connected_time":2745000000000,"state":"spawning","ping":55},{"user_id":259,"name":"ekgooby","steam_id":76561198043678479,"connected_time":1596000000000,"state":"spawning","ping":109},{"user_id":246,"name":"Tyco","steam_id":76561197978414167,"connected_time":2278000000000,"state":"spawning","ping":112},{"user_id":235,"name":"lu","steam_id":76561198080731872,"connected_time":3260000000000,"state":"spawning","ping":115},{"user_id":264,"name":"Lost CS2 player","steam_id":76561198892387723,"connected_time":248000000000,"state":"spawning","ping":68},{"user_id":266,"name":"Nerrrd_","steam_id":76561198870129960,"connected_time":36000000000,"state":"spawning","ping":64},{"user_id":251,"name":"eish","steam_id":76561198089463603,"connected_time":1814000000000,"state":"spawning","ping":178},{"user_id":254,"name":"Dr. Feelgood (Ph.D, MD)","steam_id":76561198040611061,"connected_time":1726000000000,"state":"spawning","ping":49},{"user_id":158,"name":"Ashton","steam_id":76561198300590302,"connected_time":9273000000000,"state":"spawning","ping":99},{"user_id":267,"name":"nomad","steam_id":76561197998740399,"connected_time":31000000000,"state":"connecting","ping":43},{"user_id":233,"name":"Dr.Inkmix(femboy)","steam_id":76561198854070384,"connected_time":3752000000000,"state":"spawning","ping":180}]},{"server_id":14,"name":"Uncletopia | New York City | 2 | All Maps","name_short":"nyc-2","host":"nyc-1.us.uncletopia.com","port":27025,"enabled":true,"region":"us-east","cc":"us","latitude":40.73061,"longitude":-73.93524,"reserved":0,"last_update":"0001-01-01T00:00:00Z","name_a2s":"Uncletopia | New York City | 2 | All Maps","protocol":17,"map":"pl_frontier_final","folder":"tf","game":"Team Fortress","app_id":440,"player_count":24,"max_players":24,"Bots":0,"server_type":"Dedicated","server_os":"Linux","password":true,"vac":true,"version":"7961495","steam_id":85568392924469994,"keywords":["nocrits","nodmgspread","payload","uncletopia"],"game_id":440,"stv_port":27026,"stv_name":"Uncletopia | New York City | 2 | All Maps | STV","players":[{"user_id":441,"name":"Yato","steam_id":76561198084100335,"connected_time":1942000000000,"state":"active","ping":75},{"user_id":409,"name":"Sagoogoo","steam_id":76561198176061614,"connected_time":3118000000000,"state":"active","ping":83},{"user_id":442,"name":"artichoke","steam_id":76561198980994364,"connected_time":1939000000000,"state":"active","ping":103},{"user_id":404,"name":"DogSpoon","steam_id":76561198012485990,"connected_time":3283000000000,"state":"active","ping":45},{"user_id":410,"name":"Oxygen User","steam_id":76561199111975528,"connected_time":3111000000000,"state":"active","ping":89},{"user_id":422,"name":"Liver stealer","steam_id":76561199029954287,"connected_time":2762000000000,"state":"active","ping":136},{"user_id":457,"name":"BumpofNight","steam_id":76561198011581312,"connected_time":987000000000,"state":"active","ping":89},{"user_id":461,"name":"KBoneski ♡","steam_id":76561198307409065,"connected_time":750000000000,"state":"active","ping":58},{"user_id":462,"name":"Lumi","steam_id":76561198089978036,"connected_time":698000000000,"state":"active","ping":60},{"user_id":430,"name":"custodian","steam_id":76561198058793778,"connected_time":2590000000000,"state":"active","ping":56},{"user_id":460,"name":"Pelham Bay Rat","steam_id":76561198096692107,"connected_time":888000000000,"state":"active","ping":69},{"user_id":465,"name":"hayes","steam_id":76561198057101042,"connected_time":165000000000,"state":"active","ping":118},{"user_id":467,"name":"celery","steam_id":76561199004451589,"connected_time":159000000000,"state":"active","ping":84},{"user_id":414,"name":"BeerPowder","steam_id":76561198058129400,"connected_time":3038000000000,"state":"active","ping":51},{"user_id":466,"name":"Bother","steam_id":76561198336750909,"connected_time":163000000000,"state":"active","ping":37},{"user_id":439,"name":"Bitter","steam_id":76561198146532457,"connected_time":2010000000000,"state":"active","ping":89},{"user_id":458,"name":"The Grim Heaper","steam_id":76561197987759101,"connected_time":962000000000,"state":"active","ping":130},{"user_id":456,"name":"sniffmyfeetnow","steam_id":76561198009355437,"connected_time":1108000000000,"state":"active","ping":60},{"user_id":459,"name":"Pizza Party","steam_id":76561198165730754,"connected_time":934000000000,"state":"active","ping":76},{"user_id":451,"name":"cube","steam_id":76561197991759721,"connected_time":1717000000000,"state":"active","ping":48},{"user_id":468,"name":"TheBoxWizard","steam_id":76561198447992832,"connected_time":145000000000,"state":"active","ping":55},{"user_id":464,"name":"Rick Assley","steam_id":76561198365019199,"connected_time":176000000000,"state":"active","ping":79},{"user_id":454,"name":"YourFriendJessie *REAL*","steam_id":76561198176883097,"connected_time":1139000000000,"state":"active","ping":53},{"user_id":440,"name":"Pasta La Vista","steam_id":76561198129450033,"connected_time":1986000000000,"state":"active","ping":40}]},{"server_id":15,"name":"Uncletopia | New York City | 3 | Stopwatch","name_short":"nyc-3","host":"nyc-1.us.uncletopia.com","port":27035,"enabled":true,"region":"us-east","cc":"us","latitude":40.73061,"longitude":-73.93524,"reserved":0,"last_update":"0001-01-01T00:00:00Z","name_a2s":"Uncletopia | New York City | 3 | Stopwatch","protocol":17,"map":"workshop/koth_ashville_final.ugc2130459942","folder":"tf","game":"Team Fortress","app_id":440,"player_count":0,"max_players":24,"Bots":0,"server_type":"Dedicated","server_os":"Linux","password":true,"vac":true,"version":"7961495","steam_id":85568392924742820,"keywords":["cp","nocrits","nodmgspread","uncletopia"],"game_id":440,"stv_port":27036,"stv_name":"Uncletopia | New York City | 3 | Stopwatch | STV","players":null},{"server_id":16,"name":"Uncletopia | New York City | 4 | Community","name_short":"nyc-4","host":"nyc-1.us.uncletopia.com","port":27045,"enabled":true,"region":"us-east","cc":"us","latitude":40.73061,"longitude":-73.93524,"reserved":0,"last_update":"0001-01-01T00:00:00Z","name_a2s":"Uncletopia | New York City | 4 | Community","protocol":17,"map":"workshop/pl_vigil_rc10.ugc1266210012","folder":"tf","game":"Team Fortress","app_id":440,"player_count":0,"max_players":24,"Bots":0,"server_type":"Dedicated","server_os":"Linux","password":true,"vac":true,"version":"7961495","steam_id":85568392924742821,"keywords":["nocrits","nodmgspread","payload","uncletopia"],"game_id":440,"stv_port":27046,"stv_name":"Uncletopia | New York City | 4 | Community | STV","players":null},{"server_id":142,"name":"Uncletopia | São Paulo | 1 | All Maps","name_short":"sao-1","host":"sao-1.br.uncletopia.com","port":27015,"enabled":true,"region":"sa","cc":"br","latitude":-23.533773,"longitude":-46.62529,"reserved":0,"last_update":"0001-01-01T00:00:00Z","name_a2s":"Uncletopia | São Paulo | 1 | All Maps","protocol":17,"map":"cp_snakewater_final1","folder":"tf","game":"Team Fortress","app_id":440,"player_count":0,"max_players":24,"Bots":0,"server_type":"Dedicated","server_os":"Linux","password":true,"vac":true,"version":"7961495","steam_id":85568392924469996,"keywords":["cp","nocrits","nodmgspread","uncletopia"],"game_id":440,"stv_port":27016,"stv_name":"Uncletopia | São Paulo | 1 | All Maps | STV","players":null},{"server_id":143,"name":"Uncletopia | São Paulo | 2 | Community","name_short":"sao-2","host":"sao-2.br.uncletopia.com","port":27015,"enabled":true,"region":"sa","cc":"br","latitude":-23.533773,"longitude":-46.62529,"reserved":0,"last_update":"0001-01-01T00:00:00Z","name_a2s":"Uncletopia | São Paulo | 2 | Community","protocol":17,"map":"workshop/koth_ramjam_rc1.ugc459778887","folder":"tf","game":"Team Fortress","app_id":440,"player_count":2,"max_players":24,"Bots":0,"server_type":"Dedicated","server_os":"Linux","password":true,"vac":true,"version":"7961495","steam_id":85568392924485349,"keywords":["cp","nocrits","nodmgspread","uncletopia"],"game_id":440,"stv_port":27016,"stv_name":"Uncletopia | São Paulo | 2 | Community | STV","players":[{"user_id":15,"name":"guarda-chuva","steam_id":76561198078694330,"connected_time":316000000000,"state":"active","ping":57},{"user_id":16,"name":"Tert_14","steam_id":76561198185952289,"connected_time":301000000000,"state":"active","ping":69}]},{"server_id":7,"name":"Uncletopia | Seattle | 1 | All Maps","name_short":"sea-1","host":"sea-1.us.uncletopia.com","port":27015,"enabled":true,"region":"us-west","cc":"us","latitude":47.608013,"longitude":-122.33517,"reserved":0,"last_update":"0001-01-01T00:00:00Z","name_a2s":"Uncletopia | Seattle | 1 | All Maps","protocol":17,"map":"pl_badwater","folder":"tf","game":"Team Fortress","app_id":440,"player_count":23,"max_players":24,"Bots":0,"server_type":"Dedicated","server_os":"Linux","password":true,"vac":true,"version":"7961495","steam_id":85568392924469997,"keywords":["nocrits","nodmgspread","payload","uncletopia"],"game_id":440,"stv_port":27016,"stv_name":"Uncletopia | Seattle | 1 | All Maps | STV","players":[{"user_id":451,"name":"invenomious","steam_id":76561199032714821,"connected_time":49000000000,"state":"active","ping":38},{"user_id":444,"name":"Spam The Alien","steam_id":76561199122290968,"connected_time":337000000000,"state":"active","ping":54},{"user_id":450,"name":"Tom","steam_id":76561198070630154,"connected_time":73000000000,"state":"active","ping":73},{"user_id":453,"name":"Jpcrab09","steam_id":76561198870109960,"connected_time":2000000000,"state":"spawning","ping":54},{"user_id":399,"name":"Dextersbrain","steam_id":76561198011831579,"connected_time":4559000000000,"state":"active","ping":48},{"user_id":447,"name":"theManMan","steam_id":76561199488457138,"connected_time":188000000000,"state":"active","ping":48},{"user_id":423,"name":"Nom Skirrett","steam_id":76561198014600788,"connected_time":2833000000000,"state":"active","ping":63},{"user_id":410,"name":"jurt","steam_id":76561198966381490,"connected_time":4169000000000,"state":"active","ping":46},{"user_id":416,"name":"♩Karmism♩","steam_id":76561199453410299,"connected_time":3946000000000,"state":"active","ping":132},{"user_id":419,"name":"TheBrocklobster","steam_id":76561198039682984,"connected_time":3847000000000,"state":"active","ping":90},{"user_id":445,"name":"Azary56","steam_id":76561198321404617,"connected_time":242000000000,"state":"active","ping":75},{"user_id":449,"name":"exx","steam_id":76561198041421969,"connected_time":94000000000,"state":"active","ping":62},{"user_id":433,"name":"you just got dyked on","steam_id":76561198018977723,"connected_time":2020000000000,"state":"active","ping":50},{"user_id":434,"name":"Lucianx","steam_id":76561199090167961,"connected_time":1959000000000,"state":"active","ping":53},{"user_id":436,"name":"dodecadron","steam_id":76561198027397222,"connected_time":1351000000000,"state":"active","ping":56},{"user_id":427,"name":"Vincent Van Bro","steam_id":76561197966919802,"connected_time":2180000000000,"state":"active","ping":44},{"user_id":448,"name":"Drake from State Farm","steam_id":76561199069029812,"connected_time":129000000000,"state":"active","ping":86},{"user_id":441,"name":"Arkus","steam_id":76561199092478198,"connected_time":1095000000000,"state":"active","ping":46},{"user_id":408,"name":"tbm john","steam_id":76561198304194081,"connected_time":4230000000000,"state":"active","ping":74},{"user_id":452,"name":"SpringSloth","steam_id":76561199211310022,"connected_time":39000000000,"state":"active","ping":205},{"user_id":446,"name":"Stunna","steam_id":76561199127423378,"connected_time":200000000000,"state":"active","ping":77},{"user_id":443,"name":"vomit gf","steam_id":76561198049258493,"connected_time":438000000000,"state":"active","ping":50},{"user_id":390,"name":"Grill Skills","steam_id":76561198053575147,"connected_time":5649000000000,"state":"active","ping":47}]},{"server_id":119,"name":"Uncletopia | Seattle | 2 | All Maps","name_short":"sea-2","host":"sea-1.us.uncletopia.com","port":27025,"enabled":true,"region":"us-west","cc":"us","latitude":47.608013,"longitude":-122.33517,"reserved":0,"last_update":"0001-01-01T00:00:00Z","name_a2s":"Uncletopia | Seattle | 2 | All Maps","protocol":17,"map":"pl_swiftwater_final1","folder":"tf","game":"Team Fortress","app_id":440,"player_count":0,"max_players":24,"Bots":0,"server_type":"Dedicated","server_os":"Linux","password":true,"vac":true,"version":"7961495","steam_id":85568392924469998,"keywords":["nocrits","nodmgspread","payload","uncletopia"],"game_id":440,"stv_port":27026,"stv_name":"Uncletopia | Seattle | 2 | All Maps | STV","players":null},{"server_id":406,"name":"Uncletopia | Seattle | 3 | Stopwatch","name_short":"sea-3","host":"sea-1.us.uncletopia.com","port":27035,"enabled":true,"region":"us-west","cc":"us","latitude":47.608013,"longitude":-122.33517,"reserved":0,"last_update":"0001-01-01T00:00:00Z","name_a2s":"Uncletopia | Seattle | 3 | Stopwatch","protocol":17,"map":"pl_swiftwater_final1","folder":"tf","game":"Team Fortress","app_id":440,"player_count":0,"max_players":24,"Bots":0,"server_type":"Dedicated","server_os":"Linux","password":true,"vac":true,"version":"7961495","steam_id":85568392924515217,"keywords":["nocrits","nodmgspread","payload","uncletopia"],"game_id":440,"stv_port":27036,"stv_name":"Uncletopia | Seattle | 3 | Stopwatch | STV","players":null},{"server_id":17,"name":"Uncletopia | San Francisco | 1 | All Maps","name_short":"sfo-1","host":"sfo-1.us.uncletopia.com","port":27015,"enabled":true,"region":"us-west","cc":"us","latitude":37.77397,"longitude":-122.4313,"reserved":0,"last_update":"0001-01-01T00:00:00Z","name_a2s":"Uncletopia | San Francisco | 1 | All Maps","protocol":17,"map":"koth_highpass","folder":"tf","game":"Team Fortress","app_id":440,"player_count":0,"max_players":24,"Bots":0,"server_type":"Dedicated","server_os":"Linux","password":true,"vac":true,"version":"7961495","steam_id":85568392924469999,"keywords":["cp","nocrits","nodmgspread","uncletopia"],"game_id":440,"stv_port":27016,"stv_name":"Uncletopia | San Francisco | 1 | All Maps | STV","players":null},{"server_id":18,"name":"Uncletopia | San Francisco | 2 | All Maps","name_short":"sfo-2","host":"sfo-1.us.uncletopia.com","port":27025,"enabled":true,"region":"us-west","cc":"us","latitude":37.77397,"longitude":-122.4313,"reserved":0,"last_update":"0001-01-01T00:00:00Z","name_a2s":"Uncletopia | San Francisco | 2 | All Maps","protocol":17,"map":"pl_frontier_final","folder":"tf","game":"Team Fortress","app_id":440,"player_count":24,"max_players":24,"Bots":0,"server_type":"Dedicated","server_os":"Linux","password":true,"vac":true,"version":"7961495","steam_id":85568392924470000,"keywords":["nocrits","nodmgspread","payload","uncletopia"],"game_id":440,"stv_port":27026,"stv_name":"Uncletopia | San Francisco | 2 | All Maps | STV","players":[{"user_id":427,"name":"Pie","steam_id":76561198054721133,"connected_time":1316000000000,"state":"active","ping":66},{"user_id":441,"name":"BigBubble42","steam_id":76561198136286123,"connected_time":444000000000,"state":"active","ping":65},{"user_id":455,"name":"TheGalacticGuy","steam_id":76561199094547569,"connected_time":17000000000,"state":"spawning","ping":104},{"user_id":390,"name":"MegaBitmap","steam_id":76561198086027059,"connected_time":2641000000000,"state":"active","ping":68},{"user_id":434,"name":"vanillain","steam_id":76561198058617608,"connected_time":909000000000,"state":"active","ping":66},{"user_id":428,"name":"Beef Wellington","steam_id":76561197995635241,"connected_time":1307000000000,"state":"active","ping":163},{"user_id":360,"name":"rynz500","steam_id":76561198043872361,"connected_time":4886000000000,"state":"active","ping":118},{"user_id":440,"name":"Sean","steam_id":76561199367470003,"connected_time":457000000000,"state":"active","ping":70},{"user_id":435,"name":"Can You Feel It Mr.Krabs","steam_id":76561198128302414,"connected_time":765000000000,"state":"active","ping":70},{"user_id":386,"name":"Meloncholy","steam_id":76561198077424488,"connected_time":3109000000000,"state":"active","ping":55},{"user_id":436,"name":"Donkski","steam_id":76561198406895347,"connected_time":699000000000,"state":"active","ping":70},{"user_id":442,"name":"Fridgidaere @bowie.gg","steam_id":76561198131467867,"connected_time":429000000000,"state":"active","ping":45},{"user_id":451,"name":"livesy Jumpscare","steam_id":76561198153908250,"connected_time":228000000000,"state":"active","ping":59},{"user_id":429,"name":"Bus!","steam_id":76561199082304859,"connected_time":1275000000000,"state":"active","ping":84},{"user_id":444,"name":"coach cartier","steam_id":76561198819023590,"connected_time":389000000000,"state":"active","ping":105},{"user_id":445,"name":"jasus","steam_id":76561198088035919,"connected_time":382000000000,"state":"active","ping":57},{"user_id":347,"name":"Eden","steam_id":76561198081284664,"connected_time":5514000000000,"state":"active","ping":61},{"user_id":425,"name":"☭Borris☭","steam_id":76561198011136886,"connected_time":1408000000000,"state":"active","ping":70},{"user_id":446,"name":"Optimore","steam_id":76561198047662990,"connected_time":373000000000,"state":"active","ping":56},{"user_id":439,"name":"Ass Blaster, Disaster Master","steam_id":76561197997774469,"connected_time":570000000000,"state":"active","ping":54},{"user_id":447,"name":"Lasagna Fan","steam_id":76561199169204754,"connected_time":357000000000,"state":"active","ping":79},{"user_id":452,"name":"scav","steam_id":76561198849202317,"connected_time":211000000000,"state":"active","ping":94},{"user_id":449,"name":"in my triple cup, that’s 2x2","steam_id":76561198144909435,"connected_time":337000000000,"state":"active","ping":61},{"user_id":454,"name":"Therapy Goth","steam_id":76561198048448497,"connected_time":205000000000,"state":"active","ping":111}]},{"server_id":19,"name":"Uncletopia | San Francisco | 3 | Stopwatch","name_short":"sfo-3","host":"sfo-1.us.uncletopia.com","port":27035,"enabled":true,"region":"us-west","cc":"us","latitude":37.77397,"longitude":-122.4313,"reserved":0,"last_update":"0001-01-01T00:00:00Z","name_a2s":"Uncletopia | San Francisco | 3 | Stopwatch","protocol":17,"map":"workshop/koth_product_final.ugc454272353","folder":"tf","game":"Team Fortress","app_id":440,"player_count":0,"max_players":24,"Bots":0,"server_type":"Dedicated","server_os":"Linux","password":true,"vac":true,"version":"7961495","steam_id":85568392924742824,"keywords":["cp","nocrits","nodmgspread","uncletopia"],"game_id":440,"stv_port":27036,"stv_name":"Uncletopia | San Francisco | 3 | Stopwatch | STV","players":null},{"server_id":20,"name":"Uncletopia | San Francisco | 4 | Community","name_short":"sfo-4","host":"sfo-1.us.uncletopia.com","port":27045,"enabled":true,"region":"us-west","cc":"us","latitude":37.77397,"longitude":-122.4313,"reserved":0,"last_update":"0001-01-01T00:00:00Z","name_a2s":"Uncletopia | San Francisco | 4 | Community","protocol":17,"map":"pl_pier","folder":"tf","game":"Team Fortress","app_id":440,"player_count":0,"max_players":24,"Bots":0,"server_type":"Dedicated","server_os":"Linux","password":true,"vac":true,"version":"7961495","steam_id":85568392924742826,"keywords":["nocrits","nodmgspread","payload","uncletopia"],"game_id":440,"stv_port":27046,"stv_name":"Uncletopia | San Francisco | 4 | Community | STV","players":null},{"server_id":141,"name":"Uncletopia | Sydney | 1 | All Maps","name_short":"syd-1","host":"syd-1.au.uncletopia.com","port":27015,"enabled":true,"region":"au","cc":"au","latitude":-33.865143,"longitude":151.2099,"reserved":0,"last_update":"0001-01-01T00:00:00Z","name_a2s":"Uncletopia | Sydney | 1 | All Maps","protocol":17,"map":"koth_viaduct","folder":"tf","game":"Team Fortress","app_id":440,"player_count":0,"max_players":24,"Bots":0,"server_type":"Dedicated","server_os":"Linux","password":true,"vac":true,"version":"7961495","steam_id":85568392924470001,"keywords":["cp","nocrits","nodmgspread","uncletopia"],"game_id":440,"stv_port":27016,"stv_name":"Uncletopia | Sydney | 1 | All Maps | STV","players":null},{"server_id":123,"name":"Uncletopia | Sydney | 2 | All Maps","name_short":"syd-2","host":"syd-1.au.uncletopia.com","port":27025,"enabled":true,"region":"au","cc":"au","latitude":-33.865143,"longitude":151.2099,"reserved":0,"last_update":"0001-01-01T00:00:00Z","name_a2s":"Uncletopia | Sydney | 2 | All Maps","protocol":17,"map":"koth_viaduct","folder":"tf","game":"Team Fortress","app_id":440,"player_count":0,"max_players":24,"Bots":0,"server_type":"Dedicated","server_os":"Linux","password":true,"vac":true,"version":"7961495","steam_id":85568392924470002,"keywords":["cp","nocrits","nodmgspread","uncletopia"],"game_id":440,"stv_port":27026,"stv_name":"Uncletopia | Sydney | 2 | All Maps | STV","players":null},{"server_id":395,"name":"Uncletopia | Sydney | 3 | All Maps","name_short":"syd-3","host":"syd-1.au.uncletopia.com","port":27035,"enabled":true,"region":"au","cc":"au","latitude":-33.865143,"longitude":151.2099,"reserved":0,"last_update":"0001-01-01T00:00:00Z","name_a2s":"Uncletopia | Sydney | 3 | All Maps","protocol":17,"map":"pl_frontier_final","folder":"tf","game":"Team Fortress","app_id":440,"player_count":0,"max_players":24,"Bots":0,"server_type":"Dedicated","server_os":"Linux","password":true,"vac":true,"version":"7961495","steam_id":85568392925194467,"keywords":["nocrits","nodmgspread","payload","uncletopia"],"game_id":440,"stv_port":27036,"stv_name":"Uncletopia | Sydney | 3 | All Maps | STV","players":null},{"server_id":396,"name":"Uncletopia | Sydney | 4 | All Maps","name_short":"syd-4","host":"syd-1.au.uncletopia.com","port":27045,"enabled":true,"region":"au","cc":"au","latitude":-33.865143,"longitude":151.2099,"reserved":0,"last_update":"0001-01-01T00:00:00Z","name_a2s":"Uncletopia | Sydney | 4 | All Maps","protocol":17,"map":"cp_process_final","folder":"tf","game":"Team Fortress","app_id":440,"player_count":0,"max_players":24,"Bots":0,"server_type":"Dedicated","server_os":"Linux","password":true,"vac":true,"version":"7961495","steam_id":85568392925397958,"keywords":["cp","nocrits","nodmgspread","uncletopia"],"game_id":440,"stv_port":27046,"stv_name":"Uncletopia | Sydney | 4 | All Maps | STV","players":null},{"server_id":58,"name":"Uncletopia | Sydney | 5 | Stopwatch","name_short":"syd-5","host":"syd-1.au.uncletopia.com","port":27055,"enabled":true,"region":"au","cc":"au","latitude":-33.865143,"longitude":151.2099,"reserved":0,"last_update":"0001-01-01T00:00:00Z","name_a2s":"Uncletopia | Sydney | 5 | Stopwatch","protocol":17,"map":"pl_frontier_final","folder":"tf","game":"Team Fortress","app_id":440,"player_count":0,"max_players":24,"Bots":0,"server_type":"Dedicated","server_os":"Linux","password":true,"vac":true,"version":"7961495","steam_id":85568392925397959,"keywords":["nocrits","nodmgspread","payload","uncletopia"],"game_id":440,"stv_port":27056,"stv_name":"Uncletopia | Sydney | 5 | Stopwatch | STV","players":null},{"server_id":59,"name":"Uncletopia | Sydney | 6 | Community","name_short":"syd-6","host":"syd-1.au.uncletopia.com","port":27065,"enabled":true,"region":"au","cc":"au","latitude":-33.865143,"longitude":151.2099,"reserved":0,"last_update":"0001-01-01T00:00:00Z","name_a2s":"Uncletopia | Sydney | 6 | Community","protocol":17,"map":"cp_sunshine","folder":"tf","game":"Team Fortress","app_id":440,"player_count":0,"max_players":24,"Bots":0,"server_type":"Dedicated","server_os":"Linux","password":true,"vac":true,"version":"7961495","steam_id":85568392925397960,"keywords":["cp","nocrits","nodmgspread","uncletopia"],"game_id":440,"stv_port":27066,"stv_name":"Uncletopia | Sydney | 6 | Community | STV","players":null},{"server_id":49,"name":"Uncletopia | Warsaw | 1 | One Thousand Uncles","name_short":"waw-1","host":"waw-1.pl.uncletopia.com","port":27015,"enabled":true,"region":"eu","cc":"pl","latitude":52.2297,"longitude":21.017532,"reserved":0,"last_update":"0001-01-01T00:00:00Z","name_a2s":"Uncletopia | Warsaw | 1 | One Thousand Uncles","protocol":17,"map":"cp_mercenarypark","folder":"tf","game":"Team Fortress","app_id":440,"player_count":27,"max_players":32,"Bots":16,"server_type":"Dedicated","server_os":"Linux","password":true,"vac":true,"version":"7961495","steam_id":85568392925397850,"keywords":["alltalk","bots","cp","danepve","increased_maxplayers","nocrits","norespawntime","uncletopia"],"game_id":440,"stv_port":0,"stv_name":"","players":[{"user_id":211,"name":"JermuJorma","steam_id":76561198100413784,"connected_time":1797000000000,"state":"active","ping":85},{"user_id":207,"name":"𝓹𝓱𝓪𝓷𝓽𝓸𝓶","steam_id":76561199095923041,"connected_time":2910000000000,"state":"active","ping":151},{"user_id":208,"name":"ΩvetabolΩ","steam_id":76561199015064558,"connected_time":2860000000000,"state":"active","ping":105},{"user_id":144,"name":"Invicator","steam_id":76561198082895461,"connected_time":6914000000000,"state":"active","ping":72},{"user_id":214,"name":"JujuBalu","steam_id":76561198207253071,"connected_time":840000000000,"state":"active","ping":58},{"user_id":215,"name":"katana on the trains","steam_id":76561198202464032,"connected_time":258000000000,"state":"active","ping":88},{"user_id":212,"name":"foolproof","steam_id":76561198115801132,"connected_time":1674000000000,"state":"active","ping":72},{"user_id":217,"name":"M.C.Mcmuffins","steam_id":76561198068225535,"connected_time":72000000000,"state":"active","ping":74},{"user_id":165,"name":"Scout","steam_id":76561198992898803,"connected_time":6134000000000,"state":"active","ping":75},{"user_id":183,"name":"RoofRabbid","steam_id":76561198012821810,"connected_time":4145000000000,"state":"active","ping":103},{"user_id":135,"name":"Hans","steam_id":76561198136895244,"connected_time":8821000000000,"state":"active","ping":48}]},{"server_id":50,"name":"Uncletopia | Warsaw | 2 | One Thousand Uncles","name_short":"waw-2","host":"waw-1.pl.uncletopia.com","port":27025,"enabled":true,"region":"eu","cc":"pl","latitude":52.2297,"longitude":21.017532,"reserved":0,"last_update":"0001-01-01T00:00:00Z","name_a2s":"Uncletopia | Warsaw | 2 | One Thousand Uncles","protocol":17,"map":"cp_mercenarypark","folder":"tf","game":"Team Fortress","app_id":440,"player_count":0,"max_players":32,"Bots":0,"server_type":"Dedicated","server_os":"Linux","password":true,"vac":true,"version":"7961495","steam_id":85568392925397851,"keywords":["alltalk","cp","danepve","increased_maxplayers","nocrits","norespawntime","uncletopia"],"game_id":440,"stv_port":0,"stv_name":"","players":null},{"server_id":51,"name":"Uncletopia | Warsaw | 3 | All Maps","name_short":"waw-3","host":"waw-1.pl.uncletopia.com","port":27035,"enabled":true,"region":"eu","cc":"pl","latitude":52.2297,"longitude":21.017532,"reserved":0,"last_update":"0001-01-01T00:00:00Z","name_a2s":"Uncletopia | Warsaw | 3 | All Maps","protocol":17,"map":"plr_pipeline","folder":"tf","game":"Team Fortress","app_id":440,"player_count":0,"max_players":24,"Bots":0,"server_type":"Dedicated","server_os":"Linux","password":true,"vac":true,"version":"7961495","steam_id":85568392925397852,"keywords":["nocrits","nodmgspread","payload","uncletopia"],"game_id":440,"stv_port":27036,"stv_name":"Uncletopia | Warsaw | 3 | All Maps | STV","players":null},{"server_id":52,"name":"Uncletopia | Warsaw | 4 | All Maps","name_short":"waw-4","host":"waw-1.pl.uncletopia.com","port":27045,"enabled":true,"region":"eu","cc":"pl","latitude":52.2297,"longitude":21.017532,"reserved":0,"last_update":"0001-01-01T00:00:00Z","name_a2s":"Uncletopia | Warsaw | 4 | All Maps","protocol":17,"map":"cp_snakewater_final1","folder":"tf","game":"Team Fortress","app_id":440,"player_count":0,"max_players":24,"Bots":0,"server_type":"Dedicated","server_os":"Linux","password":true,"vac":true,"version":"7961495","steam_id":85568392925397853,"keywords":["cp","nocrits","nodmgspread","uncletopia"],"game_id":440,"stv_port":27046,"stv_name":"Uncletopia | Warsaw | 4 | All Maps | STV","players":null},{"server_id":53,"name":"Uncletopia | Warsaw | 5 | Stopwatch","name_short":"waw-5","host":"waw-1.pl.uncletopia.com","port":27055,"enabled":true,"region":"eu","cc":"pl","latitude":52.2297,"longitude":21.017532,"reserved":0,"last_update":"0001-01-01T00:00:00Z","name_a2s":"Uncletopia | Warsaw | 5 | Stopwatch","protocol":17,"map":"koth_highpass","folder":"tf","game":"Team Fortress","app_id":440,"player_count":0,"max_players":24,"Bots":0,"server_type":"Dedicated","server_os":"Linux","password":true,"vac":true,"version":"7961495","steam_id":85568392925397854,"keywords":["cp","nocrits","nodmgspread","uncletopia"],"game_id":440,"stv_port":27056,"stv_name":"Uncletopia | Warsaw | 5 | Stopwatch | STV","players":null},{"server_id":54,"name":"Uncletopia | Warsaw | 6 | Community","name_short":"waw-6","host":"waw-1.pl.uncletopia.com","port":27065,"enabled":true,"region":"eu","cc":"pl","latitude":52.2297,"longitude":21.017532,"reserved":0,"last_update":"0001-01-01T00:00:00Z","name_a2s":"Uncletopia | Warsaw | 6 | Community","protocol":17,"map":"workshop/cp_villa_b19.ugc2113052569","folder":"tf","game":"Team Fortress","app_id":440,"player_count":0,"max_players":24,"Bots":0,"server_type":"Dedicated","server_os":"Linux","password":true,"vac":true,"version":"7961495","steam_id":85568392925397856,"keywords":["cp","nocrits","nodmgspread","uncletopia"],"game_id":440,"stv_port":27066,"stv_name":"Uncletopia | Warsaw | 6 | Community | STV","players":null}]}