{"status":true,"message":"","result":[{"server_id":9,"name":"Uncletopia | Atlanta | 1 | All Maps","name_short":"atl-1","host":"atl-1.us.uncletopia.com","port":27015,"enabled":true,"region":"us-east","cc":"us","latitude":33.753746,"longitude":-84.38633,"reserved":0,"last_update":"0001-01-01T00:00:00Z","name_a2s":"Uncletopia | Atlanta | 1 | All Maps","protocol":17,"map":"koth_viaduct","folder":"tf","game":"Team Fortress","app_id":440,"player_count":0,"max_players":24,"Bots":0,"server_type":"Dedicated","server_os":"Linux","password":true,"vac":true,"version":"7882260","steam_id":85568392924469982,"keywords":["cp","nocrits","nodmgspread","uncletopia"],"game_id":440,"stv_port":27016,"stv_name":"Uncletopia | Atlanta | 1 | All Maps | STV","players":null},{"server_id":104,"name":"Uncletopia | Atlanta | 2 | All Maps","name_short":"atl-2","host":"atl-1.us.uncletopia.com","port":27025,"enabled":true,"region":"us-east","cc":"us","latitude":33.753746,"longitude":-84.38633,"reserved":0,"last_update":"0001-01-01T00:00:00Z","name_a2s":"Uncletopia | Atlanta | 2 | All Maps","protocol":17,"map":"pl_pier","folder":"tf","game":"Team Fortress","app_id":440,"player_count":18,"max_players":24,"Bots":0,"server_type":"Dedicated","server_os":"Linux","password":true,"vac":true,"version":"7882260","steam_id":85568392924469983,"keywords":["nocrits","nodmgspread","payload","uncletopia"],"game_id":440,"stv_port":27026,"stv_name":"Uncletopia | Atlanta | 2 | All Maps | STV","players":[{"user_id":58,"name":"J O V A","steam_id":76561198090333536,"connected_time":1957000000000,"state":"active","ping":60},{"user_id":59,"name":"gerg","steam_id":76561197997127387,"connected_time":1857000000000,"state":"active","ping":93},{"user_id":74,"name":"ConsecratusSpankBank","steam_id":76561198370718356,"connected_time":73000000000,"state":"active","ping":71},{"user_id":67,"name":"primordialheath","steam_id":76561199386942638,"connected_time":673000000000,"state":"active","ping":65},{"user_id":70,"name":"Kirino Toesucka","steam_id":76561198056684863,"connected_time":463000000000,"state":"active","ping":84},{"user_id":28,"name":"McSmitten","steam_id":76561198022358379,"connected_time":4134000000000,"state":"active","ping":49},{"user_id":60,"name":"@·¥°…™ ü·¥Ös…¥·¥Ä è·¥ã (real)","steam_id":76561198115175633,"connected_time":1823000000000,"state":"active","ping":58},{"user_id":72,"name":"Bar 101","steam_id":76561198416341999,"connected_time":120000000000,"state":"active","ping":75},{"user_id":63,"name":"Mr T√∏ffifee","steam_id":76561199122299750,"connected_time":1204000000000,"state":"active","ping":127},{"user_id":71,"name":"IceRunner","steam_id":76561198999311013,"connected_time":401000000000,"state":"active","ping":75},{"user_id":51,"name":"LVL 4 Dispenser Gaming","steam_id":76561198044244547,"connected_time":2839000000000,"state":"active","ping":93},{"user_id":62,"name":"Great Value Rice Crispers","steam_id":76561198211512619,"connected_time":1465000000000,"state":"active","ping":103},{"user_id":53,"name":"TransWomanGaming","steam_id":76561198809645656,"connected_time":2684000000000,"state":"active","ping":70},{"user_id":73,"name":"pumquinn","steam_id":76561198066386940,"connected_time":120000000000,"state":"active","ping":73},{"user_id":26,"name":"Salda√±a","steam_id":76561198214473001,"connected_time":4278000000000,"state":"active","ping":64},{"user_id":56,"name":"Mister Frank","steam_id":76561198161473385,"connected_time":2162000000000,"state":"active","ping":75},{"user_id":34,"name":"Chancethefapper69","steam_id":76561198173086317,"connected_time":3769000000000,"state":"active","ping":74},{"user_id":44,"name":"ElZeto","steam_id":76561198252322622,"connected_time":3140000000000,"state":"active","ping":112}]},{"server_id":400,"name":"Uncletopia | Atlanta | 3 | Community","name_short":"atl-3","host":"atl-1.us.uncletopia.com","port":27035,"enabled":true,"region":"us-east","cc":"us","latitude":33.753746,"longitude":-84.38633,"reserved":0,"last_update":"0001-01-01T00:00:00Z","name_a2s":"Uncletopia | Atlanta | 3 | Community","protocol":17,"map":"cp_sunshine","folder":"tf","game":"Team Fortress","app_id":440,"player_count":0,"max_players":24,"Bots":0,"server_type":"Dedicated","server_os":"Linux","password":true,"vac":true,"version":"7882260","steam_id":85568392924515187,"keywords":["cp","nocrits","nodmgspread","uncletopia"],"game_id":440,"stv_port":27036,"stv_name":"Uncletopia | Atlanta | 3 | Community | STV","players":null},{"server_id":401,"name":"Uncletopia | Atlanta | 4 | No Payload","name_short":"atl-4","host":"atl-1.us.uncletopia.com","port":27045,"enabled":true,"region":"us-east","cc":"us","latitude":33.753746,"longitude":-84.38633,"reserved":0,"last_update":"0001-01-01T00:00:00Z","name_a2s":"","protocol":0,"map":"","folder":"","game":"","app_id":0,"player_count":0,"max_players":0,"Bots":0,"server_type":"","server_os":"","password":false,"vac":false,"version":"","steam_id":0,"keywords":null,"game_id":0,"stv_port":0,"stv_name":"","players":null},{"server_id":2,"name":"Uncletopia | Chicago | 1 | All Maps","name_short":"chi-1","host":"chi-1.us.uncletopia.com","port":27015,"enabled":true,"region":"us-central","cc":"us","latitude":41.881832,"longitude":-87.62318,"reserved":0,"last_update":"0001-01-01T00:00:00Z","name_a2s":"Uncletopia | Chicago | 1 | All Maps","protocol":17,"map":"pl_frontier_final","folder":"tf","game":"Team Fortress","app_id":440,"player_count":0,"max_players":24,"Bots":0,"server_type":"Dedicated","server_os":"Linux","password":true,"vac":true,"version":"7882260","steam_id":85568392924469984,"keywords":["nocrits","nodmgspread","payload","uncletopia"],"game_id":440,"stv_port":27016,"stv_name":"Uncletopia | Chicago | 1 | All Maps | STV","players":null},{"server_id":106,"name":"Uncletopia | Chicago | 2 | All Maps","name_short":"chi-2","host":"chi-1.us.uncletopia.com","port":27025,"enabled":true,"region":"us-central","cc":"us","latitude":41.881832,"longitude":-87.62318,"reserved":0,"last_update":"0001-01-01T00:00:00Z","name_a2s":"Uncletopia | Chicago | 2 | All Maps","protocol":17,"map":"pl_frontier_final","folder":"tf","game":"Team Fortress","app_id":440,"player_count":0,"max_players":24,"Bots":0,"server_type":"Dedicated","server_os":"Linux","password":true,"vac":true,"version":"7882260","steam_id":85568392924469985,"keywords":["nocrits","nodmgspread","payload","uncletopia"],"game_id":440,"stv_port":27026,"stv_name":"Uncletopia | Chicago | 2 | All Maps | STV","players":null},{"server_id":402,"name":"Uncletopia | Chicago | 3 | All Maps","name_short":"chi-3","host":"chi-1.us.uncletopia.com","port":27035,"enabled":true,"region":"us-central","cc":"us","latitude":41.881832,"longitude":-87.62318,"reserved":0,"last_update":"0001-01-01T00:00:00Z","name_a2s":"Uncletopia | Chicago | 3 | All Maps","protocol":17,"map":"pl_snowycoast","folder":"tf","game":"Team Fortress","app_id":440,"player_count":0,"max_players":24,"Bots":0,"server_type":"Dedicated","server_os":"Linux","password":true,"vac":true,"version":"7882260","steam_id":85568392924515191,"keywords":["nocrits","nodmgspread","payload","uncletopia"],"game_id":440,"stv_port":27036,"stv_name":"Uncletopia | Chicago | 3 | All Maps | STV","players":null},{"server_id":403,"name":"Uncletopia | Chicago | 4 | All Maps","name_short":"chi-4","host":"chi-1.us.uncletopia.com","port":27045,"enabled":true,"region":"us-central","cc":"us","latitude":41.881832,"longitude":-87.62318,"reserved":0,"last_update":"0001-01-01T00:00:00Z","name_a2s":"Uncletopia | Chicago | 4 | All Maps","protocol":17,"map":"koth_cascade","folder":"tf","game":"Team Fortress","app_id":440,"player_count":0,"max_players":24,"Bots":0,"server_type":"Dedicated","server_os":"Linux","password":true,"vac":true,"version":"7882260","steam_id":85568392924515193,"keywords":["cp","nocrits","nodmgspread","uncletopia"],"game_id":440,"stv_port":27046,"stv_name":"Uncletopia | Chicago | 4 | All Maps | STV","players":null},{"server_id":36,"name":"Uncletopia | Chicago | 5 | All Maps","name_short":"chi-5","host":"chi-2.us.uncletopia.com","port":27015,"enabled":true,"region":"us-central","cc":"us","latitude":41.881832,"longitude":-87.62318,"reserved":0,"last_update":"0001-01-01T00:00:00Z","name_a2s":"Uncletopia | Chicago | 5 | All Maps","protocol":17,"map":"pl_badwater","folder":"tf","game":"Team Fortress","app_id":440,"player_count":0,"max_players":24,"Bots":0,"server_type":"Dedicated","server_os":"Linux","password":true,"vac":true,"version":"7882260","steam_id":85568392924866362,"keywords":["nocrits","nodmgspread","payload","uncletopia"],"game_id":440,"stv_port":27016,"stv_name":"Uncletopia | Chicago | 5 | All Maps | STV","players":null},{"server_id":37,"name":"Uncletopia | Chicago | 6 | All Maps","name_short":"chi-6","host":"chi-2.us.uncletopia.com","port":27025,"enabled":true,"region":"us-central","cc":"us","latitude":41.881832,"longitude":-87.62318,"reserved":0,"last_update":"0001-01-01T00:00:00Z","name_a2s":"Uncletopia | Chicago | 6 | All Maps","protocol":17,"map":"koth_cascade","folder":"tf","game":"Team Fortress","app_id":440,"player_count":0,"max_players":24,"Bots":0,"server_type":"Dedicated","server_os":"Linux","password":true,"vac":true,"version":"7882260","steam_id":85568392924866363,"keywords":["cp","nocrits","nodmgspread","uncletopia"],"game_id":440,"stv_port":27026,"stv_name":"Uncletopia | Chicago | 6 | All Maps | STV","players":null},{"server_id":38,"name":"Uncletopia | Chicago | 7 | Stopwatch Beta","name_short":"chi-7","host":"chi-2.us.uncletopia.com","port":27035,"enabled":true,"region":"us-central","cc":"us","latitude":41.881832,"longitude":-87.62318,"reserved":0,"last_update":"0001-01-01T00:00:00Z","name_a2s":"Uncletopia | Chicago | 7 | Stopwatch Beta","protocol":17,"map":"pl_borneo","folder":"tf","game":"Team Fortress","app_id":440,"player_count":0,"max_players":24,"Bots":0,"server_type":"Dedicated","server_os":"Linux","password":true,"vac":true,"version":"7882260","steam_id":85568392924866364,"keywords":["nocrits","nodmgspread","payload","uncletopia"],"game_id":440,"stv_port":27036,"stv_name":"Uncletopia | Chicago | 7 | Stopwatch Beta | STV","players":null},{"server_id":39,"name":"Uncletopia | Chicago | 8 | Community","name_short":"chi-8","host":"chi-2.us.uncletopia.com","port":27045,"enabled":true,"region":"us-central","cc":"us","latitude":41.881832,"longitude":-87.62318,"reserved":0,"last_update":"0001-01-01T00:00:00Z","name_a2s":"Uncletopia | Chicago | 8 | Community","protocol":17,"map":"cp_snakewater_final1","folder":"tf","game":"Team Fortress","app_id":440,"player_count":0,"max_players":24,"Bots":0,"server_type":"Dedicated","server_os":"Linux","password":true,"vac":true,"version":"7882260","steam_id":85568392924866365,"keywords":["cp","nocrits","nodmgspread","uncletopia"],"game_id":440,"stv_port":27046,"stv_name":"Uncletopia | Chicago | 8 | Community | STV","players":null},{"server_id":8,"name":"Uncletopia | Dallas | 1 | All Maps","name_short":"dal-1","host":"dal-1.us.uncletopia.com","port":27015,"enabled":true,"region":"us-central","cc":"us","latitude":32.779167,"longitude":-96.80889,"reserved":0,"last_update":"0001-01-01T00:00:00Z","name_a2s":"Uncletopia | Dallas | 1 | All Maps","protocol":17,"map":"pl_pier","folder":"tf","game":"Team Fortress","app_id":440,"player_count":0,"max_players":24,"Bots":0,"server_type":"Dedicated","server_os":"Linux","password":true,"vac":true,"version":"7882260","steam_id":85568392924469986,"keywords":["nocrits","nodmgspread","payload","uncletopia"],"game_id":440,"stv_port":27016,"stv_name":"Uncletopia | Dallas | 1 | All Maps | STV","players":null},{"server_id":108,"name":"Uncletopia | Dallas | 2 | All Maps","name_short":"dal-2","host":"dal-1.us.uncletopia.com","port":27025,"enabled":true,"region":"us-central","cc":"us","latitude":32.779167,"longitude":-96.80889,"reserved":0,"last_update":"0001-01-01T00:00:00Z","name_a2s":"Uncletopia | Dallas | 2 | All Maps","protocol":17,"map":"pl_barnblitz","folder":"tf","game":"Team Fortress","app_id":440,"player_count":0,"max_players":24,"Bots":0,"server_type":"Dedicated","server_os":"Linux","password":true,"vac":true,"version":"7882260","steam_id":85568392924469988,"keywords":["nocrits","nodmgspread","payload","uncletopia"],"game_id":440,"stv_port":27026,"stv_name":"Uncletopia | Dallas | 2 | All Maps | STV","players":null},{"server_id":5,"name":"Uncletopia | Frankfurt | 1 | All Maps","name_short":"frk-1","host":"frk-1.de.uncletopia.com","port":27015,"enabled":true,"region":"eu","cc":"de","latitude":50.110924,"longitude":8.682127,"reserved":0,"last_update":"0001-01-01T00:00:00Z","name_a2s":"Uncletopia | Frankfurt | 1 | All Maps","protocol":17,"map":"pl_badwater","folder":"tf","game":"Team Fortress","app_id":440,"player_count":0,"max_players":24,"Bots":0,"server_type":"Dedicated","server_os":"Linux","password":true,"vac":true,"version":"7882260","steam_id":85568392924469989,"keywords":["nocrits","nodmgspread","payload","uncletopia"],"game_id":440,"stv_port":27016,"stv_name":"Uncletopia | Frankfurt | 1 | All Maps | STV","players":null},{"server_id":110,"name":"Uncletopia | Frankfurt | 2 | All Maps","name_short":"frk-2","host":"frk-1.de.uncletopia.com","port":27025,"enabled":true,"region":"eu","cc":"de","latitude":50.110924,"longitude":8.682127,"reserved":0,"last_update":"0001-01-01T00:00:00Z","name_a2s":"Uncletopia | Frankfurt | 2 | All Maps","protocol":17,"map":"cp_sunshine","folder":"tf","game":"Team Fortress","app_id":440,"player_count":24,"max_players":24,"Bots":0,"server_type":"Dedicated","server_os":"Linux","password":true,"vac":true,"version":"7882260","steam_id":85568392924469990,"keywords":["cp","nocrits","nodmgspread","uncletopia"],"game_id":440,"stv_port":27026,"stv_name":"Uncletopia | Frankfurt | 2 | All Maps | STV","players":[{"user_id":162,"name":"Reichskanzlerl‚úô","steam_id":76561199010757888,"connected_time":332000000000,"state":"active","ping":60},{"user_id":97,"name":"killbind irl","steam_id":76561198180637374,"connected_time":3671000000000,"state":"active","ping":84},{"user_id":101,"name":"Saint","steam_id":76561198003296382,"connected_time":3472000000000,"state":"active","ping":65},{"user_id":44,"name":"Rin-Nakaret","steam_id":76561197971051188,"connected_time":8188000000000,"state":"active","ping":69},{"user_id":134,"name":"oj","steam_id":76561198109074418,"connected_time":1690000000000,"state":"active","ping":62},{"user_id":163,"name":"qwertyrealschru_lll","steam_id":76561199120083473,"connected_time":231000000000,"state":"active","ping":76},{"user_id":116,"name":"Ramzus","steam_id":76561198012385070,"connected_time":2330000000000,"state":"active","ping":86},{"user_id":70,"name":"kavun","steam_id":76561198023461869,"connected_time":5603000000000,"state":"active","ping":81},{"user_id":138,"name":"taffy‚òÆ","steam_id":76561198407578495,"connected_time":1459000000000,"state":"active","ping":108},{"user_id":152,"name":"SirVitek","steam_id":76561198142961758,"connected_time":971000000000,"state":"active","ping":69},{"user_id":146,"name":"Porridge Moisturizer","steam_id":76561198336523288,"connected_time":1204000000000,"state":"active","ping":126},{"user_id":158,"name":"Mong","steam_id":76561198254497427,"connected_time":430000000000,"state":"active","ping":47},{"user_id":119,"name":"KillerQueen (he/they/she)","steam_id":76561199019399725,"connected_time":2298000000000,"state":"active","ping":74},{"user_id":155,"name":"It's time","steam_id":76561198061197114,"connected_time":569000000000,"state":"active","ping":67},{"user_id":126,"name":"B.batt","steam_id":76561198998684199,"connected_time":2080000000000,"state":"active","ping":116},{"user_id":156,"name":"betonomeshalka","steam_id":76561198304548337,"connected_time":452000000000,"state":"active","ping":100},{"user_id":98,"name":"Tegnerud","steam_id":76561198214185612,"connected_time":3663000000000,"state":"active","ping":70},{"user_id":150,"name":"Poleeyan","steam_id":76561198885522435,"connected_time":1091000000000,"state":"active","ping":68},{"user_id":111,"name":"Ketich","steam_id":76561198021772703,"connected_time":2680000000000,"state":"active","ping":74},{"user_id":147,"name":"DribSitoop","steam_id":76561198020597104,"connected_time":1186000000000,"state":"active","ping":62},{"user_id":159,"name":"banrab","steam_id":76561198083615367,"connected_time":424000000000,"state":"active","ping":53},{"user_id":123,"name":"Char","steam_id":76561198813118545,"connected_time":2220000000000,"state":"active","ping":114},{"user_id":160,"name":"Cha0tikip","steam_id":76561197963860634,"connected_time":386000000000,"state":"active","ping":94},{"user_id":161,"name":",","steam_id":76561199121842872,"connected_time":367000000000,"state":"active","ping":63}]},{"server_id":308,"name":"Uncletopia | Frankfurt | 3 | All Maps","name_short":"frk-3","host":"frk-1.de.uncletopia.com","port":27035,"enabled":true,"region":"eu","cc":"de","latitude":50.110924,"longitude":8.682127,"reserved":0,"last_update":"0001-01-01T00:00:00Z","name_a2s":"Uncletopia | Frankfurt | 3 | All Maps","protocol":17,"map":"pl_barnblitz","folder":"tf","game":"Team Fortress","app_id":440,"player_count":25,"max_players":24,"Bots":0,"server_type":"Dedicated","server_os":"Linux","password":true,"vac":true,"version":"7882260","steam_id":85568392924504274,"keywords":["nocrits","nodmgspread","payload","uncletopia"],"game_id":440,"stv_port":27036,"stv_name":"Uncletopia | Frankfurt | 3 | All Maps | STV","players":[{"user_id":4,"name":"Kover","steam_id":76561198041945279,"connected_time":10682000000000,"state":"active","ping":139},{"user_id":195,"name":"Amolxox","steam_id":76561198383645320,"connected_time":4799000000000,"state":"active","ping":117},{"user_id":449,"name":"Gangster","steam_id":76561198063183852,"connected_time":1106000000000,"state":"active","ping":104},{"user_id":7,"name":"Novodnik","steam_id":76561198284477007,"connected_time":10601000000000,"state":"active","ping":99},{"user_id":480,"name":"Freaze","steam_id":76561198452275598,"connected_time":11000000000,"state":"spawning","ping":43},{"user_id":459,"name":"i work in a chinese restaurant","steam_id":76561198027033926,"connected_time":772000000000,"state":"active","ping":69},{"user_id":441,"name":"Rulix","steam_id":76561198005060645,"connected_time":1201000000000,"state":"active","ping":177},{"user_id":447,"name":"Fibi","steam_id":76561198021165754,"connected_time":1161000000000,"state":"active","ping":90},{"user_id":437,"name":"Little Satan","steam_id":76561198083614760,"connected_time":1239000000000,"state":"active","ping":73},{"user_id":448,"name":"‚ô£ Reimund ‚ô£","steam_id":76561198200720198,"connected_time":1159000000000,"state":"active","ping":133},{"user_id":157,"name":"ctakan_c_vodoi","steam_id":76561198797089730,"connected_time":5667000000000,"state":"active","ping":129},{"user_id":450,"name":"Pineapple Okan","steam_id":76561198069199449,"connected_time":1027000000000,"state":"active","ping":98},{"user_id":233,"name":"Smorkface","steam_id":76561198045066985,"connected_time":4241000000000,"state":"active","ping":49},{"user_id":467,"name":"Deacon Dracul","steam_id":76561198046880663,"connected_time":510000000000,"state":"active","ping":108},{"user_id":477,"name":"|‚òÖÂΩ°FlameÂΩ°‚òÖ|","steam_id":76561199133142252,"connected_time":106000000000,"state":"active","ping":90},{"user_id":368,"name":"Wenzel","steam_id":76561198091286823,"connected_time":2470000000000,"state":"active","ping":142},{"user_id":127,"name":"BiPski","steam_id":76561198137982885,"connected_time":6071000000000,"state":"active","ping":86},{"user_id":460,"name":"Cypher","steam_id":76561197996967254,"connected_time":758000000000,"state":"active","ping":60},{"user_id":436,"name":"I have aids","steam_id":76561198860347851,"connected_time":1287000000000,"state":"active","ping":122},{"user_id":136,"name":"Zed_Grossholtz","steam_id":76561198064222117,"connected_time":5968000000000,"state":"active","ping":101},{"user_id":439,"name":"Marat","steam_id":76561198031020645,"connected_time":1210000000000,"state":"active","ping":85},{"user_id":451,"name":"Leibeigener","steam_id":76561199275478305,"connected_time":1008000000000,"state":"active","ping":36},{"user_id":73,"name":"Deda Tochigi","steam_id":76561198003742366,"connected_time":6505000000000,"state":"active","ping":150},{"user_id":442,"name":"LasagneMan","steam_id":76561198971904377,"connected_time":1197000000000,"state":"active","ping":63},{"user_id":457,"name":"Hussain_144","steam_id":76561198346029208,"connected_time":888000000000,"state":"active","ping":170}]},{"server_id":309,"name":"Uncletopia | Frankfurt | 4 | All Maps","name_short":"frk-4","host":"frk-1.de.uncletopia.com","port":27045,"enabled":true,"region":"eu","cc":"de","latitude":50.110924,"longitude":8.682127,"reserved":0,"last_update":"0001-01-01T00:00:00Z","name_a2s":"Uncletopia | Frankfurt | 4 | All Maps","protocol":17,"map":"cp_dustbowl","folder":"tf","game":"Team Fortress","app_id":440,"player_count":0,"max_players":24,"Bots":0,"server_type":"Dedicated","server_os":"Linux","password":true,"vac":true,"version":"7882260","steam_id":85568392924504275,"keywords":["cp","nocrits","nodmgspread","uncletopia"],"game_id":440,"stv_port":27046,"stv_name":"Uncletopia | Frankfurt | 4 | All Maps | STV","players":null},{"server_id":310,"name":"Uncletopia | Frankfurt | 5 | All Maps","name_short":"frk-5","host":"frk-1.de.uncletopia.com","port":27055,"enabled":true,"region":"eu","cc":"de","latitude":50.110924,"longitude":8.682127,"reserved":0,"last_update":"0001-01-01T00:00:00Z","name_a2s":"Uncletopia | Frankfurt | 5 | All Maps","protocol":17,"map":"cp_mountainlab","folder":"tf","game":"Team Fortress","app_id":440,"player_count":0,"max_players":24,"Bots":0,"server_type":"Dedicated","server_os":"Linux","password":true,"vac":true,"version":"7882260","steam_id":85568392924504277,"keywords":["cp","nocrits","nodmgspread","uncletopia"],"game_id":440,"stv_port":27056,"stv_name":"Uncletopia | Frankfurt | 5 | All Maps | STV","players":null},{"server_id":311,"name":"Uncletopia | Frankfurt | 6 | All Maps","name_short":"frk-6","host":"frk-1.de.uncletopia.com","port":27065,"enabled":true,"region":"eu","cc":"de","latitude":50.110924,"longitude":8.682127,"reserved":0,"last_update":"0001-01-01T00:00:00Z","name_a2s":"Uncletopia | Frankfurt | 6 | All Maps","protocol":17,"map":"pl_badwater","folder":"tf","game":"Team Fortress","app_id":440,"player_count":0,"max_players":24,"Bots":0,"server_type":"Dedicated","server_os":"Linux","password":true,"vac":true,"version":"7882260","steam_id":85568392924504278,"keywords":["nocrits","nodmgspread","payload","uncletopia"],"game_id":440,"stv_port":27066,"stv_name":"Uncletopia | Frankfurt | 6 | All Maps | STV","players":null},{"server_id":23,"name":"Uncletopia | Frankfurt | 7 | Stopwatch Beta","name_short":"frk-7","host":"frk-1.de.uncletopia.com","port":27075,"enabled":true,"region":"eu","cc":"de","latitude":50.110924,"longitude":8.682127,"reserved":0,"last_update":"0001-01-01T00:00:00Z","name_a2s":"Uncletopia | Frankfurt | 7 | Stopwatch Beta","protocol":17,"map":"cp_dustbowl","folder":"tf","game":"Team Fortress","app_id":440,"player_count":0,"max_players":24,"Bots":0,"server_type":"Dedicated","server_os":"Linux","password":true,"vac":true,"version":"7882260","steam_id":85568392924742827,"keywords":["cp","nocrits","nodmgspread","uncletopia"],"game_id":440,"stv_port":27076,"stv_name":"Uncletopia | Frankfurt | 7 | Stopwatch Beta | STV","players":null},{"server_id":24,"name":"Uncletopia | Frankfurt | 8 | Community","name_short":"frk-8","host":"frk-1.de.uncletopia.com","port":27085,"enabled":true,"region":"eu","cc":"de","latitude":50.110924,"longitude":8.682127,"reserved":0,"last_update":"0001-01-01T00:00:00Z","name_a2s":"Uncletopia | Frankfurt | 8 | Community","protocol":17,"map":"koth_cascade","folder":"tf","game":"Team Fortress","app_id":440,"player_count":0,"max_players":24,"Bots":0,"server_type":"Dedicated","server_os":"Linux","password":true,"vac":true,"version":"7882260","steam_id":85568392924742828,"keywords":["cp","nocrits","nodmgspread","uncletopia"],"game_id":440,"stv_port":27086,"stv_name":"Uncletopia | Frankfurt | 8 | Community | STV","players":null},{"server_id":202,"name":"Uncletopia | Hong Kong | 1 | All Maps","name_short":"hgk-1","host":"hgk-1.hk.uncletopia.com","port":27015,"enabled":true,"region":"asia","cc":"hk","latitude":22.302711,"longitude":114.177216,"reserved":0,"last_update":"0001-01-01T00:00:00Z","name_a2s":"Uncletopia | Hong Kong | 1 | All Maps","protocol":17,"map":"pl_frontier_final","folder":"tf","game":"Team Fortress","app_id":440,"player_count":24,"max_players":24,"Bots":0,"server_type":"Dedicated","server_os":"Linux","password":true,"vac":true,"version":"7882260","steam_id":85568392924494504,"keywords":["nocrits","nodmgspread","payload","uncletopia"],"game_id":440,"stv_port":27016,"stv_name":"Uncletopia | Hong Kong | 1 | All Maps | STV","players":[{"user_id":101,"name":"Milk‚ù§","steam_id":76561198163911560,"connected_time":3798000000000,"state":"active","ping":183},{"user_id":107,"name":"Giyu","steam_id":76561198299150410,"connected_time":3715000000000,"state":"active","ping":100},{"user_id":137,"name":"brizzard","steam_id":76561198048438653,"connected_time":1625000000000,"state":"active","ping":51},{"user_id":138,"name":"Zizman","steam_id":76561198446562910,"connected_time":1310000000000,"state":"active","ping":146},{"user_id":140,"name":"cL0uD","steam_id":76561198087228020,"connected_time":1128000000000,"state":"active","ping":92},{"user_id":141,"name":"YOU'RE WRONG ! SULFIRIC ACID!","steam_id":76561199174449723,"connected_time":1026000000000,"state":"active","ping":109},{"user_id":115,"name":"Dalton","steam_id":76561199242840770,"connected_time":3064000000000,"state":"active","ping":123},{"user_id":67,"name":"\"SKS\"","steam_id":76561198187995386,"connected_time":7905000000000,"state":"active","ping":82},{"user_id":127,"name":"…îu·ó°A …ü∆®u·íê","steam_id":76561199031283970,"connected_time":2152000000000,"state":"active","ping":75},{"user_id":120,"name":"Vortex Medico","steam_id":76561198833527091,"connected_time":2780000000000,"state":"active","ping":98},{"user_id":144,"name":"Snowikov","steam_id":76561198053457624,"connected_time":627000000000,"state":"active","ping":97},{"user_id":111,"name":"BADI","steam_id":76561198200955590,"connected_time":3413000000000,"state":"active","ping":84},{"user_id":130,"name":"bodacious bogey","steam_id":76561198055553140,"connected_time":2095000000000,"state":"active","ping":76},{"user_id":145,"name":"PocoLoco","steam_id":76561198834044246,"connected_time":625000000000,"state":"active","ping":103},{"user_id":142,"name":"peanutbutter jelly sandwhich","steam_id":76561199367967787,"connected_time":914000000000,"state":"active","ping":160},{"user_id":146,"name":"Lord Of Museums","steam_id":76561199189771548,"connected_time":484000000000,"state":"active","ping":92},{"user_id":122,"name":"Nice","steam_id":76561199180653046,"connected_time":2629000000000,"state":"active","ping":131},{"user_id":79,"name":"Milf (The fan O'Milk)","steam_id":76561198213031155,"connected_time":6542000000000,"state":"active","ping":95},{"user_id":73,"name":"screaming sniper","steam_id":76561199085568674,"connected_time":7662000000000,"state":"active","ping":63},{"user_id":54,"name":"Cazurey","steam_id":76561198005403459,"connected_time":8699000000000,"state":"active","ping":71},{"user_id":143,"name":"Wx","steam_id":76561199217780897,"connected_time":896000000000,"state":"active","ping":131},{"user_id":113,"name":"9–î6","steam_id":76561198124697322,"connected_time":3393000000000,"state":"active","ping":95},{"user_id":147,"name":"ùêïùêàùêéùêãùêÑùêçùêÇ\ufffd\ufffd\ufffd","steam_id":76561198095822415,"connected_time":363000000000,"state":"active","ping":77},{"user_id":135,"name":"Denominator","steam_id":76561198795729147,"connected_time":1772000000000,"state":"active","ping":112}]},{"server_id":1,"name":"Uncletopia | Los Angeles | 1 | All Maps","name_short":"lax-1","host":"lax-1.us.uncletopia.com","port":27015,"enabled":true,"region":"us-west","cc":"us","latitude":33.94279,"longitude":-118.41004,"reserved":0,"last_update":"0001-01-01T00:00:00Z","name_a2s":"Uncletopia | Los Angeles | 1 | All Maps","protocol":17,"map":"cp_mountainlab","folder":"tf","game":"Team Fortress","app_id":440,"player_count":0,"max_players":24,"Bots":0,"server_type":"Dedicated","server_os":"Linux","password":true,"vac":true,"version":"7882260","steam_id":85568392924469991,"keywords":["cp","nocrits","nodmgspread","uncletopia"],"game_id":440,"stv_port":27016,"stv_name":"Uncletopia | Los Angeles | 1 | All Maps | STV","players":null},{"server_id":112,"name":"Uncletopia | Los Angeles | 2 | All Maps","name_short":"lax-2","host":"lax-1.us.uncletopia.com","port":27025,"enabled":true,"region":"us-west","cc":"us","latitude":33.94279,"longitude":-118.41004,"reserved":0,"last_update":"0001-01-01T00:00:00Z","name_a2s":"Uncletopia | Los Angeles | 2 | All Maps","protocol":17,"map":"pl_upward","folder":"tf","game":"Team Fortress","app_id":440,"player_count":23,"max_players":24,"Bots":0,"server_type":"Dedicated","server_os":"Linux","password":true,"vac":true,"version":"7882260","steam_id":85568392924469992,"keywords":["nocrits","nodmgspread","payload","uncletopia"],"game_id":440,"stv_port":27026,"stv_name":"Uncletopia | Los Angeles | 2 | All Maps | STV","players":[{"user_id":438,"name":"Rave Cat","steam_id":76561198026369683,"connected_time":1192000000000,"state":"active","ping":58},{"user_id":449,"name":"Tuxedo_Mann2","steam_id":76561198172253219,"connected_time":211000000000,"state":"active","ping":102},{"user_id":450,"name":"Dreck the Opossum","steam_id":76561198029411841,"connected_time":204000000000,"state":"active","ping":89},{"user_id":429,"name":"CasemanTheBlondeBear","steam_id":76561198144862404,"connected_time":1831000000000,"state":"active","ping":82},{"user_id":451,"name":"Maxx","steam_id":76561198045405304,"connected_time":188000000000,"state":"active","ping":76},{"user_id":452,"name":"0akmask","steam_id":76561198239584280,"connected_time":185000000000,"state":"active","ping":68},{"user_id":440,"name":"pt","steam_id":76561198143023330,"connected_time":1108000000000,"state":"active","ping":46},{"user_id":453,"name":"BuncusBeffer","steam_id":76561198285936616,"connected_time":84000000000,"state":"active","ping":65},{"user_id":419,"name":"BattleWriter","steam_id":76561198059618706,"connected_time":2215000000000,"state":"active","ping":90},{"user_id":420,"name":"Sir Loincloth","steam_id":76561198033073991,"connected_time":2183000000000,"state":"active","ping":93},{"user_id":430,"name":"Ant","steam_id":76561198253062337,"connected_time":1803000000000,"state":"active","ping":88},{"user_id":422,"name":"lol","steam_id":76561198026491738,"connected_time":2125000000000,"state":"active","ping":60},{"user_id":423,"name":"ScaryTree","steam_id":76561199384362833,"connected_time":2058000000000,"state":"active","ping":182},{"user_id":454,"name":"scrapheap","steam_id":76561198202407087,"connected_time":32000000000,"state":"active","ping":129},{"user_id":447,"name":"sheep gf (real)","steam_id":76561198068189558,"connected_time":290000000000,"state":"active","ping":49},{"user_id":427,"name":"SolderKnightStrike","steam_id":76561198969219179,"connected_time":2036000000000,"state":"active","ping":99},{"user_id":431,"name":"Pylori","steam_id":76561197993858197,"connected_time":1792000000000,"state":"active","ping":182},{"user_id":455,"name":"pikapika","steam_id":76561198106844042,"connected_time":12000000000,"state":"active","ping":92},{"user_id":405,"name":"Pancakes","steam_id":76561199075429403,"connected_time":3790000000000,"state":"active","ping":89},{"user_id":432,"name":"Toffee Klim","steam_id":76561198156412200,"connected_time":1790000000000,"state":"active","ping":66},{"user_id":442,"name":"idk","steam_id":76561197999666480,"connected_time":1088000000000,"state":"active","ping":70},{"user_id":435,"name":"zapato","steam_id":76561198142278437,"connected_time":1517000000000,"state":"active","ping":100},{"user_id":444,"name":"Unicorn","steam_id":76561198119261280,"connected_time":953000000000,"state":"active","ping":101}]},{"server_id":324,"name":"Uncletopia | Los Angeles | 3 | All Maps","name_short":"lax-3","host":"lax-1.us.uncletopia.com","port":27035,"enabled":true,"region":"us-west","cc":"us","latitude":33.94279,"longitude":-118.41004,"reserved":0,"last_update":"0001-01-01T00:00:00Z","name_a2s":"Uncletopia | Los Angeles | 3 | All Maps","protocol":17,"map":"koth_king","folder":"tf","game":"Team Fortress","app_id":440,"player_count":24,"max_players":24,"Bots":0,"server_type":"Dedicated","server_os":"Linux","password":true,"vac":true,"version":"7882260","steam_id":85568392924510198,"keywords":["cp","nocrits","nodmgspread","uncletopia"],"game_id":440,"stv_port":27036,"stv_name":"Uncletopia | Los Angeles | 3 | All Maps | STV","players":[{"user_id":521,"name":"protestor of decent things","steam_id":76561198051421643,"connected_time":986000000000,"state":"active","ping":60},{"user_id":523,"name":"Grease Monkey","steam_id":76561199073112578,"connected_time":939000000000,"state":"active","ping":121},{"user_id":511,"name":"pope4tw","steam_id":76561199174282651,"connected_time":2187000000000,"state":"active","ping":87},{"user_id":454,"name":"Saggle","steam_id":76561198056075147,"connected_time":6636000000000,"state":"active","ping":188},{"user_id":520,"name":"TJGSASQUATCH","steam_id":76561198077806921,"connected_time":1003000000000,"state":"active","ping":122},{"user_id":500,"name":"Sleuth","steam_id":76561198418288939,"connected_time":3156000000000,"state":"active","ping":64},{"user_id":468,"name":"turtle head erection","steam_id":76561197961396512,"connected_time":5345000000000,"state":"active","ping":46},{"user_id":513,"name":"Paladin","steam_id":76561198839762958,"connected_time":2158000000000,"state":"active","ping":87},{"user_id":533,"name":"touka","steam_id":76561198171521806,"connected_time":306000000000,"state":"active","ping":82},{"user_id":538,"name":"applicative girl","steam_id":76561198337705174,"connected_time":75000000000,"state":"active","ping":77},{"user_id":526,"name":"Jetstream Car","steam_id":76561198277363726,"connected_time":760000000000,"state":"active","ping":177},{"user_id":518,"name":"watchfull","steam_id":76561198433266742,"connected_time":1347000000000,"state":"active","ping":78},{"user_id":519,"name":"the last Jimmy Johns employee","steam_id":76561199077613614,"connected_time":1281000000000,"state":"active","ping":122},{"user_id":494,"name":"Reisen Udongein Inaba","steam_id":76561198051082314,"connected_time":3596000000000,"state":"active","ping":63},{"user_id":487,"name":"LesserAce","steam_id":76561198153258132,"connected_time":3897000000000,"state":"active","ping":94},{"user_id":528,"name":"Totally Trustworthy Magalor","steam_id":76561199004348677,"connected_time":655000000000,"state":"active","ping":79},{"user_id":534,"name":"Grill Skills","steam_id":76561198053575147,"connected_time":291000000000,"state":"active","ping":90},{"user_id":503,"name":"Crunchy","steam_id":76561198240523882,"connected_time":3035000000000,"state":"active","ping":50},{"user_id":535,"name":"Syrup","steam_id":76561198335677073,"connected_time":286000000000,"state":"active","ping":66},{"user_id":536,"name":"Goob","steam_id":76561198256918638,"connected_time":274000000000,"state":"active","ping":57},{"user_id":464,"name":"Gruntic","steam_id":76561198170396647,"connected_time":5636000000000,"state":"active","ping":58},{"user_id":505,"name":"spider_murphy","steam_id":76561198079057101,"connected_time":3019000000000,"state":"active","ping":76},{"user_id":537,"name":"YoyoMama","steam_id":76561198260113828,"connected_time":254000000000,"state":"active","ping":54},{"user_id":506,"name":"Butthole Surfer","steam_id":76561198020526407,"connected_time":3006000000000,"state":"active","ping":85}]},{"server_id":25,"name":"Uncletopia | Los Angeles | 4 | Stopwatch Beta","name_short":"lax-4","host":"lax-1.us.uncletopia.com","port":27045,"enabled":true,"region":"us-west","cc":"us","latitude":33.94279,"longitude":-118.41004,"reserved":0,"last_update":"0001-01-01T00:00:00Z","name_a2s":"Uncletopia | Los Angeles | 4 | Stopwatch Beta","protocol":17,"map":"koth_lakeside_final","folder":"tf","game":"Team Fortress","app_id":440,"player_count":0,"max_players":24,"Bots":0,"server_type":"Dedicated","server_os":"Linux","password":true,"vac":true,"version":"7882260","steam_id":85568392924510199,"keywords":["cp","nocrits","nodmgspread","uncletopia"],"game_id":440,"stv_port":27046,"stv_name":"Uncletopia | Los Angeles | 4 | Stopwatch Beta | STV","players":null},{"server_id":11,"name":"Uncletopia | London | 1 | All Maps","name_short":"lon-1","host":"lon-1.uk.uncletopia.com","port":27015,"enabled":true,"region":"eu","cc":"gb","latitude":51.509865,"longitude":-0.118092,"reserved":0,"last_update":"0001-01-01T00:00:00Z","name_a2s":"Uncletopia | London | 1 | All Maps","protocol":17,"map":"pl_swiftwater_final1","folder":"tf","game":"Team Fortress","app_id":440,"player_count":24,"max_players":24,"Bots":0,"server_type":"Dedicated","server_os":"Linux","password":true,"vac":true,"version":"7882260","steam_id":85568392924367362,"keywords":["nocrits","nodmgspread","payload","uncletopia"],"game_id":440,"stv_port":27016,"stv_name":"Uncletopia | London | 1 | All Maps | STV","players":[{"user_id":239,"name":"Dim","steam_id":76561198141549249,"connected_time":1087000000000,"state":"active","ping":132},{"user_id":149,"name":"Mr_Pulse_","steam_id":76561198095001602,"connected_time":7943000000000,"state":"active","ping":112},{"user_id":200,"name":"NitPig","steam_id":76561198212991935,"connected_time":4192000000000,"state":"active","ping":94},{"user_id":247,"name":"KONT","steam_id":76561198986060392,"connected_time":510000000000,"state":"active","ping":52},{"user_id":227,"name":"apples","steam_id":76561198032787233,"connected_time":2444000000000,"state":"active","ping":81},{"user_id":240,"name":"The SEX Master","steam_id":76561198812424933,"connected_time":1068000000000,"state":"active","ping":54},{"user_id":224,"name":"G6 sherlock","steam_id":76561198802967796,"connected_time":2745000000000,"state":"active","ping":117},{"user_id":143,"name":"slightly drunk","steam_id":76561199184873889,"connected_time":8525000000000,"state":"active","ping":69},{"user_id":248,"name":"your ex","steam_id":76561198210179771,"connected_time":481000000000,"state":"active","ping":81},{"user_id":213,"name":"Tekky","steam_id":76561197990987315,"connected_time":3501000000000,"state":"active","ping":43},{"user_id":238,"name":"Dwevy","steam_id":76561198090379437,"connected_time":1178000000000,"state":"active","ping":54},{"user_id":249,"name":"hshs","steam_id":76561198314562513,"connected_time":310000000000,"state":"active","ping":65},{"user_id":245,"name":"bAdmon","steam_id":76561197961785793,"connected_time":675000000000,"state":"active","ping":52},{"user_id":214,"name":"Real photograph of me","steam_id":76561198236015392,"connected_time":3418000000000,"state":"active","ping":119},{"user_id":251,"name":"–í–∞–¥–∏–º –ö–∞–∫–∞—à–∫–∏–Ω","steam_id":76561198383509320,"connected_time":80000000000,"state":"active","ping":87},{"user_id":250,"name":"mercurial","steam_id":76561198046227550,"connected_time":173000000000,"state":"active","ping":41},{"user_id":205,"name":"Piteras","steam_id":76561198858532207,"connected_time":4053000000000,"state":"active","ping":81},{"user_id":244,"name":"dimitrij_6ix_god","steam_id":76561199023275543,"connected_time":950000000000,"state":"active","ping":79},{"user_id":246,"name":"Enkloth | trade.tf","steam_id":76561198115106008,"connected_time":517000000000,"state":"active","ping":52},{"user_id":231,"name":"Marchioly","steam_id":76561198335079215,"connected_time":2023000000000,"state":"active","ping":111},{"user_id":230,"name":"Muffin","steam_id":76561198134575280,"connected_time":2207000000000,"state":"active","ping":62},{"user_id":233,"name":"Gordon","steam_id":76561198303652059,"connected_time":1957000000000,"state":"active","ping":68},{"user_id":209,"name":"Floppa-z","steam_id":76561199385382550,"connected_time":3823000000000,"state":"active","ping":113},{"user_id":219,"name":"ijustsmokeandcry","steam_id":76561198044189114,"connected_time":2979000000000,"state":"active","ping":64}]},{"server_id":114,"name":"Uncletopia | London | 2 | All Maps","name_short":"lon-2","host":"lon-1.uk.uncletopia.com","port":27025,"enabled":true,"region":"eu","cc":"gb","latitude":51.509865,"longitude":-0.118092,"reserved":0,"last_update":"0001-01-01T00:00:00Z","name_a2s":"Uncletopia | London | 2 | All Maps","protocol":17,"map":"pl_swiftwater_final1","folder":"tf","game":"Team Fortress","app_id":440,"player_count":0,"max_players":24,"Bots":0,"server_type":"Dedicated","server_os":"Linux","password":true,"vac":true,"version":"7882260","steam_id":85568392924470941,"keywords":["nocrits","nodmgspread","payload","uncletopia"],"game_id":440,"stv_port":27026,"stv_name":"Uncletopia | London | 2 | All Maps | STV","players":null},{"server_id":320,"name":"Uncletopia | London | 3 | All Maps","name_short":"lon-3","host":"lon-1.uk.uncletopia.com","port":27035,"enabled":true,"region":"eu","cc":"gb","latitude":51.509865,"longitude":-0.118092,"reserved":0,"last_update":"0001-01-01T00:00:00Z","name_a2s":"Uncletopia | London | 3 | All Maps","protocol":17,"map":"koth_highpass","folder":"tf","game":"Team Fortress","app_id":440,"player_count":0,"max_players":24,"Bots":0,"server_type":"Dedicated","server_os":"Linux","password":true,"vac":true,"version":"7882260","steam_id":85568392924510192,"keywords":["cp","nocrits","nodmgspread","uncletopia"],"game_id":440,"stv_port":27036,"stv_name":"Uncletopia | London | 3 | All Maps | STV","players":null},{"server_id":321,"name":"Uncletopia | London | 4 | All Maps","name_short":"lon-4","host":"lon-1.uk.uncletopia.com","port":27045,"enabled":true,"region":"eu","cc":"gb","latitude":51.509865,"longitude":-0.118092,"reserved":0,"last_update":"0001-01-01T00:00:00Z","name_a2s":"Uncletopia | London | 4 | All Maps","protocol":17,"map":"cp_sunshine","folder":"tf","game":"Team Fortress","app_id":440,"player_count":15,"max_players":24,"Bots":0,"server_type":"Dedicated","server_os":"Linux","password":true,"vac":true,"version":"7882260","steam_id":85568392924510193,"keywords":["cp","nocrits","nodmgspread","uncletopia"],"game_id":440,"stv_port":27046,"stv_name":"Uncletopia | London | 4 | All Maps | STV","players":[{"user_id":147,"name":"Leituga","steam_id":76561198051127598,"connected_time":12000000000,"state":"active","ping":81},{"user_id":65,"name":"Panique","steam_id":76561197993239675,"connected_time":4654000000000,"state":"active","ping":60},{"user_id":135,"name":"GonGonBoi","steam_id":76561199066330151,"connected_time":812000000000,"state":"active","ping":141},{"user_id":144,"name":"1312589","steam_id":76561198079293782,"connected_time":411000000000,"state":"active","ping":53},{"user_id":136,"name":"Sensei","steam_id":76561198383582429,"connected_time":702000000000,"state":"active","ping":102},{"user_id":137,"name":"Zephalo","steam_id":76561198021346474,"connected_time":701000000000,"state":"active","ping":50},{"user_id":139,"name":"Benpl","steam_id":76561198084890757,"connected_time":696000000000,"state":"active","ping":45},{"user_id":145,"name":"Flint","steam_id":76561197995920776,"connected_time":315000000000,"state":"active","ping":45},{"user_id":52,"name":"robsan","steam_id":76561198137375391,"connected_time":5305000000000,"state":"active","ping":87},{"user_id":143,"name":"Munibe","steam_id":76561198107967904,"connected_time":590000000000,"state":"active","ping":65},{"user_id":122,"name":"Carrot Arc","steam_id":76561198164957006,"connected_time":1461000000000,"state":"active","ping":82},{"user_id":93,"name":"leonardini.w","steam_id":76561199097963071,"connected_time":2806000000000,"state":"active","ping":88},{"user_id":50,"name":"Ran33","steam_id":76561197991474499,"connected_time":5695000000000,"state":"active","ping":77},{"user_id":75,"name":"combat collin","steam_id":76561198011450253,"connected_time":4222000000000,"state":"active","ping":52},{"user_id":131,"name":"scarfweather","steam_id":76561198121331836,"connected_time":1298000000000,"state":"active","ping":50}]},{"server_id":21,"name":"Uncletopia | London | 5 | All Maps","name_short":"lon-5","host":"lon-1.uk.uncletopia.com","port":27055,"enabled":true,"region":"eu","cc":"gb","latitude":51.509865,"longitude":-0.118092,"reserved":0,"last_update":"0001-01-01T00:00:00Z","name_a2s":"Uncletopia | London | 5 | All Maps","protocol":17,"map":"pl_frontier_final","folder":"tf","game":"Team Fortress","app_id":440,"player_count":0,"max_players":24,"Bots":0,"server_type":"Dedicated","server_os":"Linux","password":true,"vac":true,"version":"7882260","steam_id":85568392924742829,"keywords":["nocrits","nodmgspread","payload","uncletopia"],"game_id":440,"stv_port":27056,"stv_name":"Uncletopia | London | 5 | All Maps | STV","players":null},{"server_id":22,"name":"Uncletopia | London | 6 | All Maps","name_short":"lon-6","host":"lon-1.uk.uncletopia.com","port":27065,"enabled":true,"region":"eu","cc":"gb","latitude":51.509865,"longitude":-0.118092,"reserved":0,"last_update":"0001-01-01T00:00:00Z","name_a2s":"Uncletopia | London | 6 | All Maps","protocol":17,"map":"cp_altitude","folder":"tf","game":"Team Fortress","app_id":440,"player_count":0,"max_players":24,"Bots":0,"server_type":"Dedicated","server_os":"Linux","password":true,"vac":true,"version":"7882260","steam_id":85568392924742830,"keywords":["cp","nocrits","nodmgspread","uncletopia"],"game_id":440,"stv_port":27066,"stv_name":"Uncletopia | London | 6 | All Maps | STV","players":null},{"server_id":40,"name":"Uncletopia | London | 7 | No Payload","name_short":"lon-7","host":"lon-1.uk.uncletopia.com","port":27075,"enabled":true,"region":"eu","cc":"gb","latitude":51.509865,"longitude":-0.118092,"reserved":0,"last_update":"0001-01-01T00:00:00Z","name_a2s":"Uncletopia | London | 7 | No Payload","protocol":17,"map":"cp_gravelpit","folder":"tf","game":"Team Fortress","app_id":440,"player_count":0,"max_players":24,"Bots":0,"server_type":"Dedicated","server_os":"Linux","password":true,"vac":true,"version":"7882260","steam_id":85568392924964314,"keywords":["cp","nocrits","nodmgspread","uncletopia"],"game_id":440,"stv_port":27076,"stv_name":"Uncletopia | London | 7 | No Payload | STV","players":null},{"server_id":41,"name":"Uncletopia | London | 8 | Community","name_short":"lon-8","host":"lon-1.uk.uncletopia.com","port":27085,"enabled":true,"region":"eu","cc":"gb","latitude":51.509865,"longitude":-0.118092,"reserved":0,"last_update":"0001-01-01T00:00:00Z","name_a2s":"Uncletopia | London | 8 | Community","protocol":17,"map":"pl_swiftwater_final1","folder":"tf","game":"Team Fortress","app_id":440,"player_count":6,"max_players":24,"Bots":0,"server_type":"Dedicated","server_os":"Linux","password":true,"vac":true,"version":"7882260","steam_id":85568392924964315,"keywords":["nocrits","nodmgspread","payload","uncletopia"],"game_id":440,"stv_port":27086,"stv_name":"Uncletopia | London | 8 | Community | STV","players":[{"user_id":3,"name":"Turuville","steam_id":76561198291690264,"connected_time":2135000000000,"state":"active","ping":111},{"user_id":7,"name":"ziga","steam_id":76561198354199125,"connected_time":940000000000,"state":"active","ping":79},{"user_id":5,"name":"Graf von Scyth","steam_id":76561198198497733,"connected_time":2069000000000,"state":"active","ping":64},{"user_id":6,"name":"Home Depot","steam_id":76561198108904214,"connected_time":1181000000000,"state":"active","ping":74},{"user_id":8,"name":"Business","steam_id":76561198952280006,"connected_time":149000000000,"state":"active","ping":168},{"user_id":9,"name":"halo 3 rat","steam_id":76561198439007717,"connected_time":7000000000,"state":"spawning","ping":46}]},{"server_id":300,"name":"Uncletopia | Montr√©al | 1 | All Maps","name_short":"mtl-1","host":"mtl-1.ca.uncletopia.com","port":27015,"enabled":true,"region":"us-east","cc":"ca","latitude":45.50889,"longitude":-73.56167,"reserved":0,"last_update":"0001-01-01T00:00:00Z","name_a2s":"Uncletopia | Montr√©al | 1 | All Maps","protocol":17,"map":"pl_snowycoast","folder":"tf","game":"Team Fortress","app_id":440,"player_count":0,"max_players":24,"Bots":0,"server_type":"Dedicated","server_os":"Linux","password":true,"vac":true,"version":"7882260","steam_id":85568392924500087,"keywords":["nocrits","nodmgspread","payload","uncletopia"],"game_id":440,"stv_port":27016,"stv_name":"Uncletopia | Montr√©al | 1 | All Maps | STV","players":null},{"server_id":301,"name":"Uncletopia | Montr√©al | 2 | All Maps","name_short":"mtl-2","host":"mtl-1.ca.uncletopia.com","port":27025,"enabled":true,"region":"us-east","cc":"ca","latitude":45.50889,"longitude":-73.56167,"reserved":0,"last_update":"0001-01-01T00:00:00Z","name_a2s":"Uncletopia | Montr√©al | 2 | All Maps","protocol":17,"map":"cp_sunshine","folder":"tf","game":"Team Fortress","app_id":440,"player_count":0,"max_players":24,"Bots":0,"server_type":"Dedicated","server_os":"Linux","password":true,"vac":true,"version":"7882260","steam_id":85568392924500088,"keywords":["cp","nocrits","nodmgspread","uncletopia"],"game_id":440,"stv_port":27026,"stv_name":"Uncletopia | Montr√©al | 2 | All Maps | STV","players":null},{"server_id":302,"name":"Uncletopia | Montr√©al | 3 | All Maps","name_short":"mtl-3","host":"mtl-1.ca.uncletopia.com","port":27035,"enabled":true,"region":"us-east","cc":"ca","latitude":45.50889,"longitude":-73.56167,"reserved":0,"last_update":"0001-01-01T00:00:00Z","name_a2s":"Uncletopia | Montr√©al | 3 | All Maps","protocol":17,"map":"pl_borneo","folder":"tf","game":"Team Fortress","app_id":440,"player_count":0,"max_players":24,"Bots":0,"server_type":"Dedicated","server_os":"Linux","password":true,"vac":true,"version":"7882260","steam_id":85568392924500089,"keywords":["nocrits","nodmgspread","payload","uncletopia"],"game_id":440,"stv_port":27036,"stv_name":"Uncletopia | Montr√©al | 3 | All Maps | STV","players":null},{"server_id":303,"name":"Uncletopia | Montr√©al | 4 | No Payload","name_short":"mtl-4","host":"mtl-1.ca.uncletopia.com","port":27045,"enabled":true,"region":"us-east","cc":"ca","latitude":45.50889,"longitude":-73.56167,"reserved":0,"last_update":"0001-01-01T00:00:00Z","name_a2s":"Uncletopia | Montr√©al | 4 | No Payload","protocol":17,"map":"cp_altitude","folder":"tf","game":"Team Fortress","app_id":440,"player_count":0,"max_players":24,"Bots":0,"server_type":"Dedicated","server_os":"Linux","password":true,"vac":true,"version":"7882260","steam_id":85568392924500090,"keywords":["cp","nocrits","nodmgspread","uncletopia"],"game_id":440,"stv_port":27046,"stv_name":"Uncletopia | Montr√©al | 4 | No Payload | STV","players":null},{"server_id":13,"name":"Uncletopia | New York City | 1 | All Maps","name_short":"nyc-1","host":"nyc-1.us.uncletopia.com","port":27015,"enabled":true,"region":"us-east","cc":"us","latitude":40.73061,"longitude":-73.93524,"reserved":0,"last_update":"0001-01-01T00:00:00Z","name_a2s":"Uncletopia | New York City | 1 | All Maps","protocol":17,"map":"pl_borneo","folder":"tf","game":"Team Fortress","app_id":440,"player_count":0,"max_players":24,"Bots":0,"server_type":"Dedicated","server_os":"Linux","password":true,"vac":true,"version":"7882260","steam_id":85568392924469993,"keywords":["nocrits","nodmgspread","payload","uncletopia"],"game_id":440,"stv_port":27016,"stv_name":"Uncletopia | New York City | 1 | All Maps | STV","players":null},{"server_id":14,"name":"Uncletopia | New York City | 2 | All Maps","name_short":"nyc-2","host":"nyc-1.us.uncletopia.com","port":27025,"enabled":true,"region":"us-east","cc":"us","latitude":40.73061,"longitude":-73.93524,"reserved":0,"last_update":"0001-01-01T00:00:00Z","name_a2s":"Uncletopia | New York City | 2 | All Maps","protocol":17,"map":"pl_upward","folder":"tf","game":"Team Fortress","app_id":440,"player_count":0,"max_players":24,"Bots":0,"server_type":"Dedicated","server_os":"Linux","password":true,"vac":true,"version":"7882260","steam_id":85568392924469994,"keywords":["nocrits","nodmgspread","payload","uncletopia"],"game_id":440,"stv_port":27026,"stv_name":"Uncletopia | New York City | 2 | All Maps | STV","players":null},{"server_id":15,"name":"Uncletopia | New York City | 3 | Stopwatch Beta","name_short":"nyc-3","host":"nyc-1.us.uncletopia.com","port":27035,"enabled":true,"region":"us-east","cc":"us","latitude":40.73061,"longitude":-73.93524,"reserved":0,"last_update":"0001-01-01T00:00:00Z","name_a2s":"Uncletopia | New York City | 3 | Stopwatch Beta","protocol":17,"map":"koth_lakeside_final","folder":"tf","game":"Team Fortress","app_id":440,"player_count":0,"max_players":24,"Bots":0,"server_type":"Dedicated","server_os":"Linux","password":true,"vac":true,"version":"7882260","steam_id":85568392924742820,"keywords":["cp","nocrits","nodmgspread","uncletopia"],"game_id":440,"stv_port":27036,"stv_name":"Uncletopia | New York City | 3 | Stopwatch Beta | STV","players":null},{"server_id":16,"name":"Uncletopia | New York City | 4 | Community","name_short":"nyc-4","host":"nyc-1.us.uncletopia.com","port":27045,"enabled":true,"region":"us-east","cc":"us","latitude":40.73061,"longitude":-73.93524,"reserved":0,"last_update":"0001-01-01T00:00:00Z","name_a2s":"Uncletopia | New York City | 4 | Community","protocol":17,"map":"pl_badwater","folder":"tf","game":"Team Fortress","app_id":440,"player_count":0,"max_players":24,"Bots":0,"server_type":"Dedicated","server_os":"Linux","password":true,"vac":true,"version":"7882260","steam_id":85568392924742821,"keywords":["nocrits","nodmgspread","payload","uncletopia"],"game_id":440,"stv_port":27046,"stv_name":"Uncletopia | New York City | 4 | Community | STV","players":null},{"server_id":142,"name":"Uncletopia | S√£o Paulo | 1 | All Maps","name_short":"sao-1","host":"sao-1.br.uncletopia.com","port":27015,"enabled":true,"region":"sa","cc":"br","latitude":-23.533773,"longitude":-46.62529,"reserved":0,"last_update":"0001-01-01T00:00:00Z","name_a2s":"Uncletopia | S√£o Paulo | 1 | All Maps","protocol":17,"map":"cp_process_final","folder":"tf","game":"Team Fortress","app_id":440,"player_count":0,"max_players":24,"Bots":0,"server_type":"Dedicated","server_os":"Linux","password":true,"vac":true,"version":"7882260","steam_id":85568392924469996,"keywords":["cp","nocrits","nodmgspread","uncletopia"],"game_id":440,"stv_port":27016,"stv_name":"Uncletopia | S√£o Paulo | 1 | All Maps | STV","players":null},{"server_id":143,"name":"Uncletopia | S√£o Paulo | 2 | All Maps","name_short":"sao-2","host":"sao-2.br.uncletopia.com","port":27015,"enabled":true,"region":"sa","cc":"br","latitude":-23.533773,"longitude":-46.62529,"reserved":0,"last_update":"0001-01-01T00:00:00Z","name_a2s":"Uncletopia | S√£o Paulo | 2 | All Maps","protocol":17,"map":"pl_pier","folder":"tf","game":"Team Fortress","app_id":440,"player_count":0,"max_players":24,"Bots":0,"server_type":"Dedicated","server_os":"Linux","password":true,"vac":true,"version":"7882260","steam_id":85568392924485349,"keywords":["nocrits","nodmgspread","payload","uncletopia"],"game_id":440,"stv_port":27016,"stv_name":"Uncletopia | S√£o Paulo | 2 | All Maps | STV","players":null},{"server_id":7,"name":"Uncletopia | Seattle | 1 | All Maps","name_short":"sea-1","host":"sea-1.us.uncletopia.com","port":27015,"enabled":true,"region":"us-west","cc":"us","latitude":47.608013,"longitude":-122.33517,"reserved":0,"last_update":"0001-01-01T00:00:00Z","name_a2s":"Uncletopia | Seattle | 1 | All Maps","protocol":17,"map":"koth_harvest_final","folder":"tf","game":"Team Fortress","app_id":440,"player_count":0,"max_players":24,"Bots":0,"server_type":"Dedicated","server_os":"Linux","password":true,"vac":true,"version":"7882260","steam_id":85568392924469997,"keywords":["cp","nocrits","nodmgspread","uncletopia"],"game_id":440,"stv_port":27016,"stv_name":"Uncletopia | Seattle | 1 | All Maps | STV","players":null},{"server_id":119,"name":"Uncletopia | Seattle | 2 | All Maps","name_short":"sea-2","host":"sea-1.us.uncletopia.com","port":27025,"enabled":true,"region":"us-west","cc":"us","latitude":47.608013,"longitude":-122.33517,"reserved":0,"last_update":"0001-01-01T00:00:00Z","name_a2s":"Uncletopia | Seattle | 2 | All Maps","protocol":17,"map":"pl_borneo","folder":"tf","game":"Team Fortress","app_id":440,"player_count":0,"max_players":24,"Bots":0,"server_type":"Dedicated","server_os":"Linux","password":true,"vac":true,"version":"7882260","steam_id":85568392924469998,"keywords":["nocrits","nodmgspread","payload","uncletopia"],"game_id":440,"stv_port":27026,"stv_name":"Uncletopia | Seattle | 2 | All Maps | STV","players":null},{"server_id":406,"name":"Uncletopia | Seattle | 3 | Stopwatch Beta","name_short":"sea-3","host":"sea-1.us.uncletopia.com","port":27035,"enabled":true,"region":"us-west","cc":"us","latitude":47.608013,"longitude":-122.33517,"reserved":0,"last_update":"0001-01-01T00:00:00Z","name_a2s":"Uncletopia | Seattle | 3 | Stopwatch Beta","protocol":17,"map":"koth_lakeside_final","folder":"tf","game":"Team Fortress","app_id":440,"player_count":0,"max_players":24,"Bots":0,"server_type":"Dedicated","server_os":"Linux","password":true,"vac":true,"version":"7882260","steam_id":85568392924515217,"keywords":["cp","nocrits","nodmgspread","uncletopia"],"game_id":440,"stv_port":27036,"stv_name":"Uncletopia | Seattle | 3 | Stopwatch Beta | STV","players":null},{"server_id":17,"name":"Uncletopia | San Francisco | 1 | All Maps","name_short":"sfo-1","host":"sfo-1.us.uncletopia.com","port":27015,"enabled":true,"region":"us-west","cc":"us","latitude":37.77397,"longitude":-122.4313,"reserved":0,"last_update":"0001-01-01T00:00:00Z","name_a2s":"Uncletopia | San Francisco | 1 | All Maps","protocol":17,"map":"cp_process_final","folder":"tf","game":"Team Fortress","app_id":440,"player_count":0,"max_players":24,"Bots":0,"server_type":"Dedicated","server_os":"Linux","password":true,"vac":true,"version":"7757534","steam_id":85568392924469999,"keywords":["cp","nocrits","nodmgspread","uncletopia"],"game_id":440,"stv_port":27016,"stv_name":"Uncletopia | San Francisco | 1 | All Maps | STV","players":null},{"server_id":18,"name":"Uncletopia | San Francisco | 2 | All Maps","name_short":"sfo-2","host":"sfo-1.us.uncletopia.com","port":27025,"enabled":true,"region":"us-west","cc":"us","latitude":37.77397,"longitude":-122.4313,"reserved":0,"last_update":"0001-01-01T00:00:00Z","name_a2s":"Uncletopia | San Francisco | 2 | All Maps","protocol":17,"map":"koth_highpass","folder":"tf","game":"Team Fortress","app_id":440,"player_count":0,"max_players":24,"Bots":0,"server_type":"Dedicated","server_os":"Linux","password":true,"vac":true,"version":"7757534","steam_id":85568392924470000,"keywords":["cp","nocrits","nodmgspread","uncletopia"],"game_id":440,"stv_port":27026,"stv_name":"Uncletopia | San Francisco | 2 | All Maps | STV","players":null},{"server_id":19,"name":"Uncletopia | San Francisco | 3 | Stopwatch Beta","name_short":"sfo-3","host":"sfo-1.us.uncletopia.com","port":27035,"enabled":true,"region":"us-west","cc":"us","latitude":37.77397,"longitude":-122.4313,"reserved":0,"last_update":"0001-01-01T00:00:00Z","name_a2s":"Uncletopia | San Francisco | 3 | Stopwatch Beta","protocol":17,"map":"koth_lakeside_final","folder":"tf","game":"Team Fortress","app_id":440,"player_count":0,"max_players":24,"Bots":0,"server_type":"Dedicated","server_os":"Linux","password":true,"vac":true,"version":"7757534","steam_id":85568392924742824,"keywords":["cp","nocrits","nodmgspread","uncletopia"],"game_id":440,"stv_port":27036,"stv_name":"Uncletopia | San Francisco | 3 | Stopwatch Beta | STV","players":null},{"server_id":20,"name":"Uncletopia | San Francisco | 4 | Community","name_short":"sfo-4","host":"sfo-1.us.uncletopia.com","port":27045,"enabled":true,"region":"us-west","cc":"us","latitude":37.77397,"longitude":-122.4313,"reserved":0,"last_update":"0001-01-01T00:00:00Z","name_a2s":"Uncletopia | San Francisco | 4 | Community","protocol":17,"map":"cp_altitude","folder":"tf","game":"Team Fortress","app_id":440,"player_count":0,"max_players":24,"Bots":0,"server_type":"Dedicated","server_os":"Linux","password":true,"vac":true,"version":"7757534","steam_id":85568392924742826,"keywords":["cp","nocrits","nodmgspread","uncletopia"],"game_id":440,"stv_port":27046,"stv_name":"Uncletopia | San Francisco | 4 | Community | STV","players":null},{"server_id":141,"name":"Uncletopia | Sydney | 1 | All Maps","name_short":"syd-1","host":"syd-1.au.uncletopia.com","port":27015,"enabled":true,"region":"au","cc":"au","latitude":-33.865143,"longitude":151.2099,"reserved":0,"last_update":"0001-01-01T00:00:00Z","name_a2s":"Uncletopia | Sydney | 1 | All Maps","protocol":17,"map":"ctf_2fort","folder":"tf","game":"Team Fortress","app_id":440,"player_count":8,"max_players":24,"Bots":0,"server_type":"Dedicated","server_os":"Linux","password":true,"vac":true,"version":"7882260","steam_id":85568392924470001,"keywords":["ctf","nocrits","nodmgspread","uncletopia"],"game_id":440,"stv_port":27016,"stv_name":"Uncletopia | Sydney | 1 | All Maps | STV","players":[{"user_id":397,"name":"sf/k","steam_id":76561198047758776,"connected_time":985000000000,"state":"active","ping":40},{"user_id":388,"name":"tim88435","steam_id":76561198089653987,"connected_time":2038000000000,"state":"active","ping":49},{"user_id":398,"name":"Maquire's Constipation","steam_id":76561198096130103,"connected_time":424000000000,"state":"active","ping":53},{"user_id":399,"name":"Generic_username7","steam_id":76561199083971136,"connected_time":337000000000,"state":"active","ping":74},{"user_id":393,"name":"Dom","steam_id":76561198846401809,"connected_time":1398000000000,"state":"active","ping":56},{"user_id":377,"name":"RustyMeat","steam_id":76561198119162442,"connected_time":4155000000000,"state":"active","ping":56},{"user_id":357,"name":"fleep","steam_id":76561198417133583,"connected_time":5925000000000,"state":"active","ping":34},{"user_id":260,"name":"Local Trash Expert","steam_id":76561198145598622,"connected_time":12997000000000,"state":"active","ping":79}]},{"server_id":123,"name":"Uncletopia | Sydney | 2 | All Maps","name_short":"syd-2","host":"syd-1.au.uncletopia.com","port":27025,"enabled":true,"region":"au","cc":"au","latitude":-33.865143,"longitude":151.2099,"reserved":0,"last_update":"0001-01-01T00:00:00Z","name_a2s":"Uncletopia | Sydney | 2 | All Maps","protocol":17,"map":"pl_badwater","folder":"tf","game":"Team Fortress","app_id":440,"player_count":17,"max_players":24,"Bots":0,"server_type":"Dedicated","server_os":"Linux","password":true,"vac":true,"version":"7882260","steam_id":85568392924470002,"keywords":["nocrits","nodmgspread","payload","uncletopia"],"game_id":440,"stv_port":27026,"stv_name":"Uncletopia | Sydney | 2 | All Maps | STV","players":[{"user_id":215,"name":"BobbyFlobby","steam_id":76561198341487196,"connected_time":440000000000,"state":"active","ping":77},{"user_id":130,"name":"hive","steam_id":76561199099744527,"connected_time":8321000000000,"state":"active","ping":51},{"user_id":157,"name":"cas ganister","steam_id":76561198879023728,"connected_time":6059000000000,"state":"active","ping":52},{"user_id":218,"name":"Sinister80s","steam_id":76561198343540472,"connected_time":56000000000,"state":"active","ping":60},{"user_id":131,"name":"clotpole","steam_id":76561198951093608,"connected_time":8295000000000,"state":"active","ping":68},{"user_id":196,"name":"Zort","steam_id":76561198056414289,"connected_time":2290000000000,"state":"active","ping":63},{"user_id":212,"name":"The Goon","steam_id":76561198434696450,"connected_time":675000000000,"state":"active","ping":171},{"user_id":214,"name":"SCHEFF","steam_id":76561198078226216,"connected_time":575000000000,"state":"active","ping":55},{"user_id":217,"name":"whiteshaq","steam_id":76561198131988811,"connected_time":298000000000,"state":"active","ping":48},{"user_id":204,"name":"awesome","steam_id":76561198073922951,"connected_time":1348000000000,"state":"active","ping":44},{"user_id":199,"name":"Ironsoul27","steam_id":76561198077118333,"connected_time":2025000000000,"state":"active","ping":72},{"user_id":160,"name":"FragmantizedLemon","steam_id":76561198313580674,"connected_time":5527000000000,"state":"active","ping":131},{"user_id":189,"name":"Gnat","steam_id":76561198109747863,"connected_time":3200000000000,"state":"active","ping":101},{"user_id":185,"name":"Assasin43","steam_id":76561198067678083,"connected_time":3589000000000,"state":"active","ping":125},{"user_id":164,"name":"[FTW] RonnieD'","steam_id":76561197993957267,"connected_time":5400000000000,"state":"active","ping":56},{"user_id":208,"name":"Branko","steam_id":76561199262196710,"connected_time":1113000000000,"state":"active","ping":47},{"user_id":203,"name":"mealuns","steam_id":76561198059318461,"connected_time":1360000000000,"state":"active","ping":89}]},{"server_id":395,"name":"Uncletopia | Sydney | 3 | All Maps","name_short":"syd-3","host":"syd-1.au.uncletopia.com","port":27035,"enabled":true,"region":"au","cc":"au","latitude":-33.865143,"longitude":151.2099,"reserved":0,"last_update":"0001-01-01T00:00:00Z","name_a2s":"Uncletopia | Sydney | 3 | All Maps","protocol":17,"map":"koth_brazil","folder":"tf","game":"Team Fortress","app_id":440,"player_count":0,"max_players":24,"Bots":0,"server_type":"Dedicated","server_os":"Linux","password":true,"vac":true,"version":"7882260","steam_id":85568392925194467,"keywords":["cp","nocrits","nodmgspread","uncletopia"],"game_id":440,"stv_port":27036,"stv_name":"Uncletopia | Sydney | 3 | All Maps | STV","players":null},{"server_id":396,"name":"Uncletopia | Sydney | 4 | All Maps","name_short":"syd-4","host":"syd-1.au.uncletopia.com","port":27045,"enabled":true,"region":"au","cc":"au","latitude":-33.865143,"longitude":151.2099,"reserved":0,"last_update":"0001-01-01T00:00:00Z","name_a2s":"Uncletopia | Sydney | 4 | All Maps","protocol":17,"map":"pl_badwater","folder":"tf","game":"Team Fortress","app_id":440,"player_count":0,"max_players":24,"Bots":0,"server_type":"Dedicated","server_os":"Linux","password":true,"vac":true,"version":"7882260","steam_id":85568392925397958,"keywords":["nocrits","nodmgspread","payload","uncletopia"],"game_id":440,"stv_port":27046,"stv_name":"Uncletopia | Sydney | 4 | All Maps | STV","players":null},{"server_id":58,"name":"Uncletopia | Sydney | 5 | Stopwatch Beta","name_short":"syd-5","host":"syd-1.au.uncletopia.com","port":27055,"enabled":true,"region":"au","cc":"au","latitude":-33.865143,"longitude":151.2099,"reserved":0,"last_update":"0001-01-01T00:00:00Z","name_a2s":"Uncletopia | Sydney | 5 | Stopwatch Beta","protocol":17,"map":"workshop/pl_summercoast_rc8e.ugc1761528829","folder":"tf","game":"Team Fortress","app_id":440,"player_count":0,"max_players":24,"Bots":0,"server_type":"Dedicated","server_os":"Linux","password":true,"vac":true,"version":"7882260","steam_id":85568392925397959,"keywords":["nocrits","nodmgspread","payload","uncletopia"],"game_id":440,"stv_port":27056,"stv_name":"Uncletopia | Sydney | 5 | Stopwatch Beta | STV","players":null},{"server_id":59,"name":"Uncletopia | Sydney | 6 | Community","name_short":"syd-6","host":"syd-1.au.uncletopia.com","port":27065,"enabled":true,"region":"au","cc":"au","latitude":-33.865143,"longitude":151.2099,"reserved":0,"last_update":"0001-01-01T00:00:00Z","name_a2s":"Uncletopia | Sydney | 6 | Community","protocol":17,"map":"workshop/cp_indulge.ugc528106646","folder":"tf","game":"Team Fortress","app_id":440,"player_count":0,"max_players":24,"Bots":0,"server_type":"Dedicated","server_os":"Linux","password":true,"vac":true,"version":"7882260","steam_id":85568392925397960,"keywords":["cp","nocrits","nodmgspread","uncletopia"],"game_id":440,"stv_port":27066,"stv_name":"Uncletopia | Sydney | 6 | Community | STV","players":null},{"server_id":49,"name":"Uncletopia | Warsaw | 1 | All Maps","name_short":"waw-1","host":"waw-1.pl.uncletopia.com","port":27015,"enabled":true,"region":"eu","cc":"pl","latitude":52.2297,"longitude":21.017532,"reserved":0,"last_update":"0001-01-01T00:00:00Z","name_a2s":"","protocol":0,"map":"","folder":"","game":"","app_id":0,"player_count":0,"max_players":0,"Bots":0,"server_type":"","server_os":"","password":false,"vac":false,"version":"","steam_id":0,"keywords":null,"game_id":0,"stv_port":0,"stv_name":"","players":null},{"server_id":50,"name":"Uncletopia | Warsaw | 2 | All Maps","name_short":"waw-2","host":"waw-1.pl.uncletopia.com","port":27025,"enabled":true,"region":"eu","cc":"pl","latitude":52.2297,"longitude":21.017532,"reserved":0,"last_update":"0001-01-01T00:00:00Z","name_a2s":"Uncletopia | Warsaw | 2 | All Maps","protocol":17,"map":"koth_lakeside_final","folder":"tf","game":"Team Fortress","app_id":440,"player_count":0,"max_players":24,"Bots":0,"server_type":"Dedicated","server_os":"Linux","password":true,"vac":true,"version":"7882260","steam_id":85568392925397851,"keywords":["cp","nocrits","nodmgspread","uncletopia"],"game_id":440,"stv_port":27026,"stv_name":"Uncletopia | Warsaw | 2 | All Maps | STV","players":null},{"server_id":51,"name":"Uncletopia | Warsaw | 3 | All Maps","name_short":"waw-3","host":"waw-1.pl.uncletopia.com","port":27035,"enabled":true,"region":"eu","cc":"pl","latitude":52.2297,"longitude":21.017532,"reserved":0,"last_update":"0001-01-01T00:00:00Z","name_a2s":"Uncletopia | Warsaw | 3 | All Maps","protocol":17,"map":"koth_viaduct","folder":"tf","game":"Team Fortress","app_id":440,"player_count":0,"max_players":24,"Bots":0,"server_type":"Dedicated","server_os":"Linux","password":true,"vac":true,"version":"7882260","steam_id":85568392925397852,"keywords":["cp","nocrits","nodmgspread","uncletopia"],"game_id":440,"stv_port":27036,"stv_name":"Uncletopia | Warsaw | 3 | All Maps | STV","players":null},{"server_id":52,"name":"Uncletopia | Warsaw | 4 | All Maps","name_short":"waw-4","host":"waw-1.pl.uncletopia.com","port":27045,"enabled":true,"region":"eu","cc":"pl","latitude":52.2297,"longitude":21.017532,"reserved":0,"last_update":"0001-01-01T00:00:00Z","name_a2s":"Uncletopia | Warsaw | 4 | All Maps","protocol":17,"map":"koth_highpass","folder":"tf","game":"Team Fortress","app_id":440,"player_count":0,"max_players":24,"Bots":0,"server_type":"Dedicated","server_os":"Linux","password":true,"vac":true,"version":"7882260","steam_id":85568392925397853,"keywords":["cp","nocrits","nodmgspread","uncletopia"],"game_id":440,"stv_port":27046,"stv_name":"Uncletopia | Warsaw | 4 | All Maps | STV","players":null},{"server_id":53,"name":"Uncletopia | Warsaw | 5 | Stopwatch Beta","name_short":"waw-5","host":"waw-1.pl.uncletopia.com","port":27055,"enabled":true,"region":"eu","cc":"pl","latitude":52.2297,"longitude":21.017532,"reserved":0,"last_update":"0001-01-01T00:00:00Z","name_a2s":"Uncletopia | Warsaw | 5 | Stopwatch Beta","protocol":17,"map":"cp_mountainlab","folder":"tf","game":"Team Fortress","app_id":440,"player_count":0,"max_players":24,"Bots":0,"server_type":"Dedicated","server_os":"Linux","password":true,"vac":true,"version":"7882260","steam_id":85568392925397854,"keywords":["cp","nocrits","nodmgspread","uncletopia"],"game_id":440,"stv_port":27056,"stv_name":"Uncletopia | Warsaw | 5 | Stopwatch Beta | STV","players":null},{"server_id":54,"name":"Uncletopia | Warsaw | 6 | Community","name_short":"waw-6","host":"waw-1.pl.uncletopia.com","port":27065,"enabled":true,"region":"eu","cc":"pl","latitude":52.2297,"longitude":21.017532,"reserved":0,"last_update":"0001-01-01T00:00:00Z","name_a2s":"Uncletopia | Warsaw | 6 | Community","protocol":17,"map":"koth_viaduct","folder":"tf","game":"Team Fortress","app_id":440,"player_count":0,"max_players":24,"Bots":0,"server_type":"Dedicated","server_os":"Linux","password":true,"vac":true,"version":"7882260","steam_id":85568392925397856,"keywords":["cp","nocrits","nodmgspread","uncletopia"],"game_id":440,"stv_port":27066,"stv_name":"Uncletopia | Warsaw | 6 | Community | STV","players":null}]}