{"status":true,"message":"","result":[{"server_id":9,"name":"Uncletopia | Atlanta | 1 | All Maps","name_short":"atl-1","host":"atl-1.us.uncletopia.com","port":27015,"enabled":true,"region":"us-east","cc":"us","latitude":33.753746,"longitude":-84.38633,"reserved":0,"last_update":"0001-01-01T00:00:00Z","name_a2s":"Uncletopia | Atlanta | 1 | All Maps","protocol":17,"map":"pl_barnblitz","folder":"tf","game":"Team Fortress","app_id":440,"player_count":24,"max_players":24,"Bots":0,"server_type":"Dedicated","server_os":"Linux","password":true,"vac":true,"version":"7695204","steam_id":85568392924469982,"keywords":["nocrits","nodmgspread","payload","uncletopia"],"game_id":440,"stv_port":27016,"stv_name":"Uncletopia | Atlanta | 1 | All Maps | STV","players":[{"user_id":294,"name":"Sigiferd","steam_id":76561198148788110,"connected_time":1216000000000,"state":"active","ping":120},{"user_id":280,"name":"The Dork Lord","steam_id":76561198393519072,"connected_time":1696000000000,"state":"active","ping":64},{"user_id":275,"name":"merry mommy","steam_id":76561199230929836,"connected_time":2684000000000,"state":"active","ping":84},{"user_id":246,"name":"Duncan Idaho","steam_id":76561197988963861,"connected_time":5452000000000,"state":"active","ping":62},{"user_id":311,"name":"Wingm4n","steam_id":76561198064127012,"connected_time":18000000000,"state":"spawning","ping":47},{"user_id":282,"name":"snoops","steam_id":76561197986760351,"connected_time":1692000000000,"state":"active","ping":75},{"user_id":242,"name":"ATL1 | eish","steam_id":76561198089463603,"connected_time":5606000000000,"state":"active","ping":107},{"user_id":243,"name":"WarpdriveEngineer","steam_id":76561198073530973,"connected_time":5574000000000,"state":"active","ping":79},{"user_id":301,"name":"Abbashea","steam_id":76561199182136969,"connected_time":409000000000,"state":"active","ping":116},{"user_id":296,"name":"ATL1 | Phestive Pango","steam_id":76561198069811545,"connected_time":848000000000,"state":"active","ping":32},{"user_id":284,"name":"Ros","steam_id":76561199055963822,"connected_time":1683000000000,"state":"active","ping":48},{"user_id":259,"name":"joe lft","steam_id":76561198045781320,"connected_time":4285000000000,"state":"active","ping":71},{"user_id":297,"name":"Takumi Fujiwara","steam_id":76561198146281101,"connected_time":841000000000,"state":"active","ping":77},{"user_id":289,"name":"help","steam_id":76561199056338917,"connected_time":1449000000000,"state":"active","ping":86},{"user_id":310,"name":"Latmild","steam_id":76561198042549377,"connected_time":306000000000,"state":"active","ping":80},{"user_id":277,"name":"Samuel","steam_id":76561198045652639,"connected_time":2522000000000,"state":"active","ping":118},{"user_id":300,"name":"I\u003c3 DUSTBOWL STEEL AND VANGUARD","steam_id":76561198333513882,"connected_time":421000000000,"state":"active","ping":72},{"user_id":302,"name":"Rat","steam_id":76561198137925582,"connected_time":405000000000,"state":"active","ping":75},{"user_id":306,"name":"PeopleOrderOurPatties","steam_id":76561198323144922,"connected_time":364000000000,"state":"active","ping":64},{"user_id":274,"name":"ATL6 loot","steam_id":76561198069954956,"connected_time":3089000000000,"state":"active","ping":46},{"user_id":307,"name":"I did meth","steam_id":76561199174310124,"connected_time":359000000000,"state":"active","ping":81},{"user_id":288,"name":"FUSION","steam_id":76561197972659738,"connected_time":1456000000000,"state":"active","ping":59},{"user_id":286,"name":"spim","steam_id":76561198991982630,"connected_time":1673000000000,"state":"active","ping":54},{"user_id":309,"name":"Wang of Wall St","steam_id":76561198047460598,"connected_time":350000000000,"state":"active","ping":71}]},{"server_id":400,"name":"Uncletopia | Atlanta | 3 | All Maps","name_short":"atl-3","host":"atl-1.us.uncletopia.com","port":27035,"enabled":true,"region":"us-east","cc":"us","latitude":33.753746,"longitude":-84.38633,"reserved":0,"last_update":"0001-01-01T00:00:00Z","name_a2s":"Uncletopia | Atlanta | 3 | All Maps","protocol":17,"map":"koth_lakeside_final","folder":"tf","game":"Team Fortress","app_id":440,"player_count":25,"max_players":24,"Bots":0,"server_type":"Dedicated","server_os":"Linux","password":true,"vac":true,"version":"7695204","steam_id":85568392924515187,"keywords":["cp","nocrits","nodmgspread","uncletopia"],"game_id":440,"stv_port":27036,"stv_name":"Uncletopia | Atlanta | 3 | All Maps | STV","players":[{"user_id":47,"name":"10footlongschlong","steam_id":76561198291160259,"connected_time":144000000000,"state":"active","ping":50},{"user_id":48,"name":"Egg","steam_id":76561199075359963,"connected_time":134000000000,"state":"active","ping":58},{"user_id":8,"name":"Uung","steam_id":76561198183956731,"connected_time":2979000000000,"state":"active","ping":47},{"user_id":49,"name":"MrLeftTurn","steam_id":76561198856743969,"connected_time":123000000000,"state":"active","ping":151},{"user_id":43,"name":"erk","steam_id":76561198101099843,"connected_time":161000000000,"state":"active","ping":76},{"user_id":12,"name":"Moonadoo","steam_id":76561198133377546,"connected_time":2274000000000,"state":"active","ping":106},{"user_id":20,"name":"Child Labor","steam_id":76561199091978264,"connected_time":1144000000000,"state":"active","ping":75},{"user_id":15,"name":"Zeus","steam_id":76561199259788503,"connected_time":1948000000000,"state":"active","ping":51},{"user_id":50,"name":"The Color Cyan idk im blind","steam_id":76561198978548208,"connected_time":108000000000,"state":"active","ping":114},{"user_id":45,"name":"just shoot the fucker","steam_id":76561198164986938,"connected_time":147000000000,"state":"active","ping":68},{"user_id":21,"name":"A_Malebolgia","steam_id":76561198097722818,"connected_time":1095000000000,"state":"active","ping":85},{"user_id":42,"name":"Flint","steam_id":76561198821965292,"connected_time":166000000000,"state":"active","ping":170},{"user_id":24,"name":"Goofball","steam_id":76561198074189084,"connected_time":988000000000,"state":"active","ping":59},{"user_id":25,"name":"Elena Manetta","steam_id":76561197998344054,"connected_time":979000000000,"state":"active","ping":54},{"user_id":51,"name":"Glow","steam_id":76561199360481336,"connected_time":49000000000,"state":"active","ping":76},{"user_id":37,"name":"mistletoe mike","steam_id":76561198067784310,"connected_time":621000000000,"state":"active","ping":68},{"user_id":28,"name":"DiscoTraveler","steam_id":76561199240168088,"connected_time":756000000000,"state":"active","ping":60},{"user_id":29,"name":"Waffle Wannabe","steam_id":76561198064510650,"connected_time":663000000000,"state":"active","ping":58},{"user_id":41,"name":"Aeris","steam_id":76561198287271028,"connected_time":230000000000,"state":"active","ping":76},{"user_id":46,"name":"Gaming Leaves","steam_id":76561199229704161,"connected_time":145000000000,"state":"active","ping":55},{"user_id":32,"name":"Braixen","steam_id":76561198354314389,"connected_time":640000000000,"state":"active","ping":63},{"user_id":33,"name":"BamBoozlerC0L3","steam_id":76561197984031745,"connected_time":638000000000,"state":"active","ping":61},{"user_id":34,"name":"leumas","steam_id":76561198240408540,"connected_time":636000000000,"state":"active","ping":51},{"user_id":35,"name":"AmySuneku","steam_id":76561198205051269,"connected_time":632000000000,"state":"active","ping":106},{"user_id":52,"name":"xajefontes | Ham Mafia |","steam_id":76561198096339075,"connected_time":3000000000,"state":"spawning","ping":317}]},{"server_id":401,"name":"Uncletopia | Atlanta | 4 | No Payload","name_short":"atl-4","host":"atl-1.us.uncletopia.com","port":27045,"enabled":true,"region":"us-east","cc":"us","latitude":33.753746,"longitude":-84.38633,"reserved":0,"last_update":"0001-01-01T00:00:00Z","name_a2s":"Uncletopia | Atlanta | 4 | No Payload","protocol":17,"map":"koth_harvest_final","folder":"tf","game":"Team Fortress","app_id":440,"player_count":2,"max_players":24,"Bots":0,"server_type":"Dedicated","server_os":"Linux","password":true,"vac":true,"version":"7695204","steam_id":85568392924515188,"keywords":["cp","nocrits","nodmgspread","uncletopia"],"game_id":440,"stv_port":27046,"stv_name":"Uncletopia | Atlanta | 4 | No Payload | STV","players":[{"user_id":31,"name":"Jang-Lang-","steam_id":76561199016578959,"connected_time":120000000000,"state":"active","ping":52},{"user_id":32,"name":"{Sly Fox}","steam_id":76561199069954162,"connected_time":87000000000,"state":"active","ping":66}]},{"server_id":2,"name":"Uncletopia | Chicago | 1 | All Maps","name_short":"chi-1","host":"chi-1.us.uncletopia.com","port":27015,"enabled":true,"region":"us-central","cc":"us","latitude":41.881832,"longitude":-87.62318,"reserved":0,"last_update":"0001-01-01T00:00:00Z","name_a2s":"Uncletopia | Chicago | 1 | All Maps","protocol":17,"map":"pl_snowycoast","folder":"tf","game":"Team Fortress","app_id":440,"player_count":24,"max_players":24,"Bots":0,"server_type":"Dedicated","server_os":"Linux","password":true,"vac":true,"version":"7695204","steam_id":85568392924469984,"keywords":["nocrits","nodmgspread","payload","uncletopia"],"game_id":440,"stv_port":27016,"stv_name":"Uncletopia | Chicago | 1 | All Maps | STV","players":[{"user_id":334,"name":"rowen","steam_id":76561198801540362,"connected_time":1820000000000,"state":"active","ping":140},{"user_id":313,"name":"iHateOverwatchiLoveTf2","steam_id":76561198081617990,"connected_time":3149000000000,"state":"active","ping":100},{"user_id":348,"name":"Alice in Rubberland","steam_id":76561198087328346,"connected_time":803000000000,"state":"active","ping":46},{"user_id":349,"name":"Madrox Who?","steam_id":76561197988859134,"connected_time":688000000000,"state":"active","ping":72},{"user_id":336,"name":"C:\\PT/\\IN","steam_id":76561198038520307,"connected_time":1571000000000,"state":"active","ping":55},{"user_id":317,"name":"Basurado","steam_id":76561198819695655,"connected_time":2749000000000,"state":"active","ping":60},{"user_id":337,"name":"Dot.","steam_id":76561198149463984,"connected_time":1557000000000,"state":"active","ping":48},{"user_id":266,"name":"defs98","steam_id":76561198134813102,"connected_time":5913000000000,"state":"active","ping":59},{"user_id":339,"name":"Cloudtrotter","steam_id":76561198141975528,"connected_time":1486000000000,"state":"active","ping":53},{"user_id":304,"name":"Chronos","steam_id":76561198126625623,"connected_time":3375000000000,"state":"active","ping":63},{"user_id":352,"name":"stop","steam_id":76561198268686419,"connected_time":492000000000,"state":"active","ping":58},{"user_id":353,"name":"MenacingMekhet","steam_id":76561198053165462,"connected_time":395000000000,"state":"active","ping":62},{"user_id":335,"name":"Sanuary","steam_id":76561198075597588,"connected_time":1595000000000,"state":"active","ping":56},{"user_id":340,"name":"sonnovasmurf","steam_id":76561199092251434,"connected_time":1479000000000,"state":"active","ping":55},{"user_id":294,"name":"Randy \"the Man\" Johnson","steam_id":76561198039124445,"connected_time":3860000000000,"state":"active","ping":91},{"user_id":217,"name":"PKBEAST_7","steam_id":76561198177136537,"connected_time":9084000000000,"state":"active","ping":80},{"user_id":351,"name":"Pawn Cushman","steam_id":76561198221635676,"connected_time":578000000000,"state":"active","ping":71},{"user_id":293,"name":"Catboy Potemkin","steam_id":76561198078474420,"connected_time":3907000000000,"state":"active","ping":65},{"user_id":279,"name":"Dreysidel","steam_id":76561198056496183,"connected_time":4969000000000,"state":"active","ping":70},{"user_id":342,"name":"LargerThanAverageDragon","steam_id":76561198152036300,"connected_time":1438000000000,"state":"active","ping":68},{"user_id":354,"name":"floppy muppet","steam_id":76561198003076261,"connected_time":334000000000,"state":"active","ping":88},{"user_id":308,"name":"Charlie Horse","steam_id":76561199043573980,"connected_time":3287000000000,"state":"active","ping":58},{"user_id":343,"name":"Candy Sparkles","steam_id":76561198126871264,"connected_time":1412000000000,"state":"active","ping":88},{"user_id":330,"name":"スパイク","steam_id":76561199417277716,"connected_time":2045000000000,"state":"active","ping":65}]},{"server_id":106,"name":"Uncletopia | Chicago | 2 | All Maps","name_short":"chi-2","host":"chi-1.us.uncletopia.com","port":27025,"enabled":true,"region":"us-central","cc":"us","latitude":41.881832,"longitude":-87.62318,"reserved":0,"last_update":"0001-01-01T00:00:00Z","name_a2s":"Uncletopia | Chicago | 2 | All Maps","protocol":17,"map":"pl_swiftwater_final1","folder":"tf","game":"Team Fortress","app_id":440,"player_count":24,"max_players":24,"Bots":0,"server_type":"Dedicated","server_os":"Linux","password":true,"vac":true,"version":"7695204","steam_id":85568392924469985,"keywords":["nocrits","nodmgspread","payload","uncletopia"],"game_id":440,"stv_port":27026,"stv_name":"Uncletopia | Chicago | 2 | All Maps | STV","players":[{"user_id":196,"name":"Fudgely","steam_id":76561198039425862,"connected_time":3848000000000,"state":"active","ping":63},{"user_id":225,"name":"ButtholeMagic","steam_id":76561198865971290,"connected_time":1395000000000,"state":"active","ping":83},{"user_id":203,"name":"❤birbohex❤","steam_id":76561198392961483,"connected_time":3594000000000,"state":"active","ping":41},{"user_id":223,"name":"Atlas.","steam_id":76561199406175512,"connected_time":1803000000000,"state":"active","ping":61},{"user_id":207,"name":"RyInc","steam_id":76561198874261643,"connected_time":2968000000000,"state":"active","ping":45},{"user_id":184,"name":"Tyler\u0026Fingers","steam_id":76561198085154485,"connected_time":4186000000000,"state":"active","ping":85},{"user_id":158,"name":"King Sans","steam_id":76561198294198517,"connected_time":6828000000000,"state":"active","ping":68},{"user_id":221,"name":"Shmoopellie","steam_id":76561198077272494,"connected_time":1916000000000,"state":"active","ping":47},{"user_id":235,"name":"Alt","steam_id":76561197992591984,"connected_time":267000000000,"state":"active","ping":61},{"user_id":202,"name":"Soap","steam_id":76561198074619142,"connected_time":3668000000000,"state":"active","ping":55},{"user_id":227,"name":"queen jagged ♥","steam_id":76561197972514037,"connected_time":1342000000000,"state":"active","ping":51},{"user_id":138,"name":"Cursed Dog","steam_id":76561198090785078,"connected_time":7770000000000,"state":"active","ping":97},{"user_id":236,"name":"Safe Safe Safeee Houseee","steam_id":76561198049812861,"connected_time":250000000000,"state":"active","ping":72},{"user_id":214,"name":"Vec","steam_id":76561198044505262,"connected_time":2563000000000,"state":"active","ping":81},{"user_id":198,"name":"Fly_Johnson","steam_id":76561198882285873,"connected_time":3795000000000,"state":"active","ping":61},{"user_id":151,"name":"WhatsHisName","steam_id":76561198982712556,"connected_time":7261000000000,"state":"active","ping":83},{"user_id":231,"name":"HellRaiser","steam_id":76561199051660033,"connected_time":1006000000000,"state":"active","ping":78},{"user_id":232,"name":"Nassu","steam_id":76561198147367577,"connected_time":1003000000000,"state":"active","ping":66},{"user_id":182,"name":"gabebarron27","steam_id":76561199390578153,"connected_time":4414000000000,"state":"active","ping":83},{"user_id":169,"name":":3 vs \u003e:3","steam_id":76561199106847859,"connected_time":6148000000000,"state":"active","ping":64},{"user_id":233,"name":"Micah","steam_id":76561198006837982,"connected_time":925000000000,"state":"active","ping":99},{"user_id":234,"name":"king Baldwin IV","steam_id":76561198369862983,"connected_time":504000000000,"state":"active","ping":60},{"user_id":210,"name":"PzVIIIMaus","steam_id":76561198346559365,"connected_time":2876000000000,"state":"active","ping":47},{"user_id":237,"name":"Moz","steam_id":76561198027171160,"connected_time":73000000000,"state":"active","ping":48}]},{"server_id":402,"name":"Uncletopia | Chicago | 3 | All Maps","name_short":"chi-3","host":"chi-1.us.uncletopia.com","port":27035,"enabled":true,"region":"us-central","cc":"us","latitude":41.881832,"longitude":-87.62318,"reserved":0,"last_update":"0001-01-01T00:00:00Z","name_a2s":"Uncletopia | Chicago | 3 | All Maps","protocol":17,"map":"cp_dustbowl","folder":"tf","game":"Team Fortress","app_id":440,"player_count":24,"max_players":24,"Bots":0,"server_type":"Dedicated","server_os":"Linux","password":true,"vac":true,"version":"7695204","steam_id":85568392924515191,"keywords":["cp","nocrits","nodmgspread","uncletopia"],"game_id":440,"stv_port":27036,"stv_name":"Uncletopia | Chicago | 3 | All Maps | STV","players":[{"user_id":182,"name":"ultrax.extremex","steam_id":76561199201770653,"connected_time":625000000000,"state":"active","ping":61},{"user_id":175,"name":"The Power","steam_id":76561198060566884,"connected_time":730000000000,"state":"active","ping":153},{"user_id":183,"name":"Castar","steam_id":76561198090558038,"connected_time":602000000000,"state":"active","ping":60},{"user_id":153,"name":"Gary Budussy","steam_id":76561197969793969,"connected_time":1907000000000,"state":"active","ping":55},{"user_id":188,"name":"silentpieceofbacon","steam_id":76561198869323351,"connected_time":331000000000,"state":"active","ping":58},{"user_id":184,"name":"LobsterPot","steam_id":76561198072225973,"connected_time":554000000000,"state":"active","ping":58},{"user_id":177,"name":"surrender to the void","steam_id":76561198055494039,"connected_time":726000000000,"state":"active","ping":74},{"user_id":165,"name":"jlordo","steam_id":76561198007082100,"connected_time":1435000000000,"state":"active","ping":49},{"user_id":163,"name":"kt","steam_id":76561198946374858,"connected_time":1496000000000,"state":"active","ping":62},{"user_id":121,"name":"Geloman","steam_id":76561198005501322,"connected_time":3958000000000,"state":"active","ping":79},{"user_id":189,"name":"Silver","steam_id":76561198070197504,"connected_time":315000000000,"state":"active","ping":59},{"user_id":145,"name":"EvilsConscience","steam_id":76561198073451760,"connected_time":2488000000000,"state":"active","ping":50},{"user_id":171,"name":"Carl","steam_id":76561198089399299,"connected_time":1092000000000,"state":"active","ping":51},{"user_id":137,"name":"senorpapel","steam_id":76561198040507073,"connected_time":2720000000000,"state":"active","ping":67},{"user_id":169,"name":"Ignalis","steam_id":76561198025662927,"connected_time":1194000000000,"state":"active","ping":65},{"user_id":155,"name":"sped","steam_id":76561199166411595,"connected_time":1890000000000,"state":"active","ping":80},{"user_id":178,"name":"4turrets_nodefects","steam_id":76561198134789730,"connected_time":704000000000,"state":"active","ping":153},{"user_id":142,"name":"Crabo Stabbo","steam_id":76561198061227228,"connected_time":2558000000000,"state":"active","ping":51},{"user_id":187,"name":"Boo","steam_id":76561198335841761,"connected_time":405000000000,"state":"active","ping":77},{"user_id":185,"name":"Owl Pacino","steam_id":76561197979970666,"connected_time":549000000000,"state":"active","ping":57},{"user_id":180,"name":"cow","steam_id":76561198117331762,"connected_time":683000000000,"state":"active","ping":43},{"user_id":186,"name":"Hobocop","steam_id":76561198076321907,"connected_time":528000000000,"state":"active","ping":83},{"user_id":166,"name":"A tree","steam_id":76561198309065247,"connected_time":1399000000000,"state":"active","ping":70},{"user_id":181,"name":"Elantine","steam_id":76561199016472986,"connected_time":668000000000,"state":"active","ping":81}]},{"server_id":403,"name":"Uncletopia | Chicago | 4 | All Maps","name_short":"chi-4","host":"chi-1.us.uncletopia.com","port":27045,"enabled":true,"region":"us-central","cc":"us","latitude":41.881832,"longitude":-87.62318,"reserved":0,"last_update":"0001-01-01T00:00:00Z","name_a2s":"Uncletopia | Chicago | 4 | All Maps","protocol":17,"map":"plr_hightower","folder":"tf","game":"Team Fortress","app_id":440,"player_count":21,"max_players":24,"Bots":0,"server_type":"Dedicated","server_os":"Linux","password":true,"vac":true,"version":"7695204","steam_id":85568392924515193,"keywords":["nocrits","nodmgspread","payload","uncletopia"],"game_id":440,"stv_port":27046,"stv_name":"Uncletopia | Chicago | 4 | All Maps | STV","players":[{"user_id":328,"name":"raisedbybirds","steam_id":76561198131531646,"connected_time":34000000000,"state":"spawning","ping":75},{"user_id":325,"name":"Aggressive Pedestrian","steam_id":76561199229771413,"connected_time":127000000000,"state":"active","ping":79},{"user_id":309,"name":"DistantJragon","steam_id":76561198117563641,"connected_time":971000000000,"state":"active","ping":41},{"user_id":288,"name":"garfield","steam_id":76561198114119308,"connected_time":2375000000000,"state":"active","ping":63},{"user_id":269,"name":"Go Away","steam_id":76561199213453506,"connected_time":3198000000000,"state":"active","ping":199},{"user_id":289,"name":"Average Reagan Youth Fan","steam_id":76561198355754259,"connected_time":2316000000000,"state":"active","ping":67},{"user_id":327,"name":"LuneRune","steam_id":76561197970795094,"connected_time":70000000000,"state":"active","ping":84},{"user_id":290,"name":"1444","steam_id":76561199409264244,"connected_time":2316000000000,"state":"active","ping":66},{"user_id":323,"name":"illious","steam_id":76561198169925494,"connected_time":287000000000,"state":"active","ping":73},{"user_id":329,"name":"cosmik","steam_id":76561198071193180,"connected_time":28000000000,"state":"spawning","ping":69},{"user_id":314,"name":"yazub","steam_id":76561199095742895,"connected_time":583000000000,"state":"active","ping":51},{"user_id":310,"name":":3","steam_id":76561198098099826,"connected_time":941000000000,"state":"active","ping":84},{"user_id":297,"name":"ShadBad","steam_id":76561198248287390,"connected_time":2074000000000,"state":"active","ping":97},{"user_id":316,"name":"GreyHounds","steam_id":76561198081984695,"connected_time":566000000000,"state":"active","ping":72},{"user_id":318,"name":"muddy","steam_id":76561198035015260,"connected_time":536000000000,"state":"active","ping":80},{"user_id":308,"name":"KingTinkerer","steam_id":76561198226856548,"connected_time":1099000000000,"state":"active","ping":81},{"user_id":319,"name":"PoliteTim","steam_id":76561198053769173,"connected_time":523000000000,"state":"active","ping":83},{"user_id":320,"name":"Hobo_joe514","steam_id":76561199428610191,"connected_time":521000000000,"state":"active","ping":104},{"user_id":235,"name":"Scorpie Doodle","steam_id":76561198021845763,"connected_time":5692000000000,"state":"active","ping":52},{"user_id":285,"name":"WinterBerry","steam_id":76561198437148505,"connected_time":2768000000000,"state":"active","ping":98}]},{"server_id":36,"name":"Uncletopia | Chicago | 5 | All Maps","name_short":"chi-5","host":"chi-2.us.uncletopia.com","port":27015,"enabled":true,"region":"us-central","cc":"us","latitude":41.881832,"longitude":-87.62318,"reserved":0,"last_update":"0001-01-01T00:00:00Z","name_a2s":"Uncletopia | Chicago | 5 | All Maps","protocol":17,"map":"pl_frontier_final","folder":"tf","game":"Team Fortress","app_id":440,"player_count":0,"max_players":24,"Bots":0,"server_type":"Dedicated","server_os":"Linux","password":true,"vac":true,"version":"7695204","steam_id":85568392924866362,"keywords":["nocrits","nodmgspread","payload","uncletopia"],"game_id":440,"stv_port":27016,"stv_name":"Uncletopia | Chicago | 5 | All Maps | STV","players":null},{"server_id":37,"name":"Uncletopia | Chicago | 6 | All Maps","name_short":"chi-6","host":"chi-2.us.uncletopia.com","port":27025,"enabled":true,"region":"us-central","cc":"us","latitude":41.881832,"longitude":-87.62318,"reserved":0,"last_update":"0001-01-01T00:00:00Z","name_a2s":"Uncletopia | Chicago | 6 | All Maps","protocol":17,"map":"pl_swiftwater_final1","folder":"tf","game":"Team Fortress","app_id":440,"player_count":22,"max_players":24,"Bots":0,"server_type":"Dedicated","server_os":"Linux","password":true,"vac":true,"version":"7695204","steam_id":85568392924866363,"keywords":["nocrits","nodmgspread","payload","uncletopia"],"game_id":440,"stv_port":27026,"stv_name":"Uncletopia | Chicago | 6 | All Maps | STV","players":[{"user_id":128,"name":"Mister36","steam_id":76561198019132100,"connected_time":5768000000000,"state":"active","ping":97},{"user_id":153,"name":"N/A","steam_id":76561198815802809,"connected_time":4145000000000,"state":"active","ping":50},{"user_id":154,"name":"Banana Jim","steam_id":76561198124049947,"connected_time":4118000000000,"state":"active","ping":76},{"user_id":181,"name":"oof aim small brain","steam_id":76561198079925551,"connected_time":2907000000000,"state":"active","ping":68},{"user_id":20,"name":"The World's Softest Sandwich","steam_id":76561198015577707,"connected_time":13739000000000,"state":"active","ping":75},{"user_id":148,"name":"SmissmasGamer","steam_id":76561198144049265,"connected_time":4525000000000,"state":"active","ping":66},{"user_id":192,"name":"CaveMann","steam_id":76561198063049297,"connected_time":1375000000000,"state":"active","ping":101},{"user_id":205,"name":"brrtshka42","steam_id":76561198047166125,"connected_time":243000000000,"state":"active","ping":68},{"user_id":26,"name":"Fresh Lychee","steam_id":76561198045399559,"connected_time":13250000000000,"state":"active","ping":56},{"user_id":193,"name":"a-z","steam_id":76561198013732450,"connected_time":1206000000000,"state":"active","ping":57},{"user_id":197,"name":"101","steam_id":76561199366968526,"connected_time":926000000000,"state":"active","ping":90},{"user_id":165,"name":"re2licker","steam_id":76561198330132669,"connected_time":3875000000000,"state":"active","ping":45},{"user_id":203,"name":"jerma but crying and lesbian","steam_id":76561198110661425,"connected_time":341000000000,"state":"active","ping":52},{"user_id":161,"name":"Crazytaco2zday","steam_id":76561198133656976,"connected_time":3922000000000,"state":"active","ping":59},{"user_id":178,"name":"Young-OG","steam_id":76561198058800479,"connected_time":3358000000000,"state":"active","ping":79},{"user_id":200,"name":"Inevitable","steam_id":76561198210050169,"connected_time":807000000000,"state":"active","ping":71},{"user_id":188,"name":"Sentry Gun (Engineer)","steam_id":76561199004395829,"connected_time":1863000000000,"state":"active","ping":71},{"user_id":204,"name":"sonney.jill","steam_id":76561199216710588,"connected_time":253000000000,"state":"active","ping":69},{"user_id":198,"name":"Waffle","steam_id":76561199000034608,"connected_time":883000000000,"state":"active","ping":65},{"user_id":199,"name":"Iroh's Ramshackle Catamaran","steam_id":76561198012951411,"connected_time":864000000000,"state":"active","ping":49},{"user_id":190,"name":"shmaroon","steam_id":76561198118211523,"connected_time":1752000000000,"state":"active","ping":59},{"user_id":201,"name":"nhbiker","steam_id":76561198081277675,"connected_time":787000000000,"state":"active","ping":59}]},{"server_id":38,"name":"Uncletopia | Chicago | 7 | No Payload","name_short":"chi-7","host":"chi-2.us.uncletopia.com","port":27035,"enabled":true,"region":"us-central","cc":"us","latitude":41.881832,"longitude":-87.62318,"reserved":0,"last_update":"0001-01-01T00:00:00Z","name_a2s":"Uncletopia | Chicago | 7 | No Payload","protocol":17,"map":"koth_harvest_final","folder":"tf","game":"Team Fortress","app_id":440,"player_count":0,"max_players":24,"Bots":0,"server_type":"Dedicated","server_os":"Linux","password":true,"vac":true,"version":"7695204","steam_id":85568392924866364,"keywords":["cp","nocrits","nodmgspread","uncletopia"],"game_id":440,"stv_port":27036,"stv_name":"Uncletopia | Chicago | 7 | No Payload | STV","players":null},{"server_id":39,"name":"Uncletopia | Chicago | 8 | Community","name_short":"chi-8","host":"chi-2.us.uncletopia.com","port":27045,"enabled":true,"region":"us-central","cc":"us","latitude":41.881832,"longitude":-87.62318,"reserved":0,"last_update":"0001-01-01T00:00:00Z","name_a2s":"Uncletopia | Chicago | 8 | Community","protocol":17,"map":"workshop/koth_product_final.ugc454272353","folder":"tf","game":"Team Fortress","app_id":440,"player_count":0,"max_players":24,"Bots":0,"server_type":"Dedicated","server_os":"Linux","password":true,"vac":true,"version":"7695204","steam_id":85568392924866365,"keywords":["cp","nocrits","nodmgspread","uncletopia"],"game_id":440,"stv_port":27046,"stv_name":"Uncletopia | Chicago | 8 | Community | STV","players":null},{"server_id":8,"name":"Uncletopia | Dallas | 1 | All Maps","name_short":"dal-1","host":"dal-1.us.uncletopia.com","port":27015,"enabled":true,"region":"us-central","cc":"us","latitude":32.779167,"longitude":-96.80889,"reserved":0,"last_update":"0001-01-01T00:00:00Z","name_a2s":"Uncletopia | Dallas | 1 | All Maps","protocol":17,"map":"cp_process_final","folder":"tf","game":"Team Fortress","app_id":440,"player_count":15,"max_players":24,"Bots":0,"server_type":"Dedicated","server_os":"Linux","password":true,"vac":true,"version":"7695204","steam_id":85568392924469986,"keywords":["cp","nocrits","nodmgspread","uncletopia"],"game_id":440,"stv_port":27016,"stv_name":"Uncletopia | Dallas | 1 | All Maps | STV","players":[{"user_id":480,"name":"Tuvok Shakur","steam_id":76561198018875334,"connected_time":147000000000,"state":"active","ping":78},{"user_id":481,"name":"blobb","steam_id":76561198950448488,"connected_time":139000000000,"state":"active","ping":75},{"user_id":468,"name":"Chrimith77","steam_id":76561198075130050,"connected_time":1918000000000,"state":"active","ping":69},{"user_id":442,"name":"Bonecrusher, Crusher of Bones","steam_id":76561198067773904,"connected_time":3827000000000,"state":"active","ping":55},{"user_id":462,"name":"NotSoMewwo","steam_id":76561198130067099,"connected_time":2432000000000,"state":"active","ping":56},{"user_id":482,"name":"I'm So Fucking Cool","steam_id":76561198098418071,"connected_time":121000000000,"state":"active","ping":78},{"user_id":483,"name":"ThePirateKenway","steam_id":76561198115156181,"connected_time":105000000000,"state":"active","ping":55},{"user_id":484,"name":"William Centurion","steam_id":76561198037507740,"connected_time":93000000000,"state":"active","ping":84},{"user_id":485,"name":"Phat_nibba29","steam_id":76561198165661855,"connected_time":57000000000,"state":"active","ping":60},{"user_id":432,"name":"Yachter","steam_id":76561198129749194,"connected_time":4967000000000,"state":"active","ping":92},{"user_id":464,"name":"Level 4 Sniper (KaiserArc)","steam_id":76561198201702142,"connected_time":2406000000000,"state":"active","ping":79},{"user_id":477,"name":"Brison","steam_id":76561197993377761,"connected_time":727000000000,"state":"active","ping":88},{"user_id":457,"name":"bomb","steam_id":76561198312179067,"connected_time":2911000000000,"state":"active","ping":78},{"user_id":465,"name":"Slightly Used Mango","steam_id":76561198293800794,"connected_time":2383000000000,"state":"active","ping":52},{"user_id":478,"name":"yitz","steam_id":76561198375575841,"connected_time":649000000000,"state":"active","ping":74}]},{"server_id":108,"name":"Uncletopia | Dallas | 2 | All Maps","name_short":"dal-2","host":"dal-1.us.uncletopia.com","port":27025,"enabled":true,"region":"us-central","cc":"us","latitude":32.779167,"longitude":-96.80889,"reserved":0,"last_update":"0001-01-01T00:00:00Z","name_a2s":"Uncletopia | Dallas | 2 | All Maps","protocol":17,"map":"koth_viaduct","folder":"tf","game":"Team Fortress","app_id":440,"player_count":24,"max_players":24,"Bots":0,"server_type":"Dedicated","server_os":"Linux","password":true,"vac":true,"version":"7695204","steam_id":85568392924469988,"keywords":["cp","nocrits","nodmgspread","uncletopia"],"game_id":440,"stv_port":27026,"stv_name":"Uncletopia | Dallas | 2 | All Maps | STV","players":[{"user_id":255,"name":"catboy (real)","steam_id":76561198298140571,"connected_time":271000000000,"state":"active","ping":77},{"user_id":224,"name":"BlueRikoroo","steam_id":76561198031865740,"connected_time":2421000000000,"state":"active","ping":63},{"user_id":213,"name":"BayanTheBear","steam_id":76561198134537476,"connected_time":2924000000000,"state":"active","ping":76},{"user_id":245,"name":"dan","steam_id":76561198061589465,"connected_time":975000000000,"state":"active","ping":86},{"user_id":223,"name":"The Figgler","steam_id":76561198168295944,"connected_time":2510000000000,"state":"active","ping":67},{"user_id":253,"name":"Drakon","steam_id":76561198078210822,"connected_time":346000000000,"state":"active","ping":75},{"user_id":145,"name":"Lolxdloldx","steam_id":76561198136887125,"connected_time":7189000000000,"state":"active","ping":74},{"user_id":236,"name":"Cheese","steam_id":76561199435683727,"connected_time":1624000000000,"state":"active","ping":138},{"user_id":252,"name":"Eightyy  Fourr","steam_id":76561197960374225,"connected_time":359000000000,"state":"active","ping":47},{"user_id":229,"name":"CSharp","steam_id":76561199185191710,"connected_time":1831000000000,"state":"active","ping":129},{"user_id":248,"name":"mexfrag.4 life","steam_id":76561198175961598,"connected_time":765000000000,"state":"active","ping":100},{"user_id":231,"name":"sollarious101","steam_id":76561199086649385,"connected_time":1733000000000,"state":"active","ping":44},{"user_id":217,"name":"cbluboom","steam_id":76561199207457676,"connected_time":2811000000000,"state":"active","ping":46},{"user_id":249,"name":"O bez","steam_id":76561198841579939,"connected_time":763000000000,"state":"active","ping":80},{"user_id":251,"name":"crommy","steam_id":76561198120461656,"connected_time":473000000000,"state":"active","ping":70},{"user_id":219,"name":"taishang","steam_id":76561198065328284,"connected_time":2782000000000,"state":"active","ping":76},{"user_id":220,"name":"Harold","steam_id":76561198057317770,"connected_time":2704000000000,"state":"active","ping":78},{"user_id":246,"name":"IPlayGamez","steam_id":76561198041387508,"connected_time":908000000000,"state":"active","ping":85},{"user_id":221,"name":"RelativeToZero","steam_id":76561198175875733,"connected_time":2700000000000,"state":"active","ping":116},{"user_id":238,"name":"corviraptor (\u003c-- awesome)","steam_id":76561198058284392,"connected_time":1362000000000,"state":"active","ping":55},{"user_id":254,"name":"[DATS➡] Sugar Meowth","steam_id":76561197995251793,"connected_time":312000000000,"state":"active","ping":94},{"user_id":237,"name":"Chaotic Rushu","steam_id":76561198170054407,"connected_time":1549000000000,"state":"active","ping":114},{"user_id":247,"name":"boo","steam_id":76561198046073848,"connected_time":808000000000,"state":"active","ping":100},{"user_id":235,"name":"Gammaplex","steam_id":76561198981228176,"connected_time":1669000000000,"state":"active","ping":79}]},{"server_id":5,"name":"Uncletopia | Frankfurt | 1 | All Maps","name_short":"frk-1","host":"frk-1.de.uncletopia.com","port":27015,"enabled":true,"region":"eu","cc":"de","latitude":50.110924,"longitude":8.682127,"reserved":0,"last_update":"0001-01-01T00:00:00Z","name_a2s":"Uncletopia | Frankfurt | 1 | All Maps","protocol":17,"map":"koth_highpass","folder":"tf","game":"Team Fortress","app_id":440,"player_count":24,"max_players":24,"Bots":0,"server_type":"Dedicated","server_os":"Linux","password":true,"vac":true,"version":"7695204","steam_id":85568392924469989,"keywords":["cp","nocrits","nodmgspread","uncletopia"],"game_id":440,"stv_port":27016,"stv_name":"Uncletopia | Frankfurt | 1 | All Maps | STV","players":[{"user_id":652,"name":"cheriberry","steam_id":76561198093577036,"connected_time":1757000000000,"state":"active","ping":54},{"user_id":626,"name":"breedable","steam_id":76561198010300032,"connected_time":3366000000000,"state":"active","ping":64},{"user_id":672,"name":"hsgg","steam_id":76561198057603612,"connected_time":571000000000,"state":"active","ping":55},{"user_id":662,"name":"Fasj.","steam_id":76561198049975379,"connected_time":1386000000000,"state":"active","ping":52},{"user_id":619,"name":"Michał","steam_id":76561198320346362,"connected_time":3794000000000,"state":"active","ping":60},{"user_id":679,"name":"wyromas","steam_id":76561199176835169,"connected_time":39000000000,"state":"active","ping":64},{"user_id":649,"name":"scout21","steam_id":76561198328259982,"connected_time":2134000000000,"state":"active","ping":95},{"user_id":681,"name":"7blak ♿","steam_id":76561198078928120,"connected_time":15000000000,"state":"spawning","ping":81},{"user_id":575,"name":"Carl","steam_id":76561198045638738,"connected_time":7900000000000,"state":"active","ping":66},{"user_id":463,"name":"sharkmax12312","steam_id":76561198996008569,"connected_time":15184000000000,"state":"active","ping":74},{"user_id":661,"name":"TITS!!!1!!1????","steam_id":76561198412197820,"connected_time":1392000000000,"state":"active","ping":75},{"user_id":664,"name":"SlavaMyas","steam_id":76561199385678912,"connected_time":1175000000000,"state":"active","ping":91},{"user_id":678,"name":"JP3","steam_id":76561197970963576,"connected_time":266000000000,"state":"active","ping":62},{"user_id":666,"name":"Семён Сагири","steam_id":76561198433531422,"connected_time":1168000000000,"state":"active","ping":90},{"user_id":657,"name":"gajo","steam_id":76561199172260370,"connected_time":1518000000000,"state":"active","ping":75},{"user_id":670,"name":"4d","steam_id":76561198041205260,"connected_time":993000000000,"state":"active","ping":51},{"user_id":675,"name":"irbizzelus","steam_id":76561198037361860,"connected_time":536000000000,"state":"active","ping":76},{"user_id":673,"name":"Lukas","steam_id":76561198009118452,"connected_time":566000000000,"state":"active","ping":52},{"user_id":676,"name":"Megapuncher","steam_id":76561198023536780,"connected_time":532000000000,"state":"active","ping":50},{"user_id":680,"name":"Serton♝","steam_id":76561198011061126,"connected_time":23000000000,"state":"spawning","ping":134},{"user_id":625,"name":"TF2 engineer","steam_id":76561198870834131,"connected_time":3456000000000,"state":"active","ping":101},{"user_id":624,"name":"Giga Chad Revi","steam_id":76561198288444777,"connected_time":3540000000000,"state":"active","ping":104},{"user_id":636,"name":"Empyrean","steam_id":76561198138552502,"connected_time":2617000000000,"state":"active","ping":70},{"user_id":669,"name":"name is NOBODY","steam_id":76561198436188791,"connected_time":1074000000000,"state":"active","ping":65}]},{"server_id":110,"name":"Uncletopia | Frankfurt | 2 | All Maps","name_short":"frk-2","host":"frk-1.de.uncletopia.com","port":27025,"enabled":true,"region":"eu","cc":"de","latitude":50.110924,"longitude":8.682127,"reserved":0,"last_update":"0001-01-01T00:00:00Z","name_a2s":"Uncletopia | Frankfurt | 2 | All Maps","protocol":17,"map":"pl_frontier_final","folder":"tf","game":"Team Fortress","app_id":440,"player_count":24,"max_players":24,"Bots":0,"server_type":"Dedicated","server_os":"Linux","password":true,"vac":true,"version":"7695204","steam_id":85568392924469990,"keywords":["nocrits","nodmgspread","payload","uncletopia"],"game_id":440,"stv_port":27026,"stv_name":"Uncletopia | Frankfurt | 2 | All Maps | STV","players":[{"user_id":213,"name":"Lennox","steam_id":76561198069063554,"connected_time":470000000000,"state":"active","ping":41},{"user_id":192,"name":"Phiphler","steam_id":76561197994055715,"connected_time":1634000000000,"state":"active","ping":56},{"user_id":191,"name":"Dunboi","steam_id":76561198120949216,"connected_time":1749000000000,"state":"active","ping":60},{"user_id":210,"name":"sup3rfr3ddy.","steam_id":76561198119371683,"connected_time":503000000000,"state":"active","ping":45},{"user_id":207,"name":"plormby","steam_id":76561198352185392,"connected_time":570000000000,"state":"active","ping":143},{"user_id":115,"name":"DarkFloy | Bomboclat Player","steam_id":76561198070650206,"connected_time":6843000000000,"state":"active","ping":77},{"user_id":208,"name":"Erica Artman","steam_id":76561198033555182,"connected_time":544000000000,"state":"active","ping":65},{"user_id":209,"name":"kriszes","steam_id":76561198340454285,"connected_time":521000000000,"state":"active","ping":78},{"user_id":211,"name":"r4ngerr","steam_id":76561198111721072,"connected_time":499000000000,"state":"active","ping":95},{"user_id":228,"name":"Dont Uber Me | #SAVETF2","steam_id":76561198038579548,"connected_time":45000000000,"state":"active","ping":54},{"user_id":214,"name":"Ахаё Они-чан","steam_id":76561198368508349,"connected_time":466000000000,"state":"active","ping":81},{"user_id":204,"name":"Gay Potato","steam_id":76561198018859519,"connected_time":820000000000,"state":"active","ping":73},{"user_id":194,"name":"LadyMissfit","steam_id":76561198042236349,"connected_time":1565000000000,"state":"active","ping":77},{"user_id":215,"name":"AforeKingDwarf","steam_id":76561198043562926,"connected_time":427000000000,"state":"active","ping":55},{"user_id":216,"name":"name","steam_id":76561198152620745,"connected_time":393000000000,"state":"active","ping":68},{"user_id":217,"name":"Big Sauce","steam_id":76561198046654750,"connected_time":373000000000,"state":"active","ping":131},{"user_id":218,"name":"Tea Drinking Conqueror","steam_id":76561198799243030,"connected_time":372000000000,"state":"active","ping":63},{"user_id":203,"name":"Труп Володя","steam_id":76561198035718457,"connected_time":905000000000,"state":"active","ping":94},{"user_id":125,"name":"4th","steam_id":76561198146081601,"connected_time":6153000000000,"state":"active","ping":43},{"user_id":219,"name":"Flopphalla","steam_id":76561198160705564,"connected_time":341000000000,"state":"active","ping":69},{"user_id":220,"name":"etf2l cryptid","steam_id":76561198010239925,"connected_time":318000000000,"state":"active","ping":61},{"user_id":227,"name":"MyAssOnFire","steam_id":76561199086565388,"connected_time":114000000000,"state":"active","ping":48},{"user_id":223,"name":"FackinNoobs","steam_id":76561198076129936,"connected_time":256000000000,"state":"active","ping":76},{"user_id":225,"name":"cafè","steam_id":76561198037938833,"connected_time":251000000000,"state":"active","ping":53}]},{"server_id":308,"name":"Uncletopia | Frankfurt | 3 | All Maps","name_short":"frk-3","host":"frk-1.de.uncletopia.com","port":27035,"enabled":true,"region":"eu","cc":"de","latitude":50.110924,"longitude":8.682127,"reserved":0,"last_update":"0001-01-01T00:00:00Z","name_a2s":"Uncletopia | Frankfurt | 3 | All Maps","protocol":17,"map":"pl_snowycoast","folder":"tf","game":"Team Fortress","app_id":440,"player_count":24,"max_players":24,"Bots":0,"server_type":"Dedicated","server_os":"Linux","password":true,"vac":true,"version":"7695204","steam_id":85568392924504274,"keywords":["nocrits","nodmgspread","payload","uncletopia"],"game_id":440,"stv_port":27036,"stv_name":"Uncletopia | Frankfurt | 3 | All Maps | STV","players":[{"user_id":538,"name":"xavier_xylophone_2001","steam_id":76561198076494034,"connected_time":2896000000000,"state":"active","ping":57},{"user_id":503,"name":"profeshional dynamo main","steam_id":76561198837919828,"connected_time":7050000000000,"state":"active","ping":98},{"user_id":535,"name":"Mi Manchi","steam_id":76561198171573129,"connected_time":3641000000000,"state":"active","ping":58},{"user_id":521,"name":"twitch/auratf2","steam_id":76561197988085026,"connected_time":4794000000000,"state":"active","ping":69},{"user_id":555,"name":"Prox","steam_id":76561198351490981,"connected_time":948000000000,"state":"active","ping":57},{"user_id":513,"name":"Cheese World","steam_id":76561198042575993,"connected_time":5681000000000,"state":"active","ping":81},{"user_id":549,"name":"Grim the lemon","steam_id":76561199083433988,"connected_time":1427000000000,"state":"active","ping":62},{"user_id":548,"name":"Vershal Smershal","steam_id":76561198116223995,"connected_time":1451000000000,"state":"active","ping":60},{"user_id":542,"name":"Kahvi","steam_id":76561198723244199,"connected_time":2668000000000,"state":"active","ping":89},{"user_id":536,"name":"Gamer_X","steam_id":76561198085349286,"connected_time":3353000000000,"state":"active","ping":75},{"user_id":509,"name":"Zephyr","steam_id":76561198050204205,"connected_time":6932000000000,"state":"active","ping":59},{"user_id":552,"name":"mmonkay","steam_id":76561198397360709,"connected_time":1161000000000,"state":"active","ping":56},{"user_id":486,"name":"hexerii","steam_id":76561198149967445,"connected_time":8205000000000,"state":"active","ping":45},{"user_id":541,"name":"Autistic Anon","steam_id":76561198439454376,"connected_time":2842000000000,"state":"active","ping":83},{"user_id":556,"name":"omnibombulator","steam_id":76561198025858897,"connected_time":782000000000,"state":"active","ping":64},{"user_id":517,"name":"Stitch","steam_id":76561198104613474,"connected_time":5411000000000,"state":"active","ping":61},{"user_id":544,"name":"Wyvern786","steam_id":76561199137770636,"connected_time":2660000000000,"state":"active","ping":63},{"user_id":546,"name":"Sebiromanes (Spookmáster)","steam_id":76561198112800408,"connected_time":2541000000000,"state":"active","ping":108},{"user_id":551,"name":"plazma","steam_id":76561198886594048,"connected_time":1260000000000,"state":"active","ping":86},{"user_id":553,"name":"united chunk","steam_id":76561199017850298,"connected_time":1089000000000,"state":"active","ping":66},{"user_id":557,"name":"Dewotter","steam_id":76561198007653168,"connected_time":114000000000,"state":"active","ping":71},{"user_id":505,"name":"Bajas","steam_id":76561198179339326,"connected_time":7032000000000,"state":"active","ping":75},{"user_id":514,"name":"Hasamnas","steam_id":76561199125038537,"connected_time":5680000000000,"state":"active","ping":63},{"user_id":539,"name":"Bepperman","steam_id":76561198397517828,"connected_time":2896000000000,"state":"active","ping":71}]},{"server_id":309,"name":"Uncletopia | Frankfurt | 4 | All Maps","name_short":"frk-4","host":"frk-1.de.uncletopia.com","port":27045,"enabled":true,"region":"eu","cc":"de","latitude":50.110924,"longitude":8.682127,"reserved":0,"last_update":"0001-01-01T00:00:00Z","name_a2s":"Uncletopia | Frankfurt | 4 | All Maps","protocol":17,"map":"koth_harvest_final","folder":"tf","game":"Team Fortress","app_id":440,"player_count":24,"max_players":24,"Bots":0,"server_type":"Dedicated","server_os":"Linux","password":true,"vac":true,"version":"7695204","steam_id":85568392924504275,"keywords":["cp","nocrits","nodmgspread","uncletopia"],"game_id":440,"stv_port":27046,"stv_name":"Uncletopia | Frankfurt | 4 | All Maps | STV","players":[{"user_id":454,"name":"Tomfool","steam_id":76561197993256481,"connected_time":956000000000,"state":"active","ping":71},{"user_id":418,"name":"Miguelliesen","steam_id":76561198830624218,"connected_time":4443000000000,"state":"active","ping":49},{"user_id":439,"name":"noob_with_source","steam_id":76561198870362103,"connected_time":2868000000000,"state":"active","ping":60},{"user_id":465,"name":"Arturias","steam_id":76561198188720263,"connected_time":99000000000,"state":"active","ping":46},{"user_id":432,"name":"kornetov.vitalya","steam_id":76561199286034833,"connected_time":3793000000000,"state":"active","ping":82},{"user_id":452,"name":"Caro","steam_id":76561198065506317,"connected_time":1014000000000,"state":"active","ping":60},{"user_id":406,"name":"JoghurtTheKiller","steam_id":76561198063647918,"connected_time":6167000000000,"state":"active","ping":48},{"user_id":453,"name":"bebul","steam_id":76561198140281896,"connected_time":988000000000,"state":"active","ping":68},{"user_id":463,"name":"SnowBlind #saveTF2","steam_id":76561199227651753,"connected_time":387000000000,"state":"active","ping":156},{"user_id":457,"name":"asdasfasf","steam_id":76561198099941106,"connected_time":878000000000,"state":"active","ping":89},{"user_id":461,"name":"woosh","steam_id":76561198061127604,"connected_time":541000000000,"state":"active","ping":47},{"user_id":462,"name":"Potentially","steam_id":76561198821984325,"connected_time":440000000000,"state":"active","ping":74},{"user_id":464,"name":"wtfnowy","steam_id":76561198325276848,"connected_time":115000000000,"state":"active","ping":91},{"user_id":428,"name":"The Fellow Feller","steam_id":76561198188864306,"connected_time":3909000000000,"state":"active","ping":61},{"user_id":422,"name":"yuh","steam_id":76561199005555839,"connected_time":4378000000000,"state":"active","ping":77},{"user_id":459,"name":"Gryoss","steam_id":76561197999837111,"connected_time":767000000000,"state":"active","ping":108},{"user_id":460,"name":"Milk","steam_id":76561198219146857,"connected_time":763000000000,"state":"active","ping":78},{"user_id":423,"name":"KillerQueen (he/they/she)","steam_id":76561199019399725,"connected_time":4335000000000,"state":"active","ping":62},{"user_id":446,"name":"bitkomet","steam_id":76561198058232147,"connected_time":1992000000000,"state":"active","ping":68},{"user_id":466,"name":"window gaming","steam_id":76561198867998992,"connected_time":73000000000,"state":"active","ping":64},{"user_id":450,"name":"Kaptain Panda","steam_id":76561198064159324,"connected_time":1207000000000,"state":"active","ping":168},{"user_id":441,"name":"lvl. 50 honkler","steam_id":76561198061688660,"connected_time":2838000000000,"state":"active","ping":102},{"user_id":447,"name":"Heavy Box","steam_id":76561198053624882,"connected_time":1985000000000,"state":"active","ping":94},{"user_id":254,"name":"Pico","steam_id":76561198063552545,"connected_time":15762000000000,"state":"active","ping":96}]},{"server_id":310,"name":"Uncletopia | Frankfurt | 5 | All Maps","name_short":"frk-5","host":"frk-1.de.uncletopia.com","port":27055,"enabled":true,"region":"eu","cc":"de","latitude":50.110924,"longitude":8.682127,"reserved":0,"last_update":"0001-01-01T00:00:00Z","name_a2s":"Uncletopia | Frankfurt | 5 | All Maps","protocol":17,"map":"pl_upward","folder":"tf","game":"Team Fortress","app_id":440,"player_count":24,"max_players":24,"Bots":0,"server_type":"Dedicated","server_os":"Linux","password":true,"vac":true,"version":"7695204","steam_id":85568392924504277,"keywords":["nocrits","nodmgspread","payload","uncletopia"],"game_id":440,"stv_port":27056,"stv_name":"Uncletopia | Frankfurt | 5 | All Maps | STV","players":[{"user_id":321,"name":"TILT 24/7","steam_id":76561198080513442,"connected_time":1376000000000,"state":"active","ping":88},{"user_id":302,"name":"Spraxinator","steam_id":76561199083563607,"connected_time":2338000000000,"state":"active","ping":189},{"user_id":330,"name":"AlexCr02zer","steam_id":76561199102364541,"connected_time":799000000000,"state":"active","ping":101},{"user_id":303,"name":"Counselling counsellor","steam_id":76561198287622432,"connected_time":2279000000000,"state":"active","ping":42},{"user_id":300,"name":"MFA [pt]","steam_id":76561198021950957,"connected_time":2389000000000,"state":"active","ping":70},{"user_id":310,"name":"[P-roc] Cmm Bert","steam_id":76561198016658674,"connected_time":1864000000000,"state":"active","ping":63},{"user_id":305,"name":"artonzhun","steam_id":76561198259104010,"connected_time":2128000000000,"state":"active","ping":80},{"user_id":306,"name":"wunderrabbi","steam_id":76561198101210970,"connected_time":2117000000000,"state":"active","ping":80},{"user_id":331,"name":"Van","steam_id":76561198981768324,"connected_time":786000000000,"state":"active","ping":160},{"user_id":332,"name":"bruh","steam_id":76561198109262927,"connected_time":761000000000,"state":"active","ping":75},{"user_id":309,"name":"Source of Sanctuary","steam_id":76561198341075367,"connected_time":1927000000000,"state":"active","ping":57},{"user_id":311,"name":"Improvizer","steam_id":76561198049191632,"connected_time":1775000000000,"state":"active","ping":64},{"user_id":312,"name":"jack","steam_id":76561198032244932,"connected_time":1766000000000,"state":"active","ping":60},{"user_id":313,"name":"Lexar","steam_id":76561198086962351,"connected_time":1750000000000,"state":"active","ping":60},{"user_id":314,"name":"[P-roc] Lovely","steam_id":76561198074361075,"connected_time":1676000000000,"state":"active","ping":68},{"user_id":333,"name":"yfkrz","steam_id":76561198212966981,"connected_time":713000000000,"state":"active","ping":61},{"user_id":334,"name":"Crimson_Jellyfish","steam_id":76561198147407556,"connected_time":704000000000,"state":"active","ping":85},{"user_id":319,"name":"Löysä Masa","steam_id":76561198343396172,"connected_time":1428000000000,"state":"active","ping":92},{"user_id":335,"name":"Albert Einstein","steam_id":76561198351190006,"connected_time":701000000000,"state":"active","ping":88},{"user_id":322,"name":"᠌","steam_id":76561198954701162,"connected_time":1372000000000,"state":"active","ping":64},{"user_id":336,"name":"R!not","steam_id":76561197986328786,"connected_time":649000000000,"state":"active","ping":59},{"user_id":327,"name":"Cosmetic brain","steam_id":76561198055936410,"connected_time":1082000000000,"state":"active","ping":84},{"user_id":339,"name":"funny spy","steam_id":76561198267612598,"connected_time":87000000000,"state":"active","ping":84},{"user_id":328,"name":"New","steam_id":76561198402195911,"connected_time":1079000000000,"state":"active","ping":128}]},{"server_id":311,"name":"Uncletopia | Frankfurt | 6 | All Maps","name_short":"frk-6","host":"frk-1.de.uncletopia.com","port":27065,"enabled":true,"region":"eu","cc":"de","latitude":50.110924,"longitude":8.682127,"reserved":0,"last_update":"0001-01-01T00:00:00Z","name_a2s":"Uncletopia | Frankfurt | 6 | All Maps","protocol":17,"map":"pl_upward","folder":"tf","game":"Team Fortress","app_id":440,"player_count":24,"max_players":24,"Bots":0,"server_type":"Dedicated","server_os":"Linux","password":true,"vac":true,"version":"7695204","steam_id":85568392924504278,"keywords":["nocrits","nodmgspread","payload","uncletopia"],"game_id":440,"stv_port":27066,"stv_name":"Uncletopia | Frankfurt | 6 | All Maps | STV","players":[{"user_id":260,"name":"boat","steam_id":76561198044915818,"connected_time":7474000000000,"state":"active","ping":78},{"user_id":314,"name":"Toasty5050","steam_id":76561198073540881,"connected_time":4329000000000,"state":"active","ping":45},{"user_id":355,"name":"Dakkafex","steam_id":76561198020254869,"connected_time":629000000000,"state":"active","ping":47},{"user_id":340,"name":"The Punch","steam_id":76561198212488780,"connected_time":1265000000000,"state":"active","ping":60},{"user_id":341,"name":"Proto-arc","steam_id":76561198012776747,"connected_time":1262000000000,"state":"active","ping":60},{"user_id":334,"name":"RazOverdrive","steam_id":76561198000794210,"connected_time":2375000000000,"state":"active","ping":53},{"user_id":313,"name":"giclure :;","steam_id":76561197986362828,"connected_time":4418000000000,"state":"active","ping":40},{"user_id":325,"name":"Kodutah","steam_id":76561198203405574,"connected_time":3313000000000,"state":"active","ping":61},{"user_id":329,"name":"MrKampfCookie","steam_id":76561198085490175,"connected_time":2846000000000,"state":"active","ping":49},{"user_id":336,"name":"cori","steam_id":76561198170980343,"connected_time":2178000000000,"state":"active","ping":44},{"user_id":343,"name":"Fat Pigeon","steam_id":76561198817940142,"connected_time":1200000000000,"state":"active","ping":52},{"user_id":344,"name":"skai-TA-","steam_id":76561198184881255,"connected_time":1125000000000,"state":"active","ping":73},{"user_id":345,"name":"TheCoder55","steam_id":76561198328964242,"connected_time":1102000000000,"state":"active","ping":61},{"user_id":346,"name":"Ged","steam_id":76561198079288943,"connected_time":1085000000000,"state":"active","ping":107},{"user_id":347,"name":"JohnTraveltime","steam_id":76561199244281754,"connected_time":1077000000000,"state":"active","ping":68},{"user_id":356,"name":"moki","steam_id":76561198314358032,"connected_time":614000000000,"state":"active","ping":88},{"user_id":349,"name":"mohemmedmokhter2005","steam_id":76561199197650506,"connected_time":1019000000000,"state":"active","ping":107},{"user_id":350,"name":"Hoff","steam_id":76561198138540938,"connected_time":1001000000000,"state":"active","ping":68},{"user_id":319,"name":"Rimx","steam_id":76561198053034840,"connected_time":3628000000000,"state":"active","ping":93},{"user_id":318,"name":"Alegz","steam_id":76561198287810139,"connected_time":3781000000000,"state":"active","ping":48},{"user_id":337,"name":"Gafy Guck","steam_id":76561198847352011,"connected_time":2177000000000,"state":"active","ping":48},{"user_id":360,"name":"General Petrov","steam_id":76561198027204104,"connected_time":84000000000,"state":"active","ping":71},{"user_id":324,"name":"Listerine Larry","steam_id":76561198093229786,"connected_time":3347000000000,"state":"active","ping":69},{"user_id":359,"name":"Bobo","steam_id":76561198052308399,"connected_time":177000000000,"state":"active","ping":52}]},{"server_id":23,"name":"Uncletopia | Frankfurt | 7 | No Payload","name_short":"frk-7","host":"frk-1.de.uncletopia.com","port":27075,"enabled":true,"region":"eu","cc":"de","latitude":50.110924,"longitude":8.682127,"reserved":0,"last_update":"0001-01-01T00:00:00Z","name_a2s":"Uncletopia | Frankfurt | 7 | No Payload","protocol":17,"map":"koth_badlands","folder":"tf","game":"Team Fortress","app_id":440,"player_count":0,"max_players":24,"Bots":0,"server_type":"Dedicated","server_os":"Linux","password":true,"vac":true,"version":"7695204","steam_id":85568392924742827,"keywords":["cp","nocrits","nodmgspread","uncletopia"],"game_id":440,"stv_port":27076,"stv_name":"Uncletopia | Frankfurt | 7 | No Payload | STV","players":null},{"server_id":24,"name":"Uncletopia | Frankfurt | 8 | Community","name_short":"frk-8","host":"frk-1.de.uncletopia.com","port":27085,"enabled":true,"region":"eu","cc":"de","latitude":50.110924,"longitude":8.682127,"reserved":0,"last_update":"0001-01-01T00:00:00Z","name_a2s":"Uncletopia | Frankfurt | 8 | Community","protocol":17,"map":"koth_lakeside_final","folder":"tf","game":"Team Fortress","app_id":440,"player_count":0,"max_players":24,"Bots":0,"server_type":"Dedicated","server_os":"Linux","password":true,"vac":true,"version":"7695204","steam_id":85568392924742828,"keywords":["cp","nocrits","nodmgspread","uncletopia"],"game_id":440,"stv_port":0,"stv_name":"","players":null},{"server_id":202,"name":"Uncletopia | Hong Kong | 1 | All Maps","name_short":"hgk-1","host":"hgk-1.hk.uncletopia.com","port":27015,"enabled":true,"region":"asia","cc":"hk","latitude":22.302711,"longitude":114.177216,"reserved":0,"last_update":"0001-01-01T00:00:00Z","name_a2s":"Uncletopia | Hong Kong | 1 | All Maps","protocol":17,"map":"pl_badwater","folder":"tf","game":"Team Fortress","app_id":440,"player_count":0,"max_players":24,"Bots":0,"server_type":"Dedicated","server_os":"Linux","password":true,"vac":true,"version":"7695204","steam_id":85568392924494504,"keywords":["nocrits","nodmgspread","payload","uncletopia"],"game_id":440,"stv_port":27016,"stv_name":"Uncletopia | Hong Kong | 1 | All Maps | STV","players":null},{"server_id":1,"name":"Uncletopia | Los Angeles | 1 | All Maps","name_short":"lax-1","host":"lax-1.us.uncletopia.com","port":27015,"enabled":true,"region":"us-west","cc":"us","latitude":33.94279,"longitude":-118.41004,"reserved":0,"last_update":"0001-01-01T00:00:00Z","name_a2s":"Uncletopia | Los Angeles | 1 | All Maps","protocol":17,"map":"pl_pier","folder":"tf","game":"Team Fortress","app_id":440,"player_count":24,"max_players":24,"Bots":0,"server_type":"Dedicated","server_os":"Linux","password":true,"vac":true,"version":"7695204","steam_id":85568392924469991,"keywords":["nocrits","nodmgspread","payload","uncletopia"],"game_id":440,"stv_port":27016,"stv_name":"Uncletopia | Los Angeles | 1 | All Maps | STV","players":[{"user_id":78,"name":"ASSCII | kymeira","steam_id":76561198340743816,"connected_time":1730000000000,"state":"active","ping":52},{"user_id":29,"name":"That Dude","steam_id":76561198980486227,"connected_time":4241000000000,"state":"active","ping":101},{"user_id":22,"name":"Mao Zedong","steam_id":76561199156131540,"connected_time":4881000000000,"state":"active","ping":94},{"user_id":92,"name":"plutonium isotope","steam_id":76561198319442494,"connected_time":1053000000000,"state":"active","ping":45},{"user_id":100,"name":"Pumper","steam_id":76561198800459538,"connected_time":155000000000,"state":"active","ping":76},{"user_id":67,"name":"Star","steam_id":76561198422395239,"connected_time":2404000000000,"state":"active","ping":46},{"user_id":98,"name":"The Squid Gamer™","steam_id":76561198340621517,"connected_time":710000000000,"state":"active","ping":74},{"user_id":106,"name":"Werewolfo","steam_id":76561198143597449,"connected_time":7000000000,"state":"spawning","ping":55},{"user_id":77,"name":"Hernandez$","steam_id":76561198019324588,"connected_time":1856000000000,"state":"active","ping":48},{"user_id":99,"name":"luigiclub112233","steam_id":76561198180548194,"connected_time":478000000000,"state":"active","ping":81},{"user_id":101,"name":"KabOOm","steam_id":76561198844235450,"connected_time":153000000000,"state":"active","ping":60},{"user_id":102,"name":"Ketchup","steam_id":76561199117756257,"connected_time":152000000000,"state":"active","ping":45},{"user_id":95,"name":"CB1 Cousin Junebug","steam_id":76561198090573639,"connected_time":817000000000,"state":"active","ping":47},{"user_id":69,"name":"johnman gooberguy","steam_id":76561199014859764,"connected_time":2344000000000,"state":"active","ping":62},{"user_id":103,"name":"Magitrex","steam_id":76561199088811754,"connected_time":145000000000,"state":"active","ping":85},{"user_id":51,"name":"LtAlexandro","steam_id":76561198997494266,"connected_time":3310000000000,"state":"active","ping":39},{"user_id":104,"name":"nfseskimo","steam_id":76561198078745666,"connected_time":112000000000,"state":"active","ping":72},{"user_id":86,"name":"irooperboi","steam_id":76561197982545765,"connected_time":1344000000000,"state":"active","ping":58},{"user_id":82,"name":"Grim","steam_id":76561198016978310,"connected_time":1554000000000,"state":"active","ping":60},{"user_id":97,"name":"Medical Asshat","steam_id":76561198004584315,"connected_time":771000000000,"state":"active","ping":103},{"user_id":52,"name":"Squashead","steam_id":76561198813564287,"connected_time":3266000000000,"state":"active","ping":55},{"user_id":88,"name":"/Thebigs108","steam_id":76561198047480720,"connected_time":1300000000000,"state":"active","ping":52},{"user_id":105,"name":"Drunken Jaeger","steam_id":76561198872856615,"connected_time":83000000000,"state":"active","ping":85},{"user_id":94,"name":"trackpad gaming | f2p","steam_id":76561198840414371,"connected_time":934000000000,"state":"active","ping":219}]},{"server_id":112,"name":"Uncletopia | Los Angeles | 2 | All Maps","name_short":"lax-2","host":"lax-1.us.uncletopia.com","port":27025,"enabled":true,"region":"us-west","cc":"us","latitude":33.94279,"longitude":-118.41004,"reserved":0,"last_update":"0001-01-01T00:00:00Z","name_a2s":"Uncletopia | Los Angeles | 2 | All Maps","protocol":17,"map":"koth_highpass","folder":"tf","game":"Team Fortress","app_id":440,"player_count":0,"max_players":24,"Bots":0,"server_type":"Dedicated","server_os":"Linux","password":true,"vac":true,"version":"7695204","steam_id":85568392924469992,"keywords":["cp","nocrits","nodmgspread","uncletopia"],"game_id":440,"stv_port":27026,"stv_name":"Uncletopia | Los Angeles | 2 | All Maps | STV","players":null},{"server_id":324,"name":"Uncletopia | Los Angeles | 3 | All Maps","name_short":"lax-3","host":"lax-1.us.uncletopia.com","port":27035,"enabled":true,"region":"us-west","cc":"us","latitude":33.94279,"longitude":-118.41004,"reserved":0,"last_update":"0001-01-01T00:00:00Z","name_a2s":"Uncletopia | Los Angeles | 3 | All Maps","protocol":17,"map":"cp_altitude","folder":"tf","game":"Team Fortress","app_id":440,"player_count":0,"max_players":24,"Bots":0,"server_type":"Dedicated","server_os":"Linux","password":true,"vac":true,"version":"7695204","steam_id":85568392924510198,"keywords":["cp","nocrits","nodmgspread","uncletopia"],"game_id":440,"stv_port":27036,"stv_name":"Uncletopia | Los Angeles | 3 | All Maps | STV","players":null},{"server_id":25,"name":"Uncletopia | Los Angeles | 4 | No Payload","name_short":"lax-4","host":"lax-1.us.uncletopia.com","port":27045,"enabled":true,"region":"us-west","cc":"us","latitude":33.94279,"longitude":-118.41004,"reserved":0,"last_update":"0001-01-01T00:00:00Z","name_a2s":"Uncletopia | Los Angeles | 4 | No Payload","protocol":17,"map":"pl_barnblitz","folder":"tf","game":"Team Fortress","app_id":440,"player_count":0,"max_players":24,"Bots":0,"server_type":"Dedicated","server_os":"Linux","password":true,"vac":true,"version":"7695204","steam_id":85568392924510199,"keywords":["nocrits","nodmgspread","payload","uncletopia"],"game_id":440,"stv_port":0,"stv_name":"","players":null},{"server_id":11,"name":"Uncletopia | London | 1 | All Maps","name_short":"lon-1","host":"lon-1.uk.uncletopia.com","port":27015,"enabled":true,"region":"eu","cc":"gb","latitude":51.509865,"longitude":-0.118092,"reserved":0,"last_update":"0001-01-01T00:00:00Z","name_a2s":"Uncletopia | London | 1 | All Maps","protocol":17,"map":"pl_borneo","folder":"tf","game":"Team Fortress","app_id":440,"player_count":24,"max_players":24,"Bots":0,"server_type":"Dedicated","server_os":"Linux","password":true,"vac":true,"version":"7695204","steam_id":85568392924367362,"keywords":["nocrits","nodmgspread","payload","uncletopia"],"game_id":440,"stv_port":27016,"stv_name":"Uncletopia | London | 1 | All Maps | STV","players":[{"user_id":223,"name":"disguised juju","steam_id":76561198049343793,"connected_time":777000000000,"state":"active","ping":61},{"user_id":218,"name":"meriones","steam_id":76561198034234373,"connected_time":1406000000000,"state":"active","ping":37},{"user_id":64,"name":"merry beebo","steam_id":76561199120277007,"connected_time":14152000000000,"state":"active","ping":41},{"user_id":171,"name":"Ustinius","steam_id":76561199021142826,"connected_time":6514000000000,"state":"active","ping":92},{"user_id":212,"name":"Senator Armstrong","steam_id":76561198984346408,"connected_time":2277000000000,"state":"active","ping":75},{"user_id":201,"name":"Love","steam_id":76561198267463398,"connected_time":3326000000000,"state":"active","ping":60},{"user_id":214,"name":"Soph","steam_id":76561198131688853,"connected_time":1997000000000,"state":"active","ping":53},{"user_id":120,"name":"(1)merry beebo","steam_id":76561198923772036,"connected_time":10173000000000,"state":"active","ping":46},{"user_id":169,"name":"average fungus","steam_id":76561198199993741,"connected_time":6689000000000,"state":"active","ping":64},{"user_id":222,"name":"AWP Bodyshot :) ❤","steam_id":76561198029928533,"connected_time":904000000000,"state":"active","ping":58},{"user_id":225,"name":"牛崎潤美℮","steam_id":76561198089132060,"connected_time":374000000000,"state":"active","ping":70},{"user_id":207,"name":"When Life gives you Lemons","steam_id":76561198318290663,"connected_time":2609000000000,"state":"active","ping":56},{"user_id":175,"name":"whimsy. (real)","steam_id":76561198039196844,"connected_time":5953000000000,"state":"active","ping":69},{"user_id":224,"name":"Fishum","steam_id":76561198148556559,"connected_time":555000000000,"state":"active","ping":47},{"user_id":220,"name":"Sad Slut","steam_id":76561198838277022,"connected_time":1353000000000,"state":"active","ping":76},{"user_id":213,"name":"frog","steam_id":76561198156952313,"connected_time":2100000000000,"state":"active","ping":66},{"user_id":185,"name":"Maya","steam_id":76561198128616615,"connected_time":4677000000000,"state":"active","ping":72},{"user_id":194,"name":"amy","steam_id":76561198110757262,"connected_time":4157000000000,"state":"active","ping":59},{"user_id":215,"name":"Mango","steam_id":76561198139555709,"connected_time":1932000000000,"state":"active","ping":54},{"user_id":203,"name":"festive jones","steam_id":76561198073975078,"connected_time":3046000000000,"state":"active","ping":47},{"user_id":209,"name":"Psycho","steam_id":76561198084918608,"connected_time":2537000000000,"state":"active","ping":42},{"user_id":216,"name":"Blink","steam_id":76561198144033005,"connected_time":1772000000000,"state":"active","ping":53},{"user_id":204,"name":"Draconic","steam_id":76561198193863225,"connected_time":2869000000000,"state":"active","ping":53},{"user_id":181,"name":"Roboolet","steam_id":76561198107353953,"connected_time":5656000000000,"state":"active","ping":48}]},{"server_id":114,"name":"Uncletopia | London | 2 | All Maps","name_short":"lon-2","host":"lon-1.uk.uncletopia.com","port":27025,"enabled":true,"region":"eu","cc":"gb","latitude":51.509865,"longitude":-0.118092,"reserved":0,"last_update":"0001-01-01T00:00:00Z","name_a2s":"Uncletopia | London | 2 | All Maps","protocol":17,"map":"koth_highpass","folder":"tf","game":"Team Fortress","app_id":440,"player_count":24,"max_players":24,"Bots":0,"server_type":"Dedicated","server_os":"Linux","password":true,"vac":true,"version":"7695204","steam_id":85568392924470941,"keywords":["cp","nocrits","nodmgspread","uncletopia"],"game_id":440,"stv_port":27026,"stv_name":"Uncletopia | London | 2 | All Maps | STV","players":[{"user_id":369,"name":"Andy","steam_id":76561198046918834,"connected_time":576000000000,"state":"active","ping":84},{"user_id":352,"name":"Mankor","steam_id":76561198020439322,"connected_time":1786000000000,"state":"active","ping":60},{"user_id":372,"name":"Ross","steam_id":76561198965967986,"connected_time":135000000000,"state":"active","ping":62},{"user_id":325,"name":"boldno","steam_id":76561198127094314,"connected_time":4636000000000,"state":"active","ping":63},{"user_id":355,"name":"Rudebwoyyy","steam_id":76561199387956486,"connected_time":1679000000000,"state":"active","ping":60},{"user_id":342,"name":"Mr.Schnittlauch","steam_id":76561198295868113,"connected_time":2808000000000,"state":"active","ping":66},{"user_id":345,"name":"Sarip","steam_id":76561198113330438,"connected_time":2355000000000,"state":"active","ping":56},{"user_id":329,"name":"Soviet Onion","steam_id":76561198299693038,"connected_time":4114000000000,"state":"active","ping":61},{"user_id":371,"name":"daniel","steam_id":76561199022705805,"connected_time":162000000000,"state":"active","ping":42},{"user_id":353,"name":"Bones","steam_id":76561198065081225,"connected_time":1773000000000,"state":"active","ping":44},{"user_id":349,"name":"The MonSus Battle Bus","steam_id":76561199107189489,"connected_time":2195000000000,"state":"active","ping":48},{"user_id":358,"name":"jeankevindu63","steam_id":76561199036325997,"connected_time":1587000000000,"state":"active","ping":61},{"user_id":370,"name":"Ｒ Ｏ Ｂ Ｂ Ｅ Ｒ Ｔ","steam_id":76561198134404830,"connected_time":450000000000,"state":"active","ping":128},{"user_id":364,"name":"Signor Fastidio","steam_id":76561198336458831,"connected_time":1435000000000,"state":"active","ping":58},{"user_id":336,"name":"Sanction9216","steam_id":76561198068045887,"connected_time":3084000000000,"state":"active","ping":62},{"user_id":219,"name":"Empress of Blades","steam_id":76561198044798583,"connected_time":9808000000000,"state":"active","ping":75},{"user_id":361,"name":"adderall.","steam_id":76561198164692012,"connected_time":1500000000000,"state":"active","ping":82},{"user_id":362,"name":"mircoondas","steam_id":76561198410632377,"connected_time":1484000000000,"state":"active","ping":69},{"user_id":365,"name":"Benpl","steam_id":76561198084890757,"connected_time":1388000000000,"state":"active","ping":46},{"user_id":347,"name":"Mr.Dies a lot","steam_id":76561199435644219,"connected_time":2303000000000,"state":"active","ping":91},{"user_id":340,"name":"cryyptt_ ★","steam_id":76561198059566837,"connected_time":2992000000000,"state":"active","ping":49},{"user_id":350,"name":"deeply flawed human","steam_id":76561198072233046,"connected_time":2195000000000,"state":"active","ping":77},{"user_id":225,"name":"ТЯЖЕЛЫЕ ИГРЫ","steam_id":76561198413545609,"connected_time":9040000000000,"state":"active","ping":50},{"user_id":366,"name":"Jose Maria Sison","steam_id":76561198531978435,"connected_time":1361000000000,"state":"active","ping":53}]},{"server_id":320,"name":"Uncletopia | London | 3 | All Maps","name_short":"lon-3","host":"lon-1.uk.uncletopia.com","port":27035,"enabled":true,"region":"eu","cc":"gb","latitude":51.509865,"longitude":-0.118092,"reserved":0,"last_update":"0001-01-01T00:00:00Z","name_a2s":"Uncletopia | London | 3 | All Maps","protocol":17,"map":"pl_snowycoast","folder":"tf","game":"Team Fortress","app_id":440,"player_count":24,"max_players":24,"Bots":0,"server_type":"Dedicated","server_os":"Linux","password":true,"vac":true,"version":"7695204","steam_id":85568392924510192,"keywords":["nocrits","nodmgspread","payload","uncletopia"],"game_id":440,"stv_port":27036,"stv_name":"Uncletopia | London | 3 | All Maps | STV","players":[{"user_id":416,"name":"i am bread","steam_id":76561199180277321,"connected_time":291000000000,"state":"active","ping":40},{"user_id":407,"name":"Uncle Motong","steam_id":76561198029093635,"connected_time":985000000000,"state":"active","ping":65},{"user_id":414,"name":"fortnitepro2013","steam_id":76561198051358894,"connected_time":434000000000,"state":"active","ping":58},{"user_id":417,"name":"Qatuk","steam_id":76561198857696199,"connected_time":284000000000,"state":"active","ping":75},{"user_id":400,"name":"W","steam_id":76561198273623211,"connected_time":1279000000000,"state":"active","ping":89},{"user_id":415,"name":"Pielord","steam_id":76561198115707581,"connected_time":409000000000,"state":"active","ping":48},{"user_id":395,"name":"don cheadle","steam_id":76561198032841675,"connected_time":1679000000000,"state":"active","ping":60},{"user_id":418,"name":"X45Y","steam_id":76561198112534025,"connected_time":266000000000,"state":"active","ping":58},{"user_id":420,"name":"JoueurFrançais","steam_id":76561198108081068,"connected_time":241000000000,"state":"active","ping":53},{"user_id":404,"name":"Zateske","steam_id":76561198047446276,"connected_time":1047000000000,"state":"active","ping":73},{"user_id":359,"name":"doodgie","steam_id":76561198264934115,"connected_time":5122000000000,"state":"active","ping":48},{"user_id":397,"name":"Derf Stein","steam_id":76561198084088151,"connected_time":1611000000000,"state":"active","ping":78},{"user_id":335,"name":"tob:ias","steam_id":76561198832146626,"connected_time":6506000000000,"state":"active","ping":45},{"user_id":394,"name":"Weeb","steam_id":76561198297928869,"connected_time":1709000000000,"state":"active","ping":53},{"user_id":405,"name":"Jiggie","steam_id":76561198018134884,"connected_time":1018000000000,"state":"active","ping":81},{"user_id":249,"name":"Viperense","steam_id":76561198036206811,"connected_time":13243000000000,"state":"active","ping":95},{"user_id":406,"name":"Shun Rosen","steam_id":76561198012823909,"connected_time":1011000000000,"state":"active","ping":133},{"user_id":401,"name":"slifty","steam_id":76561198166682199,"connected_time":1279000000000,"state":"active","ping":62},{"user_id":392,"name":"Small Goodman","steam_id":76561198881753718,"connected_time":1955000000000,"state":"active","ping":70},{"user_id":409,"name":"HOI","steam_id":76561198061182117,"connected_time":903000000000,"state":"active","ping":48},{"user_id":248,"name":"Boobs rater","steam_id":76561198066977580,"connected_time":13250000000000,"state":"active","ping":95},{"user_id":411,"name":"jacob?","steam_id":76561199025525354,"connected_time":527000000000,"state":"active","ping":46},{"user_id":412,"name":"goofy goober","steam_id":76561198013237629,"connected_time":520000000000,"state":"active","ping":96},{"user_id":413,"name":"cowdwogh","steam_id":76561197960509452,"connected_time":519000000000,"state":"active","ping":46}]},{"server_id":321,"name":"Uncletopia | London | 4 | All Maps","name_short":"lon-4","host":"lon-1.uk.uncletopia.com","port":27045,"enabled":true,"region":"eu","cc":"gb","latitude":51.509865,"longitude":-0.118092,"reserved":0,"last_update":"0001-01-01T00:00:00Z","name_a2s":"Uncletopia | London | 4 | All Maps","protocol":17,"map":"cp_gravelpit","folder":"tf","game":"Team Fortress","app_id":440,"player_count":24,"max_players":24,"Bots":0,"server_type":"Dedicated","server_os":"Linux","password":true,"vac":true,"version":"7695204","steam_id":85568392924510193,"keywords":["cp","nocrits","nodmgspread","uncletopia"],"game_id":440,"stv_port":27046,"stv_name":"Uncletopia | London | 4 | All Maps | STV","players":[{"user_id":507,"name":"Desuangle","steam_id":76561198110800599,"connected_time":4204000000000,"state":"active","ping":70},{"user_id":542,"name":"Rendroken","steam_id":76561198061215540,"connected_time":2532000000000,"state":"active","ping":43},{"user_id":511,"name":"Owlet","steam_id":76561198065613974,"connected_time":3929000000000,"state":"active","ping":74},{"user_id":551,"name":"Hansiboo","steam_id":76561198332823809,"connected_time":1856000000000,"state":"active","ping":57},{"user_id":540,"name":"Connor McFilip","steam_id":76561198107965067,"connected_time":2751000000000,"state":"active","ping":66},{"user_id":563,"name":"🜏 Drepp","steam_id":76561197998867164,"connected_time":220000000000,"state":"active","ping":66},{"user_id":552,"name":"chrissy","steam_id":76561198096547662,"connected_time":1144000000000,"state":"active","ping":57},{"user_id":556,"name":"LeonIsMooi","steam_id":76561198041524085,"connected_time":684000000000,"state":"active","ping":60},{"user_id":536,"name":"Ross from F.R.I.E.N.D.S.","steam_id":76561198008511665,"connected_time":2825000000000,"state":"active","ping":53},{"user_id":560,"name":"aychar","steam_id":76561198033695429,"connected_time":652000000000,"state":"active","ping":45},{"user_id":426,"name":"compusMentus","steam_id":76561199134152606,"connected_time":9966000000000,"state":"active","ping":71},{"user_id":559,"name":"Caskye","steam_id":76561198165430888,"connected_time":662000000000,"state":"active","ping":82},{"user_id":529,"name":"UltimateSlayer","steam_id":76561198384109309,"connected_time":3135000000000,"state":"active","ping":61},{"user_id":554,"name":"=flashpoint=","steam_id":76561197976774456,"connected_time":746000000000,"state":"active","ping":47},{"user_id":514,"name":"Dahel","steam_id":76561198043147680,"connected_time":3553000000000,"state":"active","ping":41},{"user_id":489,"name":"Sim","steam_id":76561198086641180,"connected_time":5716000000000,"state":"active","ping":90},{"user_id":547,"name":"Simping for Pizza-san","steam_id":76561198067204908,"connected_time":2165000000000,"state":"active","ping":59},{"user_id":565,"name":"Aaron","steam_id":76561197990046953,"connected_time":66000000000,"state":"active","ping":58},{"user_id":566,"name":"Puppet-man","steam_id":76561198068472635,"connected_time":54000000000,"state":"active","ping":56},{"user_id":509,"name":"chocolate flavoured femboy","steam_id":76561198819353867,"connected_time":4009000000000,"state":"active","ping":34},{"user_id":519,"name":"Spotty Len","steam_id":76561198031277737,"connected_time":3400000000000,"state":"active","ping":47},{"user_id":564,"name":"Rasmusson [29th ID]","steam_id":76561198191451713,"connected_time":158000000000,"state":"active","ping":94},{"user_id":537,"name":"pizzaboob","steam_id":76561198097507847,"connected_time":2825000000000,"state":"active","ping":88},{"user_id":538,"name":"a bee","steam_id":76561198051828515,"connected_time":2812000000000,"state":"active","ping":43}]},{"server_id":21,"name":"Uncletopia | London | 5 | All Maps","name_short":"lon-5","host":"lon-1.uk.uncletopia.com","port":27055,"enabled":true,"region":"eu","cc":"gb","latitude":51.509865,"longitude":-0.118092,"reserved":0,"last_update":"0001-01-01T00:00:00Z","name_a2s":"Uncletopia | London | 5 | All Maps","protocol":17,"map":"pl_upward","folder":"tf","game":"Team Fortress","app_id":440,"player_count":24,"max_players":24,"Bots":0,"server_type":"Dedicated","server_os":"Linux","password":true,"vac":true,"version":"7695204","steam_id":85568392924742829,"keywords":["nocrits","nodmgspread","payload","uncletopia"],"game_id":440,"stv_port":27056,"stv_name":"Uncletopia | London | 5 | All Maps | STV","players":[{"user_id":118,"name":"Hadmund Gaming","steam_id":76561198119454822,"connected_time":697000000000,"state":"active","ping":73},{"user_id":103,"name":"M4R1O","steam_id":76561198050528464,"connected_time":2116000000000,"state":"active","ping":67},{"user_id":117,"name":"THE DEVIL","steam_id":76561197981149859,"connected_time":708000000000,"state":"active","ping":90},{"user_id":89,"name":"stone free","steam_id":76561198023211417,"connected_time":2561000000000,"state":"active","ping":54},{"user_id":116,"name":"myon","steam_id":76561198147277460,"connected_time":1098000000000,"state":"active","ping":60},{"user_id":61,"name":".quickfast.","steam_id":76561199438900919,"connected_time":5403000000000,"state":"active","ping":69},{"user_id":37,"name":"Toast Nook","steam_id":76561199093949301,"connected_time":5956000000000,"state":"active","ping":85},{"user_id":38,"name":"hi","steam_id":76561198148074472,"connected_time":5933000000000,"state":"active","ping":52},{"user_id":64,"name":"BarrackOmaha","steam_id":76561198027922724,"connected_time":5074000000000,"state":"active","ping":66},{"user_id":84,"name":"Smag","steam_id":76561198153675141,"connected_time":3062000000000,"state":"active","ping":48},{"user_id":56,"name":"AVERAGE KARKAT ENJOYER","steam_id":76561198070000830,"connected_time":5537000000000,"state":"active","ping":83},{"user_id":119,"name":"Sting","steam_id":76561197983312403,"connected_time":663000000000,"state":"active","ping":48},{"user_id":67,"name":"notorious gaslighter","steam_id":76561198256619964,"connected_time":4818000000000,"state":"active","ping":77},{"user_id":110,"name":"GUS_Debik","steam_id":76561198209067625,"connected_time":1309000000000,"state":"active","ping":104},{"user_id":111,"name":"The Coffee","steam_id":76561198171941807,"connected_time":1302000000000,"state":"active","ping":144},{"user_id":106,"name":"Salih","steam_id":76561198287934839,"connected_time":1801000000000,"state":"active","ping":60},{"user_id":98,"name":"🤍 cantsniff 🤍","steam_id":76561198259668029,"connected_time":2335000000000,"state":"active","ping":48},{"user_id":112,"name":"I havent played in 8 years","steam_id":76561198161252578,"connected_time":1296000000000,"state":"active","ping":124},{"user_id":109,"name":"ARSEQUEEF70000000000","steam_id":76561198914610283,"connected_time":1420000000000,"state":"active","ping":78},{"user_id":77,"name":"Mindoh","steam_id":76561198036913079,"connected_time":3446000000000,"state":"active","ping":42},{"user_id":115,"name":"bitar_13","steam_id":76561198303663585,"connected_time":1163000000000,"state":"active","ping":138},{"user_id":121,"name":"Jam","steam_id":76561198090409013,"connected_time":39000000000,"state":"active","ping":86},{"user_id":120,"name":"Tort","steam_id":76561198329646769,"connected_time":634000000000,"state":"active","ping":47},{"user_id":60,"name":"Bottomest","steam_id":76561198091734693,"connected_time":5435000000000,"state":"active","ping":62}]},{"server_id":22,"name":"Uncletopia | London | 6 | All Maps","name_short":"lon-6","host":"lon-1.uk.uncletopia.com","port":27065,"enabled":true,"region":"eu","cc":"gb","latitude":51.509865,"longitude":-0.118092,"reserved":0,"last_update":"0001-01-01T00:00:00Z","name_a2s":"Uncletopia | London | 6 | All Maps","protocol":17,"map":"koth_cascade","folder":"tf","game":"Team Fortress","app_id":440,"player_count":0,"max_players":24,"Bots":0,"server_type":"Dedicated","server_os":"Linux","password":true,"vac":true,"version":"7695204","steam_id":85568392924742830,"keywords":["cp","nocrits","nodmgspread","uncletopia"],"game_id":440,"stv_port":27066,"stv_name":"Uncletopia | London | 6 | All Maps | STV","players":null},{"server_id":40,"name":"Uncletopia | London | 7 | No Payload","name_short":"lon-7","host":"lon-1.uk.uncletopia.com","port":27075,"enabled":true,"region":"eu","cc":"gb","latitude":51.509865,"longitude":-0.118092,"reserved":0,"last_update":"0001-01-01T00:00:00Z","name_a2s":"Uncletopia | London | 7 | No Payload","protocol":17,"map":"koth_king","folder":"tf","game":"Team Fortress","app_id":440,"player_count":0,"max_players":24,"Bots":0,"server_type":"Dedicated","server_os":"Linux","password":true,"vac":true,"version":"7695204","steam_id":85568392924964314,"keywords":["cp","nocrits","nodmgspread","uncletopia"],"game_id":440,"stv_port":27076,"stv_name":"Uncletopia | London | 7 | No Payload | STV","players":null},{"server_id":41,"name":"Uncletopia | London | 8 | Community","name_short":"lon-8","host":"lon-1.uk.uncletopia.com","port":27085,"enabled":true,"region":"eu","cc":"gb","latitude":51.509865,"longitude":-0.118092,"reserved":0,"last_update":"0001-01-01T00:00:00Z","name_a2s":"Uncletopia | London | 8 | Community","protocol":17,"map":"workshop/cp_sulfur_rc2.ugc619869471","folder":"tf","game":"Team Fortress","app_id":440,"player_count":5,"max_players":24,"Bots":0,"server_type":"Dedicated","server_os":"Linux","password":true,"vac":true,"version":"7695204","steam_id":85568392924964315,"keywords":["cp","nocrits","nodmgspread","uncletopia"],"game_id":440,"stv_port":27086,"stv_name":"Uncletopia | London | 8 | Community | STV","players":[{"user_id":302,"name":"Fiddlah","steam_id":76561198077916925,"connected_time":121000000000,"state":"active","ping":41},{"user_id":303,"name":"NaCl","steam_id":76561198264787999,"connected_time":77000000000,"state":"spawning","ping":316},{"user_id":280,"name":"BinaryTrees","steam_id":76561198046819746,"connected_time":2870000000000,"state":"active","ping":45},{"user_id":168,"name":"Mono","steam_id":76561198114569493,"connected_time":11021000000000,"state":"active","ping":39},{"user_id":214,"name":"ThomasR","steam_id":76561199014725814,"connected_time":7700000000000,"state":"active","ping":46}]},{"server_id":300,"name":"Uncletopia | Montréal | 1 | All Maps","name_short":"mtl-1","host":"mtl-1.ca.uncletopia.com","port":27015,"enabled":true,"region":"us-east","cc":"ca","latitude":45.50889,"longitude":-73.56167,"reserved":0,"last_update":"0001-01-01T00:00:00Z","name_a2s":"Uncletopia | Montréal | 1 | All Maps","protocol":17,"map":"koth_cascade","folder":"tf","game":"Team Fortress","app_id":440,"player_count":0,"max_players":24,"Bots":0,"server_type":"Dedicated","server_os":"Linux","password":true,"vac":true,"version":"7695204","steam_id":85568392924500087,"keywords":["cp","nocrits","nodmgspread","uncletopia"],"game_id":440,"stv_port":27016,"stv_name":"Uncletopia | Montréal | 1 | All Maps | STV","players":null},{"server_id":301,"name":"Uncletopia | Montréal | 2 | All Maps","name_short":"mtl-2","host":"mtl-1.ca.uncletopia.com","port":27025,"enabled":true,"region":"us-east","cc":"ca","latitude":45.50889,"longitude":-73.56167,"reserved":0,"last_update":"0001-01-01T00:00:00Z","name_a2s":"Uncletopia | Montréal | 2 | All Maps","protocol":17,"map":"pl_upward","folder":"tf","game":"Team Fortress","app_id":440,"player_count":4,"max_players":24,"Bots":0,"server_type":"Dedicated","server_os":"Linux","password":true,"vac":true,"version":"7695204","steam_id":85568392924500088,"keywords":["nocrits","nodmgspread","payload","uncletopia"],"game_id":440,"stv_port":27026,"stv_name":"Uncletopia | Montréal | 2 | All Maps | STV","players":[{"user_id":11,"name":"\u003cInsertGenericNameHere\u003e","steam_id":76561198388244476,"connected_time":2408000000000,"state":"active","ping":81},{"user_id":12,"name":"oliverj.1424","steam_id":76561199139289998,"connected_time":2353000000000,"state":"active","ping":88},{"user_id":13,"name":"dantheman14cool","steam_id":76561199035815342,"connected_time":2283000000000,"state":"active","ping":106},{"user_id":14,"name":"Jukebox","steam_id":76561199429521860,"connected_time":1906000000000,"state":"active","ping":35}]},{"server_id":302,"name":"Uncletopia | Montréal | 3 | All Maps","name_short":"mtl-3","host":"mtl-1.ca.uncletopia.com","port":27035,"enabled":true,"region":"us-east","cc":"ca","latitude":45.50889,"longitude":-73.56167,"reserved":0,"last_update":"0001-01-01T00:00:00Z","name_a2s":"Uncletopia | Montréal | 3 | All Maps","protocol":17,"map":"koth_viaduct","folder":"tf","game":"Team Fortress","app_id":440,"player_count":0,"max_players":24,"Bots":0,"server_type":"Dedicated","server_os":"Linux","password":true,"vac":true,"version":"7695204","steam_id":85568392924500089,"keywords":["cp","nocrits","nodmgspread","uncletopia"],"game_id":440,"stv_port":0,"stv_name":"","players":null},{"server_id":303,"name":"Uncletopia | Montréal | 4 | No Payload","name_short":"mtl-4","host":"mtl-1.ca.uncletopia.com","port":27045,"enabled":true,"region":"us-east","cc":"ca","latitude":45.50889,"longitude":-73.56167,"reserved":0,"last_update":"0001-01-01T00:00:00Z","name_a2s":"Uncletopia | Montréal | 4 | No Payload","protocol":17,"map":"koth_king","folder":"tf","game":"Team Fortress","app_id":440,"player_count":0,"max_players":24,"Bots":0,"server_type":"Dedicated","server_os":"Linux","password":true,"vac":true,"version":"7695204","steam_id":85568392924500090,"keywords":["cp","nocrits","nodmgspread","uncletopia"],"game_id":440,"stv_port":27046,"stv_name":"Uncletopia | Montréal | 4 | No Payload | STV","players":null},{"server_id":13,"name":"Uncletopia | New York City | 1 | All Maps","name_short":"nyc-1","host":"nyc-1.us.uncletopia.com","port":27015,"enabled":true,"region":"us-east","cc":"us","latitude":40.73061,"longitude":-73.93524,"reserved":0,"last_update":"0001-01-01T00:00:00Z","name_a2s":"Uncletopia | New York City | 1 | All Maps","protocol":17,"map":"cp_steel","folder":"tf","game":"Team Fortress","app_id":440,"player_count":24,"max_players":24,"Bots":0,"server_type":"Dedicated","server_os":"Linux","password":true,"vac":true,"version":"7695204","steam_id":85568392924469993,"keywords":["cp","nocrits","nodmgspread","uncletopia"],"game_id":440,"stv_port":27016,"stv_name":"Uncletopia | New York City | 1 | All Maps | STV","players":[{"user_id":268,"name":"Dajer","steam_id":76561198321675742,"connected_time":3098000000000,"state":"active","ping":64},{"user_id":309,"name":"MysticPhoinex","steam_id":76561198283656159,"connected_time":356000000000,"state":"active","ping":64},{"user_id":287,"name":"Spiral Mountain","steam_id":76561198058683715,"connected_time":1685000000000,"state":"active","ping":68},{"user_id":244,"name":"Captain Cosmic","steam_id":76561199025356432,"connected_time":5580000000000,"state":"active","ping":49},{"user_id":310,"name":"Pork Tenderloin","steam_id":76561198138663842,"connected_time":272000000000,"state":"active","ping":48},{"user_id":260,"name":"Juanelo","steam_id":76561199096390505,"connected_time":4246000000000,"state":"active","ping":96},{"user_id":194,"name":"V!CT!M","steam_id":76561198962721502,"connected_time":8700000000000,"state":"active","ping":75},{"user_id":298,"name":"justpins","steam_id":76561198012506961,"connected_time":694000000000,"state":"active","ping":52},{"user_id":301,"name":"Charm #SaveTF2","steam_id":76561198120543277,"connected_time":615000000000,"state":"active","ping":113},{"user_id":302,"name":"craf","steam_id":76561198163535075,"connected_time":605000000000,"state":"active","ping":58},{"user_id":303,"name":"CrazyKermitRubes","steam_id":76561198009065204,"connected_time":596000000000,"state":"active","ping":47},{"user_id":311,"name":"Yongle","steam_id":76561198068591156,"connected_time":205000000000,"state":"active","ping":72},{"user_id":275,"name":"crippling fumo addiction","steam_id":76561198115874625,"connected_time":2296000000000,"state":"active","ping":53},{"user_id":304,"name":"Magnitite","steam_id":76561198052499285,"connected_time":486000000000,"state":"active","ping":50},{"user_id":296,"name":"ShaqtusHD","steam_id":76561199138286233,"connected_time":953000000000,"state":"active","ping":60},{"user_id":305,"name":"Mr.Kevin120","steam_id":76561199186919096,"connected_time":434000000000,"state":"active","ping":79},{"user_id":271,"name":"Ursus Ludius","steam_id":76561198025470722,"connected_time":3009000000000,"state":"active","ping":66},{"user_id":276,"name":"roman","steam_id":76561198170066797,"connected_time":2283000000000,"state":"active","ping":47},{"user_id":294,"name":"Cafe Alpha","steam_id":76561197965022076,"connected_time":1493000000000,"state":"active","ping":45},{"user_id":312,"name":"Adam","steam_id":76561199107989521,"connected_time":144000000000,"state":"active","ping":167},{"user_id":307,"name":"sweaterfan","steam_id":76561199389567214,"connected_time":426000000000,"state":"active","ping":68},{"user_id":308,"name":"SC|Formuoli","steam_id":76561198254354595,"connected_time":420000000000,"state":"active","ping":59},{"user_id":292,"name":"Scorpsy","steam_id":76561198024477688,"connected_time":1608000000000,"state":"active","ping":58},{"user_id":262,"name":"FrostedBlakes","steam_id":76561199091619928,"connected_time":3847000000000,"state":"active","ping":72}]},{"server_id":14,"name":"Uncletopia | New York City | 2 | All Maps","name_short":"nyc-2","host":"nyc-1.us.uncletopia.com","port":27025,"enabled":true,"region":"us-east","cc":"us","latitude":40.73061,"longitude":-73.93524,"reserved":0,"last_update":"0001-01-01T00:00:00Z","name_a2s":"Uncletopia | New York City | 2 | All Maps","protocol":17,"map":"pl_snowycoast","folder":"tf","game":"Team Fortress","app_id":440,"player_count":9,"max_players":24,"Bots":0,"server_type":"Dedicated","server_os":"Linux","password":true,"vac":true,"version":"7695204","steam_id":85568392924469994,"keywords":["nocrits","nodmgspread","payload","uncletopia"],"game_id":440,"stv_port":27026,"stv_name":"Uncletopia | New York City | 2 | All Maps | STV","players":[{"user_id":32,"name":"lxtaylor05","steam_id":76561198324699019,"connected_time":2523000000000,"state":"active","ping":48},{"user_id":53,"name":"sheep","steam_id":76561198172943006,"connected_time":374000000000,"state":"active","ping":61},{"user_id":45,"name":"Albino Jellyfish","steam_id":76561198208561097,"connected_time":1080000000000,"state":"active","ping":52},{"user_id":35,"name":"merkmywords ttttttv","steam_id":76561198066840152,"connected_time":2491000000000,"state":"active","ping":59},{"user_id":48,"name":"Poopy-Head","steam_id":76561198875794824,"connected_time":680000000000,"state":"active","ping":69},{"user_id":38,"name":"robbob","steam_id":76561198137375391,"connected_time":1958000000000,"state":"active","ping":138},{"user_id":54,"name":"OrangeBanana","steam_id":76561199230233875,"connected_time":197000000000,"state":"active","ping":116},{"user_id":41,"name":"Bysig_ttv #savetf2","steam_id":76561198086422663,"connected_time":1747000000000,"state":"active","ping":93},{"user_id":51,"name":"Ch4rl33","steam_id":76561198037008621,"connected_time":467000000000,"state":"active","ping":63}]},{"server_id":15,"name":"Uncletopia | New York City | 3 | All Maps","name_short":"nyc-3","host":"nyc-1.us.uncletopia.com","port":27035,"enabled":true,"region":"us-east","cc":"us","latitude":40.73061,"longitude":-73.93524,"reserved":0,"last_update":"0001-01-01T00:00:00Z","name_a2s":"Uncletopia | New York City | 3 | All Maps","protocol":17,"map":"pl_borneo","folder":"tf","game":"Team Fortress","app_id":440,"player_count":24,"max_players":24,"Bots":0,"server_type":"Dedicated","server_os":"Linux","password":true,"vac":true,"version":"7695204","steam_id":85568392924742820,"keywords":["nocrits","nodmgspread","payload","uncletopia"],"game_id":440,"stv_port":27036,"stv_name":"Uncletopia | New York City | 3 | All Maps | STV","players":[{"user_id":311,"name":"Stuff","steam_id":76561198310343158,"connected_time":1923000000000,"state":"active","ping":74},{"user_id":312,"name":"the gamer hermit crab","steam_id":76561198969402276,"connected_time":1913000000000,"state":"active","ping":54},{"user_id":324,"name":"aspartame enjoyer","steam_id":76561198117033273,"connected_time":1471000000000,"state":"active","ping":132},{"user_id":347,"name":"Lt. Ghosty","steam_id":76561198044980501,"connected_time":462000000000,"state":"active","ping":61},{"user_id":332,"name":"Nasteen27","steam_id":76561199159513164,"connected_time":917000000000,"state":"active","ping":61},{"user_id":337,"name":"Bishop","steam_id":76561198070191778,"connected_time":768000000000,"state":"active","ping":76},{"user_id":348,"name":"sansa musa","steam_id":76561198163723555,"connected_time":439000000000,"state":"active","ping":59},{"user_id":317,"name":"spaaaaace","steam_id":76561199085974120,"connected_time":1787000000000,"state":"active","ping":54},{"user_id":349,"name":"grass.","steam_id":76561198953819225,"connected_time":184000000000,"state":"active","ping":35},{"user_id":288,"name":"snappin turla","steam_id":76561198031368462,"connected_time":3236000000000,"state":"active","ping":60},{"user_id":338,"name":"GamerHouston","steam_id":76561198967573300,"connected_time":753000000000,"state":"active","ping":79},{"user_id":340,"name":"Stagred","steam_id":76561198055973266,"connected_time":706000000000,"state":"active","ping":59},{"user_id":336,"name":"Dunmaglass","steam_id":76561198128928443,"connected_time":782000000000,"state":"active","ping":56},{"user_id":341,"name":"St. Alban's Weenus","steam_id":76561198047578824,"connected_time":674000000000,"state":"active","ping":65},{"user_id":322,"name":"Jack Studs (On Break)","steam_id":76561198803014281,"connected_time":1532000000000,"state":"active","ping":65},{"user_id":342,"name":"Riske","steam_id":76561198115840568,"connected_time":633000000000,"state":"active","ping":66},{"user_id":326,"name":"SeNioRciTiZen","steam_id":76561197982934915,"connected_time":1432000000000,"state":"active","ping":121},{"user_id":327,"name":"AudaCD","steam_id":76561198202775853,"connected_time":1244000000000,"state":"active","ping":77},{"user_id":328,"name":"Cthulwho?","steam_id":76561198165550810,"connected_time":1186000000000,"state":"active","ping":44},{"user_id":343,"name":"fudo myoo","steam_id":76561198456258164,"connected_time":579000000000,"state":"active","ping":71},{"user_id":344,"name":"Rakk","steam_id":76561198855176174,"connected_time":557000000000,"state":"active","ping":109},{"user_id":261,"name":"MILF Gaming","steam_id":76561198155378170,"connected_time":5827000000000,"state":"active","ping":60},{"user_id":345,"name":"Phillip Jeffries","steam_id":76561198064052174,"connected_time":520000000000,"state":"active","ping":50},{"user_id":346,"name":"Marv_L","steam_id":76561198035709541,"connected_time":516000000000,"state":"active","ping":123}]},{"server_id":16,"name":"Uncletopia | New York City | 4 | Community","name_short":"nyc-4","host":"nyc-1.us.uncletopia.com","port":27045,"enabled":true,"region":"us-east","cc":"us","latitude":40.73061,"longitude":-73.93524,"reserved":0,"last_update":"0001-01-01T00:00:00Z","name_a2s":"Uncletopia | New York City | 4 | Community","protocol":17,"map":"workshop/cp_caldera_rc2.ugc2834196889","folder":"tf","game":"Team Fortress","app_id":440,"player_count":0,"max_players":24,"Bots":0,"server_type":"Dedicated","server_os":"Linux","password":true,"vac":true,"version":"7695204","steam_id":85568392924742821,"keywords":["cp","nocrits","nodmgspread","uncletopia"],"game_id":440,"stv_port":27046,"stv_name":"Uncletopia | New York City | 4 | Community | STV","players":null},{"server_id":142,"name":"Uncletopia | São Paulo | 1 | All Maps","name_short":"sao-1","host":"sao-1.br.uncletopia.com","port":27015,"enabled":true,"region":"sa","cc":"br","latitude":-23.533773,"longitude":-46.62529,"reserved":0,"last_update":"0001-01-01T00:00:00Z","name_a2s":"Uncletopia | São Paulo | 1 | All Maps","protocol":17,"map":"pl_swiftwater_final1","folder":"tf","game":"Team Fortress","app_id":440,"player_count":24,"max_players":24,"Bots":0,"server_type":"Dedicated","server_os":"Linux","password":true,"vac":true,"version":"7695204","steam_id":85568392924469996,"keywords":["nocrits","nodmgspread","payload","uncletopia"],"game_id":440,"stv_port":27016,"stv_name":"Uncletopia | São Paulo | 1 | All Maps | STV","players":[{"user_id":102,"name":"bus driver","steam_id":76561199059062371,"connected_time":61000000000,"state":"active","ping":47},{"user_id":94,"name":"Thaleth","steam_id":76561198296495344,"connected_time":417000000000,"state":"active","ping":45},{"user_id":75,"name":"CATS","steam_id":76561198103172108,"connected_time":2250000000000,"state":"active","ping":55},{"user_id":93,"name":"LordDoSUS","steam_id":76561198406317878,"connected_time":449000000000,"state":"active","ping":86},{"user_id":81,"name":"Mikael_01","steam_id":76561199080253129,"connected_time":1617000000000,"state":"active","ping":49},{"user_id":66,"name":"klas","steam_id":76561198848363987,"connected_time":2919000000000,"state":"active","ping":41},{"user_id":31,"name":"jr_rusty","steam_id":76561198313937899,"connected_time":6378000000000,"state":"active","ping":51},{"user_id":76,"name":"Derfel","steam_id":76561198134643483,"connected_time":2168000000000,"state":"active","ping":71},{"user_id":100,"name":"-sono","steam_id":76561198280899288,"connected_time":309000000000,"state":"active","ping":81},{"user_id":95,"name":"kozza","steam_id":76561197980887931,"connected_time":398000000000,"state":"active","ping":59},{"user_id":90,"name":"Vic Rattlehead","steam_id":76561199232899925,"connected_time":537000000000,"state":"active","ping":53},{"user_id":84,"name":"Au Revoir","steam_id":76561198176626650,"connected_time":1177000000000,"state":"active","ping":44},{"user_id":96,"name":"mimimito","steam_id":76561198002565927,"connected_time":390000000000,"state":"active","ping":44},{"user_id":73,"name":"Pendrive is Insane","steam_id":76561199427354854,"connected_time":2378000000000,"state":"active","ping":43},{"user_id":88,"name":"ＥｎｄｅｒＮｅｃｒｏ","steam_id":76561198044304293,"connected_time":610000000000,"state":"active","ping":39},{"user_id":28,"name":"niruma","steam_id":76561198067799345,"connected_time":6398000000000,"state":"active","ping":50},{"user_id":101,"name":"polaco","steam_id":76561198002562184,"connected_time":226000000000,"state":"active","ping":55},{"user_id":37,"name":"(F2P)YellowEyePatch","steam_id":76561199108111310,"connected_time":5990000000000,"state":"active","ping":49},{"user_id":91,"name":"N☆V","steam_id":76561198101972840,"connected_time":535000000000,"state":"active","ping":76},{"user_id":98,"name":"Cherry Cupcake","steam_id":76561198012448942,"connected_time":344000000000,"state":"active","ping":43},{"user_id":39,"name":"gudaleyt","steam_id":76561199438654682,"connected_time":5966000000000,"state":"active","ping":48},{"user_id":87,"name":"RedStar","steam_id":76561198100495977,"connected_time":1010000000000,"state":"active","ping":68},{"user_id":43,"name":"Pathetic","steam_id":76561198051056987,"connected_time":5759000000000,"state":"active","ping":60},{"user_id":99,"name":"terrible gamer™","steam_id":76561198895061602,"connected_time":331000000000,"state":"active","ping":106}]},{"server_id":143,"name":"Uncletopia | São Paulo | 2 | All Maps","name_short":"sao-2","host":"sao-2.br.uncletopia.com","port":27015,"enabled":true,"region":"sa","cc":"br","latitude":-23.533773,"longitude":-46.62529,"reserved":0,"last_update":"0001-01-01T00:00:00Z","name_a2s":"Uncletopia | São Paulo | 2 | All Maps","protocol":17,"map":"cp_sunshine","folder":"tf","game":"Team Fortress","app_id":440,"player_count":2,"max_players":24,"Bots":0,"server_type":"Dedicated","server_os":"Linux","password":true,"vac":true,"version":"7695204","steam_id":85568392924485349,"keywords":["cp","nocrits","nodmgspread","uncletopia"],"game_id":440,"stv_port":27016,"stv_name":"Uncletopia | São Paulo | 2 | All Maps | STV","players":[{"user_id":49,"name":"✓Rodrigo_hambúrguers✓","steam_id":76561199063941794,"connected_time":276000000000,"state":"active","ping":35},{"user_id":50,"name":"matheus_lanches","steam_id":76561199359501901,"connected_time":147000000000,"state":"active","ping":40}]},{"server_id":7,"name":"Uncletopia | Seattle | 1 | All Maps","name_short":"sea-1","host":"sea-1.us.uncletopia.com","port":27015,"enabled":true,"region":"us-west","cc":"us","latitude":47.608013,"longitude":-122.33517,"reserved":0,"last_update":"0001-01-01T00:00:00Z","name_a2s":"Uncletopia | Seattle | 1 | All Maps","protocol":17,"map":"pl_upward","folder":"tf","game":"Team Fortress","app_id":440,"player_count":24,"max_players":24,"Bots":0,"server_type":"Dedicated","server_os":"Linux","password":true,"vac":true,"version":"7695204","steam_id":85568392924469997,"keywords":["nocrits","nodmgspread","payload","uncletopia"],"game_id":440,"stv_port":27016,"stv_name":"Uncletopia | Seattle | 1 | All Maps | STV","players":[{"user_id":143,"name":"Spearit5464","steam_id":76561199241807676,"connected_time":866000000000,"state":"active","ping":47},{"user_id":117,"name":"Heckolo","steam_id":76561198168010993,"connected_time":3050000000000,"state":"active","ping":66},{"user_id":94,"name":"ritchie","steam_id":76561198097835871,"connected_time":4376000000000,"state":"active","ping":134},{"user_id":134,"name":"thunderous prophet","steam_id":76561198131166135,"connected_time":1527000000000,"state":"active","ping":34},{"user_id":137,"name":"shane","steam_id":76561198060491451,"connected_time":1045000000000,"state":"active","ping":94},{"user_id":141,"name":"giant_dork","steam_id":76561199105606956,"connected_time":922000000000,"state":"active","ping":115},{"user_id":118,"name":"Ngsterson","steam_id":76561198162108154,"connected_time":2957000000000,"state":"active","ping":50},{"user_id":142,"name":"drive","steam_id":76561198041818185,"connected_time":896000000000,"state":"active","ping":100},{"user_id":83,"name":"dust","steam_id":76561198045218909,"connected_time":4941000000000,"state":"active","ping":41},{"user_id":80,"name":"xerro","steam_id":76561198323340524,"connected_time":5375000000000,"state":"active","ping":123},{"user_id":144,"name":"TarSenpai","steam_id":76561199292143353,"connected_time":861000000000,"state":"active","ping":76},{"user_id":132,"name":"A UsedNom","steam_id":76561198402832756,"connected_time":1903000000000,"state":"active","ping":61},{"user_id":130,"name":"Cloud","steam_id":76561198272454184,"connected_time":2107000000000,"state":"active","ping":170},{"user_id":95,"name":"SLaPPy- oNaSiS","steam_id":76561198009286862,"connected_time":4363000000000,"state":"active","ping":109},{"user_id":96,"name":"Peridarren","steam_id":76561198041104426,"connected_time":4361000000000,"state":"active","ping":62},{"user_id":119,"name":"Luca","steam_id":76561198125087140,"connected_time":2816000000000,"state":"active","ping":45},{"user_id":100,"name":"Genius Meme","steam_id":76561198162911254,"connected_time":4245000000000,"state":"active","ping":100},{"user_id":121,"name":"[Bandit]","steam_id":76561197986919852,"connected_time":2565000000000,"state":"active","ping":46},{"user_id":135,"name":"Salazar9","steam_id":76561198049903973,"connected_time":1388000000000,"state":"active","ping":45},{"user_id":136,"name":"oo","steam_id":76561198119626492,"connected_time":1371000000000,"state":"active","ping":83},{"user_id":133,"name":"gamer","steam_id":76561198201564074,"connected_time":1871000000000,"state":"active","ping":50},{"user_id":72,"name":"Humus","steam_id":76561198175286355,"connected_time":6238000000000,"state":"active","ping":81},{"user_id":122,"name":"twitch.tv/skrpy","steam_id":76561198040969503,"connected_time":2460000000000,"state":"active","ping":83},{"user_id":139,"name":"Season Veteran","steam_id":76561198088619665,"connected_time":950000000000,"state":"active","ping":77}]},{"server_id":119,"name":"Uncletopia | Seattle | 2 | All Maps","name_short":"sea-2","host":"sea-1.us.uncletopia.com","port":27025,"enabled":true,"region":"us-west","cc":"us","latitude":47.608013,"longitude":-122.33517,"reserved":0,"last_update":"0001-01-01T00:00:00Z","name_a2s":"Uncletopia | Seattle | 2 | All Maps","protocol":17,"map":"pl_wutville_event","folder":"tf","game":"Team Fortress","app_id":440,"player_count":17,"max_players":24,"Bots":0,"server_type":"Dedicated","server_os":"Linux","password":true,"vac":true,"version":"7695204","steam_id":85568392924469998,"keywords":["nocrits","nodmgspread","payload","uncletopia"],"game_id":440,"stv_port":27026,"stv_name":"Uncletopia | Seattle | 2 | All Maps | STV","players":[{"user_id":352,"name":"court appointed hype man","steam_id":76561198069199626,"connected_time":921000000000,"state":"active","ping":52},{"user_id":356,"name":"Fachedin","steam_id":76561198041850415,"connected_time":2000000000,"state":"spawning","ping":55},{"user_id":330,"name":"Tinaho","steam_id":76561198815585874,"connected_time":2558000000000,"state":"active","ping":37},{"user_id":337,"name":"EatSomeBEES","steam_id":76561198047334307,"connected_time":1758000000000,"state":"active","ping":85},{"user_id":340,"name":"Nugakku","steam_id":76561198082346219,"connected_time":1511000000000,"state":"active","ping":85},{"user_id":350,"name":"GRONT","steam_id":76561198040464533,"connected_time":1095000000000,"state":"active","ping":105},{"user_id":354,"name":"Divine Kitty","steam_id":76561198293490689,"connected_time":99000000000,"state":"active","ping":68},{"user_id":276,"name":"Be Gay, Do Crimes, Smoke Weed!","steam_id":76561198092419868,"connected_time":8950000000000,"state":"active","ping":43},{"user_id":329,"name":"J O S H³²","steam_id":76561198122603779,"connected_time":2663000000000,"state":"active","ping":64},{"user_id":312,"name":"Greskrendtregk","steam_id":76561197969553142,"connected_time":4428000000000,"state":"active","ping":50},{"user_id":341,"name":"remina","steam_id":76561198046091954,"connected_time":1508000000000,"state":"active","ping":76},{"user_id":342,"name":"the dim locator","steam_id":76561198325306660,"connected_time":1484000000000,"state":"active","ping":47},{"user_id":355,"name":"suspiciouslyBee","steam_id":76561198165933984,"connected_time":99000000000,"state":"active","ping":42},{"user_id":344,"name":"Wormy Getting Coal","steam_id":76561198054539200,"connected_time":1392000000000,"state":"active","ping":46},{"user_id":275,"name":"[K.Y.L.L.]Drone #0432 (they/it)","steam_id":76561198027321950,"connected_time":9037000000000,"state":"active","ping":48},{"user_id":348,"name":"Sábado Gigante","steam_id":76561197994685971,"connected_time":1272000000000,"state":"active","ping":78},{"user_id":353,"name":"c0b","steam_id":76561199153307294,"connected_time":499000000000,"state":"active","ping":34}]},{"server_id":17,"name":"Uncletopia | San Francisco | 1 | All Maps","name_short":"sfo-1","host":"sfo-1.us.uncletopia.com","port":27015,"enabled":true,"region":"us-west","cc":"us","latitude":37.77397,"longitude":-122.4313,"reserved":0,"last_update":"0001-01-01T00:00:00Z","name_a2s":"Uncletopia | San Francisco | 1 | All Maps","protocol":17,"map":"pl_barnblitz","folder":"tf","game":"Team Fortress","app_id":440,"player_count":0,"max_players":24,"Bots":0,"server_type":"Dedicated","server_os":"Linux","password":true,"vac":true,"version":"7695204","steam_id":85568392924469999,"keywords":["nocrits","nodmgspread","payload","uncletopia"],"game_id":440,"stv_port":27016,"stv_name":"Uncletopia | San Francisco | 1 | All Maps | STV","players":null},{"server_id":18,"name":"Uncletopia | San Francisco | 2 | All Maps","name_short":"sfo-2","host":"sfo-1.us.uncletopia.com","port":27025,"enabled":true,"region":"us-west","cc":"us","latitude":37.77397,"longitude":-122.4313,"reserved":0,"last_update":"0001-01-01T00:00:00Z","name_a2s":"Uncletopia | San Francisco | 2 | All Maps","protocol":17,"map":"koth_lakeside_final","folder":"tf","game":"Team Fortress","app_id":440,"player_count":24,"max_players":24,"Bots":0,"server_type":"Dedicated","server_os":"Linux","password":true,"vac":true,"version":"7695204","steam_id":85568392924470000,"keywords":["cp","nocrits","nodmgspread","uncletopia"],"game_id":440,"stv_port":27026,"stv_name":"Uncletopia | San Francisco | 2 | All Maps | STV","players":[{"user_id":236,"name":"Trust(can be trusted...maybe)","steam_id":76561198410958034,"connected_time":254000000000,"state":"active","ping":60},{"user_id":200,"name":"Dim Strike","steam_id":76561199087298816,"connected_time":2717000000000,"state":"active","ping":58},{"user_id":125,"name":"MORE BOUNCE TO THE OUNCE","steam_id":76561198243399336,"connected_time":6514000000000,"state":"active","ping":59},{"user_id":218,"name":"my500ride","steam_id":76561198325714536,"connected_time":1799000000000,"state":"active","ping":66},{"user_id":229,"name":"dodecadron","steam_id":76561198027397222,"connected_time":620000000000,"state":"active","ping":84},{"user_id":141,"name":"Nibotshooter","steam_id":76561199284825579,"connected_time":5983000000000,"state":"active","ping":73},{"user_id":226,"name":"Webslinger","steam_id":76561197973400611,"connected_time":788000000000,"state":"active","ping":63},{"user_id":239,"name":"he chugged 4 white monsters","steam_id":76561198334977151,"connected_time":123000000000,"state":"active","ping":50},{"user_id":230,"name":"Dmon","steam_id":76561198032702087,"connected_time":452000000000,"state":"active","ping":44},{"user_id":231,"name":"reshi","steam_id":76561198239598834,"connected_time":435000000000,"state":"active","ping":94},{"user_id":244,"name":"Gerbias","steam_id":76561198001002427,"connected_time":28000000000,"state":"active","ping":53},{"user_id":233,"name":"Cardjitsu Blackbelt","steam_id":76561199099203623,"connected_time":407000000000,"state":"active","ping":78},{"user_id":234,"name":"choi","steam_id":76561198053669887,"connected_time":399000000000,"state":"active","ping":68},{"user_id":161,"name":"Noxus","steam_id":76561199009820852,"connected_time":5132000000000,"state":"active","ping":73},{"user_id":235,"name":"I'm sorry in advance","steam_id":76561198087380785,"connected_time":389000000000,"state":"active","ping":69},{"user_id":237,"name":"oil","steam_id":76561198099980149,"connected_time":252000000000,"state":"active","ping":52},{"user_id":238,"name":"Esau","steam_id":76561198110449520,"connected_time":245000000000,"state":"active","ping":130},{"user_id":240,"name":"spacetoven","steam_id":76561198115821131,"connected_time":123000000000,"state":"active","ping":46},{"user_id":241,"name":"Discount","steam_id":76561198228825336,"connected_time":120000000000,"state":"active","ping":63},{"user_id":205,"name":"melon_eater","steam_id":76561198018714084,"connected_time":2539000000000,"state":"active","ping":59},{"user_id":185,"name":"huiei","steam_id":76561198073763735,"connected_time":3685000000000,"state":"active","ping":55},{"user_id":243,"name":"NobodyWasHere","steam_id":76561198320952498,"connected_time":52000000000,"state":"active","ping":100},{"user_id":245,"name":"XzachTLY","steam_id":76561198145534604,"connected_time":25000000000,"state":"active","ping":85},{"user_id":212,"name":"Chef","steam_id":76561198037041957,"connected_time":2089000000000,"state":"active","ping":47}]},{"server_id":19,"name":"Uncletopia | San Francisco | 3 | No Payload","name_short":"sfo-3","host":"sfo-1.us.uncletopia.com","port":27035,"enabled":true,"region":"us-west","cc":"us","latitude":37.77397,"longitude":-122.4313,"reserved":0,"last_update":"0001-01-01T00:00:00Z","name_a2s":"Uncletopia | San Francisco | 3 | No Payload","protocol":17,"map":"cp_snakewater_final1","folder":"tf","game":"Team Fortress","app_id":440,"player_count":0,"max_players":24,"Bots":0,"server_type":"Dedicated","server_os":"Linux","password":true,"vac":true,"version":"7695204","steam_id":85568392924742824,"keywords":["cp","nocrits","nodmgspread","uncletopia"],"game_id":440,"stv_port":0,"stv_name":"","players":null},{"server_id":20,"name":"Uncletopia | San Francisco | 4 | Community","name_short":"sfo-4","host":"sfo-1.us.uncletopia.com","port":27045,"enabled":true,"region":"us-west","cc":"us","latitude":37.77397,"longitude":-122.4313,"reserved":0,"last_update":"0001-01-01T00:00:00Z","name_a2s":"Uncletopia | San Francisco | 4 | Community","protocol":17,"map":"koth_highpass","folder":"tf","game":"Team Fortress","app_id":440,"player_count":0,"max_players":24,"Bots":0,"server_type":"Dedicated","server_os":"Linux","password":true,"vac":true,"version":"7695204","steam_id":85568392924742826,"keywords":["cp","nocrits","nodmgspread","uncletopia"],"game_id":440,"stv_port":0,"stv_name":"","players":null},{"server_id":141,"name":"Uncletopia | Sydney | 1 | All Maps","name_short":"syd-1","host":"syd-1.au.uncletopia.com","port":27015,"enabled":true,"region":"au","cc":"au","latitude":-33.865143,"longitude":151.2099,"reserved":0,"last_update":"0001-01-01T00:00:00Z","name_a2s":"Uncletopia | Sydney | 1 | All Maps","protocol":17,"map":"pl_frontier_final","folder":"tf","game":"Team Fortress","app_id":440,"player_count":0,"max_players":24,"Bots":0,"server_type":"Dedicated","server_os":"Linux","password":true,"vac":true,"version":"7695204","steam_id":85568392924470001,"keywords":["nocrits","nodmgspread","payload","uncletopia"],"game_id":440,"stv_port":27016,"stv_name":"Uncletopia | Sydney | 1 | All Maps | STV","players":null},{"server_id":123,"name":"Uncletopia | Sydney | 2 | All Maps","name_short":"syd-2","host":"syd-1.au.uncletopia.com","port":27025,"enabled":true,"region":"au","cc":"au","latitude":-33.865143,"longitude":151.2099,"reserved":0,"last_update":"0001-01-01T00:00:00Z","name_a2s":"Uncletopia | Sydney | 2 | All Maps","protocol":17,"map":"pl_borneo","folder":"tf","game":"Team Fortress","app_id":440,"player_count":0,"max_players":24,"Bots":0,"server_type":"Dedicated","server_os":"Linux","password":true,"vac":true,"version":"7695204","steam_id":85568392924470002,"keywords":["nocrits","nodmgspread","payload","uncletopia"],"game_id":440,"stv_port":27026,"stv_name":"Uncletopia | Sydney | 2 | All Maps | STV","players":null},{"server_id":395,"name":"Uncletopia | Sydney | 3 | All Maps","name_short":"syd-3","host":"syd-1.au.uncletopia.com","port":27035,"enabled":true,"region":"au","cc":"au","latitude":-33.865143,"longitude":151.2099,"reserved":0,"last_update":"0001-01-01T00:00:00Z","name_a2s":"Uncletopia | Sydney | 3 | All Maps","protocol":17,"map":"pl_swiftwater_final1","folder":"tf","game":"Team Fortress","app_id":440,"player_count":0,"max_players":24,"Bots":0,"server_type":"Dedicated","server_os":"Linux","password":true,"vac":true,"version":"7695204","steam_id":85568392925194467,"keywords":["nocrits","nodmgspread","payload","uncletopia"],"game_id":440,"stv_port":27036,"stv_name":"Uncletopia | Sydney | 3 | All Maps | STV","players":null},{"server_id":396,"name":"Uncletopia | Sydney | 4 | All Maps","name_short":"syd-4","host":"syd-1.au.uncletopia.com","port":27045,"enabled":true,"region":"au","cc":"au","latitude":-33.865143,"longitude":151.2099,"reserved":0,"last_update":"0001-01-01T00:00:00Z","name_a2s":"Uncletopia | Sydney | 4 | All Maps","protocol":17,"map":"pl_upward","folder":"tf","game":"Team Fortress","app_id":440,"player_count":11,"max_players":24,"Bots":0,"server_type":"Dedicated","server_os":"Linux","password":true,"vac":true,"version":"7695204","steam_id":85568392925397958,"keywords":["nocrits","nodmgspread","payload","uncletopia"],"game_id":440,"stv_port":27046,"stv_name":"Uncletopia | Sydney | 4 | All Maps | STV","players":[{"user_id":14,"name":"Bread","steam_id":76561198421454803,"connected_time":3562000000000,"state":"active","ping":76},{"user_id":16,"name":"th0red0n","steam_id":76561198855934264,"connected_time":2782000000000,"state":"active","ping":87},{"user_id":18,"name":"totally scout","steam_id":76561198418502416,"connected_time":2205000000000,"state":"active","ping":77},{"user_id":9,"name":"cakey","steam_id":76561198173746761,"connected_time":5021000000000,"state":"active","ping":45},{"user_id":20,"name":"f2p Spy","steam_id":76561198214232616,"connected_time":2192000000000,"state":"active","ping":95},{"user_id":21,"name":"Jacobmeister","steam_id":76561198071652927,"connected_time":2164000000000,"state":"active","ping":83},{"user_id":32,"name":"MadmansHat","steam_id":76561199063185304,"connected_time":42000000000,"state":"active","ping":74},{"user_id":24,"name":"Master Painis","steam_id":76561198322031397,"connected_time":1711000000000,"state":"active","ping":78},{"user_id":25,"name":"ericacummins","steam_id":76561198946280912,"connected_time":1649000000000,"state":"active","ping":81},{"user_id":27,"name":"FirePugLord","steam_id":76561199037744012,"connected_time":1007000000000,"state":"active","ping":46},{"user_id":28,"name":"KINGHOOVY","steam_id":76561199047050341,"connected_time":925000000000,"state":"active","ping":56}]},{"server_id":58,"name":"Uncletopia | Sydney | 5 | No Payload","name_short":"syd-5","host":"syd-1.au.uncletopia.com","port":27055,"enabled":true,"region":"au","cc":"au","latitude":-33.865143,"longitude":151.2099,"reserved":0,"last_update":"0001-01-01T00:00:00Z","name_a2s":"Uncletopia | Sydney | 5 | No Payload","protocol":17,"map":"koth_viaduct","folder":"tf","game":"Team Fortress","app_id":440,"player_count":0,"max_players":24,"Bots":0,"server_type":"Dedicated","server_os":"Linux","password":true,"vac":true,"version":"7695204","steam_id":85568392925397959,"keywords":["cp","nocrits","nodmgspread","uncletopia"],"game_id":440,"stv_port":0,"stv_name":"","players":null},{"server_id":59,"name":"Uncletopia | Sydney | 6 | Community","name_short":"syd-6","host":"syd-1.au.uncletopia.com","port":27065,"enabled":true,"region":"au","cc":"au","latitude":-33.865143,"longitude":151.2099,"reserved":0,"last_update":"0001-01-01T00:00:00Z","name_a2s":"Uncletopia | Sydney | 6 | Community","protocol":17,"map":"workshop/pl_fifthcurve_rc1.ugc648227046","folder":"tf","game":"Team Fortress","app_id":440,"player_count":0,"max_players":24,"Bots":0,"server_type":"Dedicated","server_os":"Linux","password":true,"vac":true,"version":"7695204","steam_id":85568392925397960,"keywords":["nocrits","nodmgspread","payload","uncletopia"],"game_id":440,"stv_port":27066,"stv_name":"Uncletopia | Sydney | 6 | Community | STV","players":null},{"server_id":49,"name":"Uncletopia | Warsaw | 1 | All Maps","name_short":"waw-1","host":"waw-1.pl.uncletopia.com","port":27015,"enabled":true,"region":"eu","cc":"pl","latitude":52.2297,"longitude":21.017532,"reserved":0,"last_update":"0001-01-01T00:00:00Z","name_a2s":"Uncletopia | Warsaw | 1 | All Maps","protocol":17,"map":"koth_lakeside_final","folder":"tf","game":"Team Fortress","app_id":440,"player_count":0,"max_players":24,"Bots":0,"server_type":"Dedicated","server_os":"Linux","password":true,"vac":true,"version":"7695204","steam_id":85568392925397850,"keywords":["cp","nocrits","nodmgspread","uncletopia"],"game_id":440,"stv_port":27016,"stv_name":"Uncletopia | Warsaw | 1 | All Maps | STV","players":null},{"server_id":50,"name":"Uncletopia | Warsaw | 2 | All Maps","name_short":"waw-2","host":"waw-1.pl.uncletopia.com","port":27025,"enabled":true,"region":"eu","cc":"pl","latitude":52.2297,"longitude":21.017532,"reserved":0,"last_update":"0001-01-01T00:00:00Z","name_a2s":"Uncletopia | Warsaw | 2 | All Maps","protocol":17,"map":"cp_altitude","folder":"tf","game":"Team Fortress","app_id":440,"player_count":0,"max_players":24,"Bots":0,"server_type":"Dedicated","server_os":"Linux","password":true,"vac":true,"version":"7695204","steam_id":85568392925397851,"keywords":["cp","nocrits","nodmgspread","uncletopia"],"game_id":440,"stv_port":27026,"stv_name":"Uncletopia | Warsaw | 2 | All Maps | STV","players":null},{"server_id":51,"name":"Uncletopia | Warsaw | 3 | All Maps","name_short":"waw-3","host":"waw-1.pl.uncletopia.com","port":27035,"enabled":true,"region":"eu","cc":"pl","latitude":52.2297,"longitude":21.017532,"reserved":0,"last_update":"0001-01-01T00:00:00Z","name_a2s":"Uncletopia | Warsaw | 3 | All Maps","protocol":17,"map":"cp_mossrock","folder":"tf","game":"Team Fortress","app_id":440,"player_count":13,"max_players":24,"Bots":0,"server_type":"Dedicated","server_os":"Linux","password":true,"vac":true,"version":"7695204","steam_id":85568392925397852,"keywords":["cp","nocrits","nodmgspread","uncletopia"],"game_id":440,"stv_port":27036,"stv_name":"Uncletopia | Warsaw | 3 | All Maps | STV","players":[{"user_id":88,"name":"Proxy4D","steam_id":76561198080303900,"connected_time":209000000000,"state":"active","ping":224},{"user_id":43,"name":"Mari_Kross","steam_id":76561198130863086,"connected_time":4312000000000,"state":"active","ping":78},{"user_id":82,"name":"M2rtRa","steam_id":76561198111036466,"connected_time":741000000000,"state":"active","ping":83},{"user_id":81,"name":"Anweddus","steam_id":76561198374452987,"connected_time":815000000000,"state":"active","ping":89},{"user_id":87,"name":"tait","steam_id":76561199388526903,"connected_time":224000000000,"state":"active","ping":95},{"user_id":25,"name":"Jovy Kujoh","steam_id":76561198410598772,"connected_time":5062000000000,"state":"active","ping":59},{"user_id":89,"name":"Death and Cheesecurls","steam_id":76561198087404461,"connected_time":204000000000,"state":"active","ping":225},{"user_id":90,"name":"T3TRAHEDRON","steam_id":76561198111309522,"connected_time":128000000000,"state":"active","ping":225},{"user_id":91,"name":"Jug Jug","steam_id":76561199168736473,"connected_time":87000000000,"state":"active","ping":99},{"user_id":92,"name":"Dope a mean","steam_id":76561198219433201,"connected_time":80000000000,"state":"active","ping":217},{"user_id":93,"name":"Lena ^^","steam_id":76561199435586696,"connected_time":71000000000,"state":"active","ping":70},{"user_id":55,"name":"Slanik_Bab","steam_id":76561198389460812,"connected_time":3146000000000,"state":"active","ping":112},{"user_id":61,"name":"Swoshed","steam_id":76561198076138057,"connected_time":2775000000000,"state":"active","ping":57}]},{"server_id":52,"name":"Uncletopia | Warsaw | 4 | All Maps","name_short":"waw-4","host":"waw-1.pl.uncletopia.com","port":27045,"enabled":true,"region":"eu","cc":"pl","latitude":52.2297,"longitude":21.017532,"reserved":0,"last_update":"0001-01-01T00:00:00Z","name_a2s":"Uncletopia | Warsaw | 4 | All Maps","protocol":17,"map":"pl_borneo","folder":"tf","game":"Team Fortress","app_id":440,"player_count":0,"max_players":24,"Bots":0,"server_type":"Dedicated","server_os":"Linux","password":true,"vac":true,"version":"7695204","steam_id":85568392925397853,"keywords":["nocrits","nodmgspread","payload","uncletopia"],"game_id":440,"stv_port":27046,"stv_name":"Uncletopia | Warsaw | 4 | All Maps | STV","players":null},{"server_id":53,"name":"Uncletopia | Warsaw | 5 | No Payload","name_short":"waw-5","host":"waw-1.pl.uncletopia.com","port":27055,"enabled":true,"region":"eu","cc":"pl","latitude":52.2297,"longitude":21.017532,"reserved":0,"last_update":"0001-01-01T00:00:00Z","name_a2s":"Uncletopia | Warsaw | 5 | No Payload","protocol":17,"map":"koth_highpass","folder":"tf","game":"Team Fortress","app_id":440,"player_count":0,"max_players":24,"Bots":0,"server_type":"Dedicated","server_os":"Linux","password":true,"vac":true,"version":"7695204","steam_id":85568392925397854,"keywords":["cp","nocrits","nodmgspread","uncletopia"],"game_id":440,"stv_port":27056,"stv_name":"Uncletopia | Warsaw | 5 | No Payload | STV","players":null},{"server_id":54,"name":"Uncletopia | Warsaw | 6 | Community","name_short":"waw-6","host":"waw-1.pl.uncletopia.com","port":27065,"enabled":true,"region":"eu","cc":"pl","latitude":52.2297,"longitude":21.017532,"reserved":0,"last_update":"0001-01-01T00:00:00Z","name_a2s":"Uncletopia | Warsaw | 6 | Community","protocol":17,"map":"pl_barnblitz","folder":"tf","game":"Team Fortress","app_id":440,"player_count":0,"max_players":24,"Bots":0,"server_type":"Dedicated","server_os":"Linux","password":true,"vac":true,"version":"7695204","steam_id":85568392925397856,"keywords":["nocrits","nodmgspread","payload","uncletopia"],"game_id":440,"stv_port":0,"stv_name":"","players":null}]}