{"status":true,"message":"","result":[{"server_id":9,"name":"Uncletopia | Atlanta | 1 | All Maps","name_short":"atl-1","host":"atl-1.us.uncletopia.com","port":27015,"enabled":true,"region":"us-east","cc":"us","latitude":33.753746,"longitude":-84.38633,"reserved":0,"last_update":"0001-01-01T00:00:00Z","name_a2s":"Uncletopia | Atlanta | 1 | All Maps","protocol":17,"map":"pl_borneo","folder":"tf","game":"Team Fortress","app_id":440,"player_count":24,"max_players":24,"Bots":0,"server_type":"Dedicated","server_os":"Linux","password":true,"vac":true,"version":"7757534","steam_id":85568392924469982,"keywords":["nocrits","nodmgspread","payload","uncletopia"],"game_id":440,"stv_port":27016,"stv_name":"Uncletopia | Atlanta | 1 | All Maps | STV","players":[{"user_id":154,"name":"bash -lc ./asshat.sh","steam_id":76561198004584315,"connected_time":64000000000,"state":"active","ping":79},{"user_id":97,"name":"paused my frot to be here","steam_id":76561198249206656,"connected_time":5939000000000,"state":"active","ping":77},{"user_id":140,"name":"Broken Cereal‚àö","steam_id":76561198087489795,"connected_time":1534000000000,"state":"active","ping":62},{"user_id":80,"name":"8,000,000 merged Chihuahuas","steam_id":76561198130772096,"connected_time":7234000000000,"state":"active","ping":45},{"user_id":146,"name":"stink","steam_id":76561198099318923,"connected_time":1203000000000,"state":"active","ping":73},{"user_id":156,"name":"‚ù§‚ô°ÔΩ•ÔæüBubblesÔΩ•Ôæü‚ô°‚ù§","steam_id":76561198041057042,"connected_time":48000000000,"state":"active","ping":85},{"user_id":124,"name":"‚òº  gamble","steam_id":76561198074180953,"connected_time":3123000000000,"state":"active","ping":71},{"user_id":119,"name":"The Strokes","steam_id":76561198982810452,"connected_time":3783000000000,"state":"active","ping":81},{"user_id":131,"name":"Yukko Aioi TF2","steam_id":76561198889857835,"connected_time":2556000000000,"state":"active","ping":121},{"user_id":142,"name":"Fox","steam_id":76561198063507627,"connected_time":1520000000000,"state":"active","ping":50},{"user_id":147,"name":"qjkxkcd","steam_id":76561198035922283,"connected_time":1162000000000,"state":"active","ping":60},{"user_id":137,"name":"DJ Tigress","steam_id":76561198065005979,"connected_time":1904000000000,"state":"active","ping":84},{"user_id":109,"name":"creeeeeee","steam_id":76561198392539722,"connected_time":4899000000000,"state":"active","ping":79},{"user_id":152,"name":"lu","steam_id":76561198080731872,"connected_time":339000000000,"state":"active","ping":74},{"user_id":144,"name":"mayhem","steam_id":76561199246637881,"connected_time":1216000000000,"state":"active","ping":48},{"user_id":153,"name":"Nullman","steam_id":76561199069169835,"connected_time":277000000000,"state":"active","ping":59},{"user_id":126,"name":"wario","steam_id":76561198083276946,"connected_time":3122000000000,"state":"active","ping":62},{"user_id":36,"name":"Briatho","steam_id":76561198032187923,"connected_time":10151000000000,"state":"active","ping":88},{"user_id":149,"name":"dwarf guy","steam_id":76561198993740818,"connected_time":1151000000000,"state":"active","ping":49},{"user_id":71,"name":"nickles","steam_id":76561199177498487,"connected_time":7713000000000,"state":"active","ping":89},{"user_id":143,"name":"Lawtumn","steam_id":76561198347286009,"connected_time":1504000000000,"state":"active","ping":68},{"user_id":155,"name":"Quantum Brain","steam_id":76561198080169497,"connected_time":59000000000,"state":"active","ping":44},{"user_id":145,"name":"moonage lobotomy","steam_id":76561198041348890,"connected_time":1213000000000,"state":"active","ping":64},{"user_id":48,"name":"butterbutt!","steam_id":76561198038160740,"connected_time":9764000000000,"state":"active","ping":50}]},{"server_id":400,"name":"Uncletopia | Atlanta | 3 | Community","name_short":"atl-3","host":"atl-1.us.uncletopia.com","port":27035,"enabled":true,"region":"us-east","cc":"us","latitude":33.753746,"longitude":-84.38633,"reserved":0,"last_update":"0001-01-01T00:00:00Z","name_a2s":"Uncletopia | Atlanta | 3 | Community","protocol":17,"map":"cp_mountainlab","folder":"tf","game":"Team Fortress","app_id":440,"player_count":0,"max_players":24,"Bots":0,"server_type":"Dedicated","server_os":"Linux","password":true,"vac":true,"version":"7757534","steam_id":85568392924515187,"keywords":["cp","nocrits","nodmgspread","uncletopia"],"game_id":440,"stv_port":27036,"stv_name":"Uncletopia | Atlanta | 3 | Community | STV","players":null},{"server_id":401,"name":"Uncletopia | Atlanta | 4 | No Payload","name_short":"atl-4","host":"atl-1.us.uncletopia.com","port":27045,"enabled":true,"region":"us-east","cc":"us","latitude":33.753746,"longitude":-84.38633,"reserved":0,"last_update":"0001-01-01T00:00:00Z","name_a2s":"","protocol":0,"map":"","folder":"","game":"","app_id":0,"player_count":0,"max_players":0,"Bots":0,"server_type":"","server_os":"","password":false,"vac":false,"version":"","steam_id":0,"keywords":null,"game_id":0,"stv_port":0,"stv_name":"","players":null},{"server_id":2,"name":"Uncletopia | Chicago | 1 | All Maps","name_short":"chi-1","host":"chi-1.us.uncletopia.com","port":27015,"enabled":true,"region":"us-central","cc":"us","latitude":41.881832,"longitude":-87.62318,"reserved":0,"last_update":"0001-01-01T00:00:00Z","name_a2s":"Uncletopia | Chicago | 1 | All Maps","protocol":17,"map":"pl_goldrush","folder":"tf","game":"Team Fortress","app_id":440,"player_count":24,"max_players":24,"Bots":0,"server_type":"Dedicated","server_os":"Linux","password":true,"vac":true,"version":"7757534","steam_id":85568392924469984,"keywords":["nocrits","nodmgspread","payload","uncletopia"],"game_id":440,"stv_port":27016,"stv_name":"Uncletopia | Chicago | 1 | All Maps | STV","players":[{"user_id":219,"name":"DUDE WEED LMAO 2k23","steam_id":76561198091111592,"connected_time":5455000000000,"state":"active","ping":61},{"user_id":243,"name":"Fiendish Frog","steam_id":76561198029478821,"connected_time":3558000000000,"state":"active","ping":60},{"user_id":265,"name":"Quiet","steam_id":76561198119175817,"connected_time":1831000000000,"state":"active","ping":85},{"user_id":227,"name":"Rec","steam_id":76561198022813906,"connected_time":5231000000000,"state":"active","ping":49},{"user_id":276,"name":"*breaks into your home*","steam_id":76561198877414879,"connected_time":741000000000,"state":"active","ping":150},{"user_id":281,"name":"triangleman","steam_id":76561198972733542,"connected_time":88000000000,"state":"active","ping":50},{"user_id":220,"name":"Jak(i)","steam_id":76561198076823144,"connected_time":5455000000000,"state":"active","ping":61},{"user_id":283,"name":"NightAngel","steam_id":76561197968457893,"connected_time":47000000000,"state":"active","ping":85},{"user_id":225,"name":"Pixler544","steam_id":76561198240575132,"connected_time":5400000000000,"state":"active","ping":75},{"user_id":275,"name":"Argo","steam_id":76561198353725622,"connected_time":1053000000000,"state":"active","ping":75},{"user_id":278,"name":"Yeagle","steam_id":76561199086620299,"connected_time":431000000000,"state":"active","ping":75},{"user_id":106,"name":"hi","steam_id":76561198809577048,"connected_time":14087000000000,"state":"active","ping":98},{"user_id":195,"name":"Sarah","steam_id":76561199013702818,"connected_time":6980000000000,"state":"active","ping":91},{"user_id":255,"name":"JimmyWings","steam_id":76561198999925713,"connected_time":2584000000000,"state":"active","ping":67},{"user_id":279,"name":"Chrys","steam_id":76561198371208774,"connected_time":412000000000,"state":"active","ping":75},{"user_id":161,"name":"tacofever","steam_id":76561198010966507,"connected_time":10031000000000,"state":"active","ping":103},{"user_id":191,"name":"beta central","steam_id":76561198301876831,"connected_time":7329000000000,"state":"active","ping":59},{"user_id":268,"name":"Bergmann MP18","steam_id":76561198218417512,"connected_time":1581000000000,"state":"active","ping":103},{"user_id":241,"name":"CapnKris22","steam_id":76561198049010994,"connected_time":3916000000000,"state":"active","ping":66},{"user_id":273,"name":"SpartanOne22","steam_id":76561199006361788,"connected_time":1259000000000,"state":"active","ping":72},{"user_id":274,"name":"Elongated Muskrat","steam_id":76561198314501346,"connected_time":1148000000000,"state":"active","ping":94},{"user_id":259,"name":"Habber The Quesomancer","steam_id":76561198049642751,"connected_time":2376000000000,"state":"active","ping":69},{"user_id":277,"name":"GamerMan","steam_id":76561199058616824,"connected_time":453000000000,"state":"active","ping":68},{"user_id":269,"name":"uniwu - BUFF THE SPEED","steam_id":76561198864421290,"connected_time":1550000000000,"state":"active","ping":67}]},{"server_id":106,"name":"Uncletopia | Chicago | 2 | All Maps","name_short":"chi-2","host":"chi-1.us.uncletopia.com","port":27025,"enabled":true,"region":"us-central","cc":"us","latitude":41.881832,"longitude":-87.62318,"reserved":0,"last_update":"0001-01-01T00:00:00Z","name_a2s":"Uncletopia | Chicago | 2 | All Maps","protocol":17,"map":"cp_egypt_final","folder":"tf","game":"Team Fortress","app_id":440,"player_count":24,"max_players":24,"Bots":0,"server_type":"Dedicated","server_os":"Linux","password":true,"vac":true,"version":"7757534","steam_id":85568392924469985,"keywords":["cp","nocrits","nodmgspread","uncletopia"],"game_id":440,"stv_port":27026,"stv_name":"Uncletopia | Chicago | 2 | All Maps | STV","players":[{"user_id":208,"name":"aaron123","steam_id":76561198184669555,"connected_time":64000000000,"state":"active","ping":89},{"user_id":210,"name":"User name here","steam_id":76561199007079402,"connected_time":2000000000,"state":"spawning","ping":79},{"user_id":158,"name":"jrdoran","steam_id":76561197984753094,"connected_time":4037000000000,"state":"active","ping":64},{"user_id":181,"name":"desca","steam_id":76561198064628542,"connected_time":2137000000000,"state":"active","ping":70},{"user_id":154,"name":"KORF","steam_id":76561197981904410,"connected_time":4124000000000,"state":"active","ping":76},{"user_id":194,"name":"JackAttacks143","steam_id":76561198971889483,"connected_time":1761000000000,"state":"active","ping":95},{"user_id":128,"name":"Zoawsome","steam_id":76561198018758753,"connected_time":5352000000000,"state":"active","ping":46},{"user_id":206,"name":"TeruoTurtle","steam_id":76561198940925397,"connected_time":386000000000,"state":"active","ping":99},{"user_id":188,"name":"BudTuggly","steam_id":76561198026873580,"connected_time":1944000000000,"state":"active","ping":45},{"user_id":192,"name":"denzy_","steam_id":76561198873788683,"connected_time":1813000000000,"state":"active","ping":70},{"user_id":209,"name":"El Goblino Diablo","steam_id":76561198167871675,"connected_time":40000000000,"state":"active","ping":60},{"user_id":184,"name":"garbuglio","steam_id":76561198012371111,"connected_time":2089000000000,"state":"active","ping":45},{"user_id":189,"name":"Wahooka","steam_id":76561197962240925,"connected_time":1904000000000,"state":"active","ping":60},{"user_id":201,"name":"Scum!","steam_id":76561198051805219,"connected_time":739000000000,"state":"active","ping":53},{"user_id":175,"name":"FunGi","steam_id":76561198881418662,"connected_time":2546000000000,"state":"active","ping":85},{"user_id":147,"name":"ExtremeDucks","steam_id":76561198351756464,"connected_time":4858000000000,"state":"active","ping":107},{"user_id":198,"name":"sen","steam_id":76561198041237747,"connected_time":1483000000000,"state":"active","ping":56},{"user_id":197,"name":"Warpy","steam_id":76561198055852599,"connected_time":1730000000000,"state":"active","ping":86},{"user_id":186,"name":"AnonymousCritter","steam_id":76561198864475187,"connected_time":2062000000000,"state":"active","ping":51},{"user_id":183,"name":"Inquisitribble","steam_id":76561198022402409,"connected_time":2117000000000,"state":"active","ping":50},{"user_id":165,"name":"gorf?","steam_id":76561198142286417,"connected_time":3593000000000,"state":"active","ping":57},{"user_id":193,"name":"Gachalover","steam_id":76561199231552074,"connected_time":1805000000000,"state":"active","ping":71},{"user_id":204,"name":"Bony","steam_id":76561199001748822,"connected_time":474000000000,"state":"active","ping":90},{"user_id":205,"name":"veryscaryreaper","steam_id":76561198380018244,"connected_time":473000000000,"state":"active","ping":73}]},{"server_id":402,"name":"Uncletopia | Chicago | 3 | All Maps","name_short":"chi-3","host":"chi-1.us.uncletopia.com","port":27035,"enabled":true,"region":"us-central","cc":"us","latitude":41.881832,"longitude":-87.62318,"reserved":0,"last_update":"0001-01-01T00:00:00Z","name_a2s":"Uncletopia | Chicago | 3 | All Maps","protocol":17,"map":"pl_frontier_final","folder":"tf","game":"Team Fortress","app_id":440,"player_count":24,"max_players":24,"Bots":0,"server_type":"Dedicated","server_os":"Linux","password":true,"vac":true,"version":"7757534","steam_id":85568392924515191,"keywords":["nocrits","nodmgspread","payload","uncletopia"],"game_id":440,"stv_port":27036,"stv_name":"Uncletopia | Chicago | 3 | All Maps | STV","players":[{"user_id":156,"name":"emotionally damaged edp445","steam_id":76561199078009116,"connected_time":381000000000,"state":"active","ping":69},{"user_id":141,"name":"wolf_71","steam_id":76561198963570945,"connected_time":659000000000,"state":"active","ping":63},{"user_id":145,"name":"pete_the_cat_2014","steam_id":76561198199266047,"connected_time":618000000000,"state":"active","ping":52},{"user_id":144,"name":"Mischievous44","steam_id":76561198106532712,"connected_time":624000000000,"state":"active","ping":51},{"user_id":159,"name":"alcohol","steam_id":76561198328109873,"connected_time":249000000000,"state":"active","ping":69},{"user_id":157,"name":"BOOMER","steam_id":76561198004728452,"connected_time":378000000000,"state":"active","ping":86},{"user_id":46,"name":"Blitz3k","steam_id":76561198055758741,"connected_time":5310000000000,"state":"active","ping":67},{"user_id":72,"name":"Krampus","steam_id":76561198137530703,"connected_time":3663000000000,"state":"active","ping":72},{"user_id":146,"name":"loudpisser","steam_id":76561198078802110,"connected_time":615000000000,"state":"active","ping":67},{"user_id":27,"name":"Pancreas Enjoyer","steam_id":76561199438598904,"connected_time":6470000000000,"state":"active","ping":113},{"user_id":164,"name":"threethree","steam_id":76561198177354155,"connected_time":7000000000,"state":"spawning","ping":44},{"user_id":91,"name":"Magik","steam_id":76561198115443354,"connected_time":1638000000000,"state":"active","ping":45},{"user_id":142,"name":"big hehe","steam_id":76561198288202783,"connected_time":644000000000,"state":"active","ping":75},{"user_id":143,"name":"GooniOoni","steam_id":76561198102154561,"connected_time":629000000000,"state":"active","ping":50},{"user_id":160,"name":"bary","steam_id":76561197988317087,"connected_time":194000000000,"state":"active","ping":60},{"user_id":163,"name":"Isaac Clarke","steam_id":76561198039353154,"connected_time":137000000000,"state":"active","ping":60},{"user_id":149,"name":"wicked","steam_id":76561198091160068,"connected_time":571000000000,"state":"active","ping":85},{"user_id":78,"name":"JetZ","steam_id":76561199122488957,"connected_time":3067000000000,"state":"active","ping":68},{"user_id":125,"name":"Anita Hanjaab","steam_id":76561198111669774,"connected_time":879000000000,"state":"active","ping":50},{"user_id":85,"name":"CGamer6155","steam_id":76561199440141596,"connected_time":2073000000000,"state":"active","ping":58},{"user_id":139,"name":"Infinity","steam_id":76561199134919099,"connected_time":674000000000,"state":"active","ping":84},{"user_id":135,"name":"JustifiedGamerz","steam_id":76561198048086833,"connected_time":713000000000,"state":"active","ping":148},{"user_id":155,"name":"cooltool21","steam_id":76561197996817585,"connected_time":477000000000,"state":"active","ping":82},{"user_id":151,"name":"Racially Motivated","steam_id":76561198095640172,"connected_time":550000000000,"state":"active","ping":76}]},{"server_id":403,"name":"Uncletopia | Chicago | 4 | All Maps","name_short":"chi-4","host":"chi-1.us.uncletopia.com","port":27045,"enabled":true,"region":"us-central","cc":"us","latitude":41.881832,"longitude":-87.62318,"reserved":0,"last_update":"0001-01-01T00:00:00Z","name_a2s":"Uncletopia | Chicago | 4 | All Maps","protocol":17,"map":"koth_viaduct","folder":"tf","game":"Team Fortress","app_id":440,"player_count":24,"max_players":24,"Bots":0,"server_type":"Dedicated","server_os":"Linux","password":true,"vac":true,"version":"7757534","steam_id":85568392924515193,"keywords":["cp","nocrits","nodmgspread","uncletopia"],"game_id":440,"stv_port":27046,"stv_name":"Uncletopia | Chicago | 4 | All Maps | STV","players":[{"user_id":48,"name":"Liberty Launcher TF2","steam_id":76561198400058665,"connected_time":1500000000000,"state":"active","ping":72},{"user_id":49,"name":"Tax","steam_id":76561198335683534,"connected_time":1489000000000,"state":"active","ping":60},{"user_id":55,"name":"w3bd3v","steam_id":76561198077982525,"connected_time":1216000000000,"state":"active","ping":72},{"user_id":65,"name":"Discourse","steam_id":76561198984286678,"connected_time":164000000000,"state":"active","ping":52},{"user_id":72,"name":"carp","steam_id":76561198042865147,"connected_time":96000000000,"state":"active","ping":46},{"user_id":70,"name":"femboy","steam_id":76561198087476984,"connected_time":130000000000,"state":"active","ping":80},{"user_id":67,"name":"SolmonFish","steam_id":76561198942169006,"connected_time":152000000000,"state":"active","ping":76},{"user_id":50,"name":"ttv = big nerd","steam_id":76561198081681647,"connected_time":1486000000000,"state":"active","ping":67},{"user_id":24,"name":"TF2 need a sex update","steam_id":76561199103964705,"connected_time":2056000000000,"state":"active","ping":110},{"user_id":54,"name":"SoundslikeJustice","steam_id":76561198963640645,"connected_time":1342000000000,"state":"active","ping":81},{"user_id":66,"name":"SlayingP :P","steam_id":76561198113364714,"connected_time":162000000000,"state":"active","ping":52},{"user_id":28,"name":"Special","steam_id":76561199073634881,"connected_time":1949000000000,"state":"active","ping":67},{"user_id":43,"name":"matcha","steam_id":76561198060517306,"connected_time":1738000000000,"state":"active","ping":177},{"user_id":30,"name":"Ze_√úber_Nerd","steam_id":76561198091148675,"connected_time":1933000000000,"state":"active","ping":63},{"user_id":68,"name":"Mattron1","steam_id":76561198012270524,"connected_time":150000000000,"state":"active","ping":68},{"user_id":61,"name":"radiohead enjoyer","steam_id":76561198397662124,"connected_time":621000000000,"state":"active","ping":91},{"user_id":34,"name":"RedBot Noob","steam_id":76561198260764846,"connected_time":1900000000000,"state":"active","ping":104},{"user_id":57,"name":"DiHMO","steam_id":76561198030130169,"connected_time":783000000000,"state":"active","ping":50},{"user_id":36,"name":"Takumi Fujiwara","steam_id":76561198146281101,"connected_time":1879000000000,"state":"active","ping":72},{"user_id":53,"name":"moe5x","steam_id":76561198316877833,"connected_time":1447000000000,"state":"active","ping":102},{"user_id":38,"name":"sir_glorp","steam_id":76561198074363801,"connected_time":1836000000000,"state":"active","ping":59},{"user_id":39,"name":"bb. Fr0styFace","steam_id":76561198046806930,"connected_time":1828000000000,"state":"active","ping":53},{"user_id":63,"name":"alcoholic","steam_id":76561199217503417,"connected_time":512000000000,"state":"active","ping":110},{"user_id":71,"name":"name420","steam_id":76561198129374525,"connected_time":121000000000,"state":"active","ping":73}]},{"server_id":36,"name":"Uncletopia | Chicago | 5 | All Maps","name_short":"chi-5","host":"chi-2.us.uncletopia.com","port":27015,"enabled":true,"region":"us-central","cc":"us","latitude":41.881832,"longitude":-87.62318,"reserved":0,"last_update":"0001-01-01T00:00:00Z","name_a2s":"Uncletopia | Chicago | 5 | All Maps","protocol":17,"map":"koth_lakeside_final","folder":"tf","game":"Team Fortress","app_id":440,"player_count":0,"max_players":24,"Bots":0,"server_type":"Dedicated","server_os":"Linux","password":true,"vac":true,"version":"7757534","steam_id":85568392924866362,"keywords":["cp","nocrits","nodmgspread","uncletopia"],"game_id":440,"stv_port":27016,"stv_name":"Uncletopia | Chicago | 5 | All Maps | STV","players":null},{"server_id":37,"name":"Uncletopia | Chicago | 6 | All Maps","name_short":"chi-6","host":"chi-2.us.uncletopia.com","port":27025,"enabled":true,"region":"us-central","cc":"us","latitude":41.881832,"longitude":-87.62318,"reserved":0,"last_update":"0001-01-01T00:00:00Z","name_a2s":"Uncletopia | Chicago | 6 | All Maps","protocol":17,"map":"pl_pier","folder":"tf","game":"Team Fortress","app_id":440,"player_count":24,"max_players":24,"Bots":0,"server_type":"Dedicated","server_os":"Linux","password":true,"vac":true,"version":"7757534","steam_id":85568392924866363,"keywords":["nocrits","nodmgspread","payload","uncletopia"],"game_id":440,"stv_port":27026,"stv_name":"Uncletopia | Chicago | 6 | All Maps | STV","players":[{"user_id":114,"name":"SaltySeaBiscuts","steam_id":76561199204549005,"connected_time":766000000000,"state":"active","ping":61},{"user_id":118,"name":"jessicamustdie \u003c3","steam_id":76561198045230921,"connected_time":685000000000,"state":"active","ping":51},{"user_id":71,"name":"heimdall","steam_id":76561198069380992,"connected_time":4205000000000,"state":"active","ping":91},{"user_id":135,"name":"grimp gromp","steam_id":76561199267535506,"connected_time":238000000000,"state":"active","ping":70},{"user_id":119,"name":"arandomgoose1","steam_id":76561199382962687,"connected_time":587000000000,"state":"active","ping":60},{"user_id":121,"name":"comically large spoon","steam_id":76561198350216657,"connected_time":569000000000,"state":"active","ping":79},{"user_id":103,"name":"Wallace Whitman","steam_id":76561198397706651,"connected_time":2264000000000,"state":"active","ping":75},{"user_id":116,"name":"Jattiti","steam_id":76561199214217870,"connected_time":715000000000,"state":"active","ping":65},{"user_id":122,"name":"Kohbold","steam_id":76561198996480140,"connected_time":557000000000,"state":"active","ping":98},{"user_id":136,"name":"-W3E- grim10465","steam_id":76561198045698581,"connected_time":209000000000,"state":"active","ping":51},{"user_id":124,"name":"jayrod1330","steam_id":76561198864748307,"connected_time":501000000000,"state":"active","ping":79},{"user_id":125,"name":"Droopy Loopy","steam_id":76561198117917407,"connected_time":488000000000,"state":"active","ping":79},{"user_id":126,"name":"Mr.Crabapples","steam_id":76561199082148884,"connected_time":485000000000,"state":"active","ping":107},{"user_id":88,"name":"ultralisk52","steam_id":76561198051666604,"connected_time":2977000000000,"state":"active","ping":63},{"user_id":127,"name":"gamer_2099","steam_id":76561199058461779,"connected_time":460000000000,"state":"active","ping":98},{"user_id":139,"name":"Lepo","steam_id":76561198383509659,"connected_time":179000000000,"state":"active","ping":111},{"user_id":134,"name":"Arachna.cadabra","steam_id":76561198039437427,"connected_time":291000000000,"state":"active","ping":99},{"user_id":109,"name":"\u003c3Elise\u003c3","steam_id":76561198146435005,"connected_time":917000000000,"state":"active","ping":81},{"user_id":131,"name":"barbara","steam_id":76561198072417792,"connected_time":449000000000,"state":"active","ping":122},{"user_id":132,"name":"TransWomanGaming","steam_id":76561198809645656,"connected_time":413000000000,"state":"active","ping":71},{"user_id":112,"name":"katryna","steam_id":76561198023440304,"connected_time":853000000000,"state":"active","ping":60},{"user_id":133,"name":"Censing Auto, The Challenger","steam_id":76561198060926681,"connected_time":406000000000,"state":"active","ping":62},{"user_id":140,"name":"SpookeyDoopyDo","steam_id":76561198430148780,"connected_time":169000000000,"state":"active","ping":85},{"user_id":96,"name":"Wang of Wall St","steam_id":76561198047460598,"connected_time":2867000000000,"state":"active","ping":74}]},{"server_id":38,"name":"Uncletopia | Chicago | 7 | Stopwatch Beta","name_short":"chi-7","host":"chi-2.us.uncletopia.com","port":27035,"enabled":true,"region":"us-central","cc":"us","latitude":41.881832,"longitude":-87.62318,"reserved":0,"last_update":"0001-01-01T00:00:00Z","name_a2s":"Uncletopia | Chicago | 7 | Stopwatch Beta","protocol":17,"map":"koth_viaduct","folder":"tf","game":"Team Fortress","app_id":440,"player_count":0,"max_players":24,"Bots":0,"server_type":"Dedicated","server_os":"Linux","password":true,"vac":true,"version":"7757534","steam_id":85568392924866364,"keywords":["cp","nocrits","nodmgspread","uncletopia"],"game_id":440,"stv_port":27036,"stv_name":"Uncletopia | Chicago | 7 | Stopwatch Beta | STV","players":null},{"server_id":39,"name":"Uncletopia | Chicago | 8 | Community","name_short":"chi-8","host":"chi-2.us.uncletopia.com","port":27045,"enabled":true,"region":"us-central","cc":"us","latitude":41.881832,"longitude":-87.62318,"reserved":0,"last_update":"0001-01-01T00:00:00Z","name_a2s":"Uncletopia | Chicago | 8 | Community","protocol":17,"map":"koth_lakeside_final","folder":"tf","game":"Team Fortress","app_id":440,"player_count":0,"max_players":24,"Bots":0,"server_type":"Dedicated","server_os":"Linux","password":true,"vac":true,"version":"7757534","steam_id":85568392924866365,"keywords":["cp","nocrits","nodmgspread","uncletopia"],"game_id":440,"stv_port":27046,"stv_name":"Uncletopia | Chicago | 8 | Community | STV","players":null},{"server_id":8,"name":"Uncletopia | Dallas | 1 | All Maps","name_short":"dal-1","host":"dal-1.us.uncletopia.com","port":27015,"enabled":true,"region":"us-central","cc":"us","latitude":32.779167,"longitude":-96.80889,"reserved":0,"last_update":"0001-01-01T00:00:00Z","name_a2s":"Uncletopia | Dallas | 1 | All Maps","protocol":17,"map":"pl_badwater","folder":"tf","game":"Team Fortress","app_id":440,"player_count":24,"max_players":24,"Bots":0,"server_type":"Dedicated","server_os":"Linux","password":true,"vac":true,"version":"7757534","steam_id":85568392924469986,"keywords":["nocrits","nodmgspread","payload","uncletopia"],"game_id":440,"stv_port":27016,"stv_name":"Uncletopia | Dallas | 1 | All Maps | STV","players":[{"user_id":56,"name":"Shun Rosen","steam_id":76561198012823909,"connected_time":3497000000000,"state":"active","ping":85},{"user_id":28,"name":"Testosteroblerone","steam_id":76561199031278496,"connected_time":4909000000000,"state":"active","ping":81},{"user_id":53,"name":"mola","steam_id":76561198036283992,"connected_time":3798000000000,"state":"active","ping":76},{"user_id":77,"name":"Lolxdloldx","steam_id":76561198136887125,"connected_time":1738000000000,"state":"active","ping":77},{"user_id":59,"name":"Bo","steam_id":76561198023975550,"connected_time":3492000000000,"state":"active","ping":179},{"user_id":48,"name":"luscaPUTO","steam_id":76561199037598902,"connected_time":4356000000000,"state":"active","ping":125},{"user_id":51,"name":"Can You Feel It Mr.Krabs","steam_id":76561198128302414,"connected_time":4114000000000,"state":"active","ping":68},{"user_id":66,"name":"dad vibes","steam_id":76561197990714447,"connected_time":3105000000000,"state":"active","ping":60},{"user_id":90,"name":"Fred","steam_id":76561197983870604,"connected_time":708000000000,"state":"active","ping":70},{"user_id":64,"name":"Spazz","steam_id":76561198036167494,"connected_time":3387000000000,"state":"active","ping":54},{"user_id":88,"name":"skipper","steam_id":76561198395965181,"connected_time":880000000000,"state":"active","ping":81},{"user_id":91,"name":"CHARLIE","steam_id":76561199061380038,"connected_time":707000000000,"state":"active","ping":167},{"user_id":74,"name":"sexypringle","steam_id":76561198401282091,"connected_time":1954000000000,"state":"active","ping":80},{"user_id":78,"name":"NBA Youngboy","steam_id":76561199118797200,"connected_time":1714000000000,"state":"active","ping":48},{"user_id":89,"name":"Little Green Man, Clayton","steam_id":76561198038945235,"connected_time":877000000000,"state":"active","ping":107},{"user_id":92,"name":"Creme","steam_id":76561198034166729,"connected_time":705000000000,"state":"active","ping":104},{"user_id":94,"name":"beans","steam_id":76561199082781884,"connected_time":665000000000,"state":"active","ping":67},{"user_id":61,"name":"boobies arc","steam_id":76561198316753540,"connected_time":3470000000000,"state":"active","ping":34},{"user_id":93,"name":"GLG.Liz","steam_id":76561198021957956,"connected_time":703000000000,"state":"active","ping":56},{"user_id":83,"name":"Moonluna","steam_id":76561198986416684,"connected_time":1183000000000,"state":"active","ping":80},{"user_id":73,"name":"hatchetax","steam_id":76561199013337543,"connected_time":2458000000000,"state":"active","ping":70},{"user_id":84,"name":"NOM","steam_id":76561199059006203,"connected_time":1163000000000,"state":"active","ping":85},{"user_id":76,"name":"CHIEF","steam_id":76561198011209422,"connected_time":1902000000000,"state":"active","ping":45},{"user_id":72,"name":"Heck in a handbasket","steam_id":76561198045785898,"connected_time":2798000000000,"state":"active","ping":116}]},{"server_id":108,"name":"Uncletopia | Dallas | 2 | All Maps","name_short":"dal-2","host":"dal-1.us.uncletopia.com","port":27025,"enabled":true,"region":"us-central","cc":"us","latitude":32.779167,"longitude":-96.80889,"reserved":0,"last_update":"0001-01-01T00:00:00Z","name_a2s":"Uncletopia | Dallas | 2 | All Maps","protocol":17,"map":"pl_swiftwater_final1","folder":"tf","game":"Team Fortress","app_id":440,"player_count":0,"max_players":24,"Bots":0,"server_type":"Dedicated","server_os":"Linux","password":true,"vac":true,"version":"7757534","steam_id":85568392924469988,"keywords":["nocrits","nodmgspread","payload","uncletopia"],"game_id":440,"stv_port":27026,"stv_name":"Uncletopia | Dallas | 2 | All Maps | STV","players":null},{"server_id":5,"name":"Uncletopia | Frankfurt | 1 | All Maps","name_short":"frk-1","host":"frk-1.de.uncletopia.com","port":27015,"enabled":true,"region":"eu","cc":"de","latitude":50.110924,"longitude":8.682127,"reserved":0,"last_update":"0001-01-01T00:00:00Z","name_a2s":"Uncletopia | Frankfurt | 1 | All Maps","protocol":17,"map":"pl_barnblitz","folder":"tf","game":"Team Fortress","app_id":440,"player_count":24,"max_players":24,"Bots":0,"server_type":"Dedicated","server_os":"Linux","password":true,"vac":true,"version":"7757534","steam_id":85568392924469989,"keywords":["nocrits","nodmgspread","payload","uncletopia"],"game_id":440,"stv_port":27016,"stv_name":"Uncletopia | Frankfurt | 1 | All Maps | STV","players":[{"user_id":499,"name":"banyesz","steam_id":76561198152997658,"connected_time":208000000000,"state":"active","ping":78},{"user_id":459,"name":"CumbustiblePunda","steam_id":76561197974274677,"connected_time":3529000000000,"state":"active","ping":49},{"user_id":469,"name":"meatsoupcube","steam_id":76561198276802249,"connected_time":2738000000000,"state":"active","ping":112},{"user_id":470,"name":"Mr. Pickles #SaveTF2","steam_id":76561199210183560,"connected_time":2738000000000,"state":"active","ping":141},{"user_id":331,"name":"john fortress","steam_id":76561198013237629,"connected_time":13743000000000,"state":"active","ping":94},{"user_id":490,"name":"peku","steam_id":76561198082074666,"connected_time":1538000000000,"state":"active","ping":75},{"user_id":483,"name":"Virgil","steam_id":76561198248786778,"connected_time":1922000000000,"state":"active","ping":118},{"user_id":485,"name":"Ecton","steam_id":76561198025103720,"connected_time":1762000000000,"state":"active","ping":64},{"user_id":471,"name":"Naginacz","steam_id":76561199099232534,"connected_time":2703000000000,"state":"active","ping":65},{"user_id":473,"name":"non_ai","steam_id":76561198270951938,"connected_time":2655000000000,"state":"active","ping":138},{"user_id":433,"name":"Gordon Birdman","steam_id":76561198013382324,"connected_time":5639000000000,"state":"active","ping":75},{"user_id":452,"name":"revolver","steam_id":76561198126634202,"connected_time":4052000000000,"state":"active","ping":77},{"user_id":442,"name":"issues","steam_id":76561197994492154,"connected_time":4664000000000,"state":"active","ping":73},{"user_id":494,"name":"‚ò≠ybercat","steam_id":76561198014070417,"connected_time":1215000000000,"state":"active","ping":68},{"user_id":460,"name":"cockwater","steam_id":76561198209101861,"connected_time":3442000000000,"state":"active","ping":74},{"user_id":492,"name":"VolcanicArts","steam_id":76561198063453246,"connected_time":1450000000000,"state":"active","ping":68},{"user_id":496,"name":"mayonnaise of the escalator","steam_id":76561199093477280,"connected_time":773000000000,"state":"active","ping":85},{"user_id":495,"name":"bAdmon","steam_id":76561197961785793,"connected_time":1153000000000,"state":"active","ping":60},{"user_id":498,"name":"Miatthew","steam_id":76561198034102895,"connected_time":284000000000,"state":"active","ping":59},{"user_id":430,"name":"Hegyi tah√≥ F2P","steam_id":76561199219150356,"connected_time":6304000000000,"state":"active","ping":72},{"user_id":491,"name":"‚òÅ Lou1smeister ‚òÅ","steam_id":76561198004032968,"connected_time":1528000000000,"state":"active","ping":75},{"user_id":481,"name":"Ablativus","steam_id":76561198025698470,"connected_time":1997000000000,"state":"active","ping":68},{"user_id":458,"name":"Syll","steam_id":76561198040736202,"connected_time":3543000000000,"state":"active","ping":104},{"user_id":454,"name":"Carry Krypl","steam_id":76561198136938121,"connected_time":4041000000000,"state":"active","ping":63}]},{"server_id":110,"name":"Uncletopia | Frankfurt | 2 | All Maps","name_short":"frk-2","host":"frk-1.de.uncletopia.com","port":27025,"enabled":true,"region":"eu","cc":"de","latitude":50.110924,"longitude":8.682127,"reserved":0,"last_update":"0001-01-01T00:00:00Z","name_a2s":"Uncletopia | Frankfurt | 2 | All Maps","protocol":17,"map":"pl_badwater","folder":"tf","game":"Team Fortress","app_id":440,"player_count":24,"max_players":24,"Bots":0,"server_type":"Dedicated","server_os":"Linux","password":true,"vac":true,"version":"7757534","steam_id":85568392924469990,"keywords":["nocrits","nodmgspread","payload","uncletopia"],"game_id":440,"stv_port":27026,"stv_name":"Uncletopia | Frankfurt | 2 | All Maps | STV","players":[{"user_id":101,"name":"on1on (pickled)","steam_id":76561197995304137,"connected_time":651000000000,"state":"active","ping":61},{"user_id":92,"name":"twitch.tv/vision515","steam_id":76561198065293729,"connected_time":1564000000000,"state":"active","ping":159},{"user_id":102,"name":"Bounter","steam_id":76561198072614188,"connected_time":635000000000,"state":"active","ping":66},{"user_id":97,"name":"[T]aKer","steam_id":76561198001778013,"connected_time":943000000000,"state":"active","ping":52},{"user_id":60,"name":"zek","steam_id":76561198862763731,"connected_time":2780000000000,"state":"active","ping":59},{"user_id":105,"name":"Krabs","steam_id":76561198161679477,"connected_time":311000000000,"state":"active","ping":53},{"user_id":59,"name":"LuCroGi","steam_id":76561198057283891,"connected_time":2825000000000,"state":"active","ping":61},{"user_id":83,"name":"buko","steam_id":76561198349648942,"connected_time":2029000000000,"state":"active","ping":90},{"user_id":54,"name":"Dimitri_612","steam_id":76561199223984137,"connected_time":2947000000000,"state":"active","ping":56},{"user_id":87,"name":"Boki","steam_id":76561198044553351,"connected_time":1745000000000,"state":"active","ping":75},{"user_id":98,"name":"baijro","steam_id":76561198061001376,"connected_time":936000000000,"state":"active","ping":69},{"user_id":79,"name":"Carrot Arc","steam_id":76561198164957006,"connected_time":2425000000000,"state":"active","ping":97},{"user_id":58,"name":"A Succulent Chinese Meal","steam_id":76561198069472440,"connected_time":2843000000000,"state":"active","ping":84},{"user_id":95,"name":"ming jao Âº±Êô∫","steam_id":76561198254011269,"connected_time":1101000000000,"state":"active","ping":99},{"user_id":106,"name":"NABER","steam_id":76561198831465151,"connected_time":243000000000,"state":"active","ping":82},{"user_id":96,"name":"Sexsmith","steam_id":76561197992927989,"connected_time":1062000000000,"state":"active","ping":95},{"user_id":103,"name":"miiq130","steam_id":76561198188010666,"connected_time":480000000000,"state":"active","ping":74},{"user_id":100,"name":"No | S | uS","steam_id":76561199195727551,"connected_time":861000000000,"state":"active","ping":66},{"user_id":72,"name":"huh","steam_id":76561198170334258,"connected_time":2583000000000,"state":"active","ping":73},{"user_id":73,"name":"generic alias","steam_id":76561198271607226,"connected_time":2564000000000,"state":"active","ping":93},{"user_id":89,"name":"LolPop_{100}","steam_id":76561198431070485,"connected_time":1706000000000,"state":"active","ping":79},{"user_id":104,"name":"kiki","steam_id":76561198838277022,"connected_time":395000000000,"state":"active","ping":66},{"user_id":85,"name":"limbicsystem","steam_id":76561198025612680,"connected_time":1990000000000,"state":"active","ping":76},{"user_id":94,"name":"Guru","steam_id":76561198093853069,"connected_time":1501000000000,"state":"active","ping":60}]},{"server_id":308,"name":"Uncletopia | Frankfurt | 3 | All Maps","name_short":"frk-3","host":"frk-1.de.uncletopia.com","port":27035,"enabled":true,"region":"eu","cc":"de","latitude":50.110924,"longitude":8.682127,"reserved":0,"last_update":"0001-01-01T00:00:00Z","name_a2s":"Uncletopia | Frankfurt | 3 | All Maps","protocol":17,"map":"koth_viaduct","folder":"tf","game":"Team Fortress","app_id":440,"player_count":0,"max_players":24,"Bots":0,"server_type":"Dedicated","server_os":"Linux","password":true,"vac":true,"version":"7757534","steam_id":85568392924504274,"keywords":["cp","nocrits","nodmgspread","uncletopia"],"game_id":440,"stv_port":27036,"stv_name":"Uncletopia | Frankfurt | 3 | All Maps | STV","players":null},{"server_id":309,"name":"Uncletopia | Frankfurt | 4 | All Maps","name_short":"frk-4","host":"frk-1.de.uncletopia.com","port":27045,"enabled":true,"region":"eu","cc":"de","latitude":50.110924,"longitude":8.682127,"reserved":0,"last_update":"0001-01-01T00:00:00Z","name_a2s":"Uncletopia | Frankfurt | 4 | All Maps","protocol":17,"map":"pl_barnblitz","folder":"tf","game":"Team Fortress","app_id":440,"player_count":24,"max_players":24,"Bots":0,"server_type":"Dedicated","server_os":"Linux","password":true,"vac":true,"version":"7757534","steam_id":85568392924504275,"keywords":["nocrits","nodmgspread","payload","uncletopia"],"game_id":440,"stv_port":27046,"stv_name":"Uncletopia | Frankfurt | 4 | All Maps | STV","players":[{"user_id":448,"name":"Zandez","steam_id":76561198072975563,"connected_time":1860000000000,"state":"active","ping":90},{"user_id":462,"name":"KILL","steam_id":76561198436817109,"connected_time":524000000000,"state":"active","ping":65},{"user_id":436,"name":"The One","steam_id":76561198827193499,"connected_time":2488000000000,"state":"active","ping":68},{"user_id":443,"name":"idk","steam_id":76561199153286032,"connected_time":2143000000000,"state":"active","ping":88},{"user_id":464,"name":"blizz gamming","steam_id":76561198253692868,"connected_time":512000000000,"state":"active","ping":72},{"user_id":461,"name":"yd","steam_id":76561198214336561,"connected_time":555000000000,"state":"active","ping":46},{"user_id":409,"name":"dirty","steam_id":76561197995572935,"connected_time":3475000000000,"state":"active","ping":80},{"user_id":455,"name":"Joy","steam_id":76561198155314925,"connected_time":1251000000000,"state":"active","ping":66},{"user_id":463,"name":"Drdarlekzzz","steam_id":76561198160141785,"connected_time":524000000000,"state":"active","ping":55},{"user_id":458,"name":"ger√∂steteK√ºrbiskerne","steam_id":76561198077484975,"connected_time":857000000000,"state":"active","ping":67},{"user_id":465,"name":"Fancy","steam_id":76561198350658462,"connected_time":510000000000,"state":"active","ping":75},{"user_id":452,"name":"Pirovideo","steam_id":76561198850819934,"connected_time":1552000000000,"state":"active","ping":52},{"user_id":454,"name":"‚ôÇ Necronomico ‚ôÇ","steam_id":76561198079272212,"connected_time":1319000000000,"state":"active","ping":95},{"user_id":412,"name":"rigel_","steam_id":76561198148640847,"connected_time":3455000000000,"state":"active","ping":69},{"user_id":439,"name":"Yachox","steam_id":76561198158259745,"connected_time":2388000000000,"state":"active","ping":90},{"user_id":425,"name":"d u k k i","steam_id":76561198071807437,"connected_time":2852000000000,"state":"active","ping":78},{"user_id":459,"name":"yankii#2511","steam_id":76561198226084812,"connected_time":792000000000,"state":"active","ping":68},{"user_id":400,"name":"Kedy","steam_id":76561198308990457,"connected_time":4510000000000,"state":"active","ping":124},{"user_id":466,"name":"laser","steam_id":76561198036030697,"connected_time":503000000000,"state":"active","ping":62},{"user_id":469,"name":"ok","steam_id":76561198320042443,"connected_time":439000000000,"state":"active","ping":105},{"user_id":470,"name":"Homosapien","steam_id":76561197972035953,"connected_time":359000000000,"state":"active","ping":45},{"user_id":415,"name":"player","steam_id":76561198054474684,"connected_time":3401000000000,"state":"active","ping":81},{"user_id":428,"name":"meow","steam_id":76561198289343488,"connected_time":2840000000000,"state":"active","ping":63},{"user_id":468,"name":"wasps","steam_id":76561198049485054,"connected_time":481000000000,"state":"active","ping":90}]},{"server_id":310,"name":"Uncletopia | Frankfurt | 5 | All Maps","name_short":"frk-5","host":"frk-1.de.uncletopia.com","port":27055,"enabled":true,"region":"eu","cc":"de","latitude":50.110924,"longitude":8.682127,"reserved":0,"last_update":"0001-01-01T00:00:00Z","name_a2s":"Uncletopia | Frankfurt | 5 | All Maps","protocol":17,"map":"pl_upward","folder":"tf","game":"Team Fortress","app_id":440,"player_count":24,"max_players":24,"Bots":0,"server_type":"Dedicated","server_os":"Linux","password":true,"vac":true,"version":"7757534","steam_id":85568392924504277,"keywords":["nocrits","nodmgspread","payload","uncletopia"],"game_id":440,"stv_port":27056,"stv_name":"Uncletopia | Frankfurt | 5 | All Maps | STV","players":[{"user_id":305,"name":"[waffles]","steam_id":76561198951206047,"connected_time":577000000000,"state":"active","ping":85},{"user_id":272,"name":"‚ò©Josias‚ò©","steam_id":76561198142727512,"connected_time":2411000000000,"state":"active","ping":60},{"user_id":306,"name":"Lucky B.üèÜ","steam_id":76561198077571162,"connected_time":542000000000,"state":"active","ping":56},{"user_id":287,"name":"Tzujko","steam_id":76561198414707694,"connected_time":1448000000000,"state":"active","ping":72},{"user_id":307,"name":"üóªüé¥Hadrian Maloneüé¥üóª","steam_id":76561198036151103,"connected_time":540000000000,"state":"active","ping":65},{"user_id":256,"name":"EGirlGang","steam_id":76561198257435792,"connected_time":3083000000000,"state":"active","ping":72},{"user_id":270,"name":"Le horse","steam_id":76561198119563666,"connected_time":2501000000000,"state":"active","ping":53},{"user_id":288,"name":"DOMINOS","steam_id":76561198334591211,"connected_time":1445000000000,"state":"active","ping":87},{"user_id":316,"name":"Retired English Player","steam_id":76561199037749675,"connected_time":179000000000,"state":"active","ping":41},{"user_id":296,"name":"Heikkimr","steam_id":76561198892900358,"connected_time":960000000000,"state":"active","ping":84},{"user_id":317,"name":"dj3mba","steam_id":76561197963636699,"connected_time":179000000000,"state":"active","ping":57},{"user_id":314,"name":"DeCypher [She/Her]","steam_id":76561198171992619,"connected_time":362000000000,"state":"active","ping":70},{"user_id":278,"name":"Roni Pepperoni","steam_id":76561198074979740,"connected_time":1986000000000,"state":"active","ping":46},{"user_id":230,"name":"ZazyLou_","steam_id":76561198411134617,"connected_time":4180000000000,"state":"active","ping":69},{"user_id":304,"name":"[phys] las3r_turk3n","steam_id":76561198074978213,"connected_time":835000000000,"state":"active","ping":71},{"user_id":315,"name":"TryTane","steam_id":76561198133293111,"connected_time":296000000000,"state":"active","ping":45},{"user_id":318,"name":"Kyazu","steam_id":76561198856117336,"connected_time":176000000000,"state":"active","ping":57},{"user_id":298,"name":"If I MVP My Team Sucks","steam_id":76561198147668373,"connected_time":948000000000,"state":"active","ping":56},{"user_id":259,"name":"Aureus M√∏ngrel","steam_id":76561198069347647,"connected_time":2963000000000,"state":"active","ping":78},{"user_id":299,"name":"Hattmannen","steam_id":76561198340884902,"connected_time":947000000000,"state":"active","ping":68},{"user_id":300,"name":"Faith (Star_Dust)","steam_id":76561199122856280,"connected_time":940000000000,"state":"active","ping":161},{"user_id":312,"name":"(wm) Das Fleisch","steam_id":76561198001250715,"connected_time":400000000000,"state":"active","ping":56},{"user_id":301,"name":"Puutarhuri","steam_id":76561199061395213,"connected_time":934000000000,"state":"active","ping":106},{"user_id":286,"name":"Jam ≈Åasica","steam_id":76561198151350633,"connected_time":1563000000000,"state":"active","ping":67}]},{"server_id":311,"name":"Uncletopia | Frankfurt | 6 | All Maps","name_short":"frk-6","host":"frk-1.de.uncletopia.com","port":27065,"enabled":true,"region":"eu","cc":"de","latitude":50.110924,"longitude":8.682127,"reserved":0,"last_update":"0001-01-01T00:00:00Z","name_a2s":"Uncletopia | Frankfurt | 6 | All Maps","protocol":17,"map":"pl_badwater","folder":"tf","game":"Team Fortress","app_id":440,"player_count":24,"max_players":24,"Bots":0,"server_type":"Dedicated","server_os":"Linux","password":true,"vac":true,"version":"7757534","steam_id":85568392924504278,"keywords":["nocrits","nodmgspread","payload","uncletopia"],"game_id":440,"stv_port":27066,"stv_name":"Uncletopia | Frankfurt | 6 | All Maps | STV","players":[{"user_id":186,"name":"medicinal man","steam_id":76561198202668788,"connected_time":4970000000000,"state":"active","ping":57},{"user_id":218,"name":"tired","steam_id":76561198046838168,"connected_time":3346000000000,"state":"active","ping":53},{"user_id":253,"name":"Lux","steam_id":76561198060417740,"connected_time":255000000000,"state":"active","ping":47},{"user_id":241,"name":"Triple donk man look at me donk","steam_id":76561198809859945,"connected_time":1428000000000,"state":"active","ping":74},{"user_id":251,"name":"XPullaHiiri","steam_id":76561198031652375,"connected_time":355000000000,"state":"active","ping":89},{"user_id":256,"name":"p1dgeon „Ç∑","steam_id":76561199109713313,"connected_time":203000000000,"state":"active","ping":60},{"user_id":145,"name":"BunkerBoy","steam_id":76561198859439313,"connected_time":6520000000000,"state":"active","ping":76},{"user_id":243,"name":"Kahvi","steam_id":76561198723244199,"connected_time":1119000000000,"state":"active","ping":89},{"user_id":244,"name":"Dooble donk man look at me donk","steam_id":76561198225523596,"connected_time":1099000000000,"state":"active","ping":70},{"user_id":237,"name":"Brasidas","steam_id":76561197966629582,"connected_time":1682000000000,"state":"active","ping":54},{"user_id":257,"name":"tiiyama","steam_id":76561198046196005,"connected_time":200000000000,"state":"active","ping":45},{"user_id":252,"name":"Remyie","steam_id":76561198131031404,"connected_time":323000000000,"state":"active","ping":98},{"user_id":233,"name":"Hitreg","steam_id":76561198067949491,"connected_time":1892000000000,"state":"active","ping":68},{"user_id":238,"name":"Bob Sacamano","steam_id":76561198085610701,"connected_time":1676000000000,"state":"active","ping":134},{"user_id":254,"name":"KGiorgios_Bully","steam_id":76561198825392728,"connected_time":239000000000,"state":"active","ping":106},{"user_id":247,"name":"Lyra","steam_id":76561198043601838,"connected_time":1081000000000,"state":"active","ping":60},{"user_id":258,"name":"jmp","steam_id":76561198168283286,"connected_time":191000000000,"state":"active","ping":75},{"user_id":239,"name":"Dambo","steam_id":76561198227320008,"connected_time":1674000000000,"state":"active","ping":111},{"user_id":234,"name":"Voidbane","steam_id":76561198060591741,"connected_time":1852000000000,"state":"active","ping":188},{"user_id":259,"name":"Iswak","steam_id":76561198234784568,"connected_time":189000000000,"state":"active","ping":102},{"user_id":260,"name":"BRICK TOP","steam_id":76561198014366715,"connected_time":135000000000,"state":"active","ping":60},{"user_id":255,"name":"Nouth","steam_id":76561198027054119,"connected_time":239000000000,"state":"active","ping":66},{"user_id":216,"name":"Topia","steam_id":76561198163571788,"connected_time":3535000000000,"state":"active","ping":86},{"user_id":249,"name":"ChaosMaster","steam_id":76561198360983155,"connected_time":1071000000000,"state":"active","ping":75}]},{"server_id":23,"name":"Uncletopia | Frankfurt | 7 | Stopwatch Beta","name_short":"frk-7","host":"frk-1.de.uncletopia.com","port":27075,"enabled":true,"region":"eu","cc":"de","latitude":50.110924,"longitude":8.682127,"reserved":0,"last_update":"0001-01-01T00:00:00Z","name_a2s":"Uncletopia | Frankfurt | 7 | Stopwatch Beta","protocol":17,"map":"workshop/pl_summercoast_rc8e.ugc1761528829","folder":"tf","game":"Team Fortress","app_id":440,"player_count":0,"max_players":24,"Bots":0,"server_type":"Dedicated","server_os":"Linux","password":true,"vac":true,"version":"7757534","steam_id":85568392924742827,"keywords":["nocrits","nodmgspread","payload","uncletopia"],"game_id":440,"stv_port":27076,"stv_name":"Uncletopia | Frankfurt | 7 | Stopwatch Beta | STV","players":null},{"server_id":24,"name":"Uncletopia | Frankfurt | 8 | Community","name_short":"frk-8","host":"frk-1.de.uncletopia.com","port":27085,"enabled":true,"region":"eu","cc":"de","latitude":50.110924,"longitude":8.682127,"reserved":0,"last_update":"0001-01-01T00:00:00Z","name_a2s":"Uncletopia | Frankfurt | 8 | Community","protocol":17,"map":"workshop/pl_highwood_b13.ugc1769496557","folder":"tf","game":"Team Fortress","app_id":440,"player_count":0,"max_players":24,"Bots":0,"server_type":"Dedicated","server_os":"Linux","password":true,"vac":true,"version":"7757534","steam_id":85568392924742828,"keywords":["nocrits","nodmgspread","payload","uncletopia"],"game_id":440,"stv_port":27086,"stv_name":"Uncletopia | Frankfurt | 8 | Community | STV","players":null},{"server_id":202,"name":"Uncletopia | Hong Kong | 1 | All Maps","name_short":"hgk-1","host":"hgk-1.hk.uncletopia.com","port":27015,"enabled":true,"region":"asia","cc":"hk","latitude":22.302711,"longitude":114.177216,"reserved":0,"last_update":"0001-01-01T00:00:00Z","name_a2s":"Uncletopia | Hong Kong | 1 | All Maps","protocol":17,"map":"pl_barnblitz","folder":"tf","game":"Team Fortress","app_id":440,"player_count":0,"max_players":24,"Bots":0,"server_type":"Dedicated","server_os":"Linux","password":true,"vac":true,"version":"7757534","steam_id":85568392924494504,"keywords":["nocrits","nodmgspread","payload","uncletopia"],"game_id":440,"stv_port":27016,"stv_name":"Uncletopia | Hong Kong | 1 | All Maps | STV","players":null},{"server_id":1,"name":"Uncletopia | Los Angeles | 1 | All Maps","name_short":"lax-1","host":"lax-1.us.uncletopia.com","port":27015,"enabled":true,"region":"us-west","cc":"us","latitude":33.94279,"longitude":-118.41004,"reserved":0,"last_update":"0001-01-01T00:00:00Z","name_a2s":"Uncletopia | Los Angeles | 1 | All Maps","protocol":17,"map":"cp_mountainlab","folder":"tf","game":"Team Fortress","app_id":440,"player_count":0,"max_players":24,"Bots":0,"server_type":"Dedicated","server_os":"Linux","password":true,"vac":true,"version":"7757534","steam_id":85568392924469991,"keywords":["cp","nocrits","nodmgspread","uncletopia"],"game_id":440,"stv_port":27016,"stv_name":"Uncletopia | Los Angeles | 1 | All Maps | STV","players":null},{"server_id":112,"name":"Uncletopia | Los Angeles | 2 | All Maps","name_short":"lax-2","host":"lax-1.us.uncletopia.com","port":27025,"enabled":true,"region":"us-west","cc":"us","latitude":33.94279,"longitude":-118.41004,"reserved":0,"last_update":"0001-01-01T00:00:00Z","name_a2s":"Uncletopia | Los Angeles | 2 | All Maps","protocol":17,"map":"koth_viaduct","folder":"tf","game":"Team Fortress","app_id":440,"player_count":0,"max_players":24,"Bots":0,"server_type":"Dedicated","server_os":"Linux","password":true,"vac":true,"version":"7757534","steam_id":85568392924469992,"keywords":["cp","nocrits","nodmgspread","uncletopia"],"game_id":440,"stv_port":27026,"stv_name":"Uncletopia | Los Angeles | 2 | All Maps | STV","players":null},{"server_id":324,"name":"Uncletopia | Los Angeles | 3 | All Maps","name_short":"lax-3","host":"lax-1.us.uncletopia.com","port":27035,"enabled":true,"region":"us-west","cc":"us","latitude":33.94279,"longitude":-118.41004,"reserved":0,"last_update":"0001-01-01T00:00:00Z","name_a2s":"Uncletopia | Los Angeles | 3 | All Maps","protocol":17,"map":"cp_altitude","folder":"tf","game":"Team Fortress","app_id":440,"player_count":0,"max_players":24,"Bots":0,"server_type":"Dedicated","server_os":"Linux","password":true,"vac":true,"version":"7757534","steam_id":85568392924510198,"keywords":["cp","nocrits","nodmgspread","uncletopia"],"game_id":440,"stv_port":27036,"stv_name":"Uncletopia | Los Angeles | 3 | All Maps | STV","players":null},{"server_id":25,"name":"Uncletopia | Los Angeles | 4 | Stopwatch Beta","name_short":"lax-4","host":"lax-1.us.uncletopia.com","port":27045,"enabled":true,"region":"us-west","cc":"us","latitude":33.94279,"longitude":-118.41004,"reserved":0,"last_update":"0001-01-01T00:00:00Z","name_a2s":"Uncletopia | Los Angeles | 4 | Stopwatch Beta","protocol":17,"map":"cp_dustbowl","folder":"tf","game":"Team Fortress","app_id":440,"player_count":0,"max_players":24,"Bots":0,"server_type":"Dedicated","server_os":"Linux","password":true,"vac":true,"version":"7757534","steam_id":85568392924510199,"keywords":["cp","nocrits","nodmgspread","uncletopia"],"game_id":440,"stv_port":27046,"stv_name":"Uncletopia | Los Angeles | 4 | Stopwatch Beta | STV","players":null},{"server_id":11,"name":"Uncletopia | London | 1 | All Maps","name_short":"lon-1","host":"lon-1.uk.uncletopia.com","port":27015,"enabled":true,"region":"eu","cc":"gb","latitude":51.509865,"longitude":-0.118092,"reserved":0,"last_update":"0001-01-01T00:00:00Z","name_a2s":"Uncletopia | London | 1 | All Maps","protocol":17,"map":"pl_barnblitz","folder":"tf","game":"Team Fortress","app_id":440,"player_count":24,"max_players":24,"Bots":0,"server_type":"Dedicated","server_os":"Linux","password":true,"vac":true,"version":"7757534","steam_id":85568392924367362,"keywords":["nocrits","nodmgspread","payload","uncletopia"],"game_id":440,"stv_port":27016,"stv_name":"Uncletopia | London | 1 | All Maps | STV","players":[{"user_id":328,"name":"Teleporter (jessie)","steam_id":76561198063093802,"connected_time":1331000000000,"state":"active","ping":40},{"user_id":335,"name":"KenPendersOfficial","steam_id":76561198065112022,"connected_time":1123000000000,"state":"active","ping":99},{"user_id":337,"name":"When Life gives you Lemons","steam_id":76561198318290663,"connected_time":315000000000,"state":"active","ping":47},{"user_id":317,"name":"-PONTELIUS- ‚ôâ","steam_id":76561198045799999,"connected_time":1983000000000,"state":"active","ping":92},{"user_id":305,"name":"competitively suicidal","steam_id":76561198193357946,"connected_time":2758000000000,"state":"active","ping":106},{"user_id":316,"name":":)","steam_id":76561198039964082,"connected_time":2205000000000,"state":"active","ping":61},{"user_id":339,"name":"Flying bottleman","steam_id":76561198241772340,"connected_time":266000000000,"state":"active","ping":101},{"user_id":336,"name":"Mkay","steam_id":76561198091874585,"connected_time":920000000000,"state":"active","ping":85},{"user_id":338,"name":"Mihuel Hairman#Savetf2","steam_id":76561199041992422,"connected_time":312000000000,"state":"active","ping":314},{"user_id":314,"name":"HaZ","steam_id":76561198441043969,"connected_time":2498000000000,"state":"active","ping":34},{"user_id":298,"name":"LIGHTWEIGHT BABY","steam_id":76561198002761980,"connected_time":3374000000000,"state":"active","ping":60},{"user_id":281,"name":"Caerot","steam_id":76561198839000676,"connected_time":4683000000000,"state":"active","ping":72},{"user_id":342,"name":"jimmy bob","steam_id":76561198319583692,"connected_time":7000000000,"state":"spawning","ping":61},{"user_id":319,"name":"Kiwimpediment","steam_id":76561198322781400,"connected_time":1947000000000,"state":"active","ping":137},{"user_id":329,"name":"askoidufjh","steam_id":76561198198581079,"connected_time":1314000000000,"state":"active","ping":78},{"user_id":331,"name":"Creature from the piss drawer","steam_id":76561198055949151,"connected_time":1303000000000,"state":"active","ping":43},{"user_id":325,"name":"Desj","steam_id":76561198114212636,"connected_time":1623000000000,"state":"active","ping":56},{"user_id":332,"name":"Milca_11","steam_id":76561198848650365,"connected_time":1281000000000,"state":"active","ping":89},{"user_id":301,"name":"Rodia","steam_id":76561197968293161,"connected_time":3144000000000,"state":"active","ping":74},{"user_id":322,"name":"Dolcelatte","steam_id":76561198038501770,"connected_time":1780000000000,"state":"active","ping":61},{"user_id":326,"name":"SirToast","steam_id":76561199229729107,"connected_time":1582000000000,"state":"active","ping":73},{"user_id":307,"name":"[No Class]","steam_id":76561199019412162,"connected_time":2736000000000,"state":"active","ping":51},{"user_id":295,"name":"0xDEADBEEF","steam_id":76561199075416111,"connected_time":3799000000000,"state":"active","ping":70},{"user_id":334,"name":"cyka","steam_id":76561198152226220,"connected_time":1263000000000,"state":"active","ping":79}]},{"server_id":114,"name":"Uncletopia | London | 2 | All Maps","name_short":"lon-2","host":"lon-1.uk.uncletopia.com","port":27025,"enabled":true,"region":"eu","cc":"gb","latitude":51.509865,"longitude":-0.118092,"reserved":0,"last_update":"0001-01-01T00:00:00Z","name_a2s":"Uncletopia | London | 2 | All Maps","protocol":17,"map":"koth_lakeside_final","folder":"tf","game":"Team Fortress","app_id":440,"player_count":0,"max_players":24,"Bots":0,"server_type":"Dedicated","server_os":"Linux","password":true,"vac":true,"version":"7757534","steam_id":85568392924470941,"keywords":["cp","nocrits","nodmgspread","uncletopia"],"game_id":440,"stv_port":27026,"stv_name":"Uncletopia | London | 2 | All Maps | STV","players":null},{"server_id":320,"name":"Uncletopia | London | 3 | All Maps","name_short":"lon-3","host":"lon-1.uk.uncletopia.com","port":27035,"enabled":true,"region":"eu","cc":"gb","latitude":51.509865,"longitude":-0.118092,"reserved":0,"last_update":"0001-01-01T00:00:00Z","name_a2s":"Uncletopia | London | 3 | All Maps","protocol":17,"map":"cp_process_final","folder":"tf","game":"Team Fortress","app_id":440,"player_count":24,"max_players":24,"Bots":0,"server_type":"Dedicated","server_os":"Linux","password":true,"vac":true,"version":"7757534","steam_id":85568392924510192,"keywords":["cp","nocrits","nodmgspread","uncletopia"],"game_id":440,"stv_port":27036,"stv_name":"Uncletopia | London | 3 | All Maps | STV","players":[{"user_id":647,"name":"rat performance","steam_id":76561198065854668,"connected_time":1476000000000,"state":"active","ping":43},{"user_id":602,"name":"Noob_with_source","steam_id":76561198870362103,"connected_time":4749000000000,"state":"active","ping":58},{"user_id":638,"name":"wtabs","steam_id":76561198831766743,"connected_time":2241000000000,"state":"active","ping":77},{"user_id":639,"name":"DocTwoEight","steam_id":76561198153488940,"connected_time":1617000000000,"state":"active","ping":77},{"user_id":592,"name":"wouris","steam_id":76561198876188003,"connected_time":5598000000000,"state":"active","ping":70},{"user_id":664,"name":"TTV/pablo_ricco","steam_id":76561198279839318,"connected_time":388000000000,"state":"active","ping":92},{"user_id":641,"name":"Mr.Mrausky","steam_id":76561199120622265,"connected_time":1584000000000,"state":"active","ping":168},{"user_id":662,"name":"sork","steam_id":76561198082446459,"connected_time":613000000000,"state":"active","ping":76},{"user_id":622,"name":"Abigor","steam_id":76561197969316578,"connected_time":4032000000000,"state":"active","ping":54},{"user_id":656,"name":"Speedy","steam_id":76561198080761661,"connected_time":952000000000,"state":"active","ping":131},{"user_id":507,"name":"Space","steam_id":76561198021572167,"connected_time":11038000000000,"state":"active","ping":45},{"user_id":496,"name":"Fat Pigeon","steam_id":76561198817940142,"connected_time":11776000000000,"state":"active","ping":45},{"user_id":651,"name":"OddBread","steam_id":76561198339301792,"connected_time":1402000000000,"state":"active","ping":123},{"user_id":654,"name":"I AM DOT","steam_id":76561198354118090,"connected_time":1356000000000,"state":"active","ping":89},{"user_id":658,"name":"Axl","steam_id":76561198034830082,"connected_time":905000000000,"state":"active","ping":75},{"user_id":648,"name":"Cotton Eye Joe","steam_id":76561198080594207,"connected_time":1458000000000,"state":"active","ping":55},{"user_id":665,"name":"Ohad","steam_id":76561198067989324,"connected_time":374000000000,"state":"active","ping":131},{"user_id":659,"name":"Birdseye","steam_id":76561198025852216,"connected_time":849000000000,"state":"active","ping":55},{"user_id":617,"name":"f√©nix","steam_id":76561198083199151,"connected_time":4126000000000,"state":"active","ping":56},{"user_id":508,"name":"Kitfist","steam_id":76561198048559338,"connected_time":10965000000000,"state":"active","ping":42},{"user_id":624,"name":"M«ø≈ü≈¶Œµ≈ó_√ü≈ÇŒª√ßƒõ","steam_id":76561197980124891,"connected_time":3789000000000,"state":"active","ping":59},{"user_id":625,"name":"Amy2Cute","steam_id":76561198291015553,"connected_time":3620000000000,"state":"active","ping":60},{"user_id":666,"name":"akakez","steam_id":76561198095432821,"connected_time":215000000000,"state":"active","ping":111},{"user_id":623,"name":"Slowbro","steam_id":76561198010779146,"connected_time":3983000000000,"state":"active","ping":86}]},{"server_id":321,"name":"Uncletopia | London | 4 | All Maps","name_short":"lon-4","host":"lon-1.uk.uncletopia.com","port":27045,"enabled":true,"region":"eu","cc":"gb","latitude":51.509865,"longitude":-0.118092,"reserved":0,"last_update":"0001-01-01T00:00:00Z","name_a2s":"Uncletopia | London | 4 | All Maps","protocol":17,"map":"pl_barnblitz","folder":"tf","game":"Team Fortress","app_id":440,"player_count":24,"max_players":24,"Bots":0,"server_type":"Dedicated","server_os":"Linux","password":true,"vac":true,"version":"7757534","steam_id":85568392924510193,"keywords":["nocrits","nodmgspread","payload","uncletopia"],"game_id":440,"stv_port":27046,"stv_name":"Uncletopia | London | 4 | All Maps | STV","players":[{"user_id":184,"name":"Bod Dog","steam_id":76561198080631634,"connected_time":415000000000,"state":"active","ping":57},{"user_id":186,"name":"Mixa.Lv","steam_id":76561198013911804,"connected_time":305000000000,"state":"active","ping":72},{"user_id":115,"name":"Xydran","steam_id":76561198042397402,"connected_time":4243000000000,"state":"active","ping":65},{"user_id":158,"name":"simonjohna646","steam_id":76561199403481880,"connected_time":1729000000000,"state":"active","ping":127},{"user_id":147,"name":"Gabriel Masa","steam_id":76561198211455375,"connected_time":2020000000000,"state":"active","ping":64},{"user_id":187,"name":"pizza time","steam_id":76561199015899793,"connected_time":304000000000,"state":"active","ping":53},{"user_id":166,"name":"Akio","steam_id":76561198197606282,"connected_time":1267000000000,"state":"active","ping":38},{"user_id":84,"name":"Monke","steam_id":76561198066994468,"connected_time":6119000000000,"state":"active","ping":75},{"user_id":145,"name":"Gryoss","steam_id":76561197999837111,"connected_time":2093000000000,"state":"active","ping":111},{"user_id":132,"name":"Fluffy","steam_id":76561198084447725,"connected_time":3116000000000,"state":"active","ping":45},{"user_id":188,"name":"1 toke 4 mars bars","steam_id":76561198056460000,"connected_time":297000000000,"state":"active","ping":84},{"user_id":81,"name":"veteran29","steam_id":76561197993041837,"connected_time":6251000000000,"state":"active","ping":74},{"user_id":167,"name":"Caesium_R4","steam_id":76561198432410602,"connected_time":1229000000000,"state":"active","ping":42},{"user_id":161,"name":"jerf","steam_id":76561199213901239,"connected_time":1405000000000,"state":"active","ping":45},{"user_id":171,"name":"Governathor","steam_id":76561198191115794,"connected_time":972000000000,"state":"active","ping":80},{"user_id":170,"name":"Homeless man with a home","steam_id":76561198274105878,"connected_time":1039000000000,"state":"active","ping":79},{"user_id":180,"name":"jar","steam_id":76561198156384007,"connected_time":572000000000,"state":"active","ping":48},{"user_id":189,"name":"-gunripp0r^be / Obelix^","steam_id":76561197999306879,"connected_time":290000000000,"state":"active","ping":105},{"user_id":181,"name":"Wardruna96","steam_id":76561199057083828,"connected_time":570000000000,"state":"active","ping":90},{"user_id":163,"name":"smoke","steam_id":76561198369002901,"connected_time":1387000000000,"state":"active","ping":52},{"user_id":182,"name":"holykyckling","steam_id":76561198040661615,"connected_time":466000000000,"state":"active","ping":87},{"user_id":172,"name":"the scringly dingly","steam_id":76561198192179174,"connected_time":826000000000,"state":"active","ping":125},{"user_id":177,"name":"MINORITY","steam_id":76561198059635136,"connected_time":643000000000,"state":"active","ping":67},{"user_id":54,"name":"Van","steam_id":76561198073518712,"connected_time":8394000000000,"state":"active","ping":116}]},{"server_id":21,"name":"Uncletopia | London | 5 | All Maps","name_short":"lon-5","host":"lon-1.uk.uncletopia.com","port":27055,"enabled":true,"region":"eu","cc":"gb","latitude":51.509865,"longitude":-0.118092,"reserved":0,"last_update":"0001-01-01T00:00:00Z","name_a2s":"Uncletopia | London | 5 | All Maps","protocol":17,"map":"koth_lakeside_final","folder":"tf","game":"Team Fortress","app_id":440,"player_count":0,"max_players":24,"Bots":0,"server_type":"Dedicated","server_os":"Linux","password":true,"vac":true,"version":"7757534","steam_id":85568392924742829,"keywords":["cp","nocrits","nodmgspread","uncletopia"],"game_id":440,"stv_port":27056,"stv_name":"Uncletopia | London | 5 | All Maps | STV","players":null},{"server_id":22,"name":"Uncletopia | London | 6 | All Maps","name_short":"lon-6","host":"lon-1.uk.uncletopia.com","port":27065,"enabled":true,"region":"eu","cc":"gb","latitude":51.509865,"longitude":-0.118092,"reserved":0,"last_update":"0001-01-01T00:00:00Z","name_a2s":"Uncletopia | London | 6 | All Maps","protocol":17,"map":"pl_barnblitz","folder":"tf","game":"Team Fortress","app_id":440,"player_count":0,"max_players":24,"Bots":0,"server_type":"Dedicated","server_os":"Linux","password":true,"vac":true,"version":"7757534","steam_id":85568392924742830,"keywords":["nocrits","nodmgspread","payload","uncletopia"],"game_id":440,"stv_port":27066,"stv_name":"Uncletopia | London | 6 | All Maps | STV","players":null},{"server_id":40,"name":"Uncletopia | London | 7 | No Payload","name_short":"lon-7","host":"lon-1.uk.uncletopia.com","port":27075,"enabled":true,"region":"eu","cc":"gb","latitude":51.509865,"longitude":-0.118092,"reserved":0,"last_update":"0001-01-01T00:00:00Z","name_a2s":"Uncletopia | London | 7 | No Payload","protocol":17,"map":"koth_sawmill","folder":"tf","game":"Team Fortress","app_id":440,"player_count":24,"max_players":24,"Bots":0,"server_type":"Dedicated","server_os":"Linux","password":true,"vac":true,"version":"7757534","steam_id":85568392924964314,"keywords":["cp","nocrits","nodmgspread","uncletopia"],"game_id":440,"stv_port":27076,"stv_name":"Uncletopia | London | 7 | No Payload | STV","players":[{"user_id":470,"name":"Zonts","steam_id":76561198850176432,"connected_time":3580000000000,"state":"active","ping":79},{"user_id":456,"name":"Pinkchup","steam_id":76561198106802803,"connected_time":4310000000000,"state":"active","ping":75},{"user_id":514,"name":"SwingyWingyShoes","steam_id":76561198089547302,"connected_time":711000000000,"state":"active","ping":49},{"user_id":518,"name":"kul","steam_id":76561198065179630,"connected_time":468000000000,"state":"active","ping":61},{"user_id":501,"name":"warum","steam_id":76561199403752637,"connected_time":1687000000000,"state":"active","ping":54},{"user_id":391,"name":"New","steam_id":76561198402195911,"connected_time":7594000000000,"state":"active","ping":114},{"user_id":515,"name":"Gibbed_GIBus30","steam_id":76561199272782484,"connected_time":681000000000,"state":"active","ping":71},{"user_id":503,"name":"wuult","steam_id":76561199292474288,"connected_time":1492000000000,"state":"active","ping":126},{"user_id":478,"name":"ArikMor","steam_id":76561199124472513,"connected_time":2375000000000,"state":"active","ping":123},{"user_id":490,"name":"Nut With Potential","steam_id":76561198293297458,"connected_time":2056000000000,"state":"active","ping":68},{"user_id":519,"name":"WinsomeYapper9","steam_id":76561199275285546,"connected_time":419000000000,"state":"active","ping":99},{"user_id":513,"name":"quickfast","steam_id":76561199438900919,"connected_time":738000000000,"state":"active","ping":45},{"user_id":516,"name":"neet","steam_id":76561197968115168,"connected_time":675000000000,"state":"active","ping":119},{"user_id":508,"name":"Clockwork","steam_id":76561198118123914,"connected_time":1146000000000,"state":"active","ping":73},{"user_id":521,"name":"sleep","steam_id":76561198034882276,"connected_time":376000000000,"state":"active","ping":91},{"user_id":483,"name":"MajorKlebstoff","steam_id":76561198035489363,"connected_time":2288000000000,"state":"active","ping":60},{"user_id":469,"name":"‚ô• Aura ‚ô•","steam_id":76561198066258544,"connected_time":3753000000000,"state":"active","ping":60},{"user_id":484,"name":"Doktor Drip","steam_id":76561198843329045,"connected_time":2286000000000,"state":"active","ping":115},{"user_id":497,"name":"Slim3rs","steam_id":76561199088010585,"connected_time":1827000000000,"state":"active","ping":183},{"user_id":523,"name":"NitPig","steam_id":76561198212991935,"connected_time":40000000000,"state":"spawning","ping":79},{"user_id":522,"name":"Bob","steam_id":76561198059559471,"connected_time":352000000000,"state":"active","ping":101},{"user_id":517,"name":"Jamierogers","steam_id":76561198007043853,"connected_time":641000000000,"state":"active","ping":62},{"user_id":509,"name":"Erates","steam_id":76561197968707211,"connected_time":1136000000000,"state":"active","ping":47},{"user_id":500,"name":"Bowl","steam_id":76561199066957022,"connected_time":1733000000000,"state":"active","ping":49}]},{"server_id":41,"name":"Uncletopia | London | 8 | Community","name_short":"lon-8","host":"lon-1.uk.uncletopia.com","port":27085,"enabled":true,"region":"eu","cc":"gb","latitude":51.509865,"longitude":-0.118092,"reserved":0,"last_update":"0001-01-01T00:00:00Z","name_a2s":"Uncletopia | London | 8 | Community","protocol":17,"map":"workshop/koth_ramjam_rc1.ugc459778887","folder":"tf","game":"Team Fortress","app_id":440,"player_count":0,"max_players":24,"Bots":0,"server_type":"Dedicated","server_os":"Linux","password":true,"vac":true,"version":"7757534","steam_id":85568392924964315,"keywords":["cp","nocrits","nodmgspread","uncletopia"],"game_id":440,"stv_port":27086,"stv_name":"Uncletopia | London | 8 | Community | STV","players":null},{"server_id":300,"name":"Uncletopia | Montr√©al | 1 | All Maps","name_short":"mtl-1","host":"mtl-1.ca.uncletopia.com","port":27015,"enabled":true,"region":"us-east","cc":"ca","latitude":45.50889,"longitude":-73.56167,"reserved":0,"last_update":"0001-01-01T00:00:00Z","name_a2s":"Uncletopia | Montr√©al | 1 | All Maps","protocol":17,"map":"pl_pier","folder":"tf","game":"Team Fortress","app_id":440,"player_count":0,"max_players":24,"Bots":0,"server_type":"Dedicated","server_os":"Linux","password":true,"vac":true,"version":"7757534","steam_id":85568392924500087,"keywords":["nocrits","nodmgspread","payload","uncletopia"],"game_id":440,"stv_port":27016,"stv_name":"Uncletopia | Montr√©al | 1 | All Maps | STV","players":null},{"server_id":301,"name":"Uncletopia | Montr√©al | 2 | All Maps","name_short":"mtl-2","host":"mtl-1.ca.uncletopia.com","port":27025,"enabled":true,"region":"us-east","cc":"ca","latitude":45.50889,"longitude":-73.56167,"reserved":0,"last_update":"0001-01-01T00:00:00Z","name_a2s":"Uncletopia | Montr√©al | 2 | All Maps","protocol":17,"map":"koth_lakeside_final","folder":"tf","game":"Team Fortress","app_id":440,"player_count":0,"max_players":24,"Bots":0,"server_type":"Dedicated","server_os":"Linux","password":true,"vac":true,"version":"7757534","steam_id":85568392924500088,"keywords":["cp","nocrits","nodmgspread","uncletopia"],"game_id":440,"stv_port":27026,"stv_name":"Uncletopia | Montr√©al | 2 | All Maps | STV","players":null},{"server_id":302,"name":"Uncletopia | Montr√©al | 3 | All Maps","name_short":"mtl-3","host":"mtl-1.ca.uncletopia.com","port":27035,"enabled":true,"region":"us-east","cc":"ca","latitude":45.50889,"longitude":-73.56167,"reserved":0,"last_update":"0001-01-01T00:00:00Z","name_a2s":"Uncletopia | Montr√©al | 3 | All Maps","protocol":17,"map":"pl_snowycoast","folder":"tf","game":"Team Fortress","app_id":440,"player_count":0,"max_players":24,"Bots":0,"server_type":"Dedicated","server_os":"Linux","password":true,"vac":true,"version":"7757534","steam_id":85568392924500089,"keywords":["nocrits","nodmgspread","payload","uncletopia"],"game_id":440,"stv_port":27036,"stv_name":"Uncletopia | Montr√©al | 3 | All Maps | STV","players":null},{"server_id":303,"name":"Uncletopia | Montr√©al | 4 | No Payload","name_short":"mtl-4","host":"mtl-1.ca.uncletopia.com","port":27045,"enabled":true,"region":"us-east","cc":"ca","latitude":45.50889,"longitude":-73.56167,"reserved":0,"last_update":"0001-01-01T00:00:00Z","name_a2s":"Uncletopia | Montr√©al | 4 | No Payload","protocol":17,"map":"pl_pier","folder":"tf","game":"Team Fortress","app_id":440,"player_count":3,"max_players":24,"Bots":0,"server_type":"Dedicated","server_os":"Linux","password":true,"vac":true,"version":"7757534","steam_id":85568392924500090,"keywords":["nocrits","nodmgspread","payload","uncletopia"],"game_id":440,"stv_port":27046,"stv_name":"Uncletopia | Montr√©al | 4 | No Payload | STV","players":[{"user_id":7,"name":"monkeyman1ooo","steam_id":76561198200227538,"connected_time":252000000000,"state":"active","ping":99},{"user_id":8,"name":"Flubzy1","steam_id":76561198379456004,"connected_time":244000000000,"state":"active","ping":86},{"user_id":9,"name":"Challenger Charles","steam_id":76561198005576553,"connected_time":241000000000,"state":"active","ping":55}]},{"server_id":13,"name":"Uncletopia | New York City | 1 | All Maps","name_short":"nyc-1","host":"nyc-1.us.uncletopia.com","port":27015,"enabled":true,"region":"us-east","cc":"us","latitude":40.73061,"longitude":-73.93524,"reserved":0,"last_update":"0001-01-01T00:00:00Z","name_a2s":"Uncletopia | New York City | 1 | All Maps","protocol":17,"map":"pl_pier","folder":"tf","game":"Team Fortress","app_id":440,"player_count":19,"max_players":24,"Bots":0,"server_type":"Dedicated","server_os":"Linux","password":true,"vac":true,"version":"7757534","steam_id":85568392924469993,"keywords":["nocrits","nodmgspread","payload","uncletopia"],"game_id":440,"stv_port":27016,"stv_name":"Uncletopia | New York City | 1 | All Maps | STV","players":[{"user_id":214,"name":"retinz","steam_id":76561198135563495,"connected_time":1307000000000,"state":"active","ping":49},{"user_id":228,"name":"Paprika","steam_id":76561198412628892,"connected_time":1004000000000,"state":"active","ping":63},{"user_id":267,"name":"Fredrick","steam_id":76561197981419964,"connected_time":5000000000,"state":"spawning","ping":277},{"user_id":192,"name":"21 Percent Milk","steam_id":76561198118529039,"connected_time":1981000000000,"state":"active","ping":46},{"user_id":188,"name":"The Drunk Clown","steam_id":76561197986850426,"connected_time":2204000000000,"state":"active","ping":71},{"user_id":186,"name":"CousinCarL","steam_id":76561198028421250,"connected_time":2220000000000,"state":"active","ping":45},{"user_id":136,"name":"BUNGACOWA","steam_id":76561198979176018,"connected_time":5984000000000,"state":"active","ping":89},{"user_id":201,"name":"alphawarrior999","steam_id":76561199001580062,"connected_time":1619000000000,"state":"active","ping":245},{"user_id":243,"name":"The Chosen One","steam_id":76561199046984627,"connected_time":564000000000,"state":"active","ping":86},{"user_id":174,"name":"deech","steam_id":76561198066429444,"connected_time":3608000000000,"state":"active","ping":39},{"user_id":190,"name":"Spirit","steam_id":76561199069322627,"connected_time":2149000000000,"state":"active","ping":64},{"user_id":195,"name":"King Baldski","steam_id":76561198359568400,"connected_time":1888000000000,"state":"active","ping":128},{"user_id":230,"name":"JA","steam_id":76561198308183330,"connected_time":975000000000,"state":"active","ping":30},{"user_id":162,"name":"Unbound Angel","steam_id":76561198198940541,"connected_time":3945000000000,"state":"active","ping":96},{"user_id":266,"name":"polaktorak","steam_id":76561199217577382,"connected_time":12000000000,"state":"spawning","ping":166},{"user_id":163,"name":"PheonixHeart8501","steam_id":76561198426232049,"connected_time":3919000000000,"state":"active","ping":89},{"user_id":191,"name":"A Puppy","steam_id":76561198828184456,"connected_time":2019000000000,"state":"active","ping":44},{"user_id":196,"name":"Fly_Johnson","steam_id":76561198882285873,"connected_time":1879000000000,"state":"active","ping":47},{"user_id":264,"name":"carrot cake","steam_id":76561198055174915,"connected_time":28000000000,"state":"active","ping":91}]},{"server_id":14,"name":"Uncletopia | New York City | 2 | All Maps","name_short":"nyc-2","host":"nyc-1.us.uncletopia.com","port":27025,"enabled":true,"region":"us-east","cc":"us","latitude":40.73061,"longitude":-73.93524,"reserved":0,"last_update":"0001-01-01T00:00:00Z","name_a2s":"Uncletopia | New York City | 2 | All Maps","protocol":17,"map":"pl_upward","folder":"tf","game":"Team Fortress","app_id":440,"player_count":24,"max_players":24,"Bots":0,"server_type":"Dedicated","server_os":"Linux","password":true,"vac":true,"version":"7757534","steam_id":85568392924469994,"keywords":["nocrits","nodmgspread","payload","uncletopia"],"game_id":440,"stv_port":27026,"stv_name":"Uncletopia | New York City | 2 | All Maps | STV","players":[{"user_id":107,"name":"Fresh0c0","steam_id":76561198271933283,"connected_time":2607000000000,"state":"active","ping":82},{"user_id":141,"name":"Birds1Œ©6","steam_id":76561198819495676,"connected_time":426000000000,"state":"active","ping":54},{"user_id":143,"name":"yeyoi","steam_id":76561198069821885,"connected_time":332000000000,"state":"active","ping":57},{"user_id":119,"name":"Diarrhea Gaming","steam_id":76561198090589784,"connected_time":1699000000000,"state":"active","ping":72},{"user_id":80,"name":"Your Local NPR Station","steam_id":76561198143830279,"connected_time":4419000000000,"state":"active","ping":60},{"user_id":121,"name":"QwilfishFan22","steam_id":76561198078565975,"connected_time":1533000000000,"state":"active","ping":47},{"user_id":106,"name":"jimbo","steam_id":76561198046059770,"connected_time":2666000000000,"state":"active","ping":48},{"user_id":142,"name":"stewfat","steam_id":76561198084066964,"connected_time":348000000000,"state":"active","ping":44},{"user_id":108,"name":"perrrrrrrrrrito","steam_id":76561198238155164,"connected_time":2597000000000,"state":"active","ping":86},{"user_id":125,"name":"The Greendale Human Beings","steam_id":76561198055433422,"connected_time":1471000000000,"state":"active","ping":67},{"user_id":59,"name":"Pennis the Menace","steam_id":76561198254878037,"connected_time":5971000000000,"state":"active","ping":100},{"user_id":128,"name":"O.o","steam_id":76561198056871257,"connected_time":1144000000000,"state":"active","ping":49},{"user_id":138,"name":"OPOC","steam_id":76561198026539183,"connected_time":683000000000,"state":"active","ping":59},{"user_id":81,"name":"Iron","steam_id":76561198247918478,"connected_time":4404000000000,"state":"active","ping":70},{"user_id":112,"name":"Slondermin","steam_id":76561198320301349,"connected_time":2221000000000,"state":"active","ping":69},{"user_id":124,"name":"GatoSeiko","steam_id":76561198001001360,"connected_time":1481000000000,"state":"active","ping":165},{"user_id":136,"name":"gghfgfgfg","steam_id":76561198064823861,"connected_time":733000000000,"state":"active","ping":58},{"user_id":139,"name":"Mightythor","steam_id":76561199162355715,"connected_time":679000000000,"state":"active","ping":91},{"user_id":110,"name":"Tea Enthusiast","steam_id":76561198185583925,"connected_time":2474000000000,"state":"active","ping":32},{"user_id":144,"name":"IAmAProfesonal","steam_id":76561199171858953,"connected_time":269000000000,"state":"active","ping":69},{"user_id":87,"name":"Hojo","steam_id":76561197976544480,"connected_time":4353000000000,"state":"active","ping":79},{"user_id":135,"name":"E$$ence","steam_id":76561198013374122,"connected_time":769000000000,"state":"active","ping":63},{"user_id":104,"name":"Rockcrusher","steam_id":76561199012666353,"connected_time":3114000000000,"state":"active","ping":72},{"user_id":133,"name":"Redninka","steam_id":76561198426721366,"connected_time":843000000000,"state":"active","ping":63}]},{"server_id":15,"name":"Uncletopia | New York City | 3 | Stopwatch Beta","name_short":"nyc-3","host":"nyc-1.us.uncletopia.com","port":27035,"enabled":true,"region":"us-east","cc":"us","latitude":40.73061,"longitude":-73.93524,"reserved":0,"last_update":"0001-01-01T00:00:00Z","name_a2s":"Uncletopia | New York City | 3 | Stopwatch Beta","protocol":17,"map":"koth_cascade","folder":"tf","game":"Team Fortress","app_id":440,"player_count":0,"max_players":24,"Bots":0,"server_type":"Dedicated","server_os":"Linux","password":true,"vac":true,"version":"7757534","steam_id":85568392924742820,"keywords":["cp","nocrits","nodmgspread","uncletopia"],"game_id":440,"stv_port":27036,"stv_name":"Uncletopia | New York City | 3 | Stopwatch Beta | STV","players":null},{"server_id":16,"name":"Uncletopia | New York City | 4 | Community","name_short":"nyc-4","host":"nyc-1.us.uncletopia.com","port":27045,"enabled":true,"region":"us-east","cc":"us","latitude":40.73061,"longitude":-73.93524,"reserved":0,"last_update":"0001-01-01T00:00:00Z","name_a2s":"Uncletopia | New York City | 4 | Community","protocol":17,"map":"workshop/cp_villa_b19.ugc2113052569","folder":"tf","game":"Team Fortress","app_id":440,"player_count":0,"max_players":24,"Bots":0,"server_type":"Dedicated","server_os":"Linux","password":true,"vac":true,"version":"7757534","steam_id":85568392924742821,"keywords":["cp","nocrits","nodmgspread","uncletopia"],"game_id":440,"stv_port":27046,"stv_name":"Uncletopia | New York City | 4 | Community | STV","players":null},{"server_id":142,"name":"Uncletopia | S√£o Paulo | 1 | All Maps","name_short":"sao-1","host":"sao-1.br.uncletopia.com","port":27015,"enabled":true,"region":"sa","cc":"br","latitude":-23.533773,"longitude":-46.62529,"reserved":0,"last_update":"0001-01-01T00:00:00Z","name_a2s":"Uncletopia | S√£o Paulo | 1 | All Maps","protocol":17,"map":"koth_highpass","folder":"tf","game":"Team Fortress","app_id":440,"player_count":0,"max_players":24,"Bots":0,"server_type":"Dedicated","server_os":"Linux","password":true,"vac":true,"version":"7757534","steam_id":85568392924469996,"keywords":["cp","nocrits","nodmgspread","uncletopia"],"game_id":440,"stv_port":27016,"stv_name":"Uncletopia | S√£o Paulo | 1 | All Maps | STV","players":null},{"server_id":143,"name":"Uncletopia | S√£o Paulo | 2 | All Maps","name_short":"sao-2","host":"sao-2.br.uncletopia.com","port":27015,"enabled":true,"region":"sa","cc":"br","latitude":-23.533773,"longitude":-46.62529,"reserved":0,"last_update":"0001-01-01T00:00:00Z","name_a2s":"Uncletopia | S√£o Paulo | 2 | All Maps","protocol":17,"map":"pl_borneo","folder":"tf","game":"Team Fortress","app_id":440,"player_count":0,"max_players":24,"Bots":0,"server_type":"Dedicated","server_os":"Linux","password":true,"vac":true,"version":"7757534","steam_id":85568392924485349,"keywords":["nocrits","nodmgspread","payload","uncletopia"],"game_id":440,"stv_port":27016,"stv_name":"Uncletopia | S√£o Paulo | 2 | All Maps | STV","players":null},{"server_id":7,"name":"Uncletopia | Seattle | 1 | All Maps","name_short":"sea-1","host":"sea-1.us.uncletopia.com","port":27015,"enabled":true,"region":"us-west","cc":"us","latitude":47.608013,"longitude":-122.33517,"reserved":0,"last_update":"0001-01-01T00:00:00Z","name_a2s":"Uncletopia | Seattle | 1 | All Maps","protocol":17,"map":"pl_frontier_final","folder":"tf","game":"Team Fortress","app_id":440,"player_count":24,"max_players":24,"Bots":0,"server_type":"Dedicated","server_os":"Linux","password":true,"vac":true,"version":"7757534","steam_id":85568392924469997,"keywords":["nocrits","nodmgspread","payload","uncletopia"],"game_id":440,"stv_port":27016,"stv_name":"Uncletopia | Seattle | 1 | All Maps | STV","players":[{"user_id":181,"name":"jackhillard83","steam_id":76561199057098390,"connected_time":341000000000,"state":"active","ping":123},{"user_id":147,"name":"MerkZ","steam_id":76561198047620432,"connected_time":2540000000000,"state":"active","ping":68},{"user_id":166,"name":"chanoc","steam_id":76561198026734746,"connected_time":1220000000000,"state":"active","ping":73},{"user_id":183,"name":"Spoofle","steam_id":76561199003655066,"connected_time":264000000000,"state":"active","ping":75},{"user_id":158,"name":"Lochness_monster","steam_id":76561198417831973,"connected_time":1545000000000,"state":"active","ping":76},{"user_id":187,"name":"=_=","steam_id":76561198165567310,"connected_time":224000000000,"state":"active","ping":116},{"user_id":178,"name":"Whiskey","steam_id":76561198858154667,"connected_time":449000000000,"state":"active","ping":78},{"user_id":109,"name":"wlnecro1","steam_id":76561199157418402,"connected_time":5238000000000,"state":"active","ping":107},{"user_id":165,"name":"Dive(z)","steam_id":76561198140843225,"connected_time":1282000000000,"state":"active","ping":107},{"user_id":179,"name":"rkp!","steam_id":76561199053070819,"connected_time":402000000000,"state":"active","ping":84},{"user_id":159,"name":"Kontray","steam_id":76561198294948653,"connected_time":1456000000000,"state":"active","ping":91},{"user_id":176,"name":"Giddy","steam_id":76561198129732108,"connected_time":519000000000,"state":"active","ping":68},{"user_id":185,"name":"BurningKev","steam_id":76561198057688837,"connected_time":252000000000,"state":"active","ping":78},{"user_id":169,"name":"my monitor is off","steam_id":76561198074499537,"connected_time":863000000000,"state":"active","ping":107},{"user_id":132,"name":"tekan","steam_id":76561199077174231,"connected_time":4098000000000,"state":"active","ping":106},{"user_id":173,"name":"o o o o o o o o o","steam_id":76561197993757506,"connected_time":581000000000,"state":"active","ping":74},{"user_id":186,"name":"ArchmageF","steam_id":76561197992246851,"connected_time":248000000000,"state":"active","ping":56},{"user_id":190,"name":"ORANGE","steam_id":76561198000401769,"connected_time":193000000000,"state":"active","ping":45},{"user_id":188,"name":"bird doctor","steam_id":76561199144340440,"connected_time":224000000000,"state":"active","ping":75},{"user_id":191,"name":"LemonLimeSoda","steam_id":76561198287682469,"connected_time":138000000000,"state":"active","ping":81},{"user_id":133,"name":"spider_murphy","steam_id":76561198079057101,"connected_time":4066000000000,"state":"active","ping":61},{"user_id":189,"name":"KnifeScope","steam_id":76561198057632106,"connected_time":216000000000,"state":"active","ping":114},{"user_id":184,"name":"megaroboleg","steam_id":76561198844644993,"connected_time":253000000000,"state":"active","ping":80},{"user_id":180,"name":"Keamy","steam_id":76561199471434875,"connected_time":357000000000,"state":"active","ping":44}]},{"server_id":119,"name":"Uncletopia | Seattle | 2 | All Maps","name_short":"sea-2","host":"sea-1.us.uncletopia.com","port":27025,"enabled":true,"region":"us-west","cc":"us","latitude":47.608013,"longitude":-122.33517,"reserved":0,"last_update":"0001-01-01T00:00:00Z","name_a2s":"Uncletopia | Seattle | 2 | All Maps","protocol":17,"map":"pl_swiftwater_final1","folder":"tf","game":"Team Fortress","app_id":440,"player_count":24,"max_players":24,"Bots":0,"server_type":"Dedicated","server_os":"Linux","password":true,"vac":true,"version":"7757534","steam_id":85568392924469998,"keywords":["nocrits","nodmgspread","payload","uncletopia"],"game_id":440,"stv_port":27026,"stv_name":"Uncletopia | Seattle | 2 | All Maps | STV","players":[{"user_id":66,"name":"Wool","steam_id":76561198332704108,"connected_time":242000000000,"state":"active","ping":103},{"user_id":65,"name":"Gr8butnotreally","steam_id":76561198133924450,"connected_time":391000000000,"state":"active","ping":85},{"user_id":44,"name":"lili","steam_id":76561199391478575,"connected_time":1707000000000,"state":"active","ping":72},{"user_id":6,"name":"Path To Victory","steam_id":76561198026958898,"connected_time":2755000000000,"state":"active","ping":105},{"user_id":46,"name":"Project Dusk","steam_id":76561198193521149,"connected_time":1498000000000,"state":"active","ping":117},{"user_id":64,"name":"Drive-By-Fish-Guy","steam_id":76561198105513652,"connected_time":540000000000,"state":"active","ping":87},{"user_id":41,"name":"purple‚Ñ¢","steam_id":76561198057459725,"connected_time":1903000000000,"state":"active","ping":48},{"user_id":67,"name":"grinny08","steam_id":76561199078875445,"connected_time":230000000000,"state":"active","ping":92},{"user_id":69,"name":"Fl4mingo","steam_id":76561198025601344,"connected_time":88000000000,"state":"active","ping":80},{"user_id":53,"name":"gmagnum","steam_id":76561199034260371,"connected_time":1014000000000,"state":"active","ping":87},{"user_id":70,"name":"Donkski","steam_id":76561198406895347,"connected_time":62000000000,"state":"active","ping":72},{"user_id":23,"name":"Daddy Topps","steam_id":76561198203594332,"connected_time":2319000000000,"state":"active","ping":39},{"user_id":20,"name":"Cloud","steam_id":76561198272454184,"connected_time":2373000000000,"state":"active","ping":170},{"user_id":32,"name":"üé´Wooteryüé´","steam_id":76561199237356695,"connected_time":2119000000000,"state":"active","ping":66},{"user_id":59,"name":"What are you doing?!","steam_id":76561198405248691,"connected_time":715000000000,"state":"active","ping":76},{"user_id":45,"name":"MotherDucker","steam_id":76561198257619240,"connected_time":1693000000000,"state":"active","ping":108},{"user_id":26,"name":"oo","steam_id":76561198119626492,"connected_time":2292000000000,"state":"active","ping":68},{"user_id":49,"name":"all men are pigs","steam_id":76561198080301085,"connected_time":1299000000000,"state":"active","ping":52},{"user_id":28,"name":"Salt Itself","steam_id":76561198873190258,"connected_time":2230000000000,"state":"active","ping":87},{"user_id":62,"name":"Concolor","steam_id":76561198027734150,"connected_time":686000000000,"state":"active","ping":101},{"user_id":71,"name":"DIZ","steam_id":76561199065119525,"connected_time":62000000000,"state":"active","ping":139},{"user_id":38,"name":"A Shiny Meat Bicycle","steam_id":76561198358757709,"connected_time":2010000000000,"state":"active","ping":143},{"user_id":39,"name":"FenrirBanner(She/Her){SoF}","steam_id":76561198179585865,"connected_time":1972000000000,"state":"active","ping":79},{"user_id":58,"name":"manbearswineflu","steam_id":76561198083945137,"connected_time":745000000000,"state":"active","ping":113}]},{"server_id":406,"name":"Uncletopia | Seattle | 3 | Stopwatch Beta","name_short":"sea-3","host":"sea-1.us.uncletopia.com","port":27035,"enabled":true,"region":"us-west","cc":"us","latitude":47.608013,"longitude":-122.33517,"reserved":0,"last_update":"0001-01-01T00:00:00Z","name_a2s":"Uncletopia | Seattle | 3 | Stopwatch Beta","protocol":17,"map":"workshop/koth_ashville_final.ugc2130459942","folder":"tf","game":"Team Fortress","app_id":440,"player_count":0,"max_players":24,"Bots":0,"server_type":"Dedicated","server_os":"Linux","password":true,"vac":true,"version":"7757534","steam_id":85568392924515217,"keywords":["cp","nocrits","nodmgspread","uncletopia"],"game_id":440,"stv_port":27036,"stv_name":"Uncletopia | Seattle | 3 | Stopwatch Beta | STV","players":null},{"server_id":17,"name":"Uncletopia | San Francisco | 1 | All Maps","name_short":"sfo-1","host":"sfo-1.us.uncletopia.com","port":27015,"enabled":true,"region":"us-west","cc":"us","latitude":37.77397,"longitude":-122.4313,"reserved":0,"last_update":"0001-01-01T00:00:00Z","name_a2s":"Uncletopia | San Francisco | 1 | All Maps","protocol":17,"map":"cp_mountainlab","folder":"tf","game":"Team Fortress","app_id":440,"player_count":0,"max_players":24,"Bots":0,"server_type":"Dedicated","server_os":"Linux","password":true,"vac":true,"version":"7757534","steam_id":85568392924469999,"keywords":["cp","nocrits","nodmgspread","uncletopia"],"game_id":440,"stv_port":27016,"stv_name":"Uncletopia | San Francisco | 1 | All Maps | STV","players":null},{"server_id":18,"name":"Uncletopia | San Francisco | 2 | All Maps","name_short":"sfo-2","host":"sfo-1.us.uncletopia.com","port":27025,"enabled":true,"region":"us-west","cc":"us","latitude":37.77397,"longitude":-122.4313,"reserved":0,"last_update":"0001-01-01T00:00:00Z","name_a2s":"Uncletopia | San Francisco | 2 | All Maps","protocol":17,"map":"koth_viaduct","folder":"tf","game":"Team Fortress","app_id":440,"player_count":0,"max_players":24,"Bots":0,"server_type":"Dedicated","server_os":"Linux","password":true,"vac":true,"version":"7757534","steam_id":85568392924470000,"keywords":["cp","nocrits","nodmgspread","uncletopia"],"game_id":440,"stv_port":27026,"stv_name":"Uncletopia | San Francisco | 2 | All Maps | STV","players":null},{"server_id":19,"name":"Uncletopia | San Francisco | 3 | Stopwatch Beta","name_short":"sfo-3","host":"sfo-1.us.uncletopia.com","port":27035,"enabled":true,"region":"us-west","cc":"us","latitude":37.77397,"longitude":-122.4313,"reserved":0,"last_update":"0001-01-01T00:00:00Z","name_a2s":"Uncletopia | San Francisco | 3 | Stopwatch Beta","protocol":17,"map":"workshop/koth_bagel_rc6.ugc2514036946","folder":"tf","game":"Team Fortress","app_id":440,"player_count":0,"max_players":24,"Bots":0,"server_type":"Dedicated","server_os":"Linux","password":true,"vac":true,"version":"7757534","steam_id":85568392924742824,"keywords":["cp","nocrits","nodmgspread","uncletopia"],"game_id":440,"stv_port":27036,"stv_name":"Uncletopia | San Francisco | 3 | Stopwatch Beta | STV","players":null},{"server_id":20,"name":"Uncletopia | San Francisco | 4 | Community","name_short":"sfo-4","host":"sfo-1.us.uncletopia.com","port":27045,"enabled":true,"region":"us-west","cc":"us","latitude":37.77397,"longitude":-122.4313,"reserved":0,"last_update":"0001-01-01T00:00:00Z","name_a2s":"Uncletopia | San Francisco | 4 | Community","protocol":17,"map":"pl_frontier_final","folder":"tf","game":"Team Fortress","app_id":440,"player_count":0,"max_players":24,"Bots":0,"server_type":"Dedicated","server_os":"Linux","password":true,"vac":true,"version":"7757534","steam_id":85568392924742826,"keywords":["nocrits","nodmgspread","payload","uncletopia"],"game_id":440,"stv_port":27046,"stv_name":"Uncletopia | San Francisco | 4 | Community | STV","players":null},{"server_id":141,"name":"Uncletopia | Sydney | 1 | All Maps","name_short":"syd-1","host":"syd-1.au.uncletopia.com","port":27015,"enabled":true,"region":"au","cc":"au","latitude":-33.865143,"longitude":151.2099,"reserved":0,"last_update":"0001-01-01T00:00:00Z","name_a2s":"Uncletopia | Sydney | 1 | All Maps","protocol":17,"map":"koth_viaduct","folder":"tf","game":"Team Fortress","app_id":440,"player_count":0,"max_players":24,"Bots":0,"server_type":"Dedicated","server_os":"Linux","password":true,"vac":true,"version":"7757534","steam_id":85568392924470001,"keywords":["cp","nocrits","nodmgspread","uncletopia"],"game_id":440,"stv_port":27016,"stv_name":"Uncletopia | Sydney | 1 | All Maps | STV","players":null},{"server_id":123,"name":"Uncletopia | Sydney | 2 | All Maps","name_short":"syd-2","host":"syd-1.au.uncletopia.com","port":27025,"enabled":true,"region":"au","cc":"au","latitude":-33.865143,"longitude":151.2099,"reserved":0,"last_update":"0001-01-01T00:00:00Z","name_a2s":"Uncletopia | Sydney | 2 | All Maps","protocol":17,"map":"koth_nucleus","folder":"tf","game":"Team Fortress","app_id":440,"player_count":0,"max_players":24,"Bots":0,"server_type":"Dedicated","server_os":"Linux","password":true,"vac":true,"version":"7757534","steam_id":85568392924470002,"keywords":["cp","nocrits","nodmgspread","uncletopia"],"game_id":440,"stv_port":27026,"stv_name":"Uncletopia | Sydney | 2 | All Maps | STV","players":null},{"server_id":395,"name":"Uncletopia | Sydney | 3 | All Maps","name_short":"syd-3","host":"syd-1.au.uncletopia.com","port":27035,"enabled":true,"region":"au","cc":"au","latitude":-33.865143,"longitude":151.2099,"reserved":0,"last_update":"0001-01-01T00:00:00Z","name_a2s":"Uncletopia | Sydney | 3 | All Maps","protocol":17,"map":"koth_lakeside_final","folder":"tf","game":"Team Fortress","app_id":440,"player_count":0,"max_players":24,"Bots":0,"server_type":"Dedicated","server_os":"Linux","password":true,"vac":true,"version":"7757534","steam_id":85568392925194467,"keywords":["cp","nocrits","nodmgspread","uncletopia"],"game_id":440,"stv_port":27036,"stv_name":"Uncletopia | Sydney | 3 | All Maps | STV","players":null},{"server_id":396,"name":"Uncletopia | Sydney | 4 | All Maps","name_short":"syd-4","host":"syd-1.au.uncletopia.com","port":27045,"enabled":true,"region":"au","cc":"au","latitude":-33.865143,"longitude":151.2099,"reserved":0,"last_update":"0001-01-01T00:00:00Z","name_a2s":"Uncletopia | Sydney | 4 | All Maps","protocol":17,"map":"koth_lakeside_final","folder":"tf","game":"Team Fortress","app_id":440,"player_count":0,"max_players":24,"Bots":0,"server_type":"Dedicated","server_os":"Linux","password":true,"vac":true,"version":"7757534","steam_id":85568392925397958,"keywords":["cp","nocrits","nodmgspread","uncletopia"],"game_id":440,"stv_port":27046,"stv_name":"Uncletopia | Sydney | 4 | All Maps | STV","players":null},{"server_id":58,"name":"Uncletopia | Sydney | 5 | Stopwatch Beta","name_short":"syd-5","host":"syd-1.au.uncletopia.com","port":27055,"enabled":true,"region":"au","cc":"au","latitude":-33.865143,"longitude":151.2099,"reserved":0,"last_update":"0001-01-01T00:00:00Z","name_a2s":"Uncletopia | Sydney | 5 | Stopwatch Beta","protocol":17,"map":"workshop/pl_badwater_pro_v12.ugc2142942074","folder":"tf","game":"Team Fortress","app_id":440,"player_count":0,"max_players":24,"Bots":0,"server_type":"Dedicated","server_os":"Linux","password":true,"vac":true,"version":"7757534","steam_id":85568392925397959,"keywords":["nocrits","nodmgspread","payload","uncletopia"],"game_id":440,"stv_port":27056,"stv_name":"Uncletopia | Sydney | 5 | Stopwatch Beta | STV","players":null},{"server_id":59,"name":"Uncletopia | Sydney | 6 | Community","name_short":"syd-6","host":"syd-1.au.uncletopia.com","port":27065,"enabled":true,"region":"au","cc":"au","latitude":-33.865143,"longitude":151.2099,"reserved":0,"last_update":"0001-01-01T00:00:00Z","name_a2s":"Uncletopia | Sydney | 6 | Community","protocol":17,"map":"workshop/koth_kemptown_rc1.ugc767410655","folder":"tf","game":"Team Fortress","app_id":440,"player_count":0,"max_players":24,"Bots":0,"server_type":"Dedicated","server_os":"Linux","password":true,"vac":true,"version":"7757534","steam_id":85568392925397960,"keywords":["cp","nocrits","nodmgspread","uncletopia"],"game_id":440,"stv_port":27066,"stv_name":"Uncletopia | Sydney | 6 | Community | STV","players":null},{"server_id":49,"name":"Uncletopia | Warsaw | 1 | All Maps","name_short":"waw-1","host":"waw-1.pl.uncletopia.com","port":27015,"enabled":true,"region":"eu","cc":"pl","latitude":52.2297,"longitude":21.017532,"reserved":0,"last_update":"0001-01-01T00:00:00Z","name_a2s":"","protocol":0,"map":"","folder":"","game":"","app_id":0,"player_count":0,"max_players":0,"Bots":0,"server_type":"","server_os":"","password":false,"vac":false,"version":"","steam_id":0,"keywords":null,"game_id":0,"stv_port":0,"stv_name":"","players":null},{"server_id":50,"name":"Uncletopia | Warsaw | 2 | All Maps","name_short":"waw-2","host":"waw-1.pl.uncletopia.com","port":27025,"enabled":true,"region":"eu","cc":"pl","latitude":52.2297,"longitude":21.017532,"reserved":0,"last_update":"0001-01-01T00:00:00Z","name_a2s":"Uncletopia | Warsaw | 2 | All Maps","protocol":17,"map":"pl_barnblitz","folder":"tf","game":"Team Fortress","app_id":440,"player_count":24,"max_players":24,"Bots":0,"server_type":"Dedicated","server_os":"Linux","password":true,"vac":true,"version":"7757534","steam_id":85568392925397851,"keywords":["nocrits","nodmgspread","payload","uncletopia"],"game_id":440,"stv_port":27026,"stv_name":"Uncletopia | Warsaw | 2 | All Maps | STV","players":[{"user_id":106,"name":"lagzer","steam_id":76561198029295449,"connected_time":2538000000000,"state":"active","ping":52},{"user_id":144,"name":"Sch","steam_id":76561198071341689,"connected_time":35000000000,"state":"active","ping":66},{"user_id":145,"name":"Almonds","steam_id":76561199411891752,"connected_time":23000000000,"state":"spawning","ping":115},{"user_id":123,"name":"shinji crank that soulja boy","steam_id":76561198099696876,"connected_time":1254000000000,"state":"active","ping":75},{"user_id":69,"name":"Kan0_","steam_id":76561198129596771,"connected_time":5226000000000,"state":"active","ping":75},{"user_id":70,"name":"Jark","steam_id":76561198083804272,"connected_time":5218000000000,"state":"active","ping":166},{"user_id":124,"name":"Over here saw bones","steam_id":76561198320506848,"connected_time":1248000000000,"state":"active","ping":71},{"user_id":127,"name":"ff:ff:ff:ff:ff:ff","steam_id":76561198072122983,"connected_time":1227000000000,"state":"active","ping":84},{"user_id":102,"name":"BAPELIS","steam_id":76561198139157427,"connected_time":3458000000000,"state":"active","ping":116},{"user_id":137,"name":"Fhffandpurr","steam_id":76561199229773312,"connected_time":1007000000000,"state":"active","ping":182},{"user_id":74,"name":"|not|dan|the|epic|gamer|","steam_id":76561198278561932,"connected_time":4990000000000,"state":"active","ping":130},{"user_id":142,"name":"AuGiuX189","steam_id":76561198082663833,"connected_time":62000000000,"state":"active","ping":72},{"user_id":131,"name":"Randomer","steam_id":76561198010533981,"connected_time":1174000000000,"state":"active","ping":51},{"user_id":103,"name":"isha","steam_id":76561199041566425,"connected_time":3133000000000,"state":"active","ping":66},{"user_id":99,"name":"Owl","steam_id":76561198248266580,"connected_time":3582000000000,"state":"active","ping":74},{"user_id":84,"name":"Spajro","steam_id":76561198257383813,"connected_time":4256000000000,"state":"active","ping":45},{"user_id":132,"name":"‚òÜMiNTERRRRR‚òÜ","steam_id":76561198799866156,"connected_time":1151000000000,"state":"active","ping":95},{"user_id":143,"name":"Jam","steam_id":76561198090409013,"connected_time":59000000000,"state":"active","ping":81},{"user_id":146,"name":"Derp","steam_id":76561198197901062,"connected_time":18000000000,"state":"active","ping":65},{"user_id":87,"name":"Magic","steam_id":76561198401602586,"connected_time":4186000000000,"state":"active","ping":115},{"user_id":135,"name":"DJ Hangel","steam_id":76561198037943004,"connected_time":1045000000000,"state":"active","ping":121},{"user_id":139,"name":"LOBZIK","steam_id":76561198114830120,"connected_time":699000000000,"state":"active","ping":51},{"user_id":141,"name":"PatrikMaestro","steam_id":76561198120220773,"connected_time":176000000000,"state":"active","ping":71},{"user_id":140,"name":"Mata_FM","steam_id":76561198044824504,"connected_time":527000000000,"state":"active","ping":82}]},{"server_id":51,"name":"Uncletopia | Warsaw | 3 | All Maps","name_short":"waw-3","host":"waw-1.pl.uncletopia.com","port":27035,"enabled":true,"region":"eu","cc":"pl","latitude":52.2297,"longitude":21.017532,"reserved":0,"last_update":"0001-01-01T00:00:00Z","name_a2s":"Uncletopia | Warsaw | 3 | All Maps","protocol":17,"map":"pl_frontier_final","folder":"tf","game":"Team Fortress","app_id":440,"player_count":0,"max_players":24,"Bots":0,"server_type":"Dedicated","server_os":"Linux","password":true,"vac":true,"version":"7757534","steam_id":85568392925397852,"keywords":["nocrits","nodmgspread","payload","uncletopia"],"game_id":440,"stv_port":27036,"stv_name":"Uncletopia | Warsaw | 3 | All Maps | STV","players":null},{"server_id":52,"name":"Uncletopia | Warsaw | 4 | All Maps","name_short":"waw-4","host":"waw-1.pl.uncletopia.com","port":27045,"enabled":true,"region":"eu","cc":"pl","latitude":52.2297,"longitude":21.017532,"reserved":0,"last_update":"0001-01-01T00:00:00Z","name_a2s":"Uncletopia | Warsaw | 4 | All Maps","protocol":17,"map":"cp_altitude","folder":"tf","game":"Team Fortress","app_id":440,"player_count":1,"max_players":24,"Bots":0,"server_type":"Dedicated","server_os":"Linux","password":true,"vac":true,"version":"7757534","steam_id":85568392925397853,"keywords":["cp","nocrits","nodmgspread","uncletopia"],"game_id":440,"stv_port":27046,"stv_name":"Uncletopia | Warsaw | 4 | All Maps | STV","players":[{"user_id":3,"name":"Denialman (Muted)","steam_id":76561198309182092,"connected_time":229000000000,"state":"active","ping":73}]},{"server_id":53,"name":"Uncletopia | Warsaw | 5 | Stopwatch Beta","name_short":"waw-5","host":"waw-1.pl.uncletopia.com","port":27055,"enabled":true,"region":"eu","cc":"pl","latitude":52.2297,"longitude":21.017532,"reserved":0,"last_update":"0001-01-01T00:00:00Z","name_a2s":"Uncletopia | Warsaw | 5 | Stopwatch Beta","protocol":17,"map":"pl_pier","folder":"tf","game":"Team Fortress","app_id":440,"player_count":0,"max_players":24,"Bots":0,"server_type":"Dedicated","server_os":"Linux","password":true,"vac":true,"version":"7757534","steam_id":85568392925397854,"keywords":["nocrits","nodmgspread","payload","uncletopia"],"game_id":440,"stv_port":27056,"stv_name":"Uncletopia | Warsaw | 5 | Stopwatch Beta | STV","players":null},{"server_id":54,"name":"Uncletopia | Warsaw | 6 | Community","name_short":"waw-6","host":"waw-1.pl.uncletopia.com","port":27065,"enabled":true,"region":"eu","cc":"pl","latitude":52.2297,"longitude":21.017532,"reserved":0,"last_update":"0001-01-01T00:00:00Z","name_a2s":"Uncletopia | Warsaw | 6 | Community","protocol":17,"map":"workshop/pl_divulgence_b4b.ugc2884808746","folder":"tf","game":"Team Fortress","app_id":440,"player_count":0,"max_players":24,"Bots":0,"server_type":"Dedicated","server_os":"Linux","password":true,"vac":true,"version":"7757534","steam_id":85568392925397856,"keywords":["nocrits","nodmgspread","payload","uncletopia"],"game_id":440,"stv_port":27066,"stv_name":"Uncletopia | Warsaw | 6 | Community | STV","players":null}]}