{"status":true,"message":"","result":[{"server_id":9,"name":"Uncletopia | Atlanta | 1 | All Maps","name_short":"atl-1","host":"atl-1.us.uncletopia.com","port":27015,"enabled":true,"region":"us-east","cc":"us","latitude":33.753746,"longitude":-84.38633,"reserved":0,"last_update":"0001-01-01T00:00:00Z","name_a2s":"Uncletopia | Atlanta | 1 | All Maps","protocol":17,"map":"koth_viaduct","folder":"tf","game":"Team Fortress","app_id":440,"player_count":0,"max_players":24,"Bots":0,"server_type":"Dedicated","server_os":"Linux","password":true,"vac":true,"version":"7932396","steam_id":85568392924469982,"keywords":["cp","nocrits","nodmgspread","uncletopia"],"game_id":440,"stv_port":27016,"stv_name":"Uncletopia | Atlanta | 1 | All Maps | STV","players":null},{"server_id":104,"name":"Uncletopia | Atlanta | 2 | All Maps","name_short":"atl-2","host":"atl-1.us.uncletopia.com","port":27025,"enabled":true,"region":"us-east","cc":"us","latitude":33.753746,"longitude":-84.38633,"reserved":0,"last_update":"0001-01-01T00:00:00Z","name_a2s":"Uncletopia | Atlanta | 2 | All Maps","protocol":17,"map":"koth_viaduct","folder":"tf","game":"Team Fortress","app_id":440,"player_count":0,"max_players":24,"Bots":0,"server_type":"Dedicated","server_os":"Linux","password":true,"vac":true,"version":"7932396","steam_id":85568392924469983,"keywords":["cp","nocrits","nodmgspread","uncletopia"],"game_id":440,"stv_port":27026,"stv_name":"Uncletopia | Atlanta | 2 | All Maps | STV","players":null},{"server_id":400,"name":"Uncletopia | Atlanta | 3 | Community","name_short":"atl-3","host":"atl-1.us.uncletopia.com","port":27035,"enabled":true,"region":"us-east","cc":"us","latitude":33.753746,"longitude":-84.38633,"reserved":0,"last_update":"0001-01-01T00:00:00Z","name_a2s":"Uncletopia | Atlanta | 3 | Community","protocol":17,"map":"workshop/pl_emerge_rc2.ugc888027758","folder":"tf","game":"Team Fortress","app_id":440,"player_count":0,"max_players":24,"Bots":0,"server_type":"Dedicated","server_os":"Linux","password":true,"vac":true,"version":"7932396","steam_id":85568392924515187,"keywords":["nocrits","nodmgspread","payload","uncletopia"],"game_id":440,"stv_port":27036,"stv_name":"Uncletopia | Atlanta | 3 | Community | STV","players":null},{"server_id":401,"name":"Uncletopia | Atlanta | 4 | No Payload","name_short":"atl-4","host":"atl-1.us.uncletopia.com","port":27045,"enabled":true,"region":"us-east","cc":"us","latitude":33.753746,"longitude":-84.38633,"reserved":0,"last_update":"0001-01-01T00:00:00Z","name_a2s":"","protocol":0,"map":"","folder":"","game":"","app_id":0,"player_count":0,"max_players":0,"Bots":0,"server_type":"","server_os":"","password":false,"vac":false,"version":"","steam_id":0,"keywords":null,"game_id":0,"stv_port":0,"stv_name":"","players":null},{"server_id":2,"name":"Uncletopia | Chicago | 1 | All Maps","name_short":"chi-1","host":"chi-1.us.uncletopia.com","port":27015,"enabled":true,"region":"us-central","cc":"us","latitude":41.881832,"longitude":-87.62318,"reserved":0,"last_update":"0001-01-01T00:00:00Z","name_a2s":"Uncletopia | Chicago | 1 | All Maps","protocol":17,"map":"pl_upward","folder":"tf","game":"Team Fortress","app_id":440,"player_count":24,"max_players":24,"Bots":0,"server_type":"Dedicated","server_os":"Linux","password":true,"vac":true,"version":"7932396","steam_id":85568392924469984,"keywords":["nocrits","nodmgspread","payload","uncletopia"],"game_id":440,"stv_port":27016,"stv_name":"Uncletopia | Chicago | 1 | All Maps | STV","players":[{"user_id":261,"name":"professional bodyshooter","steam_id":76561199200442395,"connected_time":290000000000,"state":"active","ping":166},{"user_id":200,"name":"Zoot","steam_id":76561198121944243,"connected_time":5027000000000,"state":"active","ping":74},{"user_id":244,"name":"BigChunkyKong","steam_id":76561198067446388,"connected_time":2319000000000,"state":"active","ping":38},{"user_id":257,"name":"dj magdogrozen","steam_id":76561198984131011,"connected_time":349000000000,"state":"active","ping":65},{"user_id":258,"name":"Xx_gam3rberg_xX","steam_id":76561199035781025,"connected_time":323000000000,"state":"active","ping":96},{"user_id":255,"name":"Django","steam_id":76561197971158403,"connected_time":383000000000,"state":"active","ping":69},{"user_id":120,"name":"dirty tuna","steam_id":76561198021535785,"connected_time":11648000000000,"state":"active","ping":72},{"user_id":224,"name":"I shit my pants for 12 Ref","steam_id":76561198097847998,"connected_time":3134000000000,"state":"active","ping":61},{"user_id":222,"name":"Dracula, King of All Vampires","steam_id":76561198026930160,"connected_time":3249000000000,"state":"active","ping":76},{"user_id":194,"name":"Waddlehi","steam_id":76561198072553840,"connected_time":5221000000000,"state":"active","ping":61},{"user_id":254,"name":"Missing Minus","steam_id":76561198120822928,"connected_time":874000000000,"state":"active","ping":60},{"user_id":259,"name":"mr.edderkopper","steam_id":76561198152614478,"connected_time":315000000000,"state":"active","ping":52},{"user_id":248,"name":"Astrocircuit","steam_id":76561198014437544,"connected_time":2120000000000,"state":"active","ping":65},{"user_id":164,"name":"Classysaurus","steam_id":76561198065992731,"connected_time":7421000000000,"state":"active","ping":56},{"user_id":187,"name":"you keep smelling the syrup","steam_id":76561198142756572,"connected_time":5577000000000,"state":"active","ping":60},{"user_id":238,"name":"Stupid Sexy Flanders #Save tf2","steam_id":76561198136311983,"connected_time":2721000000000,"state":"active","ping":80},{"user_id":240,"name":"Someone","steam_id":76561199121969306,"connected_time":2710000000000,"state":"active","ping":84},{"user_id":228,"name":"Malleo777","steam_id":76561198097995505,"connected_time":3076000000000,"state":"active","ping":80},{"user_id":230,"name":"darkerogamer","steam_id":76561198341101156,"connected_time":3046000000000,"state":"active","ping":115},{"user_id":247,"name":"PyroEagle","steam_id":76561198296434231,"connected_time":2274000000000,"state":"active","ping":65},{"user_id":253,"name":"viego","steam_id":76561198273568117,"connected_time":967000000000,"state":"active","ping":63},{"user_id":260,"name":"Esteban Delsin","steam_id":76561198433519639,"connected_time":301000000000,"state":"active","ping":100},{"user_id":232,"name":"blob","steam_id":76561198122375328,"connected_time":3031000000000,"state":"active","ping":59},{"user_id":235,"name":"StonedGiant","steam_id":76561197984386932,"connected_time":2867000000000,"state":"active","ping":59}]},{"server_id":106,"name":"Uncletopia | Chicago | 2 | All Maps","name_short":"chi-2","host":"chi-1.us.uncletopia.com","port":27025,"enabled":true,"region":"us-central","cc":"us","latitude":41.881832,"longitude":-87.62318,"reserved":0,"last_update":"0001-01-01T00:00:00Z","name_a2s":"Uncletopia | Chicago | 2 | All Maps","protocol":17,"map":"cp_foundry","folder":"tf","game":"Team Fortress","app_id":440,"player_count":24,"max_players":24,"Bots":0,"server_type":"Dedicated","server_os":"Linux","password":true,"vac":true,"version":"7932396","steam_id":85568392924469985,"keywords":["cp","nocrits","nodmgspread","uncletopia"],"game_id":440,"stv_port":27026,"stv_name":"Uncletopia | Chicago | 2 | All Maps | STV","players":[{"user_id":437,"name":"Edgar Allan Poe","steam_id":76561198247815090,"connected_time":206000000000,"state":"active","ping":50},{"user_id":411,"name":"thetroupegang","steam_id":76561198340510098,"connected_time":2457000000000,"state":"active","ping":69},{"user_id":433,"name":"JadEDU","steam_id":76561198170648674,"connected_time":478000000000,"state":"active","ping":66},{"user_id":434,"name":"Guess I'm just popo","steam_id":76561197966419253,"connected_time":461000000000,"state":"active","ping":61},{"user_id":422,"name":"AnonymousCritter","steam_id":76561198864475187,"connected_time":1097000000000,"state":"active","ping":55},{"user_id":421,"name":"jerma enthusiast","steam_id":76561198359466264,"connected_time":1146000000000,"state":"active","ping":73},{"user_id":435,"name":"Mr. Durian","steam_id":76561198093813212,"connected_time":460000000000,"state":"active","ping":78},{"user_id":436,"name":"4jess20","steam_id":76561199488852383,"connected_time":293000000000,"state":"active","ping":81},{"user_id":390,"name":"Aiden939","steam_id":76561198860530097,"connected_time":4150000000000,"state":"active","ping":85},{"user_id":413,"name":"fernando","steam_id":76561198142586591,"connected_time":2059000000000,"state":"active","ping":87},{"user_id":424,"name":"P-4rio","steam_id":76561198003593070,"connected_time":1075000000000,"state":"active","ping":60},{"user_id":425,"name":"Rukks","steam_id":76561197993918954,"connected_time":1067000000000,"state":"active","ping":90},{"user_id":332,"name":"Snoopy","steam_id":76561198273735974,"connected_time":8366000000000,"state":"active","ping":90},{"user_id":415,"name":"Daehypeels","steam_id":76561198268981599,"connected_time":1848000000000,"state":"active","ping":76},{"user_id":347,"name":"The Dreamer","steam_id":76561198047638312,"connected_time":6676000000000,"state":"active","ping":56},{"user_id":431,"name":"Smug Pug","steam_id":76561198059423334,"connected_time":753000000000,"state":"active","ping":57},{"user_id":388,"name":"HarryjusttHarry","steam_id":76561198982810452,"connected_time":4212000000000,"state":"active","ping":87},{"user_id":430,"name":"βlight","steam_id":76561198811130843,"connected_time":905000000000,"state":"active","ping":76},{"user_id":408,"name":"Baby gaming","steam_id":76561198867319323,"connected_time":3004000000000,"state":"active","ping":63},{"user_id":387,"name":"DarthEthanBoy","steam_id":76561198441643581,"connected_time":4322000000000,"state":"active","ping":63},{"user_id":416,"name":"Blazing Hyena","steam_id":76561199121852680,"connected_time":1726000000000,"state":"active","ping":99},{"user_id":427,"name":"TravelerFinis","steam_id":76561199181244690,"connected_time":1042000000000,"state":"active","ping":246},{"user_id":407,"name":"GotYourNose","steam_id":76561198803527852,"connected_time":3145000000000,"state":"active","ping":69},{"user_id":429,"name":"IAmAProfesonal","steam_id":76561199171858953,"connected_time":986000000000,"state":"active","ping":54}]},{"server_id":402,"name":"Uncletopia | Chicago | 3 | All Maps","name_short":"chi-3","host":"chi-1.us.uncletopia.com","port":27035,"enabled":true,"region":"us-central","cc":"us","latitude":41.881832,"longitude":-87.62318,"reserved":0,"last_update":"0001-01-01T00:00:00Z","name_a2s":"Uncletopia | Chicago | 3 | All Maps","protocol":17,"map":"cp_snakewater_final1","folder":"tf","game":"Team Fortress","app_id":440,"player_count":23,"max_players":24,"Bots":0,"server_type":"Dedicated","server_os":"Linux","password":true,"vac":true,"version":"7932396","steam_id":85568392924515191,"keywords":["cp","nocrits","nodmgspread","uncletopia"],"game_id":440,"stv_port":27036,"stv_name":"Uncletopia | Chicago | 3 | All Maps | STV","players":[{"user_id":210,"name":"co)))))ne","steam_id":76561198053967778,"connected_time":3472000000000,"state":"active","ping":66},{"user_id":236,"name":"Shnesh","steam_id":76561198826005248,"connected_time":821000000000,"state":"active","ping":184},{"user_id":230,"name":"sansa musa","steam_id":76561198163723555,"connected_time":1229000000000,"state":"active","ping":60},{"user_id":207,"name":"Hobo Ninja","steam_id":76561198029755261,"connected_time":3738000000000,"state":"active","ping":44},{"user_id":231,"name":"Adum","steam_id":76561198181162382,"connected_time":1203000000000,"state":"active","ping":70},{"user_id":219,"name":"Bone Daddy","steam_id":76561198037836736,"connected_time":1990000000000,"state":"active","ping":85},{"user_id":215,"name":"DS8U","steam_id":76561198151554321,"connected_time":2446000000000,"state":"active","ping":52},{"user_id":194,"name":"GreekGoat_Coffee","steam_id":76561198129331088,"connected_time":4837000000000,"state":"active","ping":45},{"user_id":235,"name":"ATL1 | TheRealMud","steam_id":76561198138312993,"connected_time":1003000000000,"state":"active","ping":73},{"user_id":168,"name":"ShellBug","steam_id":76561198144187527,"connected_time":7126000000000,"state":"active","ping":68},{"user_id":225,"name":"RarestGuide","steam_id":76561198050338923,"connected_time":1753000000000,"state":"active","ping":67},{"user_id":229,"name":"wavlog0124","steam_id":76561199079614516,"connected_time":1311000000000,"state":"active","ping":50},{"user_id":214,"name":"GUP SUPERFAN.!! ツ","steam_id":76561198196769297,"connected_time":2747000000000,"state":"active","ping":52},{"user_id":241,"name":"evnobev","steam_id":76561198038966462,"connected_time":270000000000,"state":"active","ping":59},{"user_id":228,"name":"Voltaire!","steam_id":76561198047528141,"connected_time":1452000000000,"state":"active","ping":84},{"user_id":237,"name":"NataKilar","steam_id":76561198041274441,"connected_time":821000000000,"state":"active","ping":64},{"user_id":209,"name":"Wild_Rumpus","steam_id":76561198066393719,"connected_time":3626000000000,"state":"active","ping":49},{"user_id":239,"name":"pyrofucking","steam_id":76561198156333207,"connected_time":430000000000,"state":"active","ping":97},{"user_id":238,"name":"thecal","steam_id":76561198307893384,"connected_time":788000000000,"state":"active","ping":51},{"user_id":185,"name":"msay","steam_id":76561198170888029,"connected_time":5522000000000,"state":"active","ping":94},{"user_id":201,"name":"Shoeshocker","steam_id":76561198174302467,"connected_time":4627000000000,"state":"active","ping":67},{"user_id":242,"name":"Capt.Swag","steam_id":76561198088340994,"connected_time":181000000000,"state":"active","ping":78},{"user_id":178,"name":"Killroy NQP ❤","steam_id":76561198006983771,"connected_time":6523000000000,"state":"active","ping":74}]},{"server_id":403,"name":"Uncletopia | Chicago | 4 | All Maps","name_short":"chi-4","host":"chi-1.us.uncletopia.com","port":27045,"enabled":true,"region":"us-central","cc":"us","latitude":41.881832,"longitude":-87.62318,"reserved":0,"last_update":"0001-01-01T00:00:00Z","name_a2s":"Uncletopia | Chicago | 4 | All Maps","protocol":17,"map":"pl_swiftwater_final1","folder":"tf","game":"Team Fortress","app_id":440,"player_count":23,"max_players":24,"Bots":0,"server_type":"Dedicated","server_os":"Linux","password":true,"vac":true,"version":"7932396","steam_id":85568392924515193,"keywords":["nocrits","nodmgspread","payload","uncletopia"],"game_id":440,"stv_port":27046,"stv_name":"Uncletopia | Chicago | 4 | All Maps | STV","players":[{"user_id":443,"name":"Bajanga.co","steam_id":76561199122049654,"connected_time":594000000000,"state":"active","ping":85},{"user_id":428,"name":"Monolith Soldier","steam_id":76561198171898155,"connected_time":1017000000000,"state":"active","ping":60},{"user_id":372,"name":"Luca!","steam_id":76561198137880777,"connected_time":5150000000000,"state":"active","ping":87},{"user_id":450,"name":"Mangoue","steam_id":76561198844686784,"connected_time":337000000000,"state":"active","ping":76},{"user_id":442,"name":"shampoo","steam_id":76561198069600113,"connected_time":654000000000,"state":"active","ping":47},{"user_id":420,"name":"Clear Sky Soldier","steam_id":76561199234350287,"connected_time":1277000000000,"state":"active","ping":57},{"user_id":415,"name":"BALD SPOTTER 5000","steam_id":76561198352909489,"connected_time":1541000000000,"state":"active","ping":142},{"user_id":416,"name":"rachel epiphet","steam_id":76561198380018244,"connected_time":1502000000000,"state":"active","ping":74},{"user_id":402,"name":"Ceige (redemption arc)","steam_id":76561198068538473,"connected_time":2030000000000,"state":"active","ping":78},{"user_id":427,"name":"SHADOW (he/him)","steam_id":76561198207768148,"connected_time":1076000000000,"state":"active","ping":116},{"user_id":429,"name":"Zixzs","steam_id":76561198055504126,"connected_time":985000000000,"state":"active","ping":64},{"user_id":440,"name":"The Crabnuts","steam_id":76561198077974897,"connected_time":682000000000,"state":"active","ping":45},{"user_id":392,"name":"Pepsi Man","steam_id":76561198353520643,"connected_time":3199000000000,"state":"active","ping":74},{"user_id":452,"name":"twerp","steam_id":76561198347557315,"connected_time":52000000000,"state":"active","ping":82},{"user_id":453,"name":"Antonin Scalia","steam_id":76561198080687598,"connected_time":19000000000,"state":"active","ping":64},{"user_id":438,"name":"novu","steam_id":76561198886997024,"connected_time":720000000000,"state":"active","ping":88},{"user_id":445,"name":"Bean0914","steam_id":76561198261906023,"connected_time":589000000000,"state":"active","ping":86},{"user_id":387,"name":"alpha","steam_id":76561198250491640,"connected_time":3766000000000,"state":"active","ping":131},{"user_id":446,"name":"nori_420","steam_id":76561199117134203,"connected_time":589000000000,"state":"active","ping":110},{"user_id":448,"name":"ultralisk52","steam_id":76561198051666604,"connected_time":392000000000,"state":"active","ping":62},{"user_id":433,"name":"gay sex (enjoyer of)","steam_id":76561198250068972,"connected_time":928000000000,"state":"active","ping":92},{"user_id":435,"name":"phantom","steam_id":76561197963860777,"connected_time":811000000000,"state":"active","ping":88},{"user_id":449,"name":"leumas","steam_id":76561198240408540,"connected_time":391000000000,"state":"active","ping":75}]},{"server_id":36,"name":"Uncletopia | Chicago | 5 | All Maps","name_short":"chi-5","host":"chi-2.us.uncletopia.com","port":27015,"enabled":true,"region":"us-central","cc":"us","latitude":41.881832,"longitude":-87.62318,"reserved":0,"last_update":"0001-01-01T00:00:00Z","name_a2s":"Uncletopia | Chicago | 5 | All Maps","protocol":17,"map":"pl_barnblitz","folder":"tf","game":"Team Fortress","app_id":440,"player_count":24,"max_players":24,"Bots":0,"server_type":"Dedicated","server_os":"Linux","password":true,"vac":true,"version":"7932396","steam_id":85568392924866362,"keywords":["nocrits","nodmgspread","payload","uncletopia"],"game_id":440,"stv_port":27016,"stv_name":"Uncletopia | Chicago | 5 | All Maps | STV","players":[{"user_id":128,"name":"Jade Greenleaf","steam_id":76561198304845413,"connected_time":708000000000,"state":"active","ping":90},{"user_id":107,"name":"The Dragon of Upper Vermont","steam_id":76561199215695536,"connected_time":1399000000000,"state":"active","ping":60},{"user_id":129,"name":"YaBoi0_0","steam_id":76561198024122526,"connected_time":675000000000,"state":"active","ping":63},{"user_id":138,"name":"Foghorn Tape","steam_id":76561199106422675,"connected_time":323000000000,"state":"active","ping":98},{"user_id":120,"name":"RefriedToast","steam_id":76561198166187853,"connected_time":948000000000,"state":"active","ping":86},{"user_id":127,"name":"Mehman","steam_id":76561199020244051,"connected_time":734000000000,"state":"active","ping":99},{"user_id":90,"name":"ShiverShock","steam_id":76561198994768522,"connected_time":2672000000000,"state":"active","ping":84},{"user_id":133,"name":"Pattar","steam_id":76561198146276146,"connected_time":599000000000,"state":"active","ping":58},{"user_id":137,"name":"Voids","steam_id":76561198128386726,"connected_time":416000000000,"state":"active","ping":82},{"user_id":113,"name":"Kyle the Controller User","steam_id":76561198025050432,"connected_time":1258000000000,"state":"active","ping":90},{"user_id":134,"name":"Quietsharp","steam_id":76561198277968438,"connected_time":588000000000,"state":"active","ping":105},{"user_id":136,"name":"J The Jounin","steam_id":76561198034583622,"connected_time":499000000000,"state":"active","ping":83},{"user_id":109,"name":"TheUltraFinder","steam_id":76561198142857769,"connected_time":1363000000000,"state":"active","ping":84},{"user_id":135,"name":"slugnuts?","steam_id":76561198142129648,"connected_time":583000000000,"state":"active","ping":67},{"user_id":71,"name":"BugsAreMyWorstEnemy","steam_id":76561199440395505,"connected_time":3787000000000,"state":"active","ping":71},{"user_id":124,"name":"carrot cake","steam_id":76561198055174915,"connected_time":848000000000,"state":"active","ping":65},{"user_id":125,"name":"Illusionism","steam_id":76561198167878499,"connected_time":810000000000,"state":"active","ping":85},{"user_id":117,"name":"Sono","steam_id":76561199077527007,"connected_time":1073000000000,"state":"active","ping":58},{"user_id":115,"name":"Gamering_funy","steam_id":76561199006503777,"connected_time":1190000000000,"state":"active","ping":59},{"user_id":111,"name":"coolplums","steam_id":76561198072154720,"connected_time":1343000000000,"state":"active","ping":53},{"user_id":55,"name":"richarven","steam_id":76561198189429665,"connected_time":4873000000000,"state":"active","ping":73},{"user_id":77,"name":"5mech","steam_id":76561198979167520,"connected_time":3349000000000,"state":"active","ping":57},{"user_id":139,"name":"orgasmo","steam_id":76561198047355245,"connected_time":30000000000,"state":"active","ping":72},{"user_id":62,"name":"the Light Beast","steam_id":76561198111975583,"connected_time":4661000000000,"state":"active","ping":75}]},{"server_id":37,"name":"Uncletopia | Chicago | 6 | All Maps","name_short":"chi-6","host":"chi-2.us.uncletopia.com","port":27025,"enabled":true,"region":"us-central","cc":"us","latitude":41.881832,"longitude":-87.62318,"reserved":0,"last_update":"0001-01-01T00:00:00Z","name_a2s":"Uncletopia | Chicago | 6 | All Maps","protocol":17,"map":"pl_upward","folder":"tf","game":"Team Fortress","app_id":440,"player_count":24,"max_players":24,"Bots":0,"server_type":"Dedicated","server_os":"Linux","password":true,"vac":true,"version":"7932396","steam_id":85568392924866363,"keywords":["nocrits","nodmgspread","payload","uncletopia"],"game_id":440,"stv_port":27026,"stv_name":"Uncletopia | Chicago | 6 | All Maps | STV","players":[{"user_id":83,"name":"what do","steam_id":76561198148059714,"connected_time":537000000000,"state":"active","ping":61},{"user_id":81,"name":"Kickpuncher","steam_id":76561198121528357,"connected_time":571000000000,"state":"active","ping":74},{"user_id":79,"name":"Corbe","steam_id":76561198353893927,"connected_time":1106000000000,"state":"active","ping":38},{"user_id":97,"name":"Boznyan","steam_id":76561198129164016,"connected_time":25000000000,"state":"active","ping":57},{"user_id":82,"name":"chunguspilled","steam_id":76561198263122601,"connected_time":548000000000,"state":"active","ping":56},{"user_id":94,"name":"GoldtoothFour","steam_id":76561198055529332,"connected_time":118000000000,"state":"active","ping":56},{"user_id":70,"name":"Big Tonka","steam_id":76561198891584971,"connected_time":1641000000000,"state":"active","ping":75},{"user_id":72,"name":"gon","steam_id":76561198341171295,"connected_time":1360000000000,"state":"active","ping":93},{"user_id":85,"name":"Flurmburger","steam_id":76561198065303036,"connected_time":526000000000,"state":"active","ping":78},{"user_id":86,"name":"Xlopthessa","steam_id":76561198295361100,"connected_time":515000000000,"state":"active","ping":111},{"user_id":64,"name":"Gay Mushroom","steam_id":76561198151549658,"connected_time":2003000000000,"state":"active","ping":88},{"user_id":37,"name":"Ghille","steam_id":76561198027234838,"connected_time":3388000000000,"state":"active","ping":61},{"user_id":87,"name":"Goth Spy Boyfriend","steam_id":76561198104086771,"connected_time":477000000000,"state":"active","ping":101},{"user_id":71,"name":"swaglord1738420litty","steam_id":76561198062870880,"connected_time":1369000000000,"state":"active","ping":90},{"user_id":50,"name":"b4rry","steam_id":76561198365887154,"connected_time":2789000000000,"state":"active","ping":77},{"user_id":95,"name":"marcus tillius","steam_id":76561197982832274,"connected_time":102000000000,"state":"active","ping":58},{"user_id":92,"name":"frying pan gaming","steam_id":76561199097866312,"connected_time":244000000000,"state":"active","ping":124},{"user_id":58,"name":"Gilgamesh","steam_id":76561198317113179,"connected_time":2281000000000,"state":"active","ping":63},{"user_id":96,"name":"Open Mailbox","steam_id":76561198051933580,"connected_time":97000000000,"state":"active","ping":121},{"user_id":91,"name":"blood is power","steam_id":76561198016826181,"connected_time":406000000000,"state":"active","ping":72},{"user_id":90,"name":"Aware","steam_id":76561198013338167,"connected_time":426000000000,"state":"active","ping":60},{"user_id":63,"name":"Viokik","steam_id":76561198408846602,"connected_time":2129000000000,"state":"active","ping":65},{"user_id":93,"name":"peniblor","steam_id":76561198307923786,"connected_time":225000000000,"state":"active","ping":141},{"user_id":54,"name":"Lichy","steam_id":76561198310682841,"connected_time":2754000000000,"state":"active","ping":54}]},{"server_id":38,"name":"Uncletopia | Chicago | 7 | Stopwatch Beta","name_short":"chi-7","host":"chi-2.us.uncletopia.com","port":27035,"enabled":true,"region":"us-central","cc":"us","latitude":41.881832,"longitude":-87.62318,"reserved":0,"last_update":"0001-01-01T00:00:00Z","name_a2s":"Uncletopia | Chicago | 7 | Stopwatch Beta","protocol":17,"map":"pl_borneo","folder":"tf","game":"Team Fortress","app_id":440,"player_count":0,"max_players":24,"Bots":0,"server_type":"Dedicated","server_os":"Linux","password":true,"vac":true,"version":"7932396","steam_id":85568392924866364,"keywords":["nocrits","nodmgspread","payload","uncletopia"],"game_id":440,"stv_port":27036,"stv_name":"Uncletopia | Chicago | 7 | Stopwatch Beta | STV","players":null},{"server_id":39,"name":"Uncletopia | Chicago | 8 | Community","name_short":"chi-8","host":"chi-2.us.uncletopia.com","port":27045,"enabled":true,"region":"us-central","cc":"us","latitude":41.881832,"longitude":-87.62318,"reserved":0,"last_update":"0001-01-01T00:00:00Z","name_a2s":"Uncletopia | Chicago | 8 | Community","protocol":17,"map":"workshop/koth_ramjam_rc1.ugc459778887","folder":"tf","game":"Team Fortress","app_id":440,"player_count":7,"max_players":24,"Bots":0,"server_type":"Dedicated","server_os":"Linux","password":true,"vac":true,"version":"7932396","steam_id":85568392924866365,"keywords":["cp","nocrits","nodmgspread","uncletopia"],"game_id":440,"stv_port":27046,"stv_name":"Uncletopia | Chicago | 8 | Community | STV","players":[{"user_id":11,"name":"Dragoon","steam_id":76561198211973253,"connected_time":2354000000000,"state":"active","ping":94},{"user_id":19,"name":"gideon nav my beloved","steam_id":76561198259092181,"connected_time":259000000000,"state":"active","ping":59},{"user_id":20,"name":"Weezard","steam_id":76561198973119395,"connected_time":121000000000,"state":"active","ping":79},{"user_id":12,"name":"legopirate10","steam_id":76561198178827241,"connected_time":2320000000000,"state":"active","ping":30},{"user_id":21,"name":"Boxofbubblewrap","steam_id":76561199229191673,"connected_time":69000000000,"state":"spawning","ping":195},{"user_id":22,"name":"Zen","steam_id":76561198305971031,"connected_time":43000000000,"state":"active","ping":120},{"user_id":23,"name":"WLpeanut","steam_id":76561197981006264,"connected_time":30000000000,"state":"active","ping":77}]},{"server_id":8,"name":"Uncletopia | Dallas | 1 | All Maps","name_short":"dal-1","host":"dal-1.us.uncletopia.com","port":27015,"enabled":true,"region":"us-central","cc":"us","latitude":32.779167,"longitude":-96.80889,"reserved":0,"last_update":"0001-01-01T00:00:00Z","name_a2s":"Uncletopia | Dallas | 1 | All Maps","protocol":17,"map":"pl_upward","folder":"tf","game":"Team Fortress","app_id":440,"player_count":24,"max_players":24,"Bots":0,"server_type":"Dedicated","server_os":"Linux","password":true,"vac":true,"version":"7932396","steam_id":85568392924469986,"keywords":["nocrits","nodmgspread","payload","uncletopia"],"game_id":440,"stv_port":27016,"stv_name":"Uncletopia | Dallas | 1 | All Maps | STV","players":[{"user_id":240,"name":"pl_deepthroatgulch_finalrc2","steam_id":76561198046802071,"connected_time":4893000000000,"state":"active","ping":53},{"user_id":311,"name":"crox","steam_id":76561199024792831,"connected_time":1209000000000,"state":"active","ping":78},{"user_id":318,"name":"Pinetree w/ apples.","steam_id":76561198105411709,"connected_time":670000000000,"state":"active","ping":110},{"user_id":308,"name":"Neptune˖⁺｡˚⋆˙♥","steam_id":76561199054203198,"connected_time":1264000000000,"state":"active","ping":74},{"user_id":262,"name":"Spazz","steam_id":76561198036167494,"connected_time":3703000000000,"state":"active","ping":46},{"user_id":313,"name":"Muckman","steam_id":76561198000437384,"connected_time":1169000000000,"state":"active","ping":76},{"user_id":307,"name":"Borgir","steam_id":76561198325390265,"connected_time":1266000000000,"state":"active","ping":68},{"user_id":261,"name":"CHIEF","steam_id":76561198011209422,"connected_time":3713000000000,"state":"active","ping":45},{"user_id":296,"name":"L + Ratio","steam_id":76561198263786953,"connected_time":2850000000000,"state":"active","ping":77},{"user_id":263,"name":"Proud Swift City Resident","steam_id":76561198036283992,"connected_time":3696000000000,"state":"active","ping":77},{"user_id":317,"name":"Skooli","steam_id":76561198038519759,"connected_time":747000000000,"state":"active","ping":73},{"user_id":232,"name":"iUseDvorak","steam_id":76561198064439037,"connected_time":5121000000000,"state":"active","ping":76},{"user_id":212,"name":"Some Guy","steam_id":76561197968945822,"connected_time":5955000000000,"state":"active","ping":60},{"user_id":314,"name":"Deaddropping","steam_id":76561198043711366,"connected_time":1152000000000,"state":"active","ping":75},{"user_id":267,"name":"xkatsuz","steam_id":76561199005104172,"connected_time":3566000000000,"state":"active","ping":67},{"user_id":256,"name":"orange rind (3 cent wifi)","steam_id":76561198130242461,"connected_time":4252000000000,"state":"active","ping":55},{"user_id":224,"name":"Kirby.exe","steam_id":76561198242714582,"connected_time":5620000000000,"state":"active","ping":50},{"user_id":251,"name":"leopardo123atl","steam_id":76561198872648238,"connected_time":4311000000000,"state":"active","ping":79},{"user_id":306,"name":"Porco Rosso","steam_id":76561198410024945,"connected_time":1617000000000,"state":"active","ping":79},{"user_id":315,"name":"LampMan","steam_id":76561198079857527,"connected_time":845000000000,"state":"active","ping":60},{"user_id":304,"name":"Greg Boberton 2012","steam_id":76561198983566026,"connected_time":2072000000000,"state":"active","ping":87},{"user_id":319,"name":"Bread Makes you Fat","steam_id":76561198985126532,"connected_time":321000000000,"state":"active","ping":50},{"user_id":294,"name":"TheGFG","steam_id":76561198166150556,"connected_time":2861000000000,"state":"active","ping":69},{"user_id":259,"name":"Wolverine475","steam_id":76561198137136788,"connected_time":3998000000000,"state":"active","ping":104}]},{"server_id":108,"name":"Uncletopia | Dallas | 2 | All Maps","name_short":"dal-2","host":"dal-1.us.uncletopia.com","port":27025,"enabled":true,"region":"us-central","cc":"us","latitude":32.779167,"longitude":-96.80889,"reserved":0,"last_update":"0001-01-01T00:00:00Z","name_a2s":"Uncletopia | Dallas | 2 | All Maps","protocol":17,"map":"pl_frontier_final","folder":"tf","game":"Team Fortress","app_id":440,"player_count":24,"max_players":24,"Bots":0,"server_type":"Dedicated","server_os":"Linux","password":true,"vac":true,"version":"7932396","steam_id":85568392924469988,"keywords":["nocrits","nodmgspread","payload","uncletopia"],"game_id":440,"stv_port":27026,"stv_name":"Uncletopia | Dallas | 2 | All Maps | STV","players":[{"user_id":272,"name":"minimalpair","steam_id":76561198071788709,"connected_time":3246000000000,"state":"active","ping":81},{"user_id":305,"name":"harold","steam_id":76561199016285746,"connected_time":1006000000000,"state":"active","ping":58},{"user_id":292,"name":"Karcynagen","steam_id":76561198040589396,"connected_time":1745000000000,"state":"active","ping":71},{"user_id":316,"name":"Karl_Marx_Onlyfans","steam_id":76561198212389613,"connected_time":83000000000,"state":"active","ping":85},{"user_id":291,"name":"ChicoTopic","steam_id":76561198327083342,"connected_time":1773000000000,"state":"active","ping":43},{"user_id":283,"name":"Sullivate","steam_id":76561198247267324,"connected_time":2498000000000,"state":"active","ping":97},{"user_id":289,"name":"chiswola","steam_id":76561198046920142,"connected_time":1911000000000,"state":"active","ping":96},{"user_id":311,"name":"Arrluk","steam_id":76561198396679452,"connected_time":175000000000,"state":"active","ping":221},{"user_id":280,"name":"aintnowaiyboi","steam_id":76561198301372369,"connected_time":2572000000000,"state":"active","ping":35},{"user_id":293,"name":"Radiant Rubi","steam_id":76561198096292327,"connected_time":1737000000000,"state":"active","ping":106},{"user_id":309,"name":"Lots0","steam_id":76561198043143145,"connected_time":791000000000,"state":"active","ping":70},{"user_id":241,"name":"Kaptain Cannoli","steam_id":76561198062848738,"connected_time":4014000000000,"state":"active","ping":85},{"user_id":273,"name":"Smug","steam_id":76561198448205229,"connected_time":3208000000000,"state":"active","ping":73},{"user_id":270,"name":"cypherzero","steam_id":76561199182960322,"connected_time":3293000000000,"state":"active","ping":56},{"user_id":285,"name":"Lemonade Juice","steam_id":76561198402892608,"connected_time":2455000000000,"state":"active","ping":69},{"user_id":281,"name":"CapnKris22","steam_id":76561198049010994,"connected_time":2554000000000,"state":"active","ping":101},{"user_id":314,"name":"doghouse","steam_id":76561198000319035,"connected_time":116000000000,"state":"active","ping":84},{"user_id":312,"name":"Bᵢg Bₒₛₛ","steam_id":76561198090271815,"connected_time":169000000000,"state":"active","ping":127},{"user_id":304,"name":"Gachalover","steam_id":76561199231552074,"connected_time":1217000000000,"state":"active","ping":99},{"user_id":296,"name":"Melaza Madera","steam_id":76561199031977210,"connected_time":1713000000000,"state":"active","ping":82},{"user_id":303,"name":"theconqueror","steam_id":76561199229806456,"connected_time":1306000000000,"state":"active","ping":67},{"user_id":310,"name":"SKW14","steam_id":76561198215425735,"connected_time":494000000000,"state":"active","ping":81},{"user_id":315,"name":"Female Gamer","steam_id":76561199366482682,"connected_time":104000000000,"state":"active","ping":116},{"user_id":299,"name":"Lobc0","steam_id":76561199243800888,"connected_time":1641000000000,"state":"active","ping":98}]},{"server_id":5,"name":"Uncletopia | Frankfurt | 1 | All Maps","name_short":"frk-1","host":"frk-1.de.uncletopia.com","port":27015,"enabled":true,"region":"eu","cc":"de","latitude":50.110924,"longitude":8.682127,"reserved":0,"last_update":"0001-01-01T00:00:00Z","name_a2s":"Uncletopia | Frankfurt | 1 | All Maps","protocol":17,"map":"pl_borneo","folder":"tf","game":"Team Fortress","app_id":440,"player_count":0,"max_players":24,"Bots":0,"server_type":"Dedicated","server_os":"Linux","password":true,"vac":true,"version":"7932396","steam_id":85568392924469989,"keywords":["nocrits","nodmgspread","payload","uncletopia"],"game_id":440,"stv_port":27016,"stv_name":"Uncletopia | Frankfurt | 1 | All Maps | STV","players":null},{"server_id":110,"name":"Uncletopia | Frankfurt | 2 | All Maps","name_short":"frk-2","host":"frk-1.de.uncletopia.com","port":27025,"enabled":true,"region":"eu","cc":"de","latitude":50.110924,"longitude":8.682127,"reserved":0,"last_update":"0001-01-01T00:00:00Z","name_a2s":"Uncletopia | Frankfurt | 2 | All Maps","protocol":17,"map":"pl_upward","folder":"tf","game":"Team Fortress","app_id":440,"player_count":0,"max_players":24,"Bots":0,"server_type":"Dedicated","server_os":"Linux","password":true,"vac":true,"version":"7932396","steam_id":85568392924469990,"keywords":["nocrits","nodmgspread","payload","uncletopia"],"game_id":440,"stv_port":27026,"stv_name":"Uncletopia | Frankfurt | 2 | All Maps | STV","players":null},{"server_id":308,"name":"Uncletopia | Frankfurt | 3 | All Maps","name_short":"frk-3","host":"frk-1.de.uncletopia.com","port":27035,"enabled":true,"region":"eu","cc":"de","latitude":50.110924,"longitude":8.682127,"reserved":0,"last_update":"0001-01-01T00:00:00Z","name_a2s":"Uncletopia | Frankfurt | 3 | All Maps","protocol":17,"map":"koth_lakeside_final","folder":"tf","game":"Team Fortress","app_id":440,"player_count":1,"max_players":24,"Bots":0,"server_type":"Dedicated","server_os":"Linux","password":true,"vac":true,"version":"7932396","steam_id":85568392924504274,"keywords":["cp","nocrits","nodmgspread","uncletopia"],"game_id":440,"stv_port":27036,"stv_name":"Uncletopia | Frankfurt | 3 | All Maps | STV","players":[{"user_id":500,"name":"SpacePig","steam_id":76561198044662873,"connected_time":389000000000,"state":"active","ping":86}]},{"server_id":309,"name":"Uncletopia | Frankfurt | 4 | All Maps","name_short":"frk-4","host":"frk-1.de.uncletopia.com","port":27045,"enabled":true,"region":"eu","cc":"de","latitude":50.110924,"longitude":8.682127,"reserved":0,"last_update":"0001-01-01T00:00:00Z","name_a2s":"Uncletopia | Frankfurt | 4 | All Maps","protocol":17,"map":"pl_barnblitz","folder":"tf","game":"Team Fortress","app_id":440,"player_count":24,"max_players":24,"Bots":0,"server_type":"Dedicated","server_os":"Linux","password":true,"vac":true,"version":"7932396","steam_id":85568392924504275,"keywords":["nocrits","nodmgspread","payload","uncletopia"],"game_id":440,"stv_port":27046,"stv_name":"Uncletopia | Frankfurt | 4 | All Maps | STV","players":[{"user_id":401,"name":"mauri88000/mod","steam_id":76561198306672262,"connected_time":2319000000000,"state":"active","ping":61},{"user_id":403,"name":"Master Of Noob","steam_id":76561198217926783,"connected_time":2249000000000,"state":"active","ping":73},{"user_id":463,"name":"Mads","steam_id":76561198045511379,"connected_time":171000000000,"state":"active","ping":82},{"user_id":413,"name":"zorze supreme.exe","steam_id":76561198996333022,"connected_time":2050000000000,"state":"active","ping":63},{"user_id":426,"name":"tamz","steam_id":76561198146873972,"connected_time":1939000000000,"state":"active","ping":46},{"user_id":461,"name":"Travious","steam_id":76561198004141491,"connected_time":371000000000,"state":"active","ping":57},{"user_id":420,"name":"jkr","steam_id":76561198091135475,"connected_time":1950000000000,"state":"active","ping":56},{"user_id":453,"name":"realness","steam_id":76561199129226935,"connected_time":1190000000000,"state":"active","ping":94},{"user_id":462,"name":"Covetousix","steam_id":76561198293936824,"connected_time":326000000000,"state":"active","ping":75},{"user_id":460,"name":"Loyde","steam_id":76561198029919524,"connected_time":432000000000,"state":"active","ping":104},{"user_id":361,"name":"Biggus Dickus","steam_id":76561198018358868,"connected_time":4441000000000,"state":"active","ping":66},{"user_id":439,"name":"Cosmetic brain","steam_id":76561198055936410,"connected_time":1712000000000,"state":"active","ping":85},{"user_id":457,"name":"Lanky Hank","steam_id":76561198124243120,"connected_time":852000000000,"state":"active","ping":70},{"user_id":441,"name":"rák","steam_id":76561198175114914,"connected_time":1647000000000,"state":"active","ping":76},{"user_id":445,"name":"Carrot Arc","steam_id":76561198164957006,"connected_time":1612000000000,"state":"active","ping":82},{"user_id":443,"name":"acskama","steam_id":76561198136743845,"connected_time":1635000000000,"state":"active","ping":60},{"user_id":452,"name":"molderfaker","steam_id":76561199347900130,"connected_time":1262000000000,"state":"active","ping":93},{"user_id":459,"name":"BALLS ITCH","steam_id":76561199078330622,"connected_time":674000000000,"state":"active","ping":91},{"user_id":381,"name":"Toasty5050","steam_id":76561198073540881,"connected_time":3740000000000,"state":"active","ping":45},{"user_id":456,"name":"snsmac","steam_id":76561198082821185,"connected_time":1114000000000,"state":"active","ping":49},{"user_id":451,"name":"GhostZeBear","steam_id":76561198063684719,"connected_time":1313000000000,"state":"active","ping":107},{"user_id":450,"name":"GEP Gun","steam_id":76561197981821003,"connected_time":1353000000000,"state":"active","ping":63},{"user_id":444,"name":".EXE","steam_id":76561198197246753,"connected_time":1618000000000,"state":"active","ping":76},{"user_id":384,"name":"Rimx","steam_id":76561198053034840,"connected_time":3642000000000,"state":"active","ping":90}]},{"server_id":310,"name":"Uncletopia | Frankfurt | 5 | All Maps","name_short":"frk-5","host":"frk-1.de.uncletopia.com","port":27055,"enabled":true,"region":"eu","cc":"de","latitude":50.110924,"longitude":8.682127,"reserved":0,"last_update":"0001-01-01T00:00:00Z","name_a2s":"Uncletopia | Frankfurt | 5 | All Maps","protocol":17,"map":"koth_cascade","folder":"tf","game":"Team Fortress","app_id":440,"player_count":0,"max_players":24,"Bots":0,"server_type":"Dedicated","server_os":"Linux","password":true,"vac":true,"version":"7932396","steam_id":85568392924504277,"keywords":["cp","nocrits","nodmgspread","uncletopia"],"game_id":440,"stv_port":27056,"stv_name":"Uncletopia | Frankfurt | 5 | All Maps | STV","players":null},{"server_id":311,"name":"Uncletopia | Frankfurt | 6 | All Maps","name_short":"frk-6","host":"frk-1.de.uncletopia.com","port":27065,"enabled":true,"region":"eu","cc":"de","latitude":50.110924,"longitude":8.682127,"reserved":0,"last_update":"0001-01-01T00:00:00Z","name_a2s":"Uncletopia | Frankfurt | 6 | All Maps","protocol":17,"map":"pl_snowycoast","folder":"tf","game":"Team Fortress","app_id":440,"player_count":2,"max_players":24,"Bots":0,"server_type":"Dedicated","server_os":"Linux","password":true,"vac":true,"version":"7932396","steam_id":85568392924504278,"keywords":["nocrits","nodmgspread","payload","uncletopia"],"game_id":440,"stv_port":27066,"stv_name":"Uncletopia | Frankfurt | 6 | All Maps | STV","players":[{"user_id":36,"name":"Ink in veins","steam_id":76561199082262091,"connected_time":143000000000,"state":"active","ping":70},{"user_id":37,"name":"ducksattack","steam_id":76561198074706076,"connected_time":53000000000,"state":"active","ping":78}]},{"server_id":23,"name":"Uncletopia | Frankfurt | 7 | Stopwatch Beta","name_short":"frk-7","host":"frk-1.de.uncletopia.com","port":27075,"enabled":true,"region":"eu","cc":"de","latitude":50.110924,"longitude":8.682127,"reserved":0,"last_update":"0001-01-01T00:00:00Z","name_a2s":"Uncletopia | Frankfurt | 7 | Stopwatch Beta","protocol":17,"map":"pl_snowycoast","folder":"tf","game":"Team Fortress","app_id":440,"player_count":0,"max_players":24,"Bots":0,"server_type":"Dedicated","server_os":"Linux","password":true,"vac":true,"version":"7932396","steam_id":85568392924742827,"keywords":["nocrits","nodmgspread","payload","uncletopia"],"game_id":440,"stv_port":27076,"stv_name":"Uncletopia | Frankfurt | 7 | Stopwatch Beta | STV","players":null},{"server_id":24,"name":"Uncletopia | Frankfurt | 8 | Community","name_short":"frk-8","host":"frk-1.de.uncletopia.com","port":27085,"enabled":true,"region":"eu","cc":"de","latitude":50.110924,"longitude":8.682127,"reserved":0,"last_update":"0001-01-01T00:00:00Z","name_a2s":"Uncletopia | Frankfurt | 8 | Community","protocol":17,"map":"workshop/pl_barnblitz_pro7.ugc582280235","folder":"tf","game":"Team Fortress","app_id":440,"player_count":0,"max_players":24,"Bots":0,"server_type":"Dedicated","server_os":"Linux","password":true,"vac":true,"version":"7932396","steam_id":85568392924742828,"keywords":["nocrits","nodmgspread","payload","uncletopia"],"game_id":440,"stv_port":27086,"stv_name":"Uncletopia | Frankfurt | 8 | Community | STV","players":null},{"server_id":202,"name":"Uncletopia | Hong Kong | 1 | All Maps","name_short":"hgk-1","host":"hgk-1.hk.uncletopia.com","port":27015,"enabled":true,"region":"asia","cc":"hk","latitude":22.302711,"longitude":114.177216,"reserved":0,"last_update":"0001-01-01T00:00:00Z","name_a2s":"Uncletopia | Hong Kong | 1 | All Maps","protocol":17,"map":"pl_swiftwater_final1","folder":"tf","game":"Team Fortress","app_id":440,"player_count":0,"max_players":24,"Bots":0,"server_type":"Dedicated","server_os":"Linux","password":true,"vac":true,"version":"7932396","steam_id":85568392924494504,"keywords":["nocrits","nodmgspread","payload","uncletopia"],"game_id":440,"stv_port":27016,"stv_name":"Uncletopia | Hong Kong | 1 | All Maps | STV","players":null},{"server_id":1,"name":"Uncletopia | Los Angeles | 1 | All Maps","name_short":"lax-1","host":"lax-1.us.uncletopia.com","port":27015,"enabled":true,"region":"us-west","cc":"us","latitude":33.94279,"longitude":-118.41004,"reserved":0,"last_update":"0001-01-01T00:00:00Z","name_a2s":"Uncletopia | Los Angeles | 1 | All Maps","protocol":17,"map":"pl_badwater","folder":"tf","game":"Team Fortress","app_id":440,"player_count":24,"max_players":24,"Bots":0,"server_type":"Dedicated","server_os":"Linux","password":true,"vac":true,"version":"7932396","steam_id":85568392924469991,"keywords":["nocrits","nodmgspread","payload","uncletopia"],"game_id":440,"stv_port":27016,"stv_name":"Uncletopia | Los Angeles | 1 | All Maps | STV","players":[{"user_id":221,"name":"TORN RETINAS","steam_id":76561198033822457,"connected_time":2502000000000,"state":"active","ping":71},{"user_id":194,"name":"ena - d","steam_id":76561198072329335,"connected_time":3902000000000,"state":"active","ping":104},{"user_id":207,"name":"darkness.danny3481","steam_id":76561198132808002,"connected_time":3231000000000,"state":"active","ping":45},{"user_id":130,"name":"selvhat","steam_id":76561198114225509,"connected_time":8786000000000,"state":"active","ping":47},{"user_id":214,"name":"Scrux","steam_id":76561198129763115,"connected_time":2640000000000,"state":"active","ping":54},{"user_id":240,"name":"Grim","steam_id":76561198016978310,"connected_time":36000000000,"state":"active","ping":71},{"user_id":226,"name":"Reem0h","steam_id":76561198169848690,"connected_time":2192000000000,"state":"active","ping":116},{"user_id":211,"name":"culture shock","steam_id":76561198212421513,"connected_time":3029000000000,"state":"active","ping":45},{"user_id":208,"name":"Coffee","steam_id":76561198154646418,"connected_time":3231000000000,"state":"active","ping":86},{"user_id":237,"name":"Ken","steam_id":76561198190992453,"connected_time":811000000000,"state":"active","ping":46},{"user_id":171,"name":"wib","steam_id":76561197993341557,"connected_time":5662000000000,"state":"active","ping":47},{"user_id":217,"name":"Tele Co","steam_id":76561198041909269,"connected_time":2620000000000,"state":"active","ping":46},{"user_id":235,"name":"charm quark","steam_id":76561198098770777,"connected_time":1044000000000,"state":"active","ping":77},{"user_id":202,"name":"Ralph Kramden (Slim Charles)","steam_id":76561197981687895,"connected_time":3673000000000,"state":"active","ping":62},{"user_id":218,"name":"YourLocalArsonist","steam_id":76561199111922751,"connected_time":2614000000000,"state":"active","ping":120},{"user_id":238,"name":"mega","steam_id":76561198089520959,"connected_time":736000000000,"state":"active","ping":116},{"user_id":196,"name":"Ockulus","steam_id":76561199069638460,"connected_time":3872000000000,"state":"active","ping":49},{"user_id":232,"name":"a chicken","steam_id":76561198313121580,"connected_time":1327000000000,"state":"active","ping":46},{"user_id":236,"name":"Unknowname","steam_id":76561198132253342,"connected_time":996000000000,"state":"active","ping":57},{"user_id":216,"name":"Neophyte","steam_id":76561198027183394,"connected_time":2628000000000,"state":"active","ping":92},{"user_id":233,"name":"bowling","steam_id":76561198854571744,"connected_time":1326000000000,"state":"active","ping":46},{"user_id":224,"name":"Bocchers From Bocchi The Rock","steam_id":76561198986388085,"connected_time":2322000000000,"state":"active","ping":120},{"user_id":227,"name":"cup","steam_id":76561198121245586,"connected_time":1954000000000,"state":"active","ping":87},{"user_id":164,"name":"HAT-WEARING™ Maggot Gamer Cat","steam_id":76561197973992705,"connected_time":5735000000000,"state":"active","ping":69}]},{"server_id":112,"name":"Uncletopia | Los Angeles | 2 | All Maps","name_short":"lax-2","host":"lax-1.us.uncletopia.com","port":27025,"enabled":true,"region":"us-west","cc":"us","latitude":33.94279,"longitude":-118.41004,"reserved":0,"last_update":"0001-01-01T00:00:00Z","name_a2s":"Uncletopia | Los Angeles | 2 | All Maps","protocol":17,"map":"pl_badwater","folder":"tf","game":"Team Fortress","app_id":440,"player_count":24,"max_players":24,"Bots":0,"server_type":"Dedicated","server_os":"Linux","password":true,"vac":true,"version":"7932396","steam_id":85568392924469992,"keywords":["nocrits","nodmgspread","payload","uncletopia"],"game_id":440,"stv_port":27026,"stv_name":"Uncletopia | Los Angeles | 2 | All Maps | STV","players":[{"user_id":42,"name":"onyxmckoy","steam_id":76561198047037902,"connected_time":748000000000,"state":"active","ping":44},{"user_id":49,"name":"Y'all are Garage","steam_id":76561198012829324,"connected_time":162000000000,"state":"active","ping":62},{"user_id":8,"name":"hoOmIN","steam_id":76561198334947079,"connected_time":2796000000000,"state":"active","ping":42},{"user_id":31,"name":"Grease Magician","steam_id":76561198285410854,"connected_time":1504000000000,"state":"active","ping":100},{"user_id":10,"name":"Person","steam_id":76561198073885832,"connected_time":2652000000000,"state":"active","ping":59},{"user_id":50,"name":"Hurb","steam_id":76561198746677086,"connected_time":81000000000,"state":"spawning","ping":97},{"user_id":12,"name":"the peepee man (real)","steam_id":76561199488432671,"connected_time":2565000000000,"state":"active","ping":76},{"user_id":13,"name":"Alex Andolini","steam_id":76561198043957923,"connected_time":2311000000000,"state":"active","ping":118},{"user_id":14,"name":"Forevermor","steam_id":76561198015326488,"connected_time":2308000000000,"state":"active","ping":70},{"user_id":48,"name":"Chi -fr","steam_id":76561198121085178,"connected_time":199000000000,"state":"active","ping":102},{"user_id":46,"name":"DogeCrusader","steam_id":76561199164559226,"connected_time":308000000000,"state":"active","ping":64},{"user_id":17,"name":"Nedia","steam_id":76561199483271655,"connected_time":2170000000000,"state":"active","ping":108},{"user_id":44,"name":"HanakoToast","steam_id":76561198045233131,"connected_time":499000000000,"state":"active","ping":68},{"user_id":19,"name":"Nuts","steam_id":76561199258535559,"connected_time":2025000000000,"state":"active","ping":115},{"user_id":47,"name":"Dcoyotzi","steam_id":76561199124707627,"connected_time":276000000000,"state":"active","ping":75},{"user_id":24,"name":"Drozz Misses Shots","steam_id":76561198072555204,"connected_time":1753000000000,"state":"active","ping":87},{"user_id":33,"name":"yaoipilled","steam_id":76561198055486814,"connected_time":1459000000000,"state":"active","ping":74},{"user_id":41,"name":"Chirp","steam_id":76561198240780230,"connected_time":786000000000,"state":"active","ping":45},{"user_id":34,"name":"Matches_","steam_id":76561198048925904,"connected_time":1412000000000,"state":"active","ping":59},{"user_id":45,"name":"Hong","steam_id":76561198317684125,"connected_time":391000000000,"state":"active","ping":70},{"user_id":51,"name":"BasedGod","steam_id":76561198061177973,"connected_time":77000000000,"state":"active","ping":47},{"user_id":30,"name":"Gluppo","steam_id":76561198379320087,"connected_time":1542000000000,"state":"active","ping":105},{"user_id":39,"name":"the fool","steam_id":76561198133933158,"connected_time":871000000000,"state":"active","ping":51},{"user_id":36,"name":"Genius Meme","steam_id":76561198162911254,"connected_time":1389000000000,"state":"active","ping":69}]},{"server_id":324,"name":"Uncletopia | Los Angeles | 3 | All Maps","name_short":"lax-3","host":"lax-1.us.uncletopia.com","port":27035,"enabled":true,"region":"us-west","cc":"us","latitude":33.94279,"longitude":-118.41004,"reserved":0,"last_update":"0001-01-01T00:00:00Z","name_a2s":"Uncletopia | Los Angeles | 3 | All Maps","protocol":17,"map":"cp_altitude","folder":"tf","game":"Team Fortress","app_id":440,"player_count":0,"max_players":24,"Bots":0,"server_type":"Dedicated","server_os":"Linux","password":true,"vac":true,"version":"7932396","steam_id":85568392924510198,"keywords":["cp","nocrits","nodmgspread","uncletopia"],"game_id":440,"stv_port":27036,"stv_name":"Uncletopia | Los Angeles | 3 | All Maps | STV","players":null},{"server_id":25,"name":"Uncletopia | Los Angeles | 4 | Stopwatch Beta","name_short":"lax-4","host":"lax-1.us.uncletopia.com","port":27045,"enabled":true,"region":"us-west","cc":"us","latitude":33.94279,"longitude":-118.41004,"reserved":0,"last_update":"0001-01-01T00:00:00Z","name_a2s":"Uncletopia | Los Angeles | 4 | Stopwatch Beta","protocol":17,"map":"pl_swiftwater_final1","folder":"tf","game":"Team Fortress","app_id":440,"player_count":0,"max_players":24,"Bots":0,"server_type":"Dedicated","server_os":"Linux","password":true,"vac":true,"version":"7932396","steam_id":85568392924510199,"keywords":["nocrits","nodmgspread","payload","uncletopia"],"game_id":440,"stv_port":27046,"stv_name":"Uncletopia | Los Angeles | 4 | Stopwatch Beta | STV","players":null},{"server_id":11,"name":"Uncletopia | London | 1 | All Maps","name_short":"lon-1","host":"lon-1.uk.uncletopia.com","port":27015,"enabled":true,"region":"eu","cc":"gb","latitude":51.509865,"longitude":-0.118092,"reserved":0,"last_update":"0001-01-01T00:00:00Z","name_a2s":"Uncletopia | London | 1 | All Maps","protocol":17,"map":"pl_frontier_final","folder":"tf","game":"Team Fortress","app_id":440,"player_count":24,"max_players":24,"Bots":0,"server_type":"Dedicated","server_os":"Linux","password":true,"vac":true,"version":"7932396","steam_id":85568392924367362,"keywords":["nocrits","nodmgspread","payload","uncletopia"],"game_id":440,"stv_port":27016,"stv_name":"Uncletopia | London | 1 | All Maps | STV","players":[{"user_id":680,"name":"Sarahtonin","steam_id":76561197992144115,"connected_time":1780000000000,"state":"active","ping":73},{"user_id":692,"name":"FoOzTV","steam_id":76561197998636728,"connected_time":890000000000,"state":"active","ping":68},{"user_id":653,"name":"Remi","steam_id":76561198860304357,"connected_time":2655000000000,"state":"active","ping":112},{"user_id":650,"name":"yuno appreciator","steam_id":76561198083286511,"connected_time":2778000000000,"state":"active","ping":105},{"user_id":645,"name":"Quniy, Son Of Quniy","steam_id":76561198872259430,"connected_time":3177000000000,"state":"active","ping":145},{"user_id":693,"name":"Slacker","steam_id":76561198017519610,"connected_time":510000000000,"state":"active","ping":67},{"user_id":654,"name":"Dr. Cox","steam_id":76561198246629218,"connected_time":2570000000000,"state":"active","ping":92},{"user_id":657,"name":"Mahitmal","steam_id":76561198254664484,"connected_time":2525000000000,"state":"active","ping":65},{"user_id":658,"name":"Mirage","steam_id":76561199013190566,"connected_time":2491000000000,"state":"active","ping":56},{"user_id":694,"name":"ScaryTree","steam_id":76561199384362833,"connected_time":510000000000,"state":"active","ping":56},{"user_id":691,"name":"123","steam_id":76561198113733477,"connected_time":1061000000000,"state":"active","ping":47},{"user_id":661,"name":"gneeda","steam_id":76561198147249160,"connected_time":2382000000000,"state":"active","ping":105},{"user_id":682,"name":"Vital","steam_id":76561198062052388,"connected_time":1731000000000,"state":"active","ping":60},{"user_id":664,"name":"Endi","steam_id":76561198914938199,"connected_time":2302000000000,"state":"active","ping":101},{"user_id":684,"name":"Oriuke","steam_id":76561197992166123,"connected_time":1652000000000,"state":"active","ping":58},{"user_id":667,"name":"njits23","steam_id":76561198031194977,"connected_time":2286000000000,"state":"active","ping":67},{"user_id":687,"name":"ムGeRmAn |×UA×ム","steam_id":76561199044754898,"connected_time":1223000000000,"state":"active","ping":80},{"user_id":685,"name":"kimchiking82","steam_id":76561198008423339,"connected_time":1637000000000,"state":"active","ping":113},{"user_id":670,"name":"the goon from 6th street","steam_id":76561198124304520,"connected_time":2253000000000,"state":"active","ping":40},{"user_id":686,"name":"Mixandmatt","steam_id":76561198155123140,"connected_time":1629000000000,"state":"active","ping":55},{"user_id":679,"name":"ax","steam_id":76561199201206556,"connected_time":1914000000000,"state":"active","ping":90},{"user_id":674,"name":"Popop","steam_id":76561198004793795,"connected_time":2216000000000,"state":"active","ping":45},{"user_id":689,"name":"Hypenite","steam_id":76561198067589713,"connected_time":1154000000000,"state":"active","ping":102},{"user_id":676,"name":"Puss in Boots","steam_id":76561198211599767,"connected_time":2215000000000,"state":"active","ping":57}]},{"server_id":114,"name":"Uncletopia | London | 2 | All Maps","name_short":"lon-2","host":"lon-1.uk.uncletopia.com","port":27025,"enabled":true,"region":"eu","cc":"gb","latitude":51.509865,"longitude":-0.118092,"reserved":0,"last_update":"0001-01-01T00:00:00Z","name_a2s":"Uncletopia | London | 2 | All Maps","protocol":17,"map":"pl_upward","folder":"tf","game":"Team Fortress","app_id":440,"player_count":24,"max_players":24,"Bots":0,"server_type":"Dedicated","server_os":"Linux","password":true,"vac":true,"version":"7932396","steam_id":85568392924470941,"keywords":["nocrits","nodmgspread","payload","uncletopia"],"game_id":440,"stv_port":27026,"stv_name":"Uncletopia | London | 2 | All Maps | STV","players":[{"user_id":528,"name":"A Table","steam_id":76561198130963095,"connected_time":575000000000,"state":"active","ping":59},{"user_id":530,"name":"Zerfesh","steam_id":76561198117534358,"connected_time":552000000000,"state":"active","ping":101},{"user_id":512,"name":"Teathling.ttv","steam_id":76561198061580505,"connected_time":2143000000000,"state":"active","ping":50},{"user_id":521,"name":"Vitamin Weee","steam_id":76561199183937747,"connected_time":1444000000000,"state":"active","ping":87},{"user_id":472,"name":"SONIC THE GOD","steam_id":76561199185147093,"connected_time":4363000000000,"state":"active","ping":86},{"user_id":535,"name":"Professional facestab","steam_id":76561198258721056,"connected_time":102000000000,"state":"active","ping":53},{"user_id":449,"name":"Penis Contortionist","steam_id":76561198073663784,"connected_time":5504000000000,"state":"active","ping":37},{"user_id":534,"name":"hardy","steam_id":76561198029228735,"connected_time":110000000000,"state":"active","ping":50},{"user_id":493,"name":"Pierdu","steam_id":76561198028705770,"connected_time":2506000000000,"state":"active","ping":50},{"user_id":529,"name":"bear","steam_id":76561198301165813,"connected_time":574000000000,"state":"active","ping":151},{"user_id":533,"name":"dunduu","steam_id":76561198875240717,"connected_time":360000000000,"state":"active","ping":77},{"user_id":523,"name":"Knague","steam_id":76561198154332955,"connected_time":1191000000000,"state":"active","ping":68},{"user_id":440,"name":"sv_MrGibbs","steam_id":76561198114071972,"connected_time":6059000000000,"state":"active","ping":52},{"user_id":517,"name":"finbar","steam_id":76561198056812396,"connected_time":1878000000000,"state":"active","ping":77},{"user_id":524,"name":"Jeruniy","steam_id":76561198114267027,"connected_time":768000000000,"state":"active","ping":107},{"user_id":508,"name":"ArtaKir","steam_id":76561198291746440,"connected_time":2200000000000,"state":"active","ping":79},{"user_id":522,"name":"slug","steam_id":76561198065902089,"connected_time":1294000000000,"state":"active","ping":68},{"user_id":360,"name":"john fortress","steam_id":76561198013237629,"connected_time":11924000000000,"state":"active","ping":96},{"user_id":408,"name":"Kabachok Aeronavt","steam_id":76561198123659806,"connected_time":8973000000000,"state":"active","ping":97},{"user_id":520,"name":"Peppino Spaghetti","steam_id":76561198334067811,"connected_time":1724000000000,"state":"active","ping":58},{"user_id":532,"name":"Porridge Moisturizer","steam_id":76561198336523288,"connected_time":384000000000,"state":"active","ping":126},{"user_id":525,"name":"Jouppi","steam_id":76561198063725468,"connected_time":689000000000,"state":"active","ping":97},{"user_id":510,"name":"BaCyka","steam_id":76561198029333533,"connected_time":2173000000000,"state":"active","ping":57},{"user_id":511,"name":"Dmskootje","steam_id":76561198127600559,"connected_time":2171000000000,"state":"active","ping":53}]},{"server_id":320,"name":"Uncletopia | London | 3 | All Maps","name_short":"lon-3","host":"lon-1.uk.uncletopia.com","port":27035,"enabled":true,"region":"eu","cc":"gb","latitude":51.509865,"longitude":-0.118092,"reserved":0,"last_update":"0001-01-01T00:00:00Z","name_a2s":"Uncletopia | London | 3 | All Maps","protocol":17,"map":"pl_swiftwater_final1","folder":"tf","game":"Team Fortress","app_id":440,"player_count":25,"max_players":24,"Bots":0,"server_type":"Dedicated","server_os":"Linux","password":true,"vac":true,"version":"7932396","steam_id":85568392924510192,"keywords":["nocrits","nodmgspread","payload","uncletopia"],"game_id":440,"stv_port":27036,"stv_name":"Uncletopia | London | 3 | All Maps | STV","players":[{"user_id":435,"name":"madijo","steam_id":76561198012617400,"connected_time":1358000000000,"state":"active","ping":69},{"user_id":459,"name":"Buddy","steam_id":76561198050185582,"connected_time":681000000000,"state":"active","ping":57},{"user_id":390,"name":"ROX","steam_id":76561198272289320,"connected_time":2927000000000,"state":"active","ping":60},{"user_id":474,"name":"Fallen_Scholar","steam_id":76561198055468709,"connected_time":14000000000,"state":"spawning","ping":50},{"user_id":464,"name":"filo","steam_id":76561198103633797,"connected_time":413000000000,"state":"active","ping":97},{"user_id":442,"name":"Cosmic Gamer","steam_id":76561198027357981,"connected_time":1190000000000,"state":"active","ping":99},{"user_id":463,"name":"jill valentine","steam_id":76561198075068529,"connected_time":529000000000,"state":"active","ping":69},{"user_id":429,"name":"nymph","steam_id":76561199249569889,"connected_time":1823000000000,"state":"active","ping":60},{"user_id":425,"name":"глеб v3.1","steam_id":76561198291044793,"connected_time":2050000000000,"state":"active","ping":110},{"user_id":434,"name":"zek","steam_id":76561198862763731,"connected_time":1447000000000,"state":"active","ping":66},{"user_id":467,"name":"zebulon","steam_id":76561198384683504,"connected_time":122000000000,"state":"active","ping":63},{"user_id":452,"name":"Plep","steam_id":76561198840259819,"connected_time":813000000000,"state":"active","ping":59},{"user_id":465,"name":"marvs","steam_id":76561198851777617,"connected_time":221000000000,"state":"active","ping":44},{"user_id":468,"name":"panakid","steam_id":76561198364121077,"connected_time":115000000000,"state":"active","ping":102},{"user_id":450,"name":"Krefa12","steam_id":76561198268375393,"connected_time":1016000000000,"state":"active","ping":92},{"user_id":443,"name":"Brinier","steam_id":76561199012604288,"connected_time":1185000000000,"state":"active","ping":72},{"user_id":469,"name":"0_Dan","steam_id":76561199006567387,"connected_time":113000000000,"state":"active","ping":59},{"user_id":473,"name":"fence_","steam_id":76561198150386379,"connected_time":23000000000,"state":"connecting","ping":0},{"user_id":470,"name":"ToniGAM3S","steam_id":76561198128605351,"connected_time":106000000000,"state":"active","ping":72},{"user_id":409,"name":"Rinmaru","steam_id":76561198256820097,"connected_time":2208000000000,"state":"active","ping":97},{"user_id":445,"name":"benjaminmarkMLP","steam_id":76561198920361202,"connected_time":1149000000000,"state":"active","ping":138},{"user_id":471,"name":"socaramel","steam_id":76561197984480336,"connected_time":103000000000,"state":"active","ping":74},{"user_id":447,"name":"NonProphet","steam_id":76561198280149820,"connected_time":1121000000000,"state":"active","ping":59},{"user_id":449,"name":"An_Amber_Light","steam_id":76561198414716741,"connected_time":1098000000000,"state":"active","ping":69},{"user_id":475,"name":"prsn","steam_id":76561198055300254,"connected_time":13000000000,"state":"active","ping":49}]},{"server_id":321,"name":"Uncletopia | London | 4 | All Maps","name_short":"lon-4","host":"lon-1.uk.uncletopia.com","port":27045,"enabled":true,"region":"eu","cc":"gb","latitude":51.509865,"longitude":-0.118092,"reserved":0,"last_update":"0001-01-01T00:00:00Z","name_a2s":"Uncletopia | London | 4 | All Maps","protocol":17,"map":"pl_goldrush","folder":"tf","game":"Team Fortress","app_id":440,"player_count":24,"max_players":24,"Bots":0,"server_type":"Dedicated","server_os":"Linux","password":true,"vac":true,"version":"7932396","steam_id":85568392924510193,"keywords":["nocrits","nodmgspread","payload","uncletopia"],"game_id":440,"stv_port":27046,"stv_name":"Uncletopia | London | 4 | All Maps | STV","players":[{"user_id":177,"name":"ReenoDaWizard","steam_id":76561198841678291,"connected_time":359000000000,"state":"active","ping":47},{"user_id":183,"name":"Mr. Enjoy da money","steam_id":76561198152681460,"connected_time":175000000000,"state":"active","ping":75},{"user_id":178,"name":"Yossef⭐","steam_id":76561198009985558,"connected_time":231000000000,"state":"active","ping":113},{"user_id":141,"name":"Ender az Endre Dragon","steam_id":76561198202235560,"connected_time":2109000000000,"state":"active","ping":108},{"user_id":184,"name":"aww yeah","steam_id":76561197992978878,"connected_time":175000000000,"state":"active","ping":83},{"user_id":180,"name":"Max Power","steam_id":76561198019269089,"connected_time":202000000000,"state":"active","ping":56},{"user_id":187,"name":"Mortiis","steam_id":76561198000795072,"connected_time":144000000000,"state":"active","ping":56},{"user_id":154,"name":"Tea","steam_id":76561198799243030,"connected_time":1521000000000,"state":"active","ping":80},{"user_id":166,"name":"DragonLord","steam_id":76561198074279225,"connected_time":1060000000000,"state":"active","ping":47},{"user_id":185,"name":"Fart Goblin","steam_id":76561198072147068,"connected_time":170000000000,"state":"active","ping":75},{"user_id":155,"name":"Uncle Terry","steam_id":76561198396415736,"connected_time":1514000000000,"state":"active","ping":54},{"user_id":176,"name":"kallerannar","steam_id":76561199095701143,"connected_time":697000000000,"state":"active","ping":82},{"user_id":165,"name":"DoctorTopLeL","steam_id":76561198088533595,"connected_time":1266000000000,"state":"active","ping":113},{"user_id":148,"name":"Lampinen","steam_id":76561198004936228,"connected_time":1949000000000,"state":"active","ping":89},{"user_id":188,"name":"Macro","steam_id":76561199442846226,"connected_time":44000000000,"state":"active","ping":154},{"user_id":135,"name":"Dr.N3C","steam_id":76561198141325161,"connected_time":3449000000000,"state":"active","ping":69},{"user_id":142,"name":"jaime8D","steam_id":76561197980590671,"connected_time":2098000000000,"state":"active","ping":87},{"user_id":169,"name":"laukjis99","steam_id":76561199184478988,"connected_time":807000000000,"state":"active","ping":99},{"user_id":173,"name":"lukaro707","steam_id":76561198165477984,"connected_time":777000000000,"state":"active","ping":50},{"user_id":159,"name":"Glitch","steam_id":76561198081895538,"connected_time":1419000000000,"state":"active","ping":57},{"user_id":162,"name":"SNeicer","steam_id":76561198350941990,"connected_time":1390000000000,"state":"active","ping":122},{"user_id":167,"name":"ABbott_","steam_id":76561198030528873,"connected_time":829000000000,"state":"active","ping":67},{"user_id":186,"name":"FishNachoz","steam_id":76561198026519426,"connected_time":167000000000,"state":"active","ping":54},{"user_id":174,"name":"[PKBG] Pipera","steam_id":76561197998280567,"connected_time":771000000000,"state":"active","ping":62}]},{"server_id":21,"name":"Uncletopia | London | 5 | All Maps","name_short":"lon-5","host":"lon-1.uk.uncletopia.com","port":27055,"enabled":true,"region":"eu","cc":"gb","latitude":51.509865,"longitude":-0.118092,"reserved":0,"last_update":"0001-01-01T00:00:00Z","name_a2s":"Uncletopia | London | 5 | All Maps","protocol":17,"map":"cp_5gorge","folder":"tf","game":"Team Fortress","app_id":440,"player_count":25,"max_players":24,"Bots":0,"server_type":"Dedicated","server_os":"Linux","password":true,"vac":true,"version":"7932396","steam_id":85568392924742829,"keywords":["cp","nocrits","nodmgspread","uncletopia"],"game_id":440,"stv_port":27056,"stv_name":"Uncletopia | London | 5 | All Maps | STV","players":[{"user_id":455,"name":"TheButterPickle","steam_id":76561198354317787,"connected_time":3785000000000,"state":"active","ping":56},{"user_id":449,"name":"Dasimo","steam_id":76561198089221888,"connected_time":3941000000000,"state":"active","ping":63},{"user_id":531,"name":"mumbler","steam_id":76561197970641239,"connected_time":200000000000,"state":"active","ping":55},{"user_id":424,"name":"LuckLuster","steam_id":76561198092986647,"connected_time":5761000000000,"state":"active","ping":110},{"user_id":491,"name":"Son of Ymir","steam_id":76561198011148008,"connected_time":1497000000000,"state":"active","ping":77},{"user_id":499,"name":"Mr.O #deletesniper","steam_id":76561198039567498,"connected_time":1091000000000,"state":"active","ping":51},{"user_id":468,"name":"Klunkerino","steam_id":76561197971081655,"connected_time":3298000000000,"state":"active","ping":78},{"user_id":495,"name":"Petight","steam_id":76561197999438798,"connected_time":1218000000000,"state":"active","ping":44},{"user_id":490,"name":"Anri Okita's Massive Milkers","steam_id":76561199186352720,"connected_time":2046000000000,"state":"active","ping":47},{"user_id":473,"name":"TSx* Naxer","steam_id":76561198011986779,"connected_time":2912000000000,"state":"active","ping":74},{"user_id":453,"name":"Malekith","steam_id":76561198216412200,"connected_time":3813000000000,"state":"active","ping":58},{"user_id":348,"name":"magnos62564","steam_id":76561198356968225,"connected_time":11036000000000,"state":"active","ping":76},{"user_id":474,"name":"Shark","steam_id":76561198205226501,"connected_time":2899000000000,"state":"active","ping":165},{"user_id":494,"name":"SunZi","steam_id":76561198139243535,"connected_time":1263000000000,"state":"active","ping":73},{"user_id":535,"name":"Lix","steam_id":76561198130779816,"connected_time":20000000000,"state":"active","ping":55},{"user_id":476,"name":"TSx* Osa__PL","steam_id":76561198027016799,"connected_time":2891000000000,"state":"active","ping":75},{"user_id":477,"name":"Falkor","steam_id":76561198219482371,"connected_time":2841000000000,"state":"active","ping":52},{"user_id":478,"name":"Fu Manchu","steam_id":76561197995224539,"connected_time":2825000000000,"state":"active","ping":67},{"user_id":454,"name":"oxidius","steam_id":76561198261730746,"connected_time":3806000000000,"state":"active","ping":49},{"user_id":462,"name":"joachym","steam_id":76561198428579761,"connected_time":3518000000000,"state":"active","ping":70},{"user_id":514,"name":"Dr.Nefario","steam_id":76561198874586020,"connected_time":801000000000,"state":"active","ping":74},{"user_id":488,"name":"Sharkteethgamer","steam_id":76561198811122376,"connected_time":2231000000000,"state":"active","ping":73},{"user_id":483,"name":"toino_PT","steam_id":76561199008999046,"connected_time":2646000000000,"state":"active","ping":86},{"user_id":481,"name":"TSx* {Demon-Angel}","steam_id":76561198151486463,"connected_time":2771000000000,"state":"active","ping":86},{"user_id":536,"name":"NerfHerder","steam_id":76561198095128450,"connected_time":3000000000,"state":"spawning","ping":49}]},{"server_id":22,"name":"Uncletopia | London | 6 | All Maps","name_short":"lon-6","host":"lon-1.uk.uncletopia.com","port":27065,"enabled":true,"region":"eu","cc":"gb","latitude":51.509865,"longitude":-0.118092,"reserved":0,"last_update":"0001-01-01T00:00:00Z","name_a2s":"Uncletopia | London | 6 | All Maps","protocol":17,"map":"cp_sunshine","folder":"tf","game":"Team Fortress","app_id":440,"player_count":24,"max_players":24,"Bots":0,"server_type":"Dedicated","server_os":"Linux","password":true,"vac":true,"version":"7932396","steam_id":85568392924742830,"keywords":["cp","nocrits","nodmgspread","uncletopia"],"game_id":440,"stv_port":27066,"stv_name":"Uncletopia | London | 6 | All Maps | STV","players":[{"user_id":302,"name":"Bird On Your Window","steam_id":76561198081933130,"connected_time":1515000000000,"state":"active","ping":60},{"user_id":303,"name":"Ratatatatatatouille","steam_id":76561198182267098,"connected_time":1492000000000,"state":"active","ping":89},{"user_id":279,"name":"Noob_with_source","steam_id":76561198870362103,"connected_time":2587000000000,"state":"active","ping":42},{"user_id":316,"name":"TrollFace","steam_id":76561198799317717,"connected_time":845000000000,"state":"active","ping":111},{"user_id":300,"name":"TobMan","steam_id":76561199132167284,"connected_time":1671000000000,"state":"active","ping":53},{"user_id":305,"name":"Communisam Extremist","steam_id":76561199034293112,"connected_time":1462000000000,"state":"active","ping":79},{"user_id":311,"name":"ethan","steam_id":76561198119495513,"connected_time":1014000000000,"state":"active","ping":48},{"user_id":321,"name":"I I","steam_id":76561199101935057,"connected_time":213000000000,"state":"active","ping":98},{"user_id":317,"name":"Gorzel","steam_id":76561198828273330,"connected_time":617000000000,"state":"active","ping":87},{"user_id":322,"name":"ARYZON","steam_id":76561198070705087,"connected_time":185000000000,"state":"active","ping":55},{"user_id":281,"name":"Kahvi","steam_id":76561198723244199,"connected_time":2504000000000,"state":"active","ping":77},{"user_id":326,"name":"Tywhip","steam_id":76561199207545191,"connected_time":153000000000,"state":"active","ping":55},{"user_id":323,"name":"Mike","steam_id":76561198021730102,"connected_time":176000000000,"state":"active","ping":44},{"user_id":324,"name":"Lernix","steam_id":76561198382328645,"connected_time":176000000000,"state":"active","ping":69},{"user_id":264,"name":"png.png","steam_id":76561198444446521,"connected_time":3036000000000,"state":"active","ping":108},{"user_id":260,"name":"padillacampos","steam_id":76561198161923970,"connected_time":3332000000000,"state":"active","ping":77},{"user_id":273,"name":"name me pls","steam_id":76561199273576072,"connected_time":2816000000000,"state":"active","ping":54},{"user_id":325,"name":"Rayen","steam_id":76561198414934028,"connected_time":175000000000,"state":"active","ping":135},{"user_id":327,"name":"sup3rfr3ddy.","steam_id":76561198119371683,"connected_time":149000000000,"state":"active","ping":61},{"user_id":275,"name":"Kylute","steam_id":76561198447504417,"connected_time":2688000000000,"state":"active","ping":34},{"user_id":299,"name":"Monsteh","steam_id":76561198325898181,"connected_time":1702000000000,"state":"active","ping":65},{"user_id":328,"name":"LionKing","steam_id":76561198023399545,"connected_time":143000000000,"state":"active","ping":58},{"user_id":312,"name":"Gruset","steam_id":76561198327512432,"connected_time":1010000000000,"state":"active","ping":75},{"user_id":313,"name":"BONA FIDE PISS","steam_id":76561198130020929,"connected_time":989000000000,"state":"active","ping":39}]},{"server_id":40,"name":"Uncletopia | London | 7 | No Payload","name_short":"lon-7","host":"lon-1.uk.uncletopia.com","port":27075,"enabled":true,"region":"eu","cc":"gb","latitude":51.509865,"longitude":-0.118092,"reserved":0,"last_update":"0001-01-01T00:00:00Z","name_a2s":"Uncletopia | London | 7 | No Payload","protocol":17,"map":"koth_harvest_final","folder":"tf","game":"Team Fortress","app_id":440,"player_count":8,"max_players":24,"Bots":0,"server_type":"Dedicated","server_os":"Linux","password":true,"vac":true,"version":"7932396","steam_id":85568392924964314,"keywords":["cp","nocrits","nodmgspread","uncletopia"],"game_id":440,"stv_port":27076,"stv_name":"Uncletopia | London | 7 | No Payload | STV","players":[{"user_id":183,"name":"chess milk","steam_id":76561198122814249,"connected_time":451000000000,"state":"active","ping":45},{"user_id":182,"name":"VideoJames","steam_id":76561197970114051,"connected_time":484000000000,"state":"active","ping":44},{"user_id":184,"name":"Ross from F.R.I.E.N.D.S.","steam_id":76561198008511665,"connected_time":344000000000,"state":"active","ping":56},{"user_id":190,"name":"cream gravy","steam_id":76561198973069177,"connected_time":41000000000,"state":"active","ping":51},{"user_id":186,"name":"Mirandaws","steam_id":76561198930890710,"connected_time":299000000000,"state":"active","ping":80},{"user_id":187,"name":"Fat Pigeon","steam_id":76561198817940142,"connected_time":269000000000,"state":"active","ping":45},{"user_id":188,"name":"X-tis","steam_id":76561198043837480,"connected_time":243000000000,"state":"active","ping":62},{"user_id":189,"name":"Egor Pomidor","steam_id":76561199175688390,"connected_time":223000000000,"state":"active","ping":87}]},{"server_id":41,"name":"Uncletopia | London | 8 | Community","name_short":"lon-8","host":"lon-1.uk.uncletopia.com","port":27085,"enabled":true,"region":"eu","cc":"gb","latitude":51.509865,"longitude":-0.118092,"reserved":0,"last_update":"0001-01-01T00:00:00Z","name_a2s":"Uncletopia | London | 8 | Community","protocol":17,"map":"workshop/koth_slaughter_rc1.ugc1712845210","folder":"tf","game":"Team Fortress","app_id":440,"player_count":0,"max_players":24,"Bots":0,"server_type":"Dedicated","server_os":"Linux","password":true,"vac":true,"version":"7932396","steam_id":85568392924964315,"keywords":["cp","nocrits","nodmgspread","uncletopia"],"game_id":440,"stv_port":27086,"stv_name":"Uncletopia | London | 8 | Community | STV","players":null},{"server_id":300,"name":"Uncletopia | Montréal | 1 | All Maps","name_short":"mtl-1","host":"mtl-1.ca.uncletopia.com","port":27015,"enabled":true,"region":"us-east","cc":"ca","latitude":45.50889,"longitude":-73.56167,"reserved":0,"last_update":"0001-01-01T00:00:00Z","name_a2s":"Uncletopia | Montréal | 1 | All Maps","protocol":17,"map":"koth_cascade","folder":"tf","game":"Team Fortress","app_id":440,"player_count":0,"max_players":24,"Bots":0,"server_type":"Dedicated","server_os":"Linux","password":true,"vac":true,"version":"7932396","steam_id":85568392924500087,"keywords":["cp","nocrits","nodmgspread","uncletopia"],"game_id":440,"stv_port":27016,"stv_name":"Uncletopia | Montréal | 1 | All Maps | STV","players":null},{"server_id":301,"name":"Uncletopia | Montréal | 2 | All Maps","name_short":"mtl-2","host":"mtl-1.ca.uncletopia.com","port":27025,"enabled":true,"region":"us-east","cc":"ca","latitude":45.50889,"longitude":-73.56167,"reserved":0,"last_update":"0001-01-01T00:00:00Z","name_a2s":"Uncletopia | Montréal | 2 | All Maps","protocol":17,"map":"koth_lakeside_final","folder":"tf","game":"Team Fortress","app_id":440,"player_count":0,"max_players":24,"Bots":0,"server_type":"Dedicated","server_os":"Linux","password":true,"vac":true,"version":"7932396","steam_id":85568392924500088,"keywords":["cp","nocrits","nodmgspread","uncletopia"],"game_id":440,"stv_port":27026,"stv_name":"Uncletopia | Montréal | 2 | All Maps | STV","players":null},{"server_id":302,"name":"Uncletopia | Montréal | 3 | All Maps","name_short":"mtl-3","host":"mtl-1.ca.uncletopia.com","port":27035,"enabled":true,"region":"us-east","cc":"ca","latitude":45.50889,"longitude":-73.56167,"reserved":0,"last_update":"0001-01-01T00:00:00Z","name_a2s":"Uncletopia | Montréal | 3 | All Maps","protocol":17,"map":"cp_process_final","folder":"tf","game":"Team Fortress","app_id":440,"player_count":0,"max_players":24,"Bots":0,"server_type":"Dedicated","server_os":"Linux","password":true,"vac":true,"version":"7932396","steam_id":85568392924500089,"keywords":["cp","nocrits","nodmgspread","uncletopia"],"game_id":440,"stv_port":27036,"stv_name":"Uncletopia | Montréal | 3 | All Maps | STV","players":null},{"server_id":303,"name":"Uncletopia | Montréal | 4 | No Payload","name_short":"mtl-4","host":"mtl-1.ca.uncletopia.com","port":27045,"enabled":true,"region":"us-east","cc":"ca","latitude":45.50889,"longitude":-73.56167,"reserved":0,"last_update":"0001-01-01T00:00:00Z","name_a2s":"Uncletopia | Montréal | 4 | No Payload","protocol":17,"map":"cp_snakewater_final1","folder":"tf","game":"Team Fortress","app_id":440,"player_count":0,"max_players":24,"Bots":0,"server_type":"Dedicated","server_os":"Linux","password":true,"vac":true,"version":"7932396","steam_id":85568392924500090,"keywords":["cp","nocrits","nodmgspread","uncletopia"],"game_id":440,"stv_port":27046,"stv_name":"Uncletopia | Montréal | 4 | No Payload | STV","players":null},{"server_id":13,"name":"Uncletopia | New York City | 1 | All Maps","name_short":"nyc-1","host":"nyc-1.us.uncletopia.com","port":27015,"enabled":true,"region":"us-east","cc":"us","latitude":40.73061,"longitude":-73.93524,"reserved":0,"last_update":"0001-01-01T00:00:00Z","name_a2s":"Uncletopia | New York City | 1 | All Maps","protocol":17,"map":"cp_mercenarypark","folder":"tf","game":"Team Fortress","app_id":440,"player_count":24,"max_players":24,"Bots":0,"server_type":"Dedicated","server_os":"Linux","password":true,"vac":true,"version":"7932396","steam_id":85568392924469993,"keywords":["cp","nocrits","nodmgspread","uncletopia"],"game_id":440,"stv_port":27016,"stv_name":"Uncletopia | New York City | 1 | All Maps | STV","players":[{"user_id":190,"name":"2_Kan","steam_id":76561199456801899,"connected_time":683000000000,"state":"active","ping":103},{"user_id":147,"name":"Voodo133","steam_id":76561198042670351,"connected_time":3359000000000,"state":"active","ping":71},{"user_id":187,"name":"az_noob","steam_id":76561199382983284,"connected_time":1068000000000,"state":"active","ping":70},{"user_id":169,"name":"北 (Hoku)","steam_id":76561198156541138,"connected_time":2127000000000,"state":"active","ping":50},{"user_id":195,"name":"WaveSmash","steam_id":76561198208785485,"connected_time":191000000000,"state":"active","ping":102},{"user_id":161,"name":"A Puppy","steam_id":76561198828184456,"connected_time":2918000000000,"state":"active","ping":54},{"user_id":170,"name":"Fraglin","steam_id":76561198124964000,"connected_time":2095000000000,"state":"active","ping":81},{"user_id":196,"name":"Bing Bong","steam_id":76561198085358009,"connected_time":181000000000,"state":"active","ping":53},{"user_id":154,"name":"coolfalcon168","steam_id":76561198948665710,"connected_time":3262000000000,"state":"active","ping":74},{"user_id":158,"name":"Bheem","steam_id":76561198170453459,"connected_time":3201000000000,"state":"active","ping":109},{"user_id":193,"name":"Al Cabone","steam_id":76561198956823243,"connected_time":324000000000,"state":"active","ping":55},{"user_id":191,"name":"All 24 Pokémon movies at once","steam_id":76561198164738311,"connected_time":507000000000,"state":"active","ping":84},{"user_id":188,"name":"i suck","steam_id":76561198149124090,"connected_time":1041000000000,"state":"active","ping":57},{"user_id":166,"name":"Eraserhead Baby","steam_id":76561198010968514,"connected_time":2333000000000,"state":"active","ping":109},{"user_id":185,"name":"Swifgz","steam_id":76561198162875756,"connected_time":1359000000000,"state":"active","ping":45},{"user_id":176,"name":"AwakenedLaser","steam_id":76561198881657823,"connected_time":1858000000000,"state":"active","ping":141},{"user_id":178,"name":"Punished Kong","steam_id":76561198973620882,"connected_time":1835000000000,"state":"active","ping":72},{"user_id":189,"name":"crashymicsplody","steam_id":76561198213916765,"connected_time":746000000000,"state":"active","ping":78},{"user_id":180,"name":"ThatGamingKiwi","steam_id":76561199170522237,"connected_time":1801000000000,"state":"active","ping":79},{"user_id":192,"name":"noided","steam_id":76561198353924837,"connected_time":397000000000,"state":"active","ping":65},{"user_id":183,"name":"not_pro_yet","steam_id":76561198262838300,"connected_time":1483000000000,"state":"active","ping":94},{"user_id":186,"name":"Raptorloch","steam_id":76561198834567806,"connected_time":1260000000000,"state":"active","ping":84},{"user_id":197,"name":"MARCHMADNESS182","steam_id":76561198070923665,"connected_time":181000000000,"state":"active","ping":74},{"user_id":198,"name":"Xander","steam_id":76561199100623603,"connected_time":181000000000,"state":"active","ping":73}]},{"server_id":14,"name":"Uncletopia | New York City | 2 | All Maps","name_short":"nyc-2","host":"nyc-1.us.uncletopia.com","port":27025,"enabled":true,"region":"us-east","cc":"us","latitude":40.73061,"longitude":-73.93524,"reserved":0,"last_update":"0001-01-01T00:00:00Z","name_a2s":"Uncletopia | New York City | 2 | All Maps","protocol":17,"map":"cp_snakewater_final1","folder":"tf","game":"Team Fortress","app_id":440,"player_count":24,"max_players":24,"Bots":0,"server_type":"Dedicated","server_os":"Linux","password":true,"vac":true,"version":"7932396","steam_id":85568392924469994,"keywords":["cp","nocrits","nodmgspread","uncletopia"],"game_id":440,"stv_port":27026,"stv_name":"Uncletopia | New York City | 2 | All Maps | STV","players":[{"user_id":342,"name":"TATARA","steam_id":76561199098759517,"connected_time":479000000000,"state":"active","ping":119},{"user_id":230,"name":"acid","steam_id":76561198055855408,"connected_time":7360000000000,"state":"active","ping":63},{"user_id":338,"name":"cold","steam_id":76561199017901552,"connected_time":645000000000,"state":"active","ping":89},{"user_id":333,"name":"Ruby Gillman","steam_id":76561198366299848,"connected_time":760000000000,"state":"active","ping":68},{"user_id":334,"name":"[㏈] Bumpercars","steam_id":76561198061591743,"connected_time":747000000000,"state":"active","ping":91},{"user_id":296,"name":"homer","steam_id":76561198171491110,"connected_time":3534000000000,"state":"active","ping":46},{"user_id":309,"name":"A_Malebolgia","steam_id":76561198097722818,"connected_time":2530000000000,"state":"active","ping":81},{"user_id":339,"name":"Poggo","steam_id":76561198819949327,"connected_time":635000000000,"state":"active","ping":147},{"user_id":340,"name":"toastman","steam_id":76561198207073088,"connected_time":609000000000,"state":"active","ping":80},{"user_id":325,"name":"eryn 🗺","steam_id":76561198004433070,"connected_time":1452000000000,"state":"active","ping":90},{"user_id":343,"name":"gIBBY","steam_id":76561198080099598,"connected_time":45000000000,"state":"active","ping":45},{"user_id":279,"name":"marge","steam_id":76561198064823861,"connected_time":4460000000000,"state":"active","ping":71},{"user_id":336,"name":"[IRP] Dover","steam_id":76561198417653786,"connected_time":729000000000,"state":"active","ping":121},{"user_id":321,"name":"danielarmvt","steam_id":76561198799723201,"connected_time":1691000000000,"state":"active","ping":110},{"user_id":326,"name":"Satan","steam_id":76561198049821475,"connected_time":1392000000000,"state":"active","ping":83},{"user_id":335,"name":"TheGirthquake","steam_id":76561198238895056,"connected_time":744000000000,"state":"active","ping":154},{"user_id":319,"name":"engiqueer69","steam_id":76561199153261850,"connected_time":2033000000000,"state":"active","ping":120},{"user_id":306,"name":"Chicken Nugget","steam_id":76561198082601232,"connected_time":2675000000000,"state":"active","ping":60},{"user_id":205,"name":"The World's Softest Sandwich","steam_id":76561198015577707,"connected_time":10056000000000,"state":"active","ping":96},{"user_id":331,"name":"Totally not CIA","steam_id":76561198237827742,"connected_time":1029000000000,"state":"active","ping":48},{"user_id":206,"name":"Fresh Lychee","steam_id":76561198045399559,"connected_time":10054000000000,"state":"active","ping":68},{"user_id":341,"name":"chilis baby back ribs","steam_id":76561198813516435,"connected_time":577000000000,"state":"active","ping":106},{"user_id":320,"name":"THE SEX UPDATE","steam_id":76561199091084794,"connected_time":1995000000000,"state":"active","ping":71},{"user_id":332,"name":"ᓀ‸ᓂ","steam_id":76561198046055673,"connected_time":1015000000000,"state":"active","ping":60}]},{"server_id":15,"name":"Uncletopia | New York City | 3 | Stopwatch Beta","name_short":"nyc-3","host":"nyc-1.us.uncletopia.com","port":27035,"enabled":true,"region":"us-east","cc":"us","latitude":40.73061,"longitude":-73.93524,"reserved":0,"last_update":"0001-01-01T00:00:00Z","name_a2s":"Uncletopia | New York City | 3 | Stopwatch Beta","protocol":17,"map":"cp_sunshine","folder":"tf","game":"Team Fortress","app_id":440,"player_count":0,"max_players":24,"Bots":0,"server_type":"Dedicated","server_os":"Linux","password":true,"vac":true,"version":"7932396","steam_id":85568392924742820,"keywords":["cp","nocrits","nodmgspread","uncletopia"],"game_id":440,"stv_port":27036,"stv_name":"Uncletopia | New York City | 3 | Stopwatch Beta | STV","players":null},{"server_id":16,"name":"Uncletopia | New York City | 4 | Community","name_short":"nyc-4","host":"nyc-1.us.uncletopia.com","port":27045,"enabled":true,"region":"us-east","cc":"us","latitude":40.73061,"longitude":-73.93524,"reserved":0,"last_update":"0001-01-01T00:00:00Z","name_a2s":"Uncletopia | New York City | 4 | Community","protocol":17,"map":"workshop/koth_product_final.ugc454272353","folder":"tf","game":"Team Fortress","app_id":440,"player_count":0,"max_players":24,"Bots":0,"server_type":"Dedicated","server_os":"Linux","password":true,"vac":true,"version":"7932396","steam_id":85568392924742821,"keywords":["cp","nocrits","nodmgspread","uncletopia"],"game_id":440,"stv_port":27046,"stv_name":"Uncletopia | New York City | 4 | Community | STV","players":null},{"server_id":142,"name":"Uncletopia | São Paulo | 1 | All Maps","name_short":"sao-1","host":"sao-1.br.uncletopia.com","port":27015,"enabled":true,"region":"sa","cc":"br","latitude":-23.533773,"longitude":-46.62529,"reserved":0,"last_update":"0001-01-01T00:00:00Z","name_a2s":"Uncletopia | São Paulo | 1 | All Maps","protocol":17,"map":"koth_viaduct","folder":"tf","game":"Team Fortress","app_id":440,"player_count":0,"max_players":24,"Bots":0,"server_type":"Dedicated","server_os":"Linux","password":true,"vac":true,"version":"7932396","steam_id":85568392924469996,"keywords":["cp","nocrits","nodmgspread","uncletopia"],"game_id":440,"stv_port":27016,"stv_name":"Uncletopia | São Paulo | 1 | All Maps | STV","players":null},{"server_id":143,"name":"Uncletopia | São Paulo | 2 | All Maps","name_short":"sao-2","host":"sao-2.br.uncletopia.com","port":27015,"enabled":true,"region":"sa","cc":"br","latitude":-23.533773,"longitude":-46.62529,"reserved":0,"last_update":"0001-01-01T00:00:00Z","name_a2s":"Uncletopia | São Paulo | 2 | All Maps","protocol":17,"map":"cp_dustbowl","folder":"tf","game":"Team Fortress","app_id":440,"player_count":3,"max_players":24,"Bots":0,"server_type":"Dedicated","server_os":"Linux","password":true,"vac":true,"version":"7932396","steam_id":85568392924485349,"keywords":["cp","nocrits","nodmgspread","uncletopia"],"game_id":440,"stv_port":27016,"stv_name":"Uncletopia | São Paulo | 2 | All Maps | STV","players":[{"user_id":30,"name":"anaheisenberg","steam_id":76561198304847307,"connected_time":180000000000,"state":"active","ping":47},{"user_id":31,"name":"pee man gaming","steam_id":76561199243684443,"connected_time":95000000000,"state":"active","ping":85},{"user_id":32,"name":"kate ❀","steam_id":76561198805567120,"connected_time":18000000000,"state":"active","ping":537}]},{"server_id":7,"name":"Uncletopia | Seattle | 1 | All Maps","name_short":"sea-1","host":"sea-1.us.uncletopia.com","port":27015,"enabled":true,"region":"us-west","cc":"us","latitude":47.608013,"longitude":-122.33517,"reserved":0,"last_update":"0001-01-01T00:00:00Z","name_a2s":"Uncletopia | Seattle | 1 | All Maps","protocol":17,"map":"koth_viaduct","folder":"tf","game":"Team Fortress","app_id":440,"player_count":24,"max_players":24,"Bots":0,"server_type":"Dedicated","server_os":"Linux","password":true,"vac":true,"version":"7932396","steam_id":85568392924469997,"keywords":["cp","nocrits","nodmgspread","uncletopia"],"game_id":440,"stv_port":27016,"stv_name":"Uncletopia | Seattle | 1 | All Maps | STV","players":[{"user_id":209,"name":"oo","steam_id":76561198119626492,"connected_time":3016000000000,"state":"active","ping":72},{"user_id":288,"name":"Chalks","steam_id":76561198045978275,"connected_time":442000000000,"state":"active","ping":77},{"user_id":302,"name":"Ymiir","steam_id":76561198118284271,"connected_time":145000000000,"state":"active","ping":85},{"user_id":233,"name":"Cloud","steam_id":76561198272454184,"connected_time":1563000000000,"state":"active","ping":172},{"user_id":275,"name":"FIREBALLFLINGER","steam_id":76561198171268559,"connected_time":728000000000,"state":"active","ping":119},{"user_id":8,"name":"CoffeeZombee","steam_id":76561198172708053,"connected_time":20688000000000,"state":"active","ping":132},{"user_id":176,"name":"hemo goblin›","steam_id":76561198048007844,"connected_time":4461000000000,"state":"active","ping":68},{"user_id":234,"name":"IcarusIsBestGirl","steam_id":76561198998625008,"connected_time":1548000000000,"state":"active","ping":69},{"user_id":231,"name":"sway sunnay","steam_id":76561198308817394,"connected_time":1685000000000,"state":"active","ping":114},{"user_id":284,"name":"lyraaaaaaaaaaa","steam_id":76561198259331758,"connected_time":497000000000,"state":"active","ping":58},{"user_id":277,"name":"chiarraz","steam_id":76561198277439571,"connected_time":692000000000,"state":"active","ping":118},{"user_id":278,"name":"the one true chubster","steam_id":76561198038358134,"connected_time":684000000000,"state":"active","ping":81},{"user_id":189,"name":"cool beans","steam_id":76561198321591685,"connected_time":4055000000000,"state":"active","ping":72},{"user_id":261,"name":"air²","steam_id":76561198318855276,"connected_time":962000000000,"state":"active","ping":107},{"user_id":279,"name":"Sleuth","steam_id":76561198418288939,"connected_time":623000000000,"state":"active","ping":72},{"user_id":289,"name":"Fragmentum","steam_id":76561197977274152,"connected_time":384000000000,"state":"active","ping":69},{"user_id":205,"name":"DrDan64","steam_id":76561199013363718,"connected_time":3301000000000,"state":"active","ping":126},{"user_id":282,"name":"goopgrabber","steam_id":76561199029951083,"connected_time":543000000000,"state":"active","ping":65},{"user_id":283,"name":"YahYeeterson","steam_id":76561198120480906,"connected_time":535000000000,"state":"active","ping":62},{"user_id":220,"name":"summerlis","steam_id":76561198165324438,"connected_time":2529000000000,"state":"active","ping":61},{"user_id":227,"name":"Wafflemuscle","steam_id":76561198868628982,"connected_time":1981000000000,"state":"active","ping":51},{"user_id":272,"name":"Yack Skag","steam_id":76561198068251493,"connected_time":818000000000,"state":"active","ping":68},{"user_id":292,"name":"Thank Todd","steam_id":76561199417044011,"connected_time":334000000000,"state":"active","ping":102},{"user_id":294,"name":"Gladiateor","steam_id":76561198133021250,"connected_time":319000000000,"state":"active","ping":92}]},{"server_id":119,"name":"Uncletopia | Seattle | 2 | All Maps","name_short":"sea-2","host":"sea-1.us.uncletopia.com","port":27025,"enabled":true,"region":"us-west","cc":"us","latitude":47.608013,"longitude":-122.33517,"reserved":0,"last_update":"0001-01-01T00:00:00Z","name_a2s":"Uncletopia | Seattle | 2 | All Maps","protocol":17,"map":"cp_mountainlab","folder":"tf","game":"Team Fortress","app_id":440,"player_count":24,"max_players":24,"Bots":0,"server_type":"Dedicated","server_os":"Linux","password":true,"vac":true,"version":"7932396","steam_id":85568392924469998,"keywords":["cp","nocrits","nodmgspread","uncletopia"],"game_id":440,"stv_port":27026,"stv_name":"Uncletopia | Seattle | 2 | All Maps | STV","players":[{"user_id":207,"name":"reiidaya","steam_id":76561198325306660,"connected_time":1104000000000,"state":"active","ping":77},{"user_id":208,"name":"your girl","steam_id":76561199050118111,"connected_time":1080000000000,"state":"active","ping":58},{"user_id":209,"name":"Power Jake","steam_id":76561198051510260,"connected_time":1063000000000,"state":"active","ping":56},{"user_id":220,"name":"CashGordon","steam_id":76561197975594096,"connected_time":527000000000,"state":"active","ping":38},{"user_id":210,"name":"K2f","steam_id":76561198049600563,"connected_time":1024000000000,"state":"active","ping":75},{"user_id":212,"name":"Wingsaber","steam_id":76561198045010390,"connected_time":978000000000,"state":"active","ping":109},{"user_id":164,"name":"Bonk Co.","steam_id":76561198009355408,"connected_time":4513000000000,"state":"active","ping":68},{"user_id":233,"name":"alcoholic IM scrims","steam_id":76561198170381402,"connected_time":63000000000,"state":"active","ping":105},{"user_id":216,"name":"Many Bees' Chilling","steam_id":76561198079641282,"connected_time":842000000000,"state":"active","ping":51},{"user_id":221,"name":"Jeramosa","steam_id":76561198811000094,"connected_time":476000000000,"state":"active","ping":86},{"user_id":218,"name":"NoBeeme","steam_id":76561198277825198,"connected_time":823000000000,"state":"active","ping":82},{"user_id":154,"name":"Aqua Tofana","steam_id":76561198351183381,"connected_time":4995000000000,"state":"active","ping":54},{"user_id":235,"name":"Eraser cat","steam_id":76561199045570463,"connected_time":31000000000,"state":"spawning","ping":58},{"user_id":223,"name":"Shrubbleson","steam_id":76561198274966390,"connected_time":435000000000,"state":"active","ping":45},{"user_id":226,"name":"Jgressive","steam_id":76561198364249657,"connected_time":271000000000,"state":"active","ping":65},{"user_id":168,"name":"ChimiChan","steam_id":76561198080094525,"connected_time":4443000000000,"state":"active","ping":60},{"user_id":227,"name":"no brain","steam_id":76561198451032322,"connected_time":253000000000,"state":"active","ping":60},{"user_id":201,"name":"Pseudotriangle","steam_id":76561198058247667,"connected_time":1730000000000,"state":"active","ping":144},{"user_id":228,"name":"Funky Kong Jr.","steam_id":76561199351137762,"connected_time":203000000000,"state":"active","ping":54},{"user_id":229,"name":"Transbian mommy GF","steam_id":76561198153233822,"connected_time":199000000000,"state":"active","ping":113},{"user_id":234,"name":"°Creamy Gilligan","steam_id":76561198001569384,"connected_time":60000000000,"state":"active","ping":134},{"user_id":231,"name":"Ezakt","steam_id":76561199099132304,"connected_time":142000000000,"state":"active","ping":114},{"user_id":198,"name":"neo :)","steam_id":76561199092954930,"connected_time":2204000000000,"state":"active","ping":125},{"user_id":232,"name":"laggy mcstab","steam_id":76561198106379962,"connected_time":141000000000,"state":"active","ping":86}]},{"server_id":406,"name":"Uncletopia | Seattle | 3 | Stopwatch Beta","name_short":"sea-3","host":"sea-1.us.uncletopia.com","port":27035,"enabled":true,"region":"us-west","cc":"us","latitude":47.608013,"longitude":-122.33517,"reserved":0,"last_update":"0001-01-01T00:00:00Z","name_a2s":"Uncletopia | Seattle | 3 | Stopwatch Beta","protocol":17,"map":"pl_upward","folder":"tf","game":"Team Fortress","app_id":440,"player_count":0,"max_players":24,"Bots":0,"server_type":"Dedicated","server_os":"Linux","password":true,"vac":true,"version":"7932396","steam_id":85568392924515217,"keywords":["nocrits","nodmgspread","payload","uncletopia"],"game_id":440,"stv_port":27036,"stv_name":"Uncletopia | Seattle | 3 | Stopwatch Beta | STV","players":null},{"server_id":17,"name":"Uncletopia | San Francisco | 1 | All Maps","name_short":"sfo-1","host":"sfo-1.us.uncletopia.com","port":27015,"enabled":true,"region":"us-west","cc":"us","latitude":37.77397,"longitude":-122.4313,"reserved":0,"last_update":"0001-01-01T00:00:00Z","name_a2s":"Uncletopia | San Francisco | 1 | All Maps","protocol":17,"map":"pl_hoodoo_final","folder":"tf","game":"Team Fortress","app_id":440,"player_count":24,"max_players":24,"Bots":0,"server_type":"Dedicated","server_os":"Linux","password":true,"vac":true,"version":"7932396","steam_id":85568392924469999,"keywords":["nocrits","nodmgspread","payload","uncletopia"],"game_id":440,"stv_port":27016,"stv_name":"Uncletopia | San Francisco | 1 | All Maps | STV","players":[{"user_id":190,"name":"sumo dumplings","steam_id":76561198115553314,"connected_time":24000000000,"state":"active","ping":107},{"user_id":169,"name":"Dangerous_Dave76","steam_id":76561199230056550,"connected_time":1248000000000,"state":"active","ping":70},{"user_id":184,"name":"craxyt","steam_id":76561198050192689,"connected_time":476000000000,"state":"active","ping":53},{"user_id":106,"name":"Vlad","steam_id":76561198072334604,"connected_time":4844000000000,"state":"active","ping":69},{"user_id":182,"name":"XERXES","steam_id":76561198119639635,"connected_time":636000000000,"state":"active","ping":124},{"user_id":149,"name":"noceof","steam_id":76561198043656816,"connected_time":2567000000000,"state":"active","ping":155},{"user_id":135,"name":"TwoScore","steam_id":76561198024412148,"connected_time":3323000000000,"state":"active","ping":81},{"user_id":145,"name":"SoldMyKidneyForCollege","steam_id":76561198096329559,"connected_time":2920000000000,"state":"active","ping":50},{"user_id":185,"name":"slightly faster heavy","steam_id":76561199077027954,"connected_time":467000000000,"state":"active","ping":81},{"user_id":86,"name":"ForAPessimistImPrettyOptimistic","steam_id":76561198170128009,"connected_time":6343000000000,"state":"active","ping":55},{"user_id":142,"name":"Earl Acton","steam_id":76561198064273772,"connected_time":3265000000000,"state":"active","ping":110},{"user_id":156,"name":"TheXayol","steam_id":76561199177408516,"connected_time":2166000000000,"state":"active","ping":111},{"user_id":165,"name":"Buswolley","steam_id":76561197995205571,"connected_time":1424000000000,"state":"active","ping":49},{"user_id":95,"name":"worker","steam_id":76561198039608940,"connected_time":5503000000000,"state":"active","ping":85},{"user_id":173,"name":"MintyFreshMentos","steam_id":76561198839944799,"connected_time":1098000000000,"state":"active","ping":54},{"user_id":179,"name":"tr","steam_id":76561198046944222,"connected_time":756000000000,"state":"active","ping":62},{"user_id":153,"name":"Vorpas Jabwak","steam_id":76561198112186064,"connected_time":2400000000000,"state":"active","ping":87},{"user_id":189,"name":"DrD","steam_id":76561198067266383,"connected_time":242000000000,"state":"active","ping":58},{"user_id":183,"name":"I'm a easy kill","steam_id":76561199092023746,"connected_time":539000000000,"state":"active","ping":65},{"user_id":161,"name":"Imitation Caucasian","steam_id":76561198320536166,"connected_time":2039000000000,"state":"active","ping":82},{"user_id":164,"name":"HeySan","steam_id":76561198184567366,"connected_time":1650000000000,"state":"active","ping":59},{"user_id":186,"name":"Brain damage squirrel","steam_id":76561198846344452,"connected_time":464000000000,"state":"active","ping":47},{"user_id":174,"name":"Uncle Dale","steam_id":76561199144302768,"connected_time":1090000000000,"state":"active","ping":101},{"user_id":140,"name":"DrWilloughby","steam_id":76561198095260357,"connected_time":3286000000000,"state":"active","ping":75}]},{"server_id":18,"name":"Uncletopia | San Francisco | 2 | All Maps","name_short":"sfo-2","host":"sfo-1.us.uncletopia.com","port":27025,"enabled":true,"region":"us-west","cc":"us","latitude":37.77397,"longitude":-122.4313,"reserved":0,"last_update":"0001-01-01T00:00:00Z","name_a2s":"Uncletopia | San Francisco | 2 | All Maps","protocol":17,"map":"cp_dustbowl","folder":"tf","game":"Team Fortress","app_id":440,"player_count":9,"max_players":24,"Bots":0,"server_type":"Dedicated","server_os":"Linux","password":true,"vac":true,"version":"7932396","steam_id":85568392924470000,"keywords":["cp","nocrits","nodmgspread","uncletopia"],"game_id":440,"stv_port":27026,"stv_name":"Uncletopia | San Francisco | 2 | All Maps | STV","players":[{"user_id":11,"name":"JC The Dumb","steam_id":76561199186185567,"connected_time":2168000000000,"state":"active","ping":64},{"user_id":12,"name":"HawkBlaze","steam_id":76561199000152914,"connected_time":2168000000000,"state":"active","ping":65},{"user_id":14,"name":"LProduct","steam_id":76561199442139670,"connected_time":1750000000000,"state":"active","ping":82},{"user_id":25,"name":"ronald","steam_id":76561197960691622,"connected_time":61000000000,"state":"active","ping":56},{"user_id":16,"name":"gamer.mephit","steam_id":76561199112861361,"connected_time":1182000000000,"state":"active","ping":76},{"user_id":23,"name":"Spectre1578","steam_id":76561198953243633,"connected_time":485000000000,"state":"active","ping":75},{"user_id":19,"name":"big fish","steam_id":76561198186479818,"connected_time":784000000000,"state":"active","ping":64},{"user_id":21,"name":"SpaceCokeCan","steam_id":76561199117730730,"connected_time":657000000000,"state":"active","ping":119},{"user_id":22,"name":"Smashing93","steam_id":76561199058453316,"connected_time":608000000000,"state":"active","ping":100}]},{"server_id":19,"name":"Uncletopia | San Francisco | 3 | Stopwatch Beta","name_short":"sfo-3","host":"sfo-1.us.uncletopia.com","port":27035,"enabled":true,"region":"us-west","cc":"us","latitude":37.77397,"longitude":-122.4313,"reserved":0,"last_update":"0001-01-01T00:00:00Z","name_a2s":"Uncletopia | San Francisco | 3 | Stopwatch Beta","protocol":17,"map":"cp_process_final","folder":"tf","game":"Team Fortress","app_id":440,"player_count":0,"max_players":24,"Bots":0,"server_type":"Dedicated","server_os":"Linux","password":true,"vac":true,"version":"7932396","steam_id":85568392924742824,"keywords":["cp","nocrits","nodmgspread","uncletopia"],"game_id":440,"stv_port":27036,"stv_name":"Uncletopia | San Francisco | 3 | Stopwatch Beta | STV","players":null},{"server_id":20,"name":"Uncletopia | San Francisco | 4 | Community","name_short":"sfo-4","host":"sfo-1.us.uncletopia.com","port":27045,"enabled":true,"region":"us-west","cc":"us","latitude":37.77397,"longitude":-122.4313,"reserved":0,"last_update":"0001-01-01T00:00:00Z","name_a2s":"Uncletopia | San Francisco | 4 | Community","protocol":17,"map":"workshop/cp_villa_b19.ugc2113052569","folder":"tf","game":"Team Fortress","app_id":440,"player_count":0,"max_players":24,"Bots":0,"server_type":"Dedicated","server_os":"Linux","password":true,"vac":true,"version":"7932396","steam_id":85568392924742826,"keywords":["cp","nocrits","nodmgspread","uncletopia"],"game_id":440,"stv_port":27046,"stv_name":"Uncletopia | San Francisco | 4 | Community | STV","players":null},{"server_id":141,"name":"Uncletopia | Sydney | 1 | All Maps","name_short":"syd-1","host":"syd-1.au.uncletopia.com","port":27015,"enabled":true,"region":"au","cc":"au","latitude":-33.865143,"longitude":151.2099,"reserved":0,"last_update":"0001-01-01T00:00:00Z","name_a2s":"Uncletopia | Sydney | 1 | All Maps","protocol":17,"map":"pl_pier","folder":"tf","game":"Team Fortress","app_id":440,"player_count":0,"max_players":24,"Bots":0,"server_type":"Dedicated","server_os":"Linux","password":true,"vac":true,"version":"7932396","steam_id":85568392924470001,"keywords":["nocrits","nodmgspread","payload","uncletopia"],"game_id":440,"stv_port":27016,"stv_name":"Uncletopia | Sydney | 1 | All Maps | STV","players":null},{"server_id":123,"name":"Uncletopia | Sydney | 2 | All Maps","name_short":"syd-2","host":"syd-1.au.uncletopia.com","port":27025,"enabled":true,"region":"au","cc":"au","latitude":-33.865143,"longitude":151.2099,"reserved":0,"last_update":"0001-01-01T00:00:00Z","name_a2s":"Uncletopia | Sydney | 2 | All Maps","protocol":17,"map":"koth_lakeside_final","folder":"tf","game":"Team Fortress","app_id":440,"player_count":0,"max_players":24,"Bots":0,"server_type":"Dedicated","server_os":"Linux","password":true,"vac":true,"version":"7932396","steam_id":85568392924470002,"keywords":["cp","nocrits","nodmgspread","uncletopia"],"game_id":440,"stv_port":27026,"stv_name":"Uncletopia | Sydney | 2 | All Maps | STV","players":null},{"server_id":395,"name":"Uncletopia | Sydney | 3 | All Maps","name_short":"syd-3","host":"syd-1.au.uncletopia.com","port":27035,"enabled":true,"region":"au","cc":"au","latitude":-33.865143,"longitude":151.2099,"reserved":0,"last_update":"0001-01-01T00:00:00Z","name_a2s":"Uncletopia | Sydney | 3 | All Maps","protocol":17,"map":"pl_snowycoast","folder":"tf","game":"Team Fortress","app_id":440,"player_count":2,"max_players":24,"Bots":0,"server_type":"Dedicated","server_os":"Linux","password":true,"vac":true,"version":"7932396","steam_id":85568392925194467,"keywords":["nocrits","nodmgspread","payload","uncletopia"],"game_id":440,"stv_port":27036,"stv_name":"Uncletopia | Sydney | 3 | All Maps | STV","players":[{"user_id":3,"name":"Toil Mill","steam_id":76561198192226758,"connected_time":3116000000000,"state":"active","ping":32},{"user_id":4,"name":"SwagDaddy69","steam_id":76561198821257744,"connected_time":2918000000000,"state":"active","ping":92}]},{"server_id":396,"name":"Uncletopia | Sydney | 4 | All Maps","name_short":"syd-4","host":"syd-1.au.uncletopia.com","port":27045,"enabled":true,"region":"au","cc":"au","latitude":-33.865143,"longitude":151.2099,"reserved":0,"last_update":"0001-01-01T00:00:00Z","name_a2s":"Uncletopia | Sydney | 4 | All Maps","protocol":17,"map":"pl_pier","folder":"tf","game":"Team Fortress","app_id":440,"player_count":0,"max_players":24,"Bots":0,"server_type":"Dedicated","server_os":"Linux","password":true,"vac":true,"version":"7932396","steam_id":85568392925397958,"keywords":["nocrits","nodmgspread","payload","uncletopia"],"game_id":440,"stv_port":27046,"stv_name":"Uncletopia | Sydney | 4 | All Maps | STV","players":null},{"server_id":58,"name":"Uncletopia | Sydney | 5 | Stopwatch Beta","name_short":"syd-5","host":"syd-1.au.uncletopia.com","port":27055,"enabled":true,"region":"au","cc":"au","latitude":-33.865143,"longitude":151.2099,"reserved":0,"last_update":"0001-01-01T00:00:00Z","name_a2s":"Uncletopia | Sydney | 5 | Stopwatch Beta","protocol":17,"map":"pl_borneo","folder":"tf","game":"Team Fortress","app_id":440,"player_count":0,"max_players":24,"Bots":0,"server_type":"Dedicated","server_os":"Linux","password":true,"vac":true,"version":"7932396","steam_id":85568392925397959,"keywords":["nocrits","nodmgspread","payload","uncletopia"],"game_id":440,"stv_port":27056,"stv_name":"Uncletopia | Sydney | 5 | Stopwatch Beta | STV","players":null},{"server_id":59,"name":"Uncletopia | Sydney | 6 | Community","name_short":"syd-6","host":"syd-1.au.uncletopia.com","port":27065,"enabled":true,"region":"au","cc":"au","latitude":-33.865143,"longitude":151.2099,"reserved":0,"last_update":"0001-01-01T00:00:00Z","name_a2s":"Uncletopia | Sydney | 6 | Community","protocol":17,"map":"pl_badwater","folder":"tf","game":"Team Fortress","app_id":440,"player_count":0,"max_players":24,"Bots":0,"server_type":"Dedicated","server_os":"Linux","password":true,"vac":true,"version":"7932396","steam_id":85568392925397960,"keywords":["nocrits","nodmgspread","payload","uncletopia"],"game_id":440,"stv_port":27066,"stv_name":"Uncletopia | Sydney | 6 | Community | STV","players":null},{"server_id":49,"name":"Uncletopia | Warsaw | 1 | All Maps","name_short":"waw-1","host":"waw-1.pl.uncletopia.com","port":27015,"enabled":true,"region":"eu","cc":"pl","latitude":52.2297,"longitude":21.017532,"reserved":0,"last_update":"0001-01-01T00:00:00Z","name_a2s":"","protocol":0,"map":"","folder":"","game":"","app_id":0,"player_count":0,"max_players":0,"Bots":0,"server_type":"","server_os":"","password":false,"vac":false,"version":"","steam_id":0,"keywords":null,"game_id":0,"stv_port":0,"stv_name":"","players":null},{"server_id":50,"name":"Uncletopia | Warsaw | 2 | All Maps","name_short":"waw-2","host":"waw-1.pl.uncletopia.com","port":27025,"enabled":true,"region":"eu","cc":"pl","latitude":52.2297,"longitude":21.017532,"reserved":0,"last_update":"0001-01-01T00:00:00Z","name_a2s":"Uncletopia | Warsaw | 2 | All Maps","protocol":17,"map":"pl_barnblitz","folder":"tf","game":"Team Fortress","app_id":440,"player_count":0,"max_players":24,"Bots":0,"server_type":"Dedicated","server_os":"Linux","password":true,"vac":true,"version":"7932396","steam_id":85568392925397851,"keywords":["nocrits","nodmgspread","payload","uncletopia"],"game_id":440,"stv_port":27026,"stv_name":"Uncletopia | Warsaw | 2 | All Maps | STV","players":null},{"server_id":51,"name":"Uncletopia | Warsaw | 3 | All Maps","name_short":"waw-3","host":"waw-1.pl.uncletopia.com","port":27035,"enabled":true,"region":"eu","cc":"pl","latitude":52.2297,"longitude":21.017532,"reserved":0,"last_update":"0001-01-01T00:00:00Z","name_a2s":"Uncletopia | Warsaw | 3 | All Maps","protocol":17,"map":"cp_dustbowl","folder":"tf","game":"Team Fortress","app_id":440,"player_count":21,"max_players":24,"Bots":0,"server_type":"Dedicated","server_os":"Linux","password":true,"vac":true,"version":"7932396","steam_id":85568392925397852,"keywords":["cp","nocrits","nodmgspread","uncletopia"],"game_id":440,"stv_port":27036,"stv_name":"Uncletopia | Warsaw | 3 | All Maps | STV","players":[{"user_id":95,"name":"iq drops","steam_id":76561198035795130,"connected_time":295000000000,"state":"active","ping":82},{"user_id":96,"name":"Twash","steam_id":76561198164122666,"connected_time":247000000000,"state":"active","ping":85},{"user_id":99,"name":"CHARGE ME DOCTOR !","steam_id":76561199475968804,"connected_time":232000000000,"state":"active","ping":69},{"user_id":94,"name":"SODA!!!!!!!","steam_id":76561198107362485,"connected_time":382000000000,"state":"active","ping":86},{"user_id":73,"name":"no kizzy","steam_id":76561198252234864,"connected_time":1194000000000,"state":"active","ping":88},{"user_id":104,"name":"Jack_26","steam_id":76561198034566531,"connected_time":113000000000,"state":"active","ping":110},{"user_id":102,"name":"Sulejman______________________\ufffd","steam_id":76561198276847676,"connected_time":190000000000,"state":"active","ping":114},{"user_id":49,"name":"Z.","steam_id":76561198367362266,"connected_time":2076000000000,"state":"active","ping":103},{"user_id":97,"name":"Delab Le Fou","steam_id":76561198846356572,"connected_time":237000000000,"state":"active","ping":108},{"user_id":40,"name":"S.Scary","steam_id":76561198248602386,"connected_time":2666000000000,"state":"active","ping":46},{"user_id":41,"name":"tïger","steam_id":76561198260483157,"connected_time":2630000000000,"state":"active","ping":51},{"user_id":50,"name":"L1RG0","steam_id":76561198329274068,"connected_time":2035000000000,"state":"active","ping":47},{"user_id":51,"name":"alice","steam_id":76561198269200388,"connected_time":2031000000000,"state":"active","ping":56},{"user_id":89,"name":"thicc boi","steam_id":76561198358870490,"connected_time":458000000000,"state":"active","ping":94},{"user_id":53,"name":"Big They/Them is watching YOU","steam_id":76561198307598168,"connected_time":1995000000000,"state":"active","ping":32},{"user_id":105,"name":"MisterTvester","steam_id":76561199318929521,"connected_time":14000000000,"state":"active","ping":70},{"user_id":55,"name":"CuJIA_TPAHCJIuTA","steam_id":76561198149654361,"connected_time":1969000000000,"state":"active","ping":78},{"user_id":101,"name":"cat","steam_id":76561198832231975,"connected_time":193000000000,"state":"active","ping":69},{"user_id":62,"name":"veto vuyisio","steam_id":76561199101145470,"connected_time":1637000000000,"state":"active","ping":94},{"user_id":67,"name":"JackDegle","steam_id":76561198427027677,"connected_time":1538000000000,"state":"active","ping":56},{"user_id":68,"name":"Inkplasm enjoyer","steam_id":76561199111829712,"connected_time":1527000000000,"state":"active","ping":74}]},{"server_id":52,"name":"Uncletopia | Warsaw | 4 | All Maps","name_short":"waw-4","host":"waw-1.pl.uncletopia.com","port":27045,"enabled":true,"region":"eu","cc":"pl","latitude":52.2297,"longitude":21.017532,"reserved":0,"last_update":"0001-01-01T00:00:00Z","name_a2s":"Uncletopia | Warsaw | 4 | All Maps","protocol":17,"map":"pl_swiftwater_final1","folder":"tf","game":"Team Fortress","app_id":440,"player_count":0,"max_players":24,"Bots":0,"server_type":"Dedicated","server_os":"Linux","password":true,"vac":true,"version":"7932396","steam_id":85568392925397853,"keywords":["nocrits","nodmgspread","payload","uncletopia"],"game_id":440,"stv_port":27046,"stv_name":"Uncletopia | Warsaw | 4 | All Maps | STV","players":null},{"server_id":53,"name":"Uncletopia | Warsaw | 5 | Stopwatch Beta","name_short":"waw-5","host":"waw-1.pl.uncletopia.com","port":27055,"enabled":true,"region":"eu","cc":"pl","latitude":52.2297,"longitude":21.017532,"reserved":0,"last_update":"0001-01-01T00:00:00Z","name_a2s":"Uncletopia | Warsaw | 5 | Stopwatch Beta","protocol":17,"map":"koth_lakeside_final","folder":"tf","game":"Team Fortress","app_id":440,"player_count":0,"max_players":24,"Bots":0,"server_type":"Dedicated","server_os":"Linux","password":true,"vac":true,"version":"7932396","steam_id":85568392925397854,"keywords":["cp","nocrits","nodmgspread","uncletopia"],"game_id":440,"stv_port":27056,"stv_name":"Uncletopia | Warsaw | 5 | Stopwatch Beta | STV","players":null},{"server_id":54,"name":"Uncletopia | Warsaw | 6 | Community","name_short":"waw-6","host":"waw-1.pl.uncletopia.com","port":27065,"enabled":true,"region":"eu","cc":"pl","latitude":52.2297,"longitude":21.017532,"reserved":0,"last_update":"0001-01-01T00:00:00Z","name_a2s":"Uncletopia | Warsaw | 6 | Community","protocol":17,"map":"workshop/koth_ramjam_rc1.ugc459778887","folder":"tf","game":"Team Fortress","app_id":440,"player_count":0,"max_players":24,"Bots":0,"server_type":"Dedicated","server_os":"Linux","password":true,"vac":true,"version":"7932396","steam_id":85568392925397856,"keywords":["cp","nocrits","nodmgspread","uncletopia"],"game_id":440,"stv_port":27066,"stv_name":"Uncletopia | Warsaw | 6 | Community | STV","players":null}]}