{"status":true,"message":"","result":[{"server_id":9,"name":"Uncletopia | Atlanta | 1 | All Maps","name_short":"atl-1","host":"atl-1.us.uncletopia.com","port":27015,"enabled":true,"region":"us-east","cc":"us","latitude":33.753746,"longitude":-84.38633,"reserved":0,"last_update":"0001-01-01T00:00:00Z","name_a2s":"Uncletopia | Atlanta | 1 | All Maps","protocol":17,"map":"pl_upward","folder":"tf","game":"Team Fortress","app_id":440,"player_count":24,"max_players":24,"Bots":0,"server_type":"Dedicated","server_os":"Linux","password":true,"vac":true,"version":"7757534","steam_id":85568392924469982,"keywords":["nocrits","nodmgspread","payload","uncletopia"],"game_id":440,"stv_port":27016,"stv_name":"Uncletopia | Atlanta | 1 | All Maps | STV","players":[{"user_id":218,"name":"Mage","steam_id":76561198285026879,"connected_time":996000000000,"state":"active","ping":82},{"user_id":211,"name":"RED1 | vid_","steam_id":76561198065159053,"connected_time":1283000000000,"state":"active","ping":47},{"user_id":157,"name":"shaderoses","steam_id":76561198070800500,"connected_time":5891000000000,"state":"active","ping":63},{"user_id":212,"name":"Summer","steam_id":76561198121692871,"connected_time":1140000000000,"state":"active","ping":74},{"user_id":219,"name":"ivan","steam_id":76561198033001607,"connected_time":989000000000,"state":"active","ping":107},{"user_id":209,"name":"Yukon Cornelius","steam_id":76561198261512781,"connected_time":1303000000000,"state":"active","ping":60},{"user_id":158,"name":"BLU1 | cola","steam_id":76561198374390458,"connected_time":5811000000000,"state":"active","ping":56},{"user_id":197,"name":"Snazzi","steam_id":76561198085208276,"connected_time":2305000000000,"state":"active","ping":75},{"user_id":214,"name":"BLU1 | Flint","steam_id":76561198066547582,"connected_time":1062000000000,"state":"active","ping":108},{"user_id":208,"name":"Karma","steam_id":76561198030565234,"connected_time":1391000000000,"state":"active","ping":69},{"user_id":185,"name":"RED1 | Le4n!!!","steam_id":76561198045522596,"connected_time":3283000000000,"state":"active","ping":66},{"user_id":213,"name":"trasho","steam_id":76561198066867150,"connected_time":1065000000000,"state":"active","ping":62},{"user_id":178,"name":"A Rhino with Coronavirus","steam_id":76561197999451366,"connected_time":4143000000000,"state":"active","ping":99},{"user_id":199,"name":"mark","steam_id":76561198223421912,"connected_time":2046000000000,"state":"active","ping":88},{"user_id":216,"name":"adankmix","steam_id":76561198106945614,"connected_time":1037000000000,"state":"active","ping":60},{"user_id":217,"name":"TMG","steam_id":76561199038427805,"connected_time":1012000000000,"state":"active","ping":85},{"user_id":193,"name":"Lolxdloldx","steam_id":76561198136887125,"connected_time":2465000000000,"state":"active","ping":96},{"user_id":182,"name":"AER0.exe","steam_id":76561198062940197,"connected_time":3463000000000,"state":"active","ping":76},{"user_id":207,"name":"Pungabot","steam_id":76561198009088243,"connected_time":1443000000000,"state":"active","ping":76},{"user_id":188,"name":"Rockhead","steam_id":76561197995196535,"connected_time":2846000000000,"state":"active","ping":90},{"user_id":187,"name":"RED1 | Mug","steam_id":76561199282207802,"connected_time":2878000000000,"state":"active","ping":85},{"user_id":194,"name":"realhedgehog2082","steam_id":76561198168931330,"connected_time":2450000000000,"state":"active","ping":54},{"user_id":198,"name":"NovaSc6ut","steam_id":76561198277163301,"connected_time":2228000000000,"state":"active","ping":82},{"user_id":215,"name":"phone","steam_id":76561198029268743,"connected_time":1043000000000,"state":"active","ping":44}]},{"server_id":400,"name":"Uncletopia | Atlanta | 3 | Stopwatch Beta","name_short":"atl-3","host":"atl-1.us.uncletopia.com","port":27035,"enabled":true,"region":"us-east","cc":"us","latitude":33.753746,"longitude":-84.38633,"reserved":0,"last_update":"0001-01-01T00:00:00Z","name_a2s":"Uncletopia | Atlanta | 3 | Stopwatch Beta","protocol":17,"map":"workshop/koth_ashville_final.ugc2130459942","folder":"tf","game":"Team Fortress","app_id":440,"player_count":3,"max_players":24,"Bots":0,"server_type":"Dedicated","server_os":"Linux","password":true,"vac":true,"version":"7757534","steam_id":85568392924515187,"keywords":["cp","nocrits","nodmgspread","uncletopia"],"game_id":440,"stv_port":27036,"stv_name":"Uncletopia | Atlanta | 3 | Stopwatch Beta | STV","players":[{"user_id":16,"name":"jorjor wells","steam_id":76561199073429082,"connected_time":148000000000,"state":"active","ping":74},{"user_id":9,"name":"A Fucking Degenerate","steam_id":76561198093261788,"connected_time":1806000000000,"state":"active","ping":81},{"user_id":11,"name":"Slowingbranch90","steam_id":76561199445875508,"connected_time":1740000000000,"state":"active","ping":87}]},{"server_id":401,"name":"Uncletopia | Atlanta | 4 | No Payload","name_short":"atl-4","host":"atl-1.us.uncletopia.com","port":27045,"enabled":true,"region":"us-east","cc":"us","latitude":33.753746,"longitude":-84.38633,"reserved":0,"last_update":"0001-01-01T00:00:00Z","name_a2s":"Uncletopia | Atlanta | 4 | No Payload","protocol":17,"map":"pl_pier","folder":"tf","game":"Team Fortress","app_id":440,"player_count":0,"max_players":24,"Bots":0,"server_type":"Dedicated","server_os":"Linux","password":true,"vac":true,"version":"7723704","steam_id":85568392924515188,"keywords":["nocrits","nodmgspread","payload","uncletopia"],"game_id":440,"stv_port":27046,"stv_name":"Uncletopia | Atlanta | 4 | No Payload | STV","players":null},{"server_id":2,"name":"Uncletopia | Chicago | 1 | All Maps","name_short":"chi-1","host":"chi-1.us.uncletopia.com","port":27015,"enabled":true,"region":"us-central","cc":"us","latitude":41.881832,"longitude":-87.62318,"reserved":0,"last_update":"0001-01-01T00:00:00Z","name_a2s":"Uncletopia | Chicago | 1 | All Maps","protocol":17,"map":"cp_mountainlab","folder":"tf","game":"Team Fortress","app_id":440,"player_count":23,"max_players":24,"Bots":0,"server_type":"Dedicated","server_os":"Linux","password":true,"vac":true,"version":"7757534","steam_id":85568392924469984,"keywords":["cp","nocrits","nodmgspread","uncletopia"],"game_id":440,"stv_port":27016,"stv_name":"Uncletopia | Chicago | 1 | All Maps | STV","players":[{"user_id":430,"name":"Comfy!","steam_id":76561198008818346,"connected_time":1383000000000,"state":"active","ping":68},{"user_id":406,"name":"Aster","steam_id":76561198037920420,"connected_time":2008000000000,"state":"active","ping":106},{"user_id":443,"name":"capybara","steam_id":76561198798828328,"connected_time":36000000000,"state":"active","ping":43},{"user_id":191,"name":"177013","steam_id":76561198072303290,"connected_time":23949000000000,"state":"active","ping":61},{"user_id":437,"name":"Wallem","steam_id":76561198052361822,"connected_time":358000000000,"state":"active","ping":72},{"user_id":440,"name":"LazyRat","steam_id":76561198014066794,"connected_time":59000000000,"state":"active","ping":105},{"user_id":416,"name":"Very Small Giant","steam_id":76561199187337967,"connected_time":1874000000000,"state":"active","ping":51},{"user_id":434,"name":"ShitsandGiggles™","steam_id":76561198058708019,"connected_time":899000000000,"state":"active","ping":47},{"user_id":419,"name":"triangleman","steam_id":76561198972733542,"connected_time":1847000000000,"state":"active","ping":46},{"user_id":444,"name":"radical larry","steam_id":76561198172246829,"connected_time":35000000000,"state":"active","ping":66},{"user_id":431,"name":"Fk it we Ball","steam_id":76561198078421075,"connected_time":1342000000000,"state":"active","ping":60},{"user_id":439,"name":"JoCaleb02","steam_id":76561198272389829,"connected_time":232000000000,"state":"active","ping":75},{"user_id":436,"name":"Furry Saul Goodman","steam_id":76561198069580305,"connected_time":849000000000,"state":"active","ping":51},{"user_id":394,"name":"gps","steam_id":76561198067492304,"connected_time":2902000000000,"state":"active","ping":92},{"user_id":174,"name":"[ØWQJØ]chubacaalatake","steam_id":76561198136201697,"connected_time":25708000000000,"state":"active","ping":143},{"user_id":445,"name":"4d4","steam_id":76561198402360789,"connected_time":35000000000,"state":"active","ping":52},{"user_id":417,"name":"Squibo","steam_id":76561198413882627,"connected_time":1874000000000,"state":"active","ping":79},{"user_id":392,"name":"lil bro","steam_id":76561198031675881,"connected_time":3390000000000,"state":"active","ping":45},{"user_id":427,"name":"LegendaryMister151","steam_id":76561198064890524,"connected_time":1542000000000,"state":"active","ping":78},{"user_id":420,"name":"CPUnit","steam_id":76561198162881878,"connected_time":1827000000000,"state":"active","ping":89},{"user_id":424,"name":"cottagecore ringwraith","steam_id":76561198405479940,"connected_time":1724000000000,"state":"active","ping":74},{"user_id":446,"name":"♥ Femboy♥Ventily ♥","steam_id":76561198157260335,"connected_time":35000000000,"state":"active","ping":46},{"user_id":400,"name":"wiiblob","steam_id":76561198109106242,"connected_time":2618000000000,"state":"active","ping":132}]},{"server_id":106,"name":"Uncletopia | Chicago | 2 | All Maps","name_short":"chi-2","host":"chi-1.us.uncletopia.com","port":27025,"enabled":true,"region":"us-central","cc":"us","latitude":41.881832,"longitude":-87.62318,"reserved":0,"last_update":"0001-01-01T00:00:00Z","name_a2s":"Uncletopia | Chicago | 2 | All Maps","protocol":17,"map":"koth_lakeside_final","folder":"tf","game":"Team Fortress","app_id":440,"player_count":0,"max_players":24,"Bots":0,"server_type":"Dedicated","server_os":"Linux","password":true,"vac":true,"version":"7757534","steam_id":85568392924469985,"keywords":["cp","nocrits","nodmgspread","uncletopia"],"game_id":440,"stv_port":27026,"stv_name":"Uncletopia | Chicago | 2 | All Maps | STV","players":null},{"server_id":402,"name":"Uncletopia | Chicago | 3 | All Maps","name_short":"chi-3","host":"chi-1.us.uncletopia.com","port":27035,"enabled":true,"region":"us-central","cc":"us","latitude":41.881832,"longitude":-87.62318,"reserved":0,"last_update":"0001-01-01T00:00:00Z","name_a2s":"Uncletopia | Chicago | 3 | All Maps","protocol":17,"map":"koth_cascade","folder":"tf","game":"Team Fortress","app_id":440,"player_count":0,"max_players":24,"Bots":0,"server_type":"Dedicated","server_os":"Linux","password":true,"vac":true,"version":"7757534","steam_id":85568392924515191,"keywords":["cp","nocrits","nodmgspread","uncletopia"],"game_id":440,"stv_port":27036,"stv_name":"Uncletopia | Chicago | 3 | All Maps | STV","players":null},{"server_id":403,"name":"Uncletopia | Chicago | 4 | All Maps","name_short":"chi-4","host":"chi-1.us.uncletopia.com","port":27045,"enabled":true,"region":"us-central","cc":"us","latitude":41.881832,"longitude":-87.62318,"reserved":0,"last_update":"0001-01-01T00:00:00Z","name_a2s":"Uncletopia | Chicago | 4 | All Maps","protocol":17,"map":"cp_foundry","folder":"tf","game":"Team Fortress","app_id":440,"player_count":24,"max_players":24,"Bots":0,"server_type":"Dedicated","server_os":"Linux","password":true,"vac":true,"version":"7757534","steam_id":85568392924515193,"keywords":["cp","nocrits","nodmgspread","uncletopia"],"game_id":440,"stv_port":27046,"stv_name":"Uncletopia | Chicago | 4 | All Maps | STV","players":[{"user_id":467,"name":"Not_Douglas","steam_id":76561199024184136,"connected_time":170000000000,"state":"active","ping":65},{"user_id":442,"name":"Cooldude_15","steam_id":76561198346713382,"connected_time":1612000000000,"state":"active","ping":46},{"user_id":451,"name":"A Sun","steam_id":76561198142545364,"connected_time":958000000000,"state":"active","ping":70},{"user_id":410,"name":"honked off the bobo","steam_id":76561198123287268,"connected_time":3596000000000,"state":"active","ping":46},{"user_id":466,"name":"ali oop","steam_id":76561198057516213,"connected_time":238000000000,"state":"active","ping":85},{"user_id":447,"name":"hackersan","steam_id":76561199130583553,"connected_time":1172000000000,"state":"active","ping":61},{"user_id":444,"name":"hoboways","steam_id":76561198168035195,"connected_time":1577000000000,"state":"active","ping":81},{"user_id":421,"name":"clavin_","steam_id":76561198046398447,"connected_time":3053000000000,"state":"active","ping":57},{"user_id":453,"name":"a crazy hobo","steam_id":76561198289650060,"connected_time":955000000000,"state":"active","ping":123},{"user_id":406,"name":"Coach McFish","steam_id":76561198210456405,"connected_time":3766000000000,"state":"active","ping":74},{"user_id":464,"name":"sansa musa","steam_id":76561198163723555,"connected_time":379000000000,"state":"active","ping":74},{"user_id":469,"name":"Medic","steam_id":76561198067869016,"connected_time":52000000000,"state":"active","ping":43},{"user_id":441,"name":"volta","steam_id":76561199214283884,"connected_time":1645000000000,"state":"active","ping":98},{"user_id":462,"name":"God of bread","steam_id":76561198373688035,"connected_time":442000000000,"state":"active","ping":62},{"user_id":448,"name":"footoftheday","steam_id":76561198052712449,"connected_time":1164000000000,"state":"active","ping":58},{"user_id":427,"name":"coffeeghost","steam_id":76561198155142385,"connected_time":2583000000000,"state":"active","ping":78},{"user_id":456,"name":"About That Beer I Owed Ya","steam_id":76561198071506287,"connected_time":917000000000,"state":"active","ping":108},{"user_id":446,"name":"Dog","steam_id":76561198450992953,"connected_time":1266000000000,"state":"active","ping":119},{"user_id":439,"name":"Moscow Medic","steam_id":76561198071040516,"connected_time":1884000000000,"state":"active","ping":65},{"user_id":457,"name":"Toottoot","steam_id":76561197992404836,"connected_time":902000000000,"state":"active","ping":45},{"user_id":443,"name":"AAAAAAAAAAAAAAAAAAAAAAAAAAAAAAA","steam_id":76561198817866879,"connected_time":1592000000000,"state":"active","ping":151},{"user_id":460,"name":"Jøēÿ","steam_id":76561198864691307,"connected_time":810000000000,"state":"active","ping":156},{"user_id":465,"name":"Draconic Ballad","steam_id":76561198027191515,"connected_time":346000000000,"state":"active","ping":46},{"user_id":438,"name":"Anxious Nerd Bird","steam_id":76561198112178602,"connected_time":1890000000000,"state":"active","ping":110}]},{"server_id":36,"name":"Uncletopia | Chicago | 5 | All Maps","name_short":"chi-5","host":"chi-2.us.uncletopia.com","port":27015,"enabled":true,"region":"us-central","cc":"us","latitude":41.881832,"longitude":-87.62318,"reserved":0,"last_update":"0001-01-01T00:00:00Z","name_a2s":"Uncletopia | Chicago | 5 | All Maps","protocol":17,"map":"koth_cascade","folder":"tf","game":"Team Fortress","app_id":440,"player_count":0,"max_players":24,"Bots":0,"server_type":"Dedicated","server_os":"Linux","password":true,"vac":true,"version":"7757534","steam_id":85568392924866362,"keywords":["cp","nocrits","nodmgspread","uncletopia"],"game_id":440,"stv_port":27016,"stv_name":"Uncletopia | Chicago | 5 | All Maps | STV","players":null},{"server_id":37,"name":"Uncletopia | Chicago | 6 | All Maps","name_short":"chi-6","host":"chi-2.us.uncletopia.com","port":27025,"enabled":true,"region":"us-central","cc":"us","latitude":41.881832,"longitude":-87.62318,"reserved":0,"last_update":"0001-01-01T00:00:00Z","name_a2s":"Uncletopia | Chicago | 6 | All Maps","protocol":17,"map":"cp_mountainlab","folder":"tf","game":"Team Fortress","app_id":440,"player_count":0,"max_players":24,"Bots":0,"server_type":"Dedicated","server_os":"Linux","password":true,"vac":true,"version":"7757534","steam_id":85568392924866363,"keywords":["cp","nocrits","nodmgspread","uncletopia"],"game_id":440,"stv_port":27026,"stv_name":"Uncletopia | Chicago | 6 | All Maps | STV","players":null},{"server_id":38,"name":"Uncletopia | Chicago | 7 | Stopwatch Beta","name_short":"chi-7","host":"chi-2.us.uncletopia.com","port":27035,"enabled":true,"region":"us-central","cc":"us","latitude":41.881832,"longitude":-87.62318,"reserved":0,"last_update":"0001-01-01T00:00:00Z","name_a2s":"Uncletopia | Chicago | 7 | Stopwatch Beta","protocol":17,"map":"cp_granary","folder":"tf","game":"Team Fortress","app_id":440,"player_count":0,"max_players":24,"Bots":0,"server_type":"Dedicated","server_os":"Linux","password":true,"vac":true,"version":"7757534","steam_id":85568392924866364,"keywords":["cp","nocrits","nodmgspread","uncletopia"],"game_id":440,"stv_port":27036,"stv_name":"Uncletopia | Chicago | 7 | Stopwatch Beta | STV","players":null},{"server_id":39,"name":"Uncletopia | Chicago | 8 | Community","name_short":"chi-8","host":"chi-2.us.uncletopia.com","port":27045,"enabled":true,"region":"us-central","cc":"us","latitude":41.881832,"longitude":-87.62318,"reserved":0,"last_update":"0001-01-01T00:00:00Z","name_a2s":"Uncletopia | Chicago | 8 | Community","protocol":17,"map":"pl_pier","folder":"tf","game":"Team Fortress","app_id":440,"player_count":0,"max_players":24,"Bots":0,"server_type":"Dedicated","server_os":"Linux","password":true,"vac":true,"version":"7757534","steam_id":85568392924866365,"keywords":["nocrits","nodmgspread","payload","uncletopia"],"game_id":440,"stv_port":27046,"stv_name":"Uncletopia | Chicago | 8 | Community | STV","players":null},{"server_id":8,"name":"Uncletopia | Dallas | 1 | All Maps","name_short":"dal-1","host":"dal-1.us.uncletopia.com","port":27015,"enabled":true,"region":"us-central","cc":"us","latitude":32.779167,"longitude":-96.80889,"reserved":0,"last_update":"0001-01-01T00:00:00Z","name_a2s":"Uncletopia | Dallas | 1 | All Maps","protocol":17,"map":"pl_snowycoast","folder":"tf","game":"Team Fortress","app_id":440,"player_count":24,"max_players":24,"Bots":0,"server_type":"Dedicated","server_os":"Linux","password":true,"vac":true,"version":"7757534","steam_id":85568392924469986,"keywords":["nocrits","nodmgspread","payload","uncletopia"],"game_id":440,"stv_port":27016,"stv_name":"Uncletopia | Dallas | 1 | All Maps | STV","players":[{"user_id":348,"name":"skidzz","steam_id":76561198257068611,"connected_time":1115000000000,"state":"active","ping":67},{"user_id":365,"name":"Owl_Eye","steam_id":76561198386200439,"connected_time":554000000000,"state":"active","ping":113},{"user_id":373,"name":"crs22","steam_id":76561198120149196,"connected_time":328000000000,"state":"active","ping":60},{"user_id":374,"name":"Bond","steam_id":76561198089262776,"connected_time":324000000000,"state":"active","ping":55},{"user_id":310,"name":"no vc no c","steam_id":76561197989503095,"connected_time":3767000000000,"state":"active","ping":169},{"user_id":364,"name":"Matt9moons[EMEA$]","steam_id":76561198111982890,"connected_time":686000000000,"state":"active","ping":45},{"user_id":368,"name":"GreenApples","steam_id":76561198120559543,"connected_time":381000000000,"state":"active","ping":90},{"user_id":336,"name":"Dictator Noodle","steam_id":76561198277243768,"connected_time":1381000000000,"state":"active","ping":78},{"user_id":331,"name":"Kasimir","steam_id":76561198013840333,"connected_time":1913000000000,"state":"active","ping":69},{"user_id":366,"name":"Galactic Boarder Control","steam_id":76561198062763756,"connected_time":533000000000,"state":"active","ping":75},{"user_id":292,"name":"Salmon","steam_id":76561198285883040,"connected_time":4811000000000,"state":"active","ping":105},{"user_id":369,"name":"Dullahan","steam_id":76561198119668908,"connected_time":379000000000,"state":"active","ping":89},{"user_id":375,"name":"Muse","steam_id":76561198177715869,"connected_time":308000000000,"state":"active","ping":71},{"user_id":322,"name":"The Squid Gamer™","steam_id":76561198340621517,"connected_time":2727000000000,"state":"active","ping":94},{"user_id":376,"name":"Radical_Pacifist","steam_id":76561198181109679,"connected_time":280000000000,"state":"active","ping":78},{"user_id":287,"name":"thunderous prophet","steam_id":76561198131166135,"connected_time":5476000000000,"state":"active","ping":91},{"user_id":350,"name":"mikey | I'm Burning Bright!","steam_id":76561198985847893,"connected_time":1073000000000,"state":"active","ping":53},{"user_id":334,"name":"kukin2cm","steam_id":76561198848888973,"connected_time":1709000000000,"state":"active","ping":113},{"user_id":380,"name":"ly","steam_id":76561198062922146,"connected_time":30000000000,"state":"active","ping":46},{"user_id":379,"name":"Alexx","steam_id":76561198258332607,"connected_time":154000000000,"state":"active","ping":100},{"user_id":296,"name":"flatts","steam_id":76561198094127177,"connected_time":4685000000000,"state":"active","ping":73},{"user_id":378,"name":"1HandsomeLAD","steam_id":76561198807047496,"connected_time":259000000000,"state":"active","ping":91},{"user_id":363,"name":"Sergeant Joker #savetf2","steam_id":76561198854616604,"connected_time":721000000000,"state":"active","ping":93},{"user_id":338,"name":"Brown_Dream","steam_id":76561198975766145,"connected_time":1333000000000,"state":"active","ping":113}]},{"server_id":108,"name":"Uncletopia | Dallas | 2 | All Maps","name_short":"dal-2","host":"dal-1.us.uncletopia.com","port":27025,"enabled":true,"region":"us-central","cc":"us","latitude":32.779167,"longitude":-96.80889,"reserved":0,"last_update":"0001-01-01T00:00:00Z","name_a2s":"Uncletopia | Dallas | 2 | All Maps","protocol":17,"map":"cp_badlands","folder":"tf","game":"Team Fortress","app_id":440,"player_count":24,"max_players":24,"Bots":0,"server_type":"Dedicated","server_os":"Linux","password":true,"vac":true,"version":"7757534","steam_id":85568392924469988,"keywords":["cp","nocrits","nodmgspread","uncletopia"],"game_id":440,"stv_port":27026,"stv_name":"Uncletopia | Dallas | 2 | All Maps | STV","players":[{"user_id":179,"name":"ShapedSilver","steam_id":76561199073305310,"connected_time":489000000000,"state":"active","ping":46},{"user_id":159,"name":"Lord Smelvin Beater of Meats","steam_id":76561198142699958,"connected_time":1693000000000,"state":"active","ping":77},{"user_id":110,"name":"gherkin","steam_id":76561198083688737,"connected_time":4781000000000,"state":"active","ping":89},{"user_id":183,"name":"moonage72","steam_id":76561199187008629,"connected_time":121000000000,"state":"active","ping":86},{"user_id":154,"name":"Aeris","steam_id":76561198287271028,"connected_time":1793000000000,"state":"active","ping":77},{"user_id":160,"name":"RaixaR","steam_id":76561198025289430,"connected_time":1687000000000,"state":"active","ping":50},{"user_id":156,"name":"cosmik","steam_id":76561198071193180,"connected_time":1787000000000,"state":"active","ping":84},{"user_id":187,"name":"the goop slinger","steam_id":76561198271710504,"connected_time":45000000000,"state":"spawning","ping":64},{"user_id":176,"name":"Chaotic Rushu","steam_id":76561198170054407,"connected_time":858000000000,"state":"active","ping":95},{"user_id":165,"name":"Prankless","steam_id":76561198070678366,"connected_time":1380000000000,"state":"active","ping":75},{"user_id":180,"name":"The Fantastic Fatass","steam_id":76561199074079929,"connected_time":175000000000,"state":"active","ping":43},{"user_id":131,"name":"Michaelpc1","steam_id":76561198088365519,"connected_time":3359000000000,"state":"active","ping":86},{"user_id":143,"name":"Dr Frasier Crane","steam_id":76561198071790583,"connected_time":2776000000000,"state":"active","ping":98},{"user_id":184,"name":"Saikou!!!","steam_id":76561198044045406,"connected_time":82000000000,"state":"active","ping":78},{"user_id":148,"name":"Jag_Samurott","steam_id":76561198262036126,"connected_time":2206000000000,"state":"active","ping":66},{"user_id":178,"name":"Gold Ghost","steam_id":76561199005805984,"connected_time":633000000000,"state":"active","ping":41},{"user_id":188,"name":"Mr. Morrow","steam_id":76561198011333701,"connected_time":25000000000,"state":"spawning","ping":53},{"user_id":177,"name":"Yimberly","steam_id":76561199206923109,"connected_time":711000000000,"state":"active","ping":55},{"user_id":163,"name":"LIL TROUBLEMAKER","steam_id":76561198041017977,"connected_time":1589000000000,"state":"active","ping":112},{"user_id":169,"name":"Glanderson booper","steam_id":76561198021223747,"connected_time":1230000000000,"state":"active","ping":128},{"user_id":175,"name":"rlty","steam_id":76561198009395055,"connected_time":962000000000,"state":"active","ping":80},{"user_id":181,"name":"Sea raider","steam_id":76561198123982355,"connected_time":174000000000,"state":"active","ping":89},{"user_id":126,"name":"xMystic_Fire","steam_id":76561198189961543,"connected_time":3479000000000,"state":"active","ping":63},{"user_id":121,"name":"Hook, Line, and Sphincter","steam_id":76561198078207743,"connected_time":4007000000000,"state":"active","ping":88}]},{"server_id":5,"name":"Uncletopia | Frankfurt | 1 | All Maps","name_short":"frk-1","host":"frk-1.de.uncletopia.com","port":27015,"enabled":true,"region":"eu","cc":"de","latitude":50.110924,"longitude":8.682127,"reserved":0,"last_update":"0001-01-01T00:00:00Z","name_a2s":"Uncletopia | Frankfurt | 1 | All Maps","protocol":17,"map":"pl_pier","folder":"tf","game":"Team Fortress","app_id":440,"player_count":12,"max_players":24,"Bots":0,"server_type":"Dedicated","server_os":"Linux","password":true,"vac":true,"version":"7757534","steam_id":85568392924469989,"keywords":["nocrits","nodmgspread","payload","uncletopia"],"game_id":440,"stv_port":27016,"stv_name":"Uncletopia | Frankfurt | 1 | All Maps | STV","players":[{"user_id":596,"name":"Der Australische Hühnerwürger","steam_id":76561198042614289,"connected_time":462000000000,"state":"active","ping":50},{"user_id":601,"name":"Rizzy","steam_id":76561198164237267,"connected_time":273000000000,"state":"active","ping":65},{"user_id":598,"name":"frosty","steam_id":76561198094560834,"connected_time":340000000000,"state":"active","ping":60},{"user_id":585,"name":"Lopata","steam_id":76561198820264239,"connected_time":1805000000000,"state":"active","ping":81},{"user_id":603,"name":"LV. 90 BOSS","steam_id":76561198248574732,"connected_time":69000000000,"state":"active","ping":74},{"user_id":594,"name":"my name is jeff the killer yo","steam_id":76561198089401997,"connected_time":658000000000,"state":"active","ping":74},{"user_id":579,"name":"training for the difficult","steam_id":76561198085393884,"connected_time":2092000000000,"state":"active","ping":55},{"user_id":563,"name":"a sticky situation","steam_id":76561198011692496,"connected_time":3281000000000,"state":"active","ping":60},{"user_id":602,"name":"{dogs}კობა77koba77[ASS]","steam_id":76561198154218182,"connected_time":180000000000,"state":"active","ping":56},{"user_id":590,"name":"MagicTITIKAKA","steam_id":76561198129509548,"connected_time":1545000000000,"state":"active","ping":101},{"user_id":571,"name":"poy","steam_id":76561198114063534,"connected_time":3209000000000,"state":"active","ping":57},{"user_id":570,"name":"cosmo kramer, lord of the manor","steam_id":76561198074979596,"connected_time":3219000000000,"state":"active","ping":74}]},{"server_id":110,"name":"Uncletopia | Frankfurt | 2 | All Maps","name_short":"frk-2","host":"frk-1.de.uncletopia.com","port":27025,"enabled":true,"region":"eu","cc":"de","latitude":50.110924,"longitude":8.682127,"reserved":0,"last_update":"0001-01-01T00:00:00Z","name_a2s":"Uncletopia | Frankfurt | 2 | All Maps","protocol":17,"map":"pl_thundermountain","folder":"tf","game":"Team Fortress","app_id":440,"player_count":22,"max_players":24,"Bots":0,"server_type":"Dedicated","server_os":"Linux","password":true,"vac":true,"version":"7757534","steam_id":85568392924469990,"keywords":["nocrits","nodmgspread","payload","uncletopia"],"game_id":440,"stv_port":27026,"stv_name":"Uncletopia | Frankfurt | 2 | All Maps | STV","players":[{"user_id":607,"name":"nynon","steam_id":76561197998432126,"connected_time":1459000000000,"state":"active","ping":84},{"user_id":618,"name":"xjdjfjcfjf","steam_id":76561198838855134,"connected_time":394000000000,"state":"active","ping":83},{"user_id":604,"name":"Refurbished Boy","steam_id":76561197995834697,"connected_time":1627000000000,"state":"active","ping":93},{"user_id":603,"name":"coldwar121947","steam_id":76561199387219377,"connected_time":1822000000000,"state":"active","ping":106},{"user_id":549,"name":"benibachi","steam_id":76561198190816499,"connected_time":4714000000000,"state":"active","ping":69},{"user_id":559,"name":"LionKing","steam_id":76561198023399545,"connected_time":4092000000000,"state":"active","ping":48},{"user_id":551,"name":"ChickyCoop","steam_id":76561199072983488,"connected_time":4460000000000,"state":"active","ping":82},{"user_id":560,"name":"proph","steam_id":76561197998803950,"connected_time":4091000000000,"state":"active","ping":46},{"user_id":619,"name":"Larry from Pokemon SV","steam_id":76561198095245223,"connected_time":386000000000,"state":"active","ping":135},{"user_id":609,"name":"Msuni","steam_id":76561198334903726,"connected_time":1391000000000,"state":"active","ping":77},{"user_id":596,"name":"Ged","steam_id":76561198079288943,"connected_time":2458000000000,"state":"active","ping":135},{"user_id":620,"name":"Peace Sells...But Who`s Buying?","steam_id":76561198063156236,"connected_time":328000000000,"state":"active","ping":57},{"user_id":597,"name":"mishka.*","steam_id":76561198040003628,"connected_time":2391000000000,"state":"active","ping":74},{"user_id":627,"name":"rajAs","steam_id":76561198035928111,"connected_time":24000000000,"state":"active","ping":86},{"user_id":622,"name":"Alfred2.2","steam_id":76561198339314744,"connected_time":285000000000,"state":"active","ping":67},{"user_id":571,"name":"emkoç","steam_id":76561198846782346,"connected_time":3762000000000,"state":"active","ping":114},{"user_id":572,"name":"Sky","steam_id":76561198087415698,"connected_time":3673000000000,"state":"active","ping":61},{"user_id":612,"name":"Klaus Ze Flammenwerfer","steam_id":76561198087840341,"connected_time":1344000000000,"state":"active","ping":104},{"user_id":591,"name":"す LightFlight し","steam_id":76561198079007530,"connected_time":2586000000000,"state":"active","ping":62},{"user_id":625,"name":"MaximumCHEESE17","steam_id":76561198996803542,"connected_time":194000000000,"state":"active","ping":144},{"user_id":626,"name":"Ruth(-less bitch)","steam_id":76561198150006573,"connected_time":113000000000,"state":"active","ping":77},{"user_id":601,"name":"sv_opor 13123","steam_id":76561198002229612,"connected_time":2193000000000,"state":"active","ping":70}]},{"server_id":308,"name":"Uncletopia | Frankfurt | 3 | All Maps","name_short":"frk-3","host":"frk-1.de.uncletopia.com","port":27035,"enabled":true,"region":"eu","cc":"de","latitude":50.110924,"longitude":8.682127,"reserved":0,"last_update":"0001-01-01T00:00:00Z","name_a2s":"Uncletopia | Frankfurt | 3 | All Maps","protocol":17,"map":"koth_highpass","folder":"tf","game":"Team Fortress","app_id":440,"player_count":23,"max_players":24,"Bots":0,"server_type":"Dedicated","server_os":"Linux","password":true,"vac":true,"version":"7757534","steam_id":85568392924504274,"keywords":["cp","nocrits","nodmgspread","uncletopia"],"game_id":440,"stv_port":27036,"stv_name":"Uncletopia | Frankfurt | 3 | All Maps | STV","players":[{"user_id":449,"name":"Fuvuk","steam_id":76561198044458593,"connected_time":3324000000000,"state":"active","ping":87},{"user_id":462,"name":"house in the froggy valley","steam_id":76561198064115286,"connected_time":2130000000000,"state":"active","ping":61},{"user_id":372,"name":"Faraday","steam_id":76561197987182527,"connected_time":8168000000000,"state":"active","ping":57},{"user_id":461,"name":"samsung galaxy s8","steam_id":76561198097712283,"connected_time":2175000000000,"state":"active","ping":88},{"user_id":467,"name":"kbbq","steam_id":76561198346638308,"connected_time":1969000000000,"state":"active","ping":59},{"user_id":463,"name":"WolFFinE","steam_id":76561198125790408,"connected_time":2032000000000,"state":"active","ping":75},{"user_id":464,"name":"lone wolf","steam_id":76561198373351056,"connected_time":2023000000000,"state":"active","ping":52},{"user_id":502,"name":"Username","steam_id":76561198198918781,"connected_time":38000000000,"state":"active","ping":233},{"user_id":459,"name":"Joe","steam_id":76561198061717026,"connected_time":2461000000000,"state":"active","ping":53},{"user_id":444,"name":"vroom doom","steam_id":76561198192671475,"connected_time":3574000000000,"state":"active","ping":58},{"user_id":486,"name":"Bill The Beekeeper","steam_id":76561198253502133,"connected_time":1234000000000,"state":"active","ping":59},{"user_id":378,"name":"ツ⁧⁧Astora","steam_id":76561198081839576,"connected_time":8068000000000,"state":"active","ping":72},{"user_id":483,"name":"artdss","steam_id":76561198853485124,"connected_time":1387000000000,"state":"active","ping":76},{"user_id":495,"name":"Mmm, Kat","steam_id":76561198170592397,"connected_time":450000000000,"state":"active","ping":59},{"user_id":492,"name":"tallen","steam_id":76561198061708595,"connected_time":870000000000,"state":"active","ping":75},{"user_id":468,"name":"Kati","steam_id":76561198007231088,"connected_time":1915000000000,"state":"active","ping":67},{"user_id":453,"name":"Bilaterial Newt","steam_id":76561198074655679,"connected_time":3267000000000,"state":"active","ping":77},{"user_id":484,"name":"harrison","steam_id":76561198990132243,"connected_time":1356000000000,"state":"active","ping":82},{"user_id":438,"name":"Raven","steam_id":76561198036076305,"connected_time":3980000000000,"state":"active","ping":55},{"user_id":491,"name":"74616b69","steam_id":76561198068771033,"connected_time":901000000000,"state":"active","ping":59},{"user_id":498,"name":"Laxslow","steam_id":76561198065361846,"connected_time":338000000000,"state":"active","ping":62},{"user_id":501,"name":"MR.BLOTTO","steam_id":76561198067920111,"connected_time":258000000000,"state":"active","ping":46},{"user_id":493,"name":"JugoTopia","steam_id":76561197996067209,"connected_time":810000000000,"state":"active","ping":117}]},{"server_id":309,"name":"Uncletopia | Frankfurt | 4 | All Maps","name_short":"frk-4","host":"frk-1.de.uncletopia.com","port":27045,"enabled":true,"region":"eu","cc":"de","latitude":50.110924,"longitude":8.682127,"reserved":0,"last_update":"0001-01-01T00:00:00Z","name_a2s":"Uncletopia | Frankfurt | 4 | All Maps","protocol":17,"map":"pl_swiftwater_final1","folder":"tf","game":"Team Fortress","app_id":440,"player_count":23,"max_players":24,"Bots":0,"server_type":"Dedicated","server_os":"Linux","password":true,"vac":true,"version":"7757534","steam_id":85568392924504275,"keywords":["nocrits","nodmgspread","payload","uncletopia"],"game_id":440,"stv_port":27046,"stv_name":"Uncletopia | Frankfurt | 4 | All Maps | STV","players":[{"user_id":783,"name":"r06u3","steam_id":76561198254099253,"connected_time":82000000000,"state":"active","ping":175},{"user_id":752,"name":"coolmath","steam_id":76561198386297305,"connected_time":2103000000000,"state":"active","ping":141},{"user_id":736,"name":"donk","steam_id":76561198162676648,"connected_time":3401000000000,"state":"active","ping":60},{"user_id":781,"name":"Koolaid","steam_id":76561199200296010,"connected_time":378000000000,"state":"active","ping":184},{"user_id":754,"name":"Bentley","steam_id":76561197978252169,"connected_time":2082000000000,"state":"active","ping":79},{"user_id":732,"name":"Jeff","steam_id":76561198108843030,"connected_time":3937000000000,"state":"active","ping":111},{"user_id":774,"name":"Never Über Me","steam_id":76561198140522687,"connected_time":707000000000,"state":"active","ping":79},{"user_id":758,"name":"penisfinger","steam_id":76561198103904286,"connected_time":1936000000000,"state":"active","ping":70},{"user_id":784,"name":"ElsaLand","steam_id":76561198127594609,"connected_time":77000000000,"state":"active","ping":84},{"user_id":740,"name":"Ruben Zo","steam_id":76561198063855616,"connected_time":3259000000000,"state":"active","ping":75},{"user_id":768,"name":"Vitamin Weee","steam_id":76561199183937747,"connected_time":1513000000000,"state":"active","ping":83},{"user_id":720,"name":"gOnzaLOXX2005","steam_id":76561198056744152,"connected_time":4520000000000,"state":"active","ping":52},{"user_id":773,"name":"Luuk","steam_id":76561198088266026,"connected_time":739000000000,"state":"active","ping":40},{"user_id":778,"name":"♫★Xriasp★♫","steam_id":76561198104721321,"connected_time":472000000000,"state":"active","ping":73},{"user_id":696,"name":"Saba","steam_id":76561198158253332,"connected_time":6614000000000,"state":"active","ping":89},{"user_id":782,"name":"№rth","steam_id":76561198055365234,"connected_time":106000000000,"state":"active","ping":78},{"user_id":785,"name":"Graceium","steam_id":76561198271802336,"connected_time":7000000000,"state":"spawning","ping":50},{"user_id":776,"name":"Rave Robber","steam_id":76561199414716848,"connected_time":618000000000,"state":"active","ping":72},{"user_id":766,"name":"Cirox","steam_id":76561198383142404,"connected_time":1842000000000,"state":"active","ping":85},{"user_id":777,"name":"onku","steam_id":76561199230709660,"connected_time":612000000000,"state":"active","ping":47},{"user_id":755,"name":"Lei Ying Lo","steam_id":76561198254210743,"connected_time":2057000000000,"state":"active","ping":62},{"user_id":741,"name":"☩ Knightz ☩","steam_id":76561198040936414,"connected_time":3152000000000,"state":"active","ping":118},{"user_id":772,"name":"Uncle Owen","steam_id":76561198157999291,"connected_time":972000000000,"state":"active","ping":80}]},{"server_id":310,"name":"Uncletopia | Frankfurt | 5 | All Maps","name_short":"frk-5","host":"frk-1.de.uncletopia.com","port":27055,"enabled":true,"region":"eu","cc":"de","latitude":50.110924,"longitude":8.682127,"reserved":0,"last_update":"0001-01-01T00:00:00Z","name_a2s":"Uncletopia | Frankfurt | 5 | All Maps","protocol":17,"map":"pl_borneo","folder":"tf","game":"Team Fortress","app_id":440,"player_count":19,"max_players":24,"Bots":0,"server_type":"Dedicated","server_os":"Linux","password":true,"vac":true,"version":"7757534","steam_id":85568392924504277,"keywords":["nocrits","nodmgspread","payload","uncletopia"],"game_id":440,"stv_port":27056,"stv_name":"Uncletopia | Frankfurt | 5 | All Maps | STV","players":[{"user_id":297,"name":"Master of tiktok","steam_id":76561199379233899,"connected_time":284000000000,"state":"active","ping":75},{"user_id":301,"name":"Volcyy","steam_id":76561198063979124,"connected_time":112000000000,"state":"active","ping":41},{"user_id":298,"name":"Xie Xil Ling","steam_id":76561198053394831,"connected_time":282000000000,"state":"active","ping":62},{"user_id":283,"name":"John Bovril","steam_id":76561198067774895,"connected_time":589000000000,"state":"active","ping":69},{"user_id":302,"name":"CouT1nho","steam_id":76561198203926376,"connected_time":23000000000,"state":"spawning","ping":54},{"user_id":284,"name":"Zethos","steam_id":76561198103851330,"connected_time":571000000000,"state":"active","ping":65},{"user_id":288,"name":".ﱞﱞﱞﱞﱞﱞﱞﱞﱞﱞ","steam_id":76561198256821358,"connected_time":492000000000,"state":"active","ping":63},{"user_id":271,"name":"rodeokuchen","steam_id":76561198061435102,"connected_time":994000000000,"state":"active","ping":55},{"user_id":299,"name":"Kriba","steam_id":76561198392985993,"connected_time":257000000000,"state":"active","ping":74},{"user_id":300,"name":"xXx ostry nakurwiacz 69 xXx","steam_id":76561198068972398,"connected_time":169000000000,"state":"active","ping":72},{"user_id":285,"name":"SodaKid_7","steam_id":76561198079419485,"connected_time":553000000000,"state":"active","ping":184},{"user_id":263,"name":"akela","steam_id":76561198122010232,"connected_time":1401000000000,"state":"active","ping":67},{"user_id":258,"name":"Пес Патрон","steam_id":76561198273199378,"connected_time":2324000000000,"state":"active","ping":63},{"user_id":164,"name":"( ͡ ͡° ͜ ʖ ͡ ͡°) \\ ☞","steam_id":76561198084597975,"connected_time":9608000000000,"state":"active","ping":70},{"user_id":296,"name":"no.1 dragonvale player","steam_id":76561198124365349,"connected_time":295000000000,"state":"active","ping":173},{"user_id":287,"name":"cloud","steam_id":76561198179768931,"connected_time":502000000000,"state":"active","ping":45},{"user_id":293,"name":"MAJAX","steam_id":76561198254828632,"connected_time":390000000000,"state":"active","ping":55},{"user_id":281,"name":"jameso","steam_id":76561198064042970,"connected_time":695000000000,"state":"active","ping":100},{"user_id":295,"name":"Blo","steam_id":76561198161651469,"connected_time":364000000000,"state":"active","ping":60}]},{"server_id":311,"name":"Uncletopia | Frankfurt | 6 | All Maps","name_short":"frk-6","host":"frk-1.de.uncletopia.com","port":27065,"enabled":true,"region":"eu","cc":"de","latitude":50.110924,"longitude":8.682127,"reserved":0,"last_update":"0001-01-01T00:00:00Z","name_a2s":"Uncletopia | Frankfurt | 6 | All Maps","protocol":17,"map":"koth_lakeside_final","folder":"tf","game":"Team Fortress","app_id":440,"player_count":0,"max_players":24,"Bots":0,"server_type":"Dedicated","server_os":"Linux","password":true,"vac":true,"version":"7757534","steam_id":85568392924504278,"keywords":["cp","nocrits","nodmgspread","uncletopia"],"game_id":440,"stv_port":27066,"stv_name":"Uncletopia | Frankfurt | 6 | All Maps | STV","players":null},{"server_id":23,"name":"Uncletopia | Frankfurt | 7 | Stopwatch Beta","name_short":"frk-7","host":"frk-1.de.uncletopia.com","port":27075,"enabled":true,"region":"eu","cc":"de","latitude":50.110924,"longitude":8.682127,"reserved":0,"last_update":"0001-01-01T00:00:00Z","name_a2s":"Uncletopia | Frankfurt | 7 | Stopwatch Beta","protocol":17,"map":"workshop/koth_bagel_rc5.ugc2514036946","folder":"tf","game":"Team Fortress","app_id":440,"player_count":0,"max_players":24,"Bots":0,"server_type":"Dedicated","server_os":"Linux","password":true,"vac":true,"version":"7757534","steam_id":85568392924742827,"keywords":["cp","nocrits","nodmgspread","uncletopia"],"game_id":440,"stv_port":27076,"stv_name":"Uncletopia | Frankfurt | 7 | Stopwatch Beta | STV","players":null},{"server_id":24,"name":"Uncletopia | Frankfurt | 8 | Community","name_short":"frk-8","host":"frk-1.de.uncletopia.com","port":27085,"enabled":true,"region":"eu","cc":"de","latitude":50.110924,"longitude":8.682127,"reserved":0,"last_update":"0001-01-01T00:00:00Z","name_a2s":"Uncletopia | Frankfurt | 8 | Community","protocol":17,"map":"workshop/koth_product_final.ugc454272353","folder":"tf","game":"Team Fortress","app_id":440,"player_count":0,"max_players":24,"Bots":0,"server_type":"Dedicated","server_os":"Linux","password":true,"vac":true,"version":"7757534","steam_id":85568392924742828,"keywords":["cp","nocrits","nodmgspread","uncletopia"],"game_id":440,"stv_port":27086,"stv_name":"Uncletopia | Frankfurt | 8 | Community | STV","players":null},{"server_id":202,"name":"Uncletopia | Hong Kong | 1 | All Maps","name_short":"hgk-1","host":"hgk-1.hk.uncletopia.com","port":27015,"enabled":true,"region":"asia","cc":"hk","latitude":22.302711,"longitude":114.177216,"reserved":0,"last_update":"0001-01-01T00:00:00Z","name_a2s":"Uncletopia | Hong Kong | 1 | All Maps","protocol":17,"map":"pl_frontier_final","folder":"tf","game":"Team Fortress","app_id":440,"player_count":0,"max_players":24,"Bots":0,"server_type":"Dedicated","server_os":"Linux","password":true,"vac":true,"version":"7757534","steam_id":85568392924494504,"keywords":["nocrits","nodmgspread","payload","uncletopia"],"game_id":440,"stv_port":27016,"stv_name":"Uncletopia | Hong Kong | 1 | All Maps | STV","players":null},{"server_id":1,"name":"Uncletopia | Los Angeles | 1 | All Maps","name_short":"lax-1","host":"lax-1.us.uncletopia.com","port":27015,"enabled":true,"region":"us-west","cc":"us","latitude":33.94279,"longitude":-118.41004,"reserved":0,"last_update":"0001-01-01T00:00:00Z","name_a2s":"Uncletopia | Los Angeles | 1 | All Maps","protocol":17,"map":"cp_mountainlab","folder":"tf","game":"Team Fortress","app_id":440,"player_count":0,"max_players":24,"Bots":0,"server_type":"Dedicated","server_os":"Linux","password":true,"vac":true,"version":"7757534","steam_id":85568392924469991,"keywords":["cp","nocrits","nodmgspread","uncletopia"],"game_id":440,"stv_port":27016,"stv_name":"Uncletopia | Los Angeles | 1 | All Maps | STV","players":null},{"server_id":112,"name":"Uncletopia | Los Angeles | 2 | All Maps","name_short":"lax-2","host":"lax-1.us.uncletopia.com","port":27025,"enabled":true,"region":"us-west","cc":"us","latitude":33.94279,"longitude":-118.41004,"reserved":0,"last_update":"0001-01-01T00:00:00Z","name_a2s":"Uncletopia | Los Angeles | 2 | All Maps","protocol":17,"map":"cp_mountainlab","folder":"tf","game":"Team Fortress","app_id":440,"player_count":0,"max_players":24,"Bots":0,"server_type":"Dedicated","server_os":"Linux","password":true,"vac":true,"version":"7757534","steam_id":85568392924469992,"keywords":["cp","nocrits","nodmgspread","uncletopia"],"game_id":440,"stv_port":27026,"stv_name":"Uncletopia | Los Angeles | 2 | All Maps | STV","players":null},{"server_id":324,"name":"Uncletopia | Los Angeles | 3 | All Maps","name_short":"lax-3","host":"lax-1.us.uncletopia.com","port":27035,"enabled":true,"region":"us-west","cc":"us","latitude":33.94279,"longitude":-118.41004,"reserved":0,"last_update":"0001-01-01T00:00:00Z","name_a2s":"Uncletopia | Los Angeles | 3 | All Maps","protocol":17,"map":"pl_thundermountain","folder":"tf","game":"Team Fortress","app_id":440,"player_count":23,"max_players":24,"Bots":0,"server_type":"Dedicated","server_os":"Linux","password":true,"vac":true,"version":"7757534","steam_id":85568392924510198,"keywords":["nocrits","nodmgspread","payload","uncletopia"],"game_id":440,"stv_port":27036,"stv_name":"Uncletopia | Los Angeles | 3 | All Maps | STV","players":[{"user_id":126,"name":"Ash!❤","steam_id":76561198070398840,"connected_time":2418000000000,"state":"active","ping":70},{"user_id":137,"name":"corbenis","steam_id":76561199012442511,"connected_time":1284000000000,"state":"active","ping":55},{"user_id":69,"name":"ShredMaan","steam_id":76561198429982138,"connected_time":5564000000000,"state":"active","ping":59},{"user_id":145,"name":"󠀡󠀡","steam_id":76561198202704364,"connected_time":703000000000,"state":"active","ping":53},{"user_id":134,"name":"AmyPercent","steam_id":76561198071896932,"connected_time":1581000000000,"state":"active","ping":77},{"user_id":155,"name":"xXshrek_jrXx","steam_id":76561199241882759,"connected_time":274000000000,"state":"active","ping":46},{"user_id":136,"name":"nonanona","steam_id":76561198044776946,"connected_time":1297000000000,"state":"active","ping":66},{"user_id":148,"name":"vanilain","steam_id":76561198058617608,"connected_time":615000000000,"state":"active","ping":45},{"user_id":132,"name":"Altruisticailuridae","steam_id":76561198335295596,"connected_time":1939000000000,"state":"active","ping":57},{"user_id":156,"name":"Minerkid2004","steam_id":76561198044262827,"connected_time":271000000000,"state":"active","ping":51},{"user_id":81,"name":"pure sun","steam_id":76561198089225457,"connected_time":4397000000000,"state":"active","ping":64},{"user_id":118,"name":"Hilo! (f2p)","steam_id":76561199126141666,"connected_time":3116000000000,"state":"active","ping":58},{"user_id":153,"name":"MistakesWereMade","steam_id":76561199059220481,"connected_time":320000000000,"state":"active","ping":59},{"user_id":111,"name":"Lo-Pan","steam_id":76561198085670133,"connected_time":3256000000000,"state":"active","ping":99},{"user_id":100,"name":"swag","steam_id":76561198094615739,"connected_time":3753000000000,"state":"active","ping":76},{"user_id":119,"name":"Sentry Gun Beta Test","steam_id":76561198038832034,"connected_time":3101000000000,"state":"active","ping":76},{"user_id":144,"name":"Ugzugzug The Bucket Mann","steam_id":76561198836624330,"connected_time":738000000000,"state":"active","ping":123},{"user_id":141,"name":"Vanadium","steam_id":76561198445677637,"connected_time":1111000000000,"state":"active","ping":82},{"user_id":112,"name":"nolife","steam_id":76561198414300607,"connected_time":3254000000000,"state":"active","ping":53},{"user_id":157,"name":"sagekiss","steam_id":76561198038831240,"connected_time":204000000000,"state":"active","ping":85},{"user_id":139,"name":"Wendall555","steam_id":76561198985637603,"connected_time":1273000000000,"state":"active","ping":53},{"user_id":158,"name":"AmiableNebula","steam_id":76561198094306627,"connected_time":185000000000,"state":"active","ping":45},{"user_id":115,"name":"Cave Dweller","steam_id":76561198374825685,"connected_time":3159000000000,"state":"active","ping":68}]},{"server_id":25,"name":"Uncletopia | Los Angeles | 4 | Stopwatch Beta","name_short":"lax-4","host":"lax-1.us.uncletopia.com","port":27045,"enabled":true,"region":"us-west","cc":"us","latitude":33.94279,"longitude":-118.41004,"reserved":0,"last_update":"0001-01-01T00:00:00Z","name_a2s":"Uncletopia | Los Angeles | 4 | Stopwatch Beta","protocol":17,"map":"koth_viaduct","folder":"tf","game":"Team Fortress","app_id":440,"player_count":0,"max_players":24,"Bots":0,"server_type":"Dedicated","server_os":"Linux","password":true,"vac":true,"version":"7757534","steam_id":85568392924510199,"keywords":["cp","nocrits","nodmgspread","uncletopia"],"game_id":440,"stv_port":27046,"stv_name":"Uncletopia | Los Angeles | 4 | Stopwatch Beta | STV","players":null},{"server_id":11,"name":"Uncletopia | London | 1 | All Maps","name_short":"lon-1","host":"lon-1.uk.uncletopia.com","port":27015,"enabled":true,"region":"eu","cc":"gb","latitude":51.509865,"longitude":-0.118092,"reserved":0,"last_update":"0001-01-01T00:00:00Z","name_a2s":"Uncletopia | London | 1 | All Maps","protocol":17,"map":"pl_upward","folder":"tf","game":"Team Fortress","app_id":440,"player_count":2,"max_players":24,"Bots":0,"server_type":"Dedicated","server_os":"Linux","password":true,"vac":true,"version":"7757534","steam_id":85568392924367362,"keywords":["nocrits","nodmgspread","payload","uncletopia"],"game_id":440,"stv_port":27016,"stv_name":"Uncletopia | London | 1 | All Maps | STV","players":[{"user_id":786,"name":"Estamie","steam_id":76561198058527691,"connected_time":493000000000,"state":"active","ping":60},{"user_id":787,"name":"Soap","steam_id":76561199188139905,"connected_time":116000000000,"state":"spawning","ping":277}]},{"server_id":114,"name":"Uncletopia | London | 2 | All Maps","name_short":"lon-2","host":"lon-1.uk.uncletopia.com","port":27025,"enabled":true,"region":"eu","cc":"gb","latitude":51.509865,"longitude":-0.118092,"reserved":0,"last_update":"0001-01-01T00:00:00Z","name_a2s":"Uncletopia | London | 2 | All Maps","protocol":17,"map":"pl_borneo","folder":"tf","game":"Team Fortress","app_id":440,"player_count":2,"max_players":24,"Bots":0,"server_type":"Dedicated","server_os":"Linux","password":true,"vac":true,"version":"7757534","steam_id":85568392924470941,"keywords":["nocrits","nodmgspread","payload","uncletopia"],"game_id":440,"stv_port":27026,"stv_name":"Uncletopia | London | 2 | All Maps | STV","players":[{"user_id":315,"name":"ϟ suguse1","steam_id":76561198344120559,"connected_time":1882000000000,"state":"active","ping":76},{"user_id":314,"name":"VolcanGamer753","steam_id":76561199021569595,"connected_time":1890000000000,"state":"active","ping":74}]},{"server_id":320,"name":"Uncletopia | London | 3 | All Maps","name_short":"lon-3","host":"lon-1.uk.uncletopia.com","port":27035,"enabled":true,"region":"eu","cc":"gb","latitude":51.509865,"longitude":-0.118092,"reserved":0,"last_update":"0001-01-01T00:00:00Z","name_a2s":"Uncletopia | London | 3 | All Maps","protocol":17,"map":"pl_badwater","folder":"tf","game":"Team Fortress","app_id":440,"player_count":21,"max_players":24,"Bots":0,"server_type":"Dedicated","server_os":"Linux","password":true,"vac":true,"version":"7757534","steam_id":85568392924510192,"keywords":["nocrits","nodmgspread","payload","uncletopia"],"game_id":440,"stv_port":27036,"stv_name":"Uncletopia | London | 3 | All Maps | STV","players":[{"user_id":236,"name":"edgar","steam_id":76561198212862423,"connected_time":1965000000000,"state":"active","ping":34},{"user_id":253,"name":"DropShot","steam_id":76561198042476724,"connected_time":186000000000,"state":"active","ping":74},{"user_id":111,"name":"Grandma","steam_id":76561198042593027,"connected_time":9572000000000,"state":"active","ping":103},{"user_id":202,"name":"R A S M U S","steam_id":76561198279799226,"connected_time":3866000000000,"state":"active","ping":78},{"user_id":226,"name":"Ark","steam_id":76561198051936087,"connected_time":2754000000000,"state":"active","ping":67},{"user_id":222,"name":"Val","steam_id":76561198000500926,"connected_time":3044000000000,"state":"active","ping":68},{"user_id":255,"name":"DigyB","steam_id":76561198014442345,"connected_time":136000000000,"state":"active","ping":54},{"user_id":246,"name":"FELHEEE","steam_id":76561197987151150,"connected_time":1398000000000,"state":"active","ping":81},{"user_id":256,"name":"иван","steam_id":76561198072730591,"connected_time":83000000000,"state":"active","ping":71},{"user_id":200,"name":"lawrencefishdom","steam_id":76561199190918059,"connected_time":4392000000000,"state":"active","ping":57},{"user_id":252,"name":"Incoming","steam_id":76561199062581310,"connected_time":584000000000,"state":"active","ping":144},{"user_id":239,"name":"pepper","steam_id":76561198059782462,"connected_time":1953000000000,"state":"active","ping":60},{"user_id":220,"name":"marty","steam_id":76561198082934864,"connected_time":3251000000000,"state":"active","ping":66},{"user_id":250,"name":"Cum Mentalist Mikuri","steam_id":76561198298576765,"connected_time":1127000000000,"state":"active","ping":74},{"user_id":233,"name":"the joy of recycling","steam_id":76561198415564349,"connected_time":2000000000000,"state":"active","ping":60},{"user_id":257,"name":"Bupster","steam_id":76561199077027065,"connected_time":65000000000,"state":"active","ping":75},{"user_id":241,"name":"teddy","steam_id":76561198007436837,"connected_time":1932000000000,"state":"active","ping":30},{"user_id":258,"name":"Frazzle","steam_id":76561198262577951,"connected_time":9000000000,"state":"spawning","ping":59},{"user_id":234,"name":"Sweetcheesus","steam_id":76561198022299033,"connected_time":1999000000000,"state":"active","ping":50},{"user_id":219,"name":"boo!","steam_id":76561198444424053,"connected_time":3283000000000,"state":"active","ping":83},{"user_id":247,"name":"Mr Prince","steam_id":76561199006591691,"connected_time":1342000000000,"state":"active","ping":59}]},{"server_id":321,"name":"Uncletopia | London | 4 | All Maps","name_short":"lon-4","host":"lon-1.uk.uncletopia.com","port":27045,"enabled":true,"region":"eu","cc":"gb","latitude":51.509865,"longitude":-0.118092,"reserved":0,"last_update":"0001-01-01T00:00:00Z","name_a2s":"Uncletopia | London | 4 | All Maps","protocol":17,"map":"cp_sunshine","folder":"tf","game":"Team Fortress","app_id":440,"player_count":23,"max_players":24,"Bots":0,"server_type":"Dedicated","server_os":"Linux","password":true,"vac":true,"version":"7757534","steam_id":85568392924510193,"keywords":["cp","nocrits","nodmgspread","uncletopia"],"game_id":440,"stv_port":27046,"stv_name":"Uncletopia | London | 4 | All Maps | STV","players":[{"user_id":560,"name":":)","steam_id":76561198977420882,"connected_time":245000000000,"state":"active","ping":32},{"user_id":559,"name":"Lysergic Acid Diethylamide","steam_id":76561198226581752,"connected_time":267000000000,"state":"active","ping":61},{"user_id":385,"name":"Tata Cobraz0r","steam_id":76561198017693962,"connected_time":10764000000000,"state":"active","ping":85},{"user_id":545,"name":"The Sunnyshot","steam_id":76561198086787499,"connected_time":788000000000,"state":"active","ping":66},{"user_id":537,"name":"Celisium","steam_id":76561198071537396,"connected_time":1040000000000,"state":"active","ping":60},{"user_id":503,"name":"nedilya","steam_id":76561198039692077,"connected_time":3075000000000,"state":"active","ping":67},{"user_id":474,"name":"Piteras","steam_id":76561198858532207,"connected_time":6031000000000,"state":"active","ping":86},{"user_id":521,"name":"Star in a pond","steam_id":76561198205501279,"connected_time":1726000000000,"state":"active","ping":101},{"user_id":518,"name":"Posture Check","steam_id":76561198053897197,"connected_time":1751000000000,"state":"active","ping":46},{"user_id":549,"name":"Nitro2300","steam_id":76561198269430639,"connected_time":643000000000,"state":"active","ping":45},{"user_id":387,"name":"Mihai","steam_id":76561199181038346,"connected_time":10571000000000,"state":"active","ping":81},{"user_id":563,"name":"Monoxide","steam_id":76561198056844412,"connected_time":56000000000,"state":"spawning","ping":35},{"user_id":547,"name":"Joxaren","steam_id":76561198049407893,"connected_time":766000000000,"state":"active","ping":59},{"user_id":529,"name":"SuntanPikachu","steam_id":76561198121242476,"connected_time":1477000000000,"state":"active","ping":57},{"user_id":507,"name":"medick","steam_id":76561199380849468,"connected_time":2877000000000,"state":"active","ping":61},{"user_id":550,"name":"x3o","steam_id":76561198335302319,"connected_time":608000000000,"state":"active","ping":105},{"user_id":556,"name":"Sundrelk","steam_id":76561198315041174,"connected_time":360000000000,"state":"active","ping":58},{"user_id":508,"name":"cinny","steam_id":76561198832112629,"connected_time":2865000000000,"state":"active","ping":85},{"user_id":526,"name":"JimTheMagicJumper","steam_id":76561197996773886,"connected_time":1552000000000,"state":"active","ping":38},{"user_id":552,"name":"soil.dirt.earth","steam_id":76561198014377623,"connected_time":523000000000,"state":"active","ping":60},{"user_id":562,"name":"beeper","steam_id":76561198130416479,"connected_time":130000000000,"state":"active","ping":67},{"user_id":555,"name":"Qosmo","steam_id":76561197980806182,"connected_time":374000000000,"state":"active","ping":68},{"user_id":514,"name":"Dee","steam_id":76561198257836694,"connected_time":2203000000000,"state":"active","ping":40}]},{"server_id":21,"name":"Uncletopia | London | 5 | All Maps","name_short":"lon-5","host":"lon-1.uk.uncletopia.com","port":27055,"enabled":true,"region":"eu","cc":"gb","latitude":51.509865,"longitude":-0.118092,"reserved":0,"last_update":"0001-01-01T00:00:00Z","name_a2s":"Uncletopia | London | 5 | All Maps","protocol":17,"map":"pl_borneo","folder":"tf","game":"Team Fortress","app_id":440,"player_count":23,"max_players":24,"Bots":0,"server_type":"Dedicated","server_os":"Linux","password":true,"vac":true,"version":"7757534","steam_id":85568392924742829,"keywords":["nocrits","nodmgspread","payload","uncletopia"],"game_id":440,"stv_port":27056,"stv_name":"Uncletopia | London | 5 | All Maps | STV","players":[{"user_id":569,"name":"fiyahstorm","steam_id":76561197992574261,"connected_time":362000000000,"state":"active","ping":39},{"user_id":554,"name":"Popbob (notorious griefer)","steam_id":76561198100730234,"connected_time":1251000000000,"state":"active","ping":73},{"user_id":540,"name":"Plutonium Lamp Oil Salesman","steam_id":76561198839259306,"connected_time":2226000000000,"state":"active","ping":74},{"user_id":556,"name":"SLiPpeRyJoe.nosound","steam_id":76561197977206359,"connected_time":1134000000000,"state":"active","ping":161},{"user_id":547,"name":"Sabour","steam_id":76561197963965445,"connected_time":1674000000000,"state":"active","ping":69},{"user_id":529,"name":"rosepinkyfuzz","steam_id":76561198018546334,"connected_time":2490000000000,"state":"active","ping":86},{"user_id":570,"name":"idontknowwheis123","steam_id":76561199469267829,"connected_time":357000000000,"state":"active","ping":59},{"user_id":549,"name":"sergey476a","steam_id":76561199468609800,"connected_time":1499000000000,"state":"active","ping":72},{"user_id":531,"name":"goblin","steam_id":76561199010825303,"connected_time":2469000000000,"state":"active","ping":79},{"user_id":565,"name":"Saturn","steam_id":76561199239752278,"connected_time":663000000000,"state":"active","ping":159},{"user_id":571,"name":"Industrial Revolution","steam_id":76561198230811124,"connected_time":341000000000,"state":"active","ping":71},{"user_id":528,"name":"Hoopty","steam_id":76561198057012442,"connected_time":2523000000000,"state":"active","ping":74},{"user_id":551,"name":"docta febby","steam_id":76561198133532980,"connected_time":1351000000000,"state":"active","ping":44},{"user_id":562,"name":"Brandon1617(2.0)","steam_id":76561199096945468,"connected_time":850000000000,"state":"active","ping":50},{"user_id":557,"name":"Aash","steam_id":76561198041530759,"connected_time":1109000000000,"state":"active","ping":54},{"user_id":576,"name":"bkashooter","steam_id":76561198116877713,"connected_time":47000000000,"state":"active","ping":44},{"user_id":568,"name":"gfjhsdf","steam_id":76561198136736426,"connected_time":405000000000,"state":"active","ping":64},{"user_id":558,"name":"Kris","steam_id":76561198240638652,"connected_time":1093000000000,"state":"active","ping":45},{"user_id":575,"name":"Demonstrate","steam_id":76561198198581079,"connected_time":159000000000,"state":"active","ping":68},{"user_id":535,"name":"heyjohn14","steam_id":76561198840831773,"connected_time":2412000000000,"state":"active","ping":91},{"user_id":574,"name":"dubysa","steam_id":76561198079774530,"connected_time":321000000000,"state":"active","ping":75},{"user_id":482,"name":"thefatcontroller","steam_id":76561199332965146,"connected_time":4239000000000,"state":"active","ping":92},{"user_id":567,"name":"Gir","steam_id":76561198075155374,"connected_time":661000000000,"state":"active","ping":34}]},{"server_id":22,"name":"Uncletopia | London | 6 | All Maps","name_short":"lon-6","host":"lon-1.uk.uncletopia.com","port":27065,"enabled":true,"region":"eu","cc":"gb","latitude":51.509865,"longitude":-0.118092,"reserved":0,"last_update":"0001-01-01T00:00:00Z","name_a2s":"Uncletopia | London | 6 | All Maps","protocol":17,"map":"cp_sunshine","folder":"tf","game":"Team Fortress","app_id":440,"player_count":0,"max_players":24,"Bots":0,"server_type":"Dedicated","server_os":"Linux","password":true,"vac":true,"version":"7757534","steam_id":85568392924742830,"keywords":["cp","nocrits","nodmgspread","uncletopia"],"game_id":440,"stv_port":27066,"stv_name":"Uncletopia | London | 6 | All Maps | STV","players":null},{"server_id":40,"name":"Uncletopia | London | 7 | No Payload","name_short":"lon-7","host":"lon-1.uk.uncletopia.com","port":27075,"enabled":true,"region":"eu","cc":"gb","latitude":51.509865,"longitude":-0.118092,"reserved":0,"last_update":"0001-01-01T00:00:00Z","name_a2s":"Uncletopia | London | 7 | No Payload","protocol":17,"map":"koth_sawmill","folder":"tf","game":"Team Fortress","app_id":440,"player_count":20,"max_players":24,"Bots":0,"server_type":"Dedicated","server_os":"Linux","password":true,"vac":true,"version":"7757534","steam_id":85568392924964314,"keywords":["cp","nocrits","nodmgspread","uncletopia"],"game_id":440,"stv_port":27076,"stv_name":"Uncletopia | London | 7 | No Payload | STV","players":[{"user_id":229,"name":"Pinkchup","steam_id":76561198106802803,"connected_time":3524000000000,"state":"active","ping":77},{"user_id":230,"name":"Kraiti","steam_id":76561198847296908,"connected_time":3515000000000,"state":"active","ping":141},{"user_id":231,"name":"Minimi","steam_id":76561198873850443,"connected_time":3033000000000,"state":"active","ping":44},{"user_id":267,"name":"Grape Juice","steam_id":76561198380337568,"connected_time":131000000000,"state":"active","ping":150},{"user_id":246,"name":"Moon","steam_id":76561198047535132,"connected_time":1011000000000,"state":"active","ping":73},{"user_id":247,"name":"The Irish Eejit","steam_id":76561198027738057,"connected_time":936000000000,"state":"active","ping":62},{"user_id":264,"name":"big guapo","steam_id":76561198103228695,"connected_time":237000000000,"state":"active","ping":125},{"user_id":237,"name":"the Stigg","steam_id":76561198084746151,"connected_time":2313000000000,"state":"active","ping":107},{"user_id":239,"name":"yeh","steam_id":76561198061197114,"connected_time":2224000000000,"state":"active","ping":78},{"user_id":263,"name":"Jondro","steam_id":76561198044168268,"connected_time":282000000000,"state":"active","ping":102},{"user_id":252,"name":"Senior_Pablo","steam_id":76561199254031480,"connected_time":670000000000,"state":"active","ping":60},{"user_id":242,"name":"Soloman","steam_id":76561199212054667,"connected_time":1949000000000,"state":"active","ping":41},{"user_id":244,"name":"The End","steam_id":76561199042470246,"connected_time":1350000000000,"state":"active","ping":61},{"user_id":248,"name":"LowLevelIdot","steam_id":76561199302370113,"connected_time":805000000000,"state":"active","ping":139},{"user_id":258,"name":"Bubbles","steam_id":76561198131764464,"connected_time":501000000000,"state":"active","ping":73},{"user_id":268,"name":"Private_tm","steam_id":76561198056281480,"connected_time":14000000000,"state":"active","ping":173},{"user_id":255,"name":"Ready Rice™","steam_id":76561198091969871,"connected_time":543000000000,"state":"active","ping":81},{"user_id":256,"name":"Rasmusson [29th ID]","steam_id":76561198191451713,"connected_time":520000000000,"state":"active","ping":93},{"user_id":257,"name":"oscail","steam_id":76561198180640198,"connected_time":515000000000,"state":"active","ping":70},{"user_id":266,"name":"KUSTY CRAB PIZZa IS THE PIZZA","steam_id":76561198378014690,"connected_time":170000000000,"state":"active","ping":193}]},{"server_id":41,"name":"Uncletopia | London | 8 | Community","name_short":"lon-8","host":"lon-1.uk.uncletopia.com","port":27085,"enabled":true,"region":"eu","cc":"gb","latitude":51.509865,"longitude":-0.118092,"reserved":0,"last_update":"0001-01-01T00:00:00Z","name_a2s":"Uncletopia | London | 8 | Community","protocol":17,"map":"workshop/koth_product_final.ugc454272353","folder":"tf","game":"Team Fortress","app_id":440,"player_count":0,"max_players":24,"Bots":0,"server_type":"Dedicated","server_os":"Linux","password":true,"vac":true,"version":"7757534","steam_id":85568392924964315,"keywords":["cp","nocrits","nodmgspread","uncletopia"],"game_id":440,"stv_port":27086,"stv_name":"Uncletopia | London | 8 | Community | STV","players":null},{"server_id":300,"name":"Uncletopia | Montréal | 1 | All Maps","name_short":"mtl-1","host":"mtl-1.ca.uncletopia.com","port":27015,"enabled":true,"region":"us-east","cc":"ca","latitude":45.50889,"longitude":-73.56167,"reserved":0,"last_update":"0001-01-01T00:00:00Z","name_a2s":"Uncletopia | Montréal | 1 | All Maps","protocol":17,"map":"koth_cascade","folder":"tf","game":"Team Fortress","app_id":440,"player_count":0,"max_players":24,"Bots":0,"server_type":"Dedicated","server_os":"Linux","password":true,"vac":true,"version":"7757534","steam_id":85568392924500087,"keywords":["cp","nocrits","nodmgspread","uncletopia"],"game_id":440,"stv_port":27016,"stv_name":"Uncletopia | Montréal | 1 | All Maps | STV","players":null},{"server_id":301,"name":"Uncletopia | Montréal | 2 | All Maps","name_short":"mtl-2","host":"mtl-1.ca.uncletopia.com","port":27025,"enabled":true,"region":"us-east","cc":"ca","latitude":45.50889,"longitude":-73.56167,"reserved":0,"last_update":"0001-01-01T00:00:00Z","name_a2s":"Uncletopia | Montréal | 2 | All Maps","protocol":17,"map":"pl_borneo","folder":"tf","game":"Team Fortress","app_id":440,"player_count":0,"max_players":24,"Bots":0,"server_type":"Dedicated","server_os":"Linux","password":true,"vac":true,"version":"7757534","steam_id":85568392924500088,"keywords":["nocrits","nodmgspread","payload","uncletopia"],"game_id":440,"stv_port":27026,"stv_name":"Uncletopia | Montréal | 2 | All Maps | STV","players":null},{"server_id":302,"name":"Uncletopia | Montréal | 3 | All Maps","name_short":"mtl-3","host":"mtl-1.ca.uncletopia.com","port":27035,"enabled":true,"region":"us-east","cc":"ca","latitude":45.50889,"longitude":-73.56167,"reserved":0,"last_update":"0001-01-01T00:00:00Z","name_a2s":"Uncletopia | Montréal | 3 | All Maps","protocol":17,"map":"pl_pier","folder":"tf","game":"Team Fortress","app_id":440,"player_count":24,"max_players":24,"Bots":0,"server_type":"Dedicated","server_os":"Linux","password":true,"vac":true,"version":"7757534","steam_id":85568392924500089,"keywords":["nocrits","nodmgspread","payload","uncletopia"],"game_id":440,"stv_port":27036,"stv_name":"Uncletopia | Montréal | 3 | All Maps | STV","players":[{"user_id":78,"name":"that fat croc from donkey kong","steam_id":76561198159172495,"connected_time":504000000000,"state":"active","ping":150},{"user_id":63,"name":"do you remember poptropica?","steam_id":76561199025227085,"connected_time":1144000000000,"state":"active","ping":68},{"user_id":64,"name":"A Successful Businessman","steam_id":76561198031611806,"connected_time":1124000000000,"state":"active","ping":56},{"user_id":70,"name":"LalitoTV","steam_id":76561198334302951,"connected_time":813000000000,"state":"active","ping":116},{"user_id":52,"name":"ChrisUnkown","steam_id":76561199453460809,"connected_time":1533000000000,"state":"active","ping":99},{"user_id":66,"name":"Bee","steam_id":76561198074681324,"connected_time":1071000000000,"state":"active","ping":56},{"user_id":73,"name":"HATEWORK.","steam_id":76561198286792807,"connected_time":669000000000,"state":"active","ping":85},{"user_id":77,"name":"wolf cruncher","steam_id":76561198000564263,"connected_time":524000000000,"state":"active","ping":82},{"user_id":85,"name":"PorkTheChop","steam_id":76561198008883658,"connected_time":318000000000,"state":"active","ping":52},{"user_id":59,"name":"Shmish","steam_id":76561197966078491,"connected_time":1332000000000,"state":"active","ping":63},{"user_id":41,"name":"ice spice","steam_id":76561198072657891,"connected_time":1765000000000,"state":"active","ping":50},{"user_id":69,"name":"Justario","steam_id":76561198016095410,"connected_time":849000000000,"state":"active","ping":60},{"user_id":72,"name":"uberslak","steam_id":76561198064715241,"connected_time":750000000000,"state":"active","ping":95},{"user_id":23,"name":"OldManHenderson1976","steam_id":76561198148713751,"connected_time":2121000000000,"state":"active","ping":104},{"user_id":86,"name":"JTClaws","steam_id":76561198028228221,"connected_time":310000000000,"state":"active","ping":66},{"user_id":74,"name":"Bob Th","steam_id":76561198856284930,"connected_time":649000000000,"state":"active","ping":79},{"user_id":75,"name":"Cornflakes","steam_id":76561199151899684,"connected_time":646000000000,"state":"active","ping":63},{"user_id":84,"name":"noah","steam_id":76561198173310157,"connected_time":424000000000,"state":"active","ping":67},{"user_id":87,"name":"Dale ❤","steam_id":76561197995189004,"connected_time":295000000000,"state":"active","ping":135},{"user_id":76,"name":"Vevo","steam_id":76561198316753540,"connected_time":612000000000,"state":"active","ping":74},{"user_id":81,"name":"Any Femboys In Chat?","steam_id":76561198253462393,"connected_time":462000000000,"state":"active","ping":96},{"user_id":82,"name":"lanoc","steam_id":76561198055415367,"connected_time":462000000000,"state":"active","ping":63},{"user_id":83,"name":"Avg. Santa Believer (Nice list)","steam_id":76561198040444697,"connected_time":455000000000,"state":"active","ping":55},{"user_id":89,"name":"gravid baby","steam_id":76561198318646867,"connected_time":103000000000,"state":"active","ping":48}]},{"server_id":303,"name":"Uncletopia | Montréal | 4 | No Payload","name_short":"mtl-4","host":"mtl-1.ca.uncletopia.com","port":27045,"enabled":true,"region":"us-east","cc":"ca","latitude":45.50889,"longitude":-73.56167,"reserved":0,"last_update":"0001-01-01T00:00:00Z","name_a2s":"Uncletopia | Montréal | 4 | No Payload","protocol":17,"map":"koth_highpass","folder":"tf","game":"Team Fortress","app_id":440,"player_count":3,"max_players":24,"Bots":0,"server_type":"Dedicated","server_os":"Linux","password":true,"vac":true,"version":"7757534","steam_id":85568392924500090,"keywords":["cp","nocrits","nodmgspread","uncletopia"],"game_id":440,"stv_port":27046,"stv_name":"Uncletopia | Montréal | 4 | No Payload | STV","players":[{"user_id":3,"name":"LOLWOW:3","steam_id":76561198870007576,"connected_time":1934000000000,"state":"active","ping":84},{"user_id":4,"name":"Bread.Inc","steam_id":76561199175575291,"connected_time":1925000000000,"state":"active","ping":82},{"user_id":8,"name":"Fonexia","steam_id":76561199191574357,"connected_time":201000000000,"state":"active","ping":71}]},{"server_id":13,"name":"Uncletopia | New York City | 1 | All Maps","name_short":"nyc-1","host":"nyc-1.us.uncletopia.com","port":27015,"enabled":true,"region":"us-east","cc":"us","latitude":40.73061,"longitude":-73.93524,"reserved":0,"last_update":"0001-01-01T00:00:00Z","name_a2s":"Uncletopia | New York City | 1 | All Maps","protocol":17,"map":"cp_steel","folder":"tf","game":"Team Fortress","app_id":440,"player_count":24,"max_players":24,"Bots":0,"server_type":"Dedicated","server_os":"Linux","password":true,"vac":true,"version":"7757534","steam_id":85568392924469993,"keywords":["cp","nocrits","nodmgspread","uncletopia"],"game_id":440,"stv_port":27016,"stv_name":"Uncletopia | New York City | 1 | All Maps | STV","players":[{"user_id":349,"name":"Nic0","steam_id":76561198305690218,"connected_time":2568000000000,"state":"active","ping":60},{"user_id":369,"name":"Rornir","steam_id":76561198081829615,"connected_time":1385000000000,"state":"active","ping":59},{"user_id":356,"name":"igbygames","steam_id":76561199169224041,"connected_time":2415000000000,"state":"active","ping":88},{"user_id":374,"name":"Fudgely","steam_id":76561198039425862,"connected_time":877000000000,"state":"active","ping":60},{"user_id":329,"name":"Spirit","steam_id":76561199069322627,"connected_time":5233000000000,"state":"active","ping":63},{"user_id":379,"name":"Totouri","steam_id":76561198004229789,"connected_time":344000000000,"state":"active","ping":69},{"user_id":363,"name":"the moniter","steam_id":76561198271869503,"connected_time":1959000000000,"state":"active","ping":68},{"user_id":378,"name":"Colonel_Tighlon","steam_id":76561198005660399,"connected_time":546000000000,"state":"active","ping":44},{"user_id":380,"name":"Bootes","steam_id":76561197968255551,"connected_time":344000000000,"state":"active","ping":46},{"user_id":370,"name":"glorbert","steam_id":76561198007792525,"connected_time":1374000000000,"state":"active","ping":113},{"user_id":375,"name":"TLG, Certified Gamer Mom","steam_id":76561198076669951,"connected_time":730000000000,"state":"active","ping":60},{"user_id":383,"name":"Quattro Bajeena","steam_id":76561199078990687,"connected_time":306000000000,"state":"active","ping":90},{"user_id":282,"name":"Oomitch","steam_id":76561198071702759,"connected_time":9941000000000,"state":"active","ping":124},{"user_id":371,"name":"flexer_2000","steam_id":76561198084422657,"connected_time":1261000000000,"state":"active","ping":119},{"user_id":351,"name":"deech","steam_id":76561198066429444,"connected_time":2504000000000,"state":"active","ping":51},{"user_id":386,"name":"tator171 (⌐■_■)","steam_id":76561198047446121,"connected_time":265000000000,"state":"active","ping":49},{"user_id":359,"name":"Got Hat?","steam_id":76561197998486431,"connected_time":2299000000000,"state":"active","ping":52},{"user_id":385,"name":"Wan Shi Tong","steam_id":76561198076441225,"connected_time":287000000000,"state":"active","ping":53},{"user_id":381,"name":"Bashirider","steam_id":76561198260522253,"connected_time":344000000000,"state":"active","ping":53},{"user_id":338,"name":"MILF Gaming","steam_id":76561198155378170,"connected_time":4488000000000,"state":"active","ping":58},{"user_id":365,"name":"stapler","steam_id":76561198145380652,"connected_time":1690000000000,"state":"active","ping":83},{"user_id":382,"name":"WibbyOne","steam_id":76561198052843846,"connected_time":344000000000,"state":"active","ping":45},{"user_id":377,"name":"Cake Baking Pagan Woman","steam_id":76561198055627017,"connected_time":719000000000,"state":"active","ping":89},{"user_id":220,"name":"Baron von Whoopsie","steam_id":76561197996691013,"connected_time":13473000000000,"state":"active","ping":63}]},{"server_id":14,"name":"Uncletopia | New York City | 2 | All Maps","name_short":"nyc-2","host":"nyc-1.us.uncletopia.com","port":27025,"enabled":true,"region":"us-east","cc":"us","latitude":40.73061,"longitude":-73.93524,"reserved":0,"last_update":"0001-01-01T00:00:00Z","name_a2s":"Uncletopia | New York City | 2 | All Maps","protocol":17,"map":"koth_lakeside_final","folder":"tf","game":"Team Fortress","app_id":440,"player_count":0,"max_players":24,"Bots":0,"server_type":"Dedicated","server_os":"Linux","password":true,"vac":true,"version":"7757534","steam_id":85568392924469994,"keywords":["cp","nocrits","nodmgspread","uncletopia"],"game_id":440,"stv_port":27026,"stv_name":"Uncletopia | New York City | 2 | All Maps | STV","players":null},{"server_id":15,"name":"Uncletopia | New York City | 3 | Stopwatch Beta","name_short":"nyc-3","host":"nyc-1.us.uncletopia.com","port":27035,"enabled":true,"region":"us-east","cc":"us","latitude":40.73061,"longitude":-73.93524,"reserved":0,"last_update":"0001-01-01T00:00:00Z","name_a2s":"Uncletopia | New York City | 3 | Stopwatch Beta","protocol":17,"map":"workshop/koth_clearcut_b15.ugc2107050255","folder":"tf","game":"Team Fortress","app_id":440,"player_count":0,"max_players":24,"Bots":0,"server_type":"Dedicated","server_os":"Linux","password":true,"vac":true,"version":"7757534","steam_id":85568392924742820,"keywords":["cp","nocrits","nodmgspread","uncletopia"],"game_id":440,"stv_port":27036,"stv_name":"Uncletopia | New York City | 3 | Stopwatch Beta | STV","players":null},{"server_id":16,"name":"Uncletopia | New York City | 4 | Community","name_short":"nyc-4","host":"nyc-1.us.uncletopia.com","port":27045,"enabled":true,"region":"us-east","cc":"us","latitude":40.73061,"longitude":-73.93524,"reserved":0,"last_update":"0001-01-01T00:00:00Z","name_a2s":"Uncletopia | New York City | 4 | Community","protocol":17,"map":"pl_borneo","folder":"tf","game":"Team Fortress","app_id":440,"player_count":0,"max_players":24,"Bots":0,"server_type":"Dedicated","server_os":"Linux","password":true,"vac":true,"version":"7757534","steam_id":85568392924742821,"keywords":["nocrits","nodmgspread","payload","uncletopia"],"game_id":440,"stv_port":27046,"stv_name":"Uncletopia | New York City | 4 | Community | STV","players":null},{"server_id":142,"name":"Uncletopia | São Paulo | 1 | All Maps","name_short":"sao-1","host":"sao-1.br.uncletopia.com","port":27015,"enabled":true,"region":"sa","cc":"br","latitude":-23.533773,"longitude":-46.62529,"reserved":0,"last_update":"0001-01-01T00:00:00Z","name_a2s":"Uncletopia | São Paulo | 1 | All Maps","protocol":17,"map":"koth_viaduct","folder":"tf","game":"Team Fortress","app_id":440,"player_count":0,"max_players":24,"Bots":0,"server_type":"Dedicated","server_os":"Linux","password":true,"vac":true,"version":"7757534","steam_id":85568392924469996,"keywords":["cp","nocrits","nodmgspread","uncletopia"],"game_id":440,"stv_port":27016,"stv_name":"Uncletopia | São Paulo | 1 | All Maps | STV","players":null},{"server_id":143,"name":"Uncletopia | São Paulo | 2 | All Maps","name_short":"sao-2","host":"sao-2.br.uncletopia.com","port":27015,"enabled":true,"region":"sa","cc":"br","latitude":-23.533773,"longitude":-46.62529,"reserved":0,"last_update":"0001-01-01T00:00:00Z","name_a2s":"Uncletopia | São Paulo | 2 | All Maps","protocol":17,"map":"pl_snowycoast","folder":"tf","game":"Team Fortress","app_id":440,"player_count":2,"max_players":24,"Bots":0,"server_type":"Dedicated","server_os":"Linux","password":true,"vac":true,"version":"7757534","steam_id":85568392924485349,"keywords":["nocrits","nodmgspread","payload","uncletopia"],"game_id":440,"stv_port":27016,"stv_name":"Uncletopia | São Paulo | 2 | All Maps | STV","players":[{"user_id":190,"name":"Vini","steam_id":76561199113916939,"connected_time":521000000000,"state":"active","ping":73},{"user_id":183,"name":"kate ♡","steam_id":76561198805567120,"connected_time":2008000000000,"state":"active","ping":31}]},{"server_id":7,"name":"Uncletopia | Seattle | 1 | All Maps","name_short":"sea-1","host":"sea-1.us.uncletopia.com","port":27015,"enabled":true,"region":"us-west","cc":"us","latitude":47.608013,"longitude":-122.33517,"reserved":0,"last_update":"0001-01-01T00:00:00Z","name_a2s":"Uncletopia | Seattle | 1 | All Maps","protocol":17,"map":"pl_badwater","folder":"tf","game":"Team Fortress","app_id":440,"player_count":24,"max_players":24,"Bots":0,"server_type":"Dedicated","server_os":"Linux","password":true,"vac":true,"version":"7757534","steam_id":85568392924469997,"keywords":["nocrits","nodmgspread","payload","uncletopia"],"game_id":440,"stv_port":27016,"stv_name":"Uncletopia | Seattle | 1 | All Maps | STV","players":[{"user_id":54,"name":"gonurlight","steam_id":76561198935839416,"connected_time":2298000000000,"state":"active","ping":127},{"user_id":85,"name":"Daz","steam_id":76561198041431938,"connected_time":450000000000,"state":"active","ping":120},{"user_id":31,"name":"Julien","steam_id":76561199389584938,"connected_time":3286000000000,"state":"active","ping":30},{"user_id":46,"name":"j4miecl4rk","steam_id":76561198404312721,"connected_time":2810000000000,"state":"active","ping":90},{"user_id":76,"name":"TheGhostThatWas","steam_id":76561198055836483,"connected_time":823000000000,"state":"active","ping":105},{"user_id":84,"name":"derpina","steam_id":76561198025454291,"connected_time":510000000000,"state":"active","ping":44},{"user_id":83,"name":"Shark Sandwich","steam_id":76561198025007938,"connected_time":547000000000,"state":"active","ping":90},{"user_id":82,"name":"pizzalover_2014","steam_id":76561198870649125,"connected_time":632000000000,"state":"active","ping":84},{"user_id":28,"name":"PheebsyDeebsy","steam_id":76561198101509436,"connected_time":3460000000000,"state":"active","ping":62},{"user_id":55,"name":"shane","steam_id":76561198060491451,"connected_time":2265000000000,"state":"active","ping":85},{"user_id":47,"name":"jungus","steam_id":76561198129862008,"connected_time":2707000000000,"state":"active","ping":75},{"user_id":68,"name":"weegeebad","steam_id":76561198280841437,"connected_time":1216000000000,"state":"active","ping":114},{"user_id":78,"name":"Sloppy Joe (Extra Sauce)","steam_id":76561198359703432,"connected_time":795000000000,"state":"active","ping":75},{"user_id":66,"name":"CrazyM3rc","steam_id":76561199025383150,"connected_time":1238000000000,"state":"active","ping":85},{"user_id":34,"name":"swaggdood","steam_id":76561198076173018,"connected_time":3145000000000,"state":"active","ping":69},{"user_id":35,"name":"Ignignokt","steam_id":76561198162207470,"connected_time":3136000000000,"state":"active","ping":68},{"user_id":57,"name":"hunky dory","steam_id":76561198030422254,"connected_time":2257000000000,"state":"active","ping":122},{"user_id":74,"name":"Swag5","steam_id":76561198065311356,"connected_time":869000000000,"state":"active","ping":69},{"user_id":80,"name":"spacetoven","steam_id":76561198115821131,"connected_time":767000000000,"state":"active","ping":74},{"user_id":40,"name":"Mignyanne :3","steam_id":76561198048754056,"connected_time":3048000000000,"state":"active","ping":74},{"user_id":70,"name":"Void","steam_id":76561198308290211,"connected_time":1024000000000,"state":"active","ping":95},{"user_id":73,"name":"zinnk","steam_id":76561198092081825,"connected_time":877000000000,"state":"active","ping":59},{"user_id":52,"name":"lft dw4rf","steam_id":76561198046953937,"connected_time":2304000000000,"state":"active","ping":63},{"user_id":81,"name":"Imnotnuggets","steam_id":76561198886670414,"connected_time":747000000000,"state":"active","ping":86}]},{"server_id":119,"name":"Uncletopia | Seattle | 2 | All Maps","name_short":"sea-2","host":"sea-1.us.uncletopia.com","port":27025,"enabled":true,"region":"us-west","cc":"us","latitude":47.608013,"longitude":-122.33517,"reserved":0,"last_update":"0001-01-01T00:00:00Z","name_a2s":"Uncletopia | Seattle | 2 | All Maps","protocol":17,"map":"koth_viaduct","folder":"tf","game":"Team Fortress","app_id":440,"player_count":4,"max_players":24,"Bots":0,"server_type":"Dedicated","server_os":"Linux","password":true,"vac":true,"version":"7757534","steam_id":85568392924469998,"keywords":["cp","nocrits","nodmgspread","uncletopia"],"game_id":440,"stv_port":27026,"stv_name":"Uncletopia | Seattle | 2 | All Maps | STV","players":[{"user_id":10,"name":"Sho Hidari","steam_id":76561198265391182,"connected_time":486000000000,"state":"active","ping":55},{"user_id":11,"name":"cassius","steam_id":76561198203851303,"connected_time":430000000000,"state":"active","ping":77},{"user_id":12,"name":"uneducated guess","steam_id":76561198140846580,"connected_time":416000000000,"state":"active","ping":105},{"user_id":13,"name":"jas destruction","steam_id":76561199180529573,"connected_time":305000000000,"state":"active","ping":57}]},{"server_id":406,"name":"Uncletopia | Seattle | 3 | Stopwatch Beta","name_short":"sea-3","host":"sea-1.us.uncletopia.com","port":27035,"enabled":true,"region":"us-west","cc":"us","latitude":47.608013,"longitude":-122.33517,"reserved":0,"last_update":"0001-01-01T00:00:00Z","name_a2s":"Uncletopia | Seattle | 3 | Stopwatch Beta","protocol":17,"map":"cp_sunshine","folder":"tf","game":"Team Fortress","app_id":440,"player_count":0,"max_players":24,"Bots":0,"server_type":"Dedicated","server_os":"Linux","password":true,"vac":true,"version":"7757534","steam_id":85568392924515217,"keywords":["cp","nocrits","nodmgspread","uncletopia"],"game_id":440,"stv_port":27036,"stv_name":"Uncletopia | Seattle | 3 | Stopwatch Beta | STV","players":null},{"server_id":17,"name":"Uncletopia | San Francisco | 1 | All Maps","name_short":"sfo-1","host":"sfo-1.us.uncletopia.com","port":27015,"enabled":true,"region":"us-west","cc":"us","latitude":37.77397,"longitude":-122.4313,"reserved":0,"last_update":"0001-01-01T00:00:00Z","name_a2s":"Uncletopia | San Francisco | 1 | All Maps","protocol":17,"map":"cp_dustbowl","folder":"tf","game":"Team Fortress","app_id":440,"player_count":0,"max_players":24,"Bots":0,"server_type":"Dedicated","server_os":"Linux","password":true,"vac":true,"version":"7757534","steam_id":85568392924469999,"keywords":["cp","nocrits","nodmgspread","uncletopia"],"game_id":440,"stv_port":27016,"stv_name":"Uncletopia | San Francisco | 1 | All Maps | STV","players":null},{"server_id":18,"name":"Uncletopia | San Francisco | 2 | All Maps","name_short":"sfo-2","host":"sfo-1.us.uncletopia.com","port":27025,"enabled":true,"region":"us-west","cc":"us","latitude":37.77397,"longitude":-122.4313,"reserved":0,"last_update":"0001-01-01T00:00:00Z","name_a2s":"Uncletopia | San Francisco | 2 | All Maps","protocol":17,"map":"pl_pier","folder":"tf","game":"Team Fortress","app_id":440,"player_count":0,"max_players":24,"Bots":0,"server_type":"Dedicated","server_os":"Linux","password":true,"vac":true,"version":"7757534","steam_id":85568392924470000,"keywords":["nocrits","nodmgspread","payload","uncletopia"],"game_id":440,"stv_port":27026,"stv_name":"Uncletopia | San Francisco | 2 | All Maps | STV","players":null},{"server_id":19,"name":"Uncletopia | San Francisco | 3 | Stopwatch Beta","name_short":"sfo-3","host":"sfo-1.us.uncletopia.com","port":27035,"enabled":true,"region":"us-west","cc":"us","latitude":37.77397,"longitude":-122.4313,"reserved":0,"last_update":"0001-01-01T00:00:00Z","name_a2s":"Uncletopia | San Francisco | 3 | Stopwatch Beta","protocol":17,"map":"koth_viaduct","folder":"tf","game":"Team Fortress","app_id":440,"player_count":0,"max_players":24,"Bots":0,"server_type":"Dedicated","server_os":"Linux","password":true,"vac":true,"version":"7757534","steam_id":85568392924742824,"keywords":["cp","nocrits","nodmgspread","uncletopia"],"game_id":440,"stv_port":27036,"stv_name":"Uncletopia | San Francisco | 3 | Stopwatch Beta | STV","players":null},{"server_id":20,"name":"Uncletopia | San Francisco | 4 | Community","name_short":"sfo-4","host":"sfo-1.us.uncletopia.com","port":27045,"enabled":true,"region":"us-west","cc":"us","latitude":37.77397,"longitude":-122.4313,"reserved":0,"last_update":"0001-01-01T00:00:00Z","name_a2s":"Uncletopia | San Francisco | 4 | Community","protocol":17,"map":"pl_borneo","folder":"tf","game":"Team Fortress","app_id":440,"player_count":0,"max_players":24,"Bots":0,"server_type":"Dedicated","server_os":"Linux","password":true,"vac":true,"version":"7757534","steam_id":85568392924742826,"keywords":["nocrits","nodmgspread","payload","uncletopia"],"game_id":440,"stv_port":27046,"stv_name":"Uncletopia | San Francisco | 4 | Community | STV","players":null},{"server_id":141,"name":"Uncletopia | Sydney | 1 | All Maps","name_short":"syd-1","host":"syd-1.au.uncletopia.com","port":27015,"enabled":true,"region":"au","cc":"au","latitude":-33.865143,"longitude":151.2099,"reserved":0,"last_update":"0001-01-01T00:00:00Z","name_a2s":"Uncletopia | Sydney | 1 | All Maps","protocol":17,"map":"koth_lakeside_final","folder":"tf","game":"Team Fortress","app_id":440,"player_count":0,"max_players":24,"Bots":0,"server_type":"Dedicated","server_os":"Linux","password":true,"vac":true,"version":"7757534","steam_id":85568392924470001,"keywords":["cp","nocrits","nodmgspread","uncletopia"],"game_id":440,"stv_port":27016,"stv_name":"Uncletopia | Sydney | 1 | All Maps | STV","players":null},{"server_id":123,"name":"Uncletopia | Sydney | 2 | All Maps","name_short":"syd-2","host":"syd-1.au.uncletopia.com","port":27025,"enabled":true,"region":"au","cc":"au","latitude":-33.865143,"longitude":151.2099,"reserved":0,"last_update":"0001-01-01T00:00:00Z","name_a2s":"Uncletopia | Sydney | 2 | All Maps","protocol":17,"map":"koth_viaduct","folder":"tf","game":"Team Fortress","app_id":440,"player_count":0,"max_players":24,"Bots":0,"server_type":"Dedicated","server_os":"Linux","password":true,"vac":true,"version":"7757534","steam_id":85568392924470002,"keywords":["cp","nocrits","nodmgspread","uncletopia"],"game_id":440,"stv_port":27026,"stv_name":"Uncletopia | Sydney | 2 | All Maps | STV","players":null},{"server_id":395,"name":"Uncletopia | Sydney | 3 | All Maps","name_short":"syd-3","host":"syd-1.au.uncletopia.com","port":27035,"enabled":true,"region":"au","cc":"au","latitude":-33.865143,"longitude":151.2099,"reserved":0,"last_update":"0001-01-01T00:00:00Z","name_a2s":"Uncletopia | Sydney | 3 | All Maps","protocol":17,"map":"koth_viaduct","folder":"tf","game":"Team Fortress","app_id":440,"player_count":0,"max_players":24,"Bots":0,"server_type":"Dedicated","server_os":"Linux","password":true,"vac":true,"version":"7757534","steam_id":85568392925194467,"keywords":["cp","nocrits","nodmgspread","uncletopia"],"game_id":440,"stv_port":27036,"stv_name":"Uncletopia | Sydney | 3 | All Maps | STV","players":null},{"server_id":396,"name":"Uncletopia | Sydney | 4 | All Maps","name_short":"syd-4","host":"syd-1.au.uncletopia.com","port":27045,"enabled":true,"region":"au","cc":"au","latitude":-33.865143,"longitude":151.2099,"reserved":0,"last_update":"0001-01-01T00:00:00Z","name_a2s":"Uncletopia | Sydney | 4 | All Maps","protocol":17,"map":"cp_snakewater_final1","folder":"tf","game":"Team Fortress","app_id":440,"player_count":0,"max_players":24,"Bots":0,"server_type":"Dedicated","server_os":"Linux","password":true,"vac":true,"version":"7757534","steam_id":85568392925397958,"keywords":["cp","nocrits","nodmgspread","uncletopia"],"game_id":440,"stv_port":27046,"stv_name":"Uncletopia | Sydney | 4 | All Maps | STV","players":null},{"server_id":58,"name":"Uncletopia | Sydney | 5 | Stopwatch Beta","name_short":"syd-5","host":"syd-1.au.uncletopia.com","port":27055,"enabled":true,"region":"au","cc":"au","latitude":-33.865143,"longitude":151.2099,"reserved":0,"last_update":"0001-01-01T00:00:00Z","name_a2s":"Uncletopia | Sydney | 5 | Stopwatch Beta","protocol":17,"map":"pl_barnblitz","folder":"tf","game":"Team Fortress","app_id":440,"player_count":0,"max_players":24,"Bots":0,"server_type":"Dedicated","server_os":"Linux","password":true,"vac":true,"version":"7757534","steam_id":85568392925397959,"keywords":["nocrits","nodmgspread","payload","uncletopia"],"game_id":440,"stv_port":27056,"stv_name":"Uncletopia | Sydney | 5 | Stopwatch Beta | STV","players":null},{"server_id":59,"name":"Uncletopia | Sydney | 6 | Community","name_short":"syd-6","host":"syd-1.au.uncletopia.com","port":27065,"enabled":true,"region":"au","cc":"au","latitude":-33.865143,"longitude":151.2099,"reserved":0,"last_update":"0001-01-01T00:00:00Z","name_a2s":"Uncletopia | Sydney | 6 | Community","protocol":17,"map":"workshop/pl_vigil_rc9.ugc1266210012","folder":"tf","game":"Team Fortress","app_id":440,"player_count":0,"max_players":24,"Bots":0,"server_type":"Dedicated","server_os":"Linux","password":true,"vac":true,"version":"7757534","steam_id":85568392925397960,"keywords":["nocrits","nodmgspread","payload","uncletopia"],"game_id":440,"stv_port":27066,"stv_name":"Uncletopia | Sydney | 6 | Community | STV","players":null},{"server_id":49,"name":"Uncletopia | Warsaw | 1 | All Maps","name_short":"waw-1","host":"waw-1.pl.uncletopia.com","port":27015,"enabled":true,"region":"eu","cc":"pl","latitude":52.2297,"longitude":21.017532,"reserved":0,"last_update":"0001-01-01T00:00:00Z","name_a2s":"","protocol":0,"map":"","folder":"","game":"","app_id":0,"player_count":0,"max_players":0,"Bots":0,"server_type":"","server_os":"","password":false,"vac":false,"version":"","steam_id":0,"keywords":null,"game_id":0,"stv_port":0,"stv_name":"","players":null},{"server_id":50,"name":"Uncletopia | Warsaw | 2 | All Maps","name_short":"waw-2","host":"waw-1.pl.uncletopia.com","port":27025,"enabled":true,"region":"eu","cc":"pl","latitude":52.2297,"longitude":21.017532,"reserved":0,"last_update":"0001-01-01T00:00:00Z","name_a2s":"Uncletopia | Warsaw | 2 | All Maps","protocol":17,"map":"pl_borneo","folder":"tf","game":"Team Fortress","app_id":440,"player_count":0,"max_players":24,"Bots":0,"server_type":"Dedicated","server_os":"Linux","password":true,"vac":true,"version":"7757534","steam_id":85568392925397851,"keywords":["nocrits","nodmgspread","payload","uncletopia"],"game_id":440,"stv_port":27026,"stv_name":"Uncletopia | Warsaw | 2 | All Maps | STV","players":null},{"server_id":51,"name":"Uncletopia | Warsaw | 3 | All Maps","name_short":"waw-3","host":"waw-1.pl.uncletopia.com","port":27035,"enabled":true,"region":"eu","cc":"pl","latitude":52.2297,"longitude":21.017532,"reserved":0,"last_update":"0001-01-01T00:00:00Z","name_a2s":"Uncletopia | Warsaw | 3 | All Maps","protocol":17,"map":"koth_viaduct","folder":"tf","game":"Team Fortress","app_id":440,"player_count":0,"max_players":24,"Bots":0,"server_type":"Dedicated","server_os":"Linux","password":true,"vac":true,"version":"7757534","steam_id":85568392925397852,"keywords":["cp","nocrits","nodmgspread","uncletopia"],"game_id":440,"stv_port":27036,"stv_name":"Uncletopia | Warsaw | 3 | All Maps | STV","players":null},{"server_id":52,"name":"Uncletopia | Warsaw | 4 | All Maps","name_short":"waw-4","host":"waw-1.pl.uncletopia.com","port":27045,"enabled":true,"region":"eu","cc":"pl","latitude":52.2297,"longitude":21.017532,"reserved":0,"last_update":"0001-01-01T00:00:00Z","name_a2s":"Uncletopia | Warsaw | 4 | All Maps","protocol":17,"map":"koth_highpass","folder":"tf","game":"Team Fortress","app_id":440,"player_count":0,"max_players":24,"Bots":0,"server_type":"Dedicated","server_os":"Linux","password":true,"vac":true,"version":"7757534","steam_id":85568392925397853,"keywords":["cp","nocrits","nodmgspread","uncletopia"],"game_id":440,"stv_port":27046,"stv_name":"Uncletopia | Warsaw | 4 | All Maps | STV","players":null},{"server_id":53,"name":"Uncletopia | Warsaw | 5 | Stopwatch Beta","name_short":"waw-5","host":"waw-1.pl.uncletopia.com","port":27055,"enabled":true,"region":"eu","cc":"pl","latitude":52.2297,"longitude":21.017532,"reserved":0,"last_update":"0001-01-01T00:00:00Z","name_a2s":"Uncletopia | Warsaw | 5 | Stopwatch Beta","protocol":17,"map":"pl_upward","folder":"tf","game":"Team Fortress","app_id":440,"player_count":0,"max_players":24,"Bots":0,"server_type":"Dedicated","server_os":"Linux","password":true,"vac":true,"version":"7757534","steam_id":85568392925397854,"keywords":["nocrits","nodmgspread","payload","uncletopia"],"game_id":440,"stv_port":27056,"stv_name":"Uncletopia | Warsaw | 5 | Stopwatch Beta | STV","players":null},{"server_id":54,"name":"Uncletopia | Warsaw | 6 | Community","name_short":"waw-6","host":"waw-1.pl.uncletopia.com","port":27065,"enabled":true,"region":"eu","cc":"pl","latitude":52.2297,"longitude":21.017532,"reserved":0,"last_update":"0001-01-01T00:00:00Z","name_a2s":"Uncletopia | Warsaw | 6 | Community","protocol":17,"map":"workshop/koth_synthetic_rc6a.ugc1549817316","folder":"tf","game":"Team Fortress","app_id":440,"player_count":0,"max_players":24,"Bots":0,"server_type":"Dedicated","server_os":"Linux","password":true,"vac":true,"version":"7757534","steam_id":85568392925397856,"keywords":["cp","nocrits","nodmgspread","uncletopia"],"game_id":440,"stv_port":27066,"stv_name":"Uncletopia | Warsaw | 6 | Community | STV","players":null}]}