{"status":true,"message":"","result":[{"server_id":9,"name":"Uncletopia | Atlanta | 1 | All Maps","name_short":"atl-1","host":"atl-1.us.uncletopia.com","port":27015,"enabled":true,"region":"us-east","cc":"us","latitude":33.753746,"longitude":-84.38633,"reserved":0,"last_update":"0001-01-01T00:00:00Z","name_a2s":"Uncletopia | Atlanta | 1 | All Maps","protocol":17,"map":"cp_dustbowl","folder":"tf","game":"Team Fortress","app_id":440,"player_count":0,"max_players":24,"Bots":0,"server_type":"Dedicated","server_os":"Linux","password":true,"vac":true,"version":"7742253","steam_id":85568392924469982,"keywords":["cp","nocrits","nodmgspread","uncletopia"],"game_id":440,"stv_port":27016,"stv_name":"Uncletopia | Atlanta | 1 | All Maps | STV","players":null},{"server_id":400,"name":"Uncletopia | Atlanta | 3 | Stopwatch Beta","name_short":"atl-3","host":"atl-1.us.uncletopia.com","port":27035,"enabled":true,"region":"us-east","cc":"us","latitude":33.753746,"longitude":-84.38633,"reserved":0,"last_update":"0001-01-01T00:00:00Z","name_a2s":"Uncletopia | Atlanta | 3 | Stopwatch Beta","protocol":17,"map":"pl_upward","folder":"tf","game":"Team Fortress","app_id":440,"player_count":0,"max_players":24,"Bots":0,"server_type":"Dedicated","server_os":"Linux","password":true,"vac":true,"version":"7742253","steam_id":85568392924515187,"keywords":["nocrits","nodmgspread","payload","uncletopia"],"game_id":440,"stv_port":27036,"stv_name":"Uncletopia | Atlanta | 3 | Stopwatch Beta | STV","players":null},{"server_id":401,"name":"Uncletopia | Atlanta | 4 | No Payload","name_short":"atl-4","host":"atl-1.us.uncletopia.com","port":27045,"enabled":true,"region":"us-east","cc":"us","latitude":33.753746,"longitude":-84.38633,"reserved":0,"last_update":"0001-01-01T00:00:00Z","name_a2s":"Uncletopia | Atlanta | 4 | No Payload","protocol":17,"map":"pl_pier","folder":"tf","game":"Team Fortress","app_id":440,"player_count":0,"max_players":24,"Bots":0,"server_type":"Dedicated","server_os":"Linux","password":true,"vac":true,"version":"7723704","steam_id":85568392924515188,"keywords":["nocrits","nodmgspread","payload","uncletopia"],"game_id":440,"stv_port":27046,"stv_name":"Uncletopia | Atlanta | 4 | No Payload | STV","players":null},{"server_id":2,"name":"Uncletopia | Chicago | 1 | All Maps","name_short":"chi-1","host":"chi-1.us.uncletopia.com","port":27015,"enabled":true,"region":"us-central","cc":"us","latitude":41.881832,"longitude":-87.62318,"reserved":0,"last_update":"0001-01-01T00:00:00Z","name_a2s":"Uncletopia | Chicago | 1 | All Maps","protocol":17,"map":"koth_viaduct","folder":"tf","game":"Team Fortress","app_id":440,"player_count":0,"max_players":24,"Bots":0,"server_type":"Dedicated","server_os":"Linux","password":true,"vac":true,"version":"7742253","steam_id":85568392924469984,"keywords":["cp","nocrits","nodmgspread","uncletopia"],"game_id":440,"stv_port":27016,"stv_name":"Uncletopia | Chicago | 1 | All Maps | STV","players":null},{"server_id":106,"name":"Uncletopia | Chicago | 2 | All Maps","name_short":"chi-2","host":"chi-1.us.uncletopia.com","port":27025,"enabled":true,"region":"us-central","cc":"us","latitude":41.881832,"longitude":-87.62318,"reserved":0,"last_update":"0001-01-01T00:00:00Z","name_a2s":"Uncletopia | Chicago | 2 | All Maps","protocol":17,"map":"pl_borneo","folder":"tf","game":"Team Fortress","app_id":440,"player_count":0,"max_players":24,"Bots":0,"server_type":"Dedicated","server_os":"Linux","password":true,"vac":true,"version":"7742253","steam_id":85568392924469985,"keywords":["nocrits","nodmgspread","payload","uncletopia"],"game_id":440,"stv_port":27026,"stv_name":"Uncletopia | Chicago | 2 | All Maps | STV","players":null},{"server_id":402,"name":"Uncletopia | Chicago | 3 | All Maps","name_short":"chi-3","host":"chi-1.us.uncletopia.com","port":27035,"enabled":true,"region":"us-central","cc":"us","latitude":41.881832,"longitude":-87.62318,"reserved":0,"last_update":"0001-01-01T00:00:00Z","name_a2s":"Uncletopia | Chicago | 3 | All Maps","protocol":17,"map":"koth_cascade","folder":"tf","game":"Team Fortress","app_id":440,"player_count":0,"max_players":24,"Bots":0,"server_type":"Dedicated","server_os":"Linux","password":true,"vac":true,"version":"7742253","steam_id":85568392924515191,"keywords":["cp","nocrits","nodmgspread","uncletopia"],"game_id":440,"stv_port":27036,"stv_name":"Uncletopia | Chicago | 3 | All Maps | STV","players":null},{"server_id":403,"name":"Uncletopia | Chicago | 4 | All Maps","name_short":"chi-4","host":"chi-1.us.uncletopia.com","port":27045,"enabled":true,"region":"us-central","cc":"us","latitude":41.881832,"longitude":-87.62318,"reserved":0,"last_update":"0001-01-01T00:00:00Z","name_a2s":"Uncletopia | Chicago | 4 | All Maps","protocol":17,"map":"pl_frontier_final","folder":"tf","game":"Team Fortress","app_id":440,"player_count":8,"max_players":24,"Bots":0,"server_type":"Dedicated","server_os":"Linux","password":true,"vac":true,"version":"7742253","steam_id":85568392924515193,"keywords":["nocrits","nodmgspread","payload","uncletopia"],"game_id":440,"stv_port":27046,"stv_name":"Uncletopia | Chicago | 4 | All Maps | STV","players":[{"user_id":723,"name":"foul magician","steam_id":76561199074875663,"connected_time":1892000000000,"state":"active","ping":74},{"user_id":725,"name":"A Pair of Candy Canes","steam_id":76561198052239472,"connected_time":1560000000000,"state":"active","ping":91},{"user_id":727,"name":"Shawty","steam_id":76561198256704286,"connected_time":1386000000000,"state":"active","ping":147},{"user_id":728,"name":"Withur From My Singing Monsters","steam_id":76561198272471440,"connected_time":1275000000000,"state":"active","ping":67},{"user_id":681,"name":"Umami Socks","steam_id":76561198062688146,"connected_time":5793000000000,"state":"active","ping":126},{"user_id":731,"name":"Kleine","steam_id":76561198042556857,"connected_time":517000000000,"state":"active","ping":46},{"user_id":672,"name":"RelatableiLLness","steam_id":76561198441669772,"connected_time":6385000000000,"state":"active","ping":71},{"user_id":699,"name":"ultralisk52","steam_id":76561198051666604,"connected_time":5120000000000,"state":"active","ping":56}]},{"server_id":36,"name":"Uncletopia | Chicago | 5 | All Maps","name_short":"chi-5","host":"chi-2.us.uncletopia.com","port":27015,"enabled":true,"region":"us-central","cc":"us","latitude":41.881832,"longitude":-87.62318,"reserved":0,"last_update":"0001-01-01T00:00:00Z","name_a2s":"Uncletopia | Chicago | 5 | All Maps","protocol":17,"map":"cp_sunshine","folder":"tf","game":"Team Fortress","app_id":440,"player_count":24,"max_players":24,"Bots":0,"server_type":"Dedicated","server_os":"Linux","password":true,"vac":true,"version":"7742253","steam_id":85568392924866362,"keywords":["cp","nocrits","nodmgspread","uncletopia"],"game_id":440,"stv_port":27016,"stv_name":"Uncletopia | Chicago | 5 | All Maps | STV","players":[{"user_id":443,"name":"monke","steam_id":76561199056441921,"connected_time":878000000000,"state":"active","ping":161},{"user_id":440,"name":"Old Geezer","steam_id":76561198312363401,"connected_time":1121000000000,"state":"active","ping":86},{"user_id":397,"name":"Noobot9k","steam_id":76561198067338651,"connected_time":3901000000000,"state":"active","ping":61},{"user_id":398,"name":"Am I Good At The Video Game?","steam_id":76561198046053281,"connected_time":3885000000000,"state":"active","ping":74},{"user_id":450,"name":"potateking","steam_id":76561198066579830,"connected_time":213000000000,"state":"active","ping":155},{"user_id":409,"name":"twitch.tv/ladyloki_ch","steam_id":76561198280150602,"connected_time":3147000000000,"state":"active","ping":107},{"user_id":451,"name":"Souper Scott","steam_id":76561198045518926,"connected_time":161000000000,"state":"active","ping":56},{"user_id":446,"name":"Bonk Nickeltoon","steam_id":76561198027738883,"connected_time":651000000000,"state":"active","ping":54},{"user_id":389,"name":"That Guy","steam_id":76561197997444126,"connected_time":4750000000000,"state":"active","ping":91},{"user_id":376,"name":"sly1","steam_id":76561198049014977,"connected_time":5828000000000,"state":"active","ping":67},{"user_id":447,"name":"Gompose","steam_id":76561198106140891,"connected_time":490000000000,"state":"active","ping":75},{"user_id":439,"name":"viedoamegs","steam_id":76561198025295263,"connected_time":1217000000000,"state":"active","ping":82},{"user_id":427,"name":"SpicyRic3","steam_id":76561199133718623,"connected_time":2438000000000,"state":"active","ping":116},{"user_id":426,"name":"triangleman","steam_id":76561198972733542,"connected_time":2447000000000,"state":"active","ping":61},{"user_id":435,"name":"cracklover","steam_id":76561199157767640,"connected_time":1597000000000,"state":"active","ping":76},{"user_id":378,"name":"cheese (?)","steam_id":76561198232500756,"connected_time":5803000000000,"state":"active","ping":80},{"user_id":416,"name":"Warzard","steam_id":76561199154051413,"connected_time":2836000000000,"state":"active","ping":105},{"user_id":437,"name":"Ta5K","steam_id":76561198939558155,"connected_time":1364000000000,"state":"active","ping":45},{"user_id":444,"name":"Blargh","steam_id":76561198044095816,"connected_time":742000000000,"state":"active","ping":60},{"user_id":419,"name":"Frisk","steam_id":76561198052242537,"connected_time":2719000000000,"state":"active","ping":82},{"user_id":441,"name":"da rotten orange","steam_id":76561198064374380,"connected_time":1118000000000,"state":"active","ping":118},{"user_id":442,"name":"Flacko","steam_id":76561198018565211,"connected_time":1105000000000,"state":"active","ping":110},{"user_id":448,"name":"ONETAPMAN","steam_id":76561198195996071,"connected_time":431000000000,"state":"active","ping":67},{"user_id":449,"name":"Chuck Finley","steam_id":76561198027411284,"connected_time":429000000000,"state":"active","ping":72}]},{"server_id":37,"name":"Uncletopia | Chicago | 6 | All Maps","name_short":"chi-6","host":"chi-2.us.uncletopia.com","port":27025,"enabled":true,"region":"us-central","cc":"us","latitude":41.881832,"longitude":-87.62318,"reserved":0,"last_update":"0001-01-01T00:00:00Z","name_a2s":"Uncletopia | Chicago | 6 | All Maps","protocol":17,"map":"pl_upward","folder":"tf","game":"Team Fortress","app_id":440,"player_count":19,"max_players":24,"Bots":0,"server_type":"Dedicated","server_os":"Linux","password":true,"vac":true,"version":"7742253","steam_id":85568392924866363,"keywords":["nocrits","nodmgspread","payload","uncletopia"],"game_id":440,"stv_port":27026,"stv_name":"Uncletopia | Chicago | 6 | All Maps | STV","players":[{"user_id":722,"name":"gwendolyn","steam_id":76561198154719104,"connected_time":3795000000000,"state":"active","ping":62},{"user_id":685,"name":"Carbon8ed","steam_id":76561198188488341,"connected_time":6096000000000,"state":"active","ping":58},{"user_id":751,"name":"ExplosiveGamer21","steam_id":76561198132370955,"connected_time":593000000000,"state":"active","ping":108},{"user_id":748,"name":"srv","steam_id":76561198026589960,"connected_time":753000000000,"state":"active","ping":47},{"user_id":758,"name":"Lemonty","steam_id":76561198163812778,"connected_time":78000000000,"state":"active","ping":61},{"user_id":662,"name":"MisterDanny8","steam_id":76561198048847182,"connected_time":8290000000000,"state":"active","ping":59},{"user_id":742,"name":"a mi manera","steam_id":76561198195141221,"connected_time":1010000000000,"state":"active","ping":87},{"user_id":636,"name":"radicalPolio","steam_id":76561197961561855,"connected_time":10350000000000,"state":"active","ping":68},{"user_id":759,"name":"Antreuse","steam_id":76561198219721132,"connected_time":41000000000,"state":"active","ping":112},{"user_id":736,"name":"Xx_TNTRED_xX","steam_id":76561198357704703,"connected_time":2094000000000,"state":"active","ping":176},{"user_id":741,"name":"conductor i have a problem","steam_id":76561198140231083,"connected_time":1241000000000,"state":"active","ping":111},{"user_id":706,"name":"Snazzi","steam_id":76561198085208276,"connected_time":4974000000000,"state":"active","ping":86},{"user_id":735,"name":"yumyum","steam_id":76561198150567198,"connected_time":2181000000000,"state":"active","ping":59},{"user_id":755,"name":"Nz17 #StandWithUkraine","steam_id":76561197978221503,"connected_time":435000000000,"state":"active","ping":77},{"user_id":687,"name":"ZplitZ","steam_id":76561198093629868,"connected_time":5975000000000,"state":"active","ping":51},{"user_id":757,"name":"scumbag.","steam_id":76561197974524214,"connected_time":170000000000,"state":"active","ping":108},{"user_id":754,"name":"Mooksie","steam_id":76561198073074064,"connected_time":447000000000,"state":"active","ping":74},{"user_id":708,"name":"febfowl","steam_id":76561198023888890,"connected_time":4926000000000,"state":"active","ping":86},{"user_id":717,"name":"marilyn","steam_id":76561198096738991,"connected_time":4645000000000,"state":"active","ping":87}]},{"server_id":38,"name":"Uncletopia | Chicago | 7 | Stopwatch Beta","name_short":"chi-7","host":"chi-2.us.uncletopia.com","port":27035,"enabled":true,"region":"us-central","cc":"us","latitude":41.881832,"longitude":-87.62318,"reserved":0,"last_update":"0001-01-01T00:00:00Z","name_a2s":"Uncletopia | Chicago | 7 | Stopwatch Beta","protocol":17,"map":"pl_upward","folder":"tf","game":"Team Fortress","app_id":440,"player_count":0,"max_players":24,"Bots":0,"server_type":"Dedicated","server_os":"Linux","password":true,"vac":true,"version":"7742253","steam_id":85568392924866364,"keywords":["nocrits","nodmgspread","payload","uncletopia"],"game_id":440,"stv_port":27036,"stv_name":"Uncletopia | Chicago | 7 | Stopwatch Beta | STV","players":null},{"server_id":39,"name":"Uncletopia | Chicago | 8 | Community","name_short":"chi-8","host":"chi-2.us.uncletopia.com","port":27045,"enabled":true,"region":"us-central","cc":"us","latitude":41.881832,"longitude":-87.62318,"reserved":0,"last_update":"0001-01-01T00:00:00Z","name_a2s":"Uncletopia | Chicago | 8 | Community","protocol":17,"map":"workshop/koth_product_final.ugc454272353","folder":"tf","game":"Team Fortress","app_id":440,"player_count":0,"max_players":24,"Bots":0,"server_type":"Dedicated","server_os":"Linux","password":true,"vac":true,"version":"7742253","steam_id":85568392924866365,"keywords":["cp","nocrits","nodmgspread","uncletopia"],"game_id":440,"stv_port":27046,"stv_name":"Uncletopia | Chicago | 8 | Community | STV","players":null},{"server_id":8,"name":"Uncletopia | Dallas | 1 | All Maps","name_short":"dal-1","host":"dal-1.us.uncletopia.com","port":27015,"enabled":true,"region":"us-central","cc":"us","latitude":32.779167,"longitude":-96.80889,"reserved":0,"last_update":"0001-01-01T00:00:00Z","name_a2s":"Uncletopia | Dallas | 1 | All Maps","protocol":17,"map":"cp_sunshine","folder":"tf","game":"Team Fortress","app_id":440,"player_count":0,"max_players":24,"Bots":0,"server_type":"Dedicated","server_os":"Linux","password":true,"vac":true,"version":"7742253","steam_id":85568392924469986,"keywords":["cp","nocrits","nodmgspread","uncletopia"],"game_id":440,"stv_port":27016,"stv_name":"Uncletopia | Dallas | 1 | All Maps | STV","players":null},{"server_id":108,"name":"Uncletopia | Dallas | 2 | All Maps","name_short":"dal-2","host":"dal-1.us.uncletopia.com","port":27025,"enabled":true,"region":"us-central","cc":"us","latitude":32.779167,"longitude":-96.80889,"reserved":0,"last_update":"0001-01-01T00:00:00Z","name_a2s":"Uncletopia | Dallas | 2 | All Maps","protocol":17,"map":"cp_altitude","folder":"tf","game":"Team Fortress","app_id":440,"player_count":0,"max_players":24,"Bots":0,"server_type":"Dedicated","server_os":"Linux","password":true,"vac":true,"version":"7742253","steam_id":85568392924469988,"keywords":["cp","nocrits","nodmgspread","uncletopia"],"game_id":440,"stv_port":27026,"stv_name":"Uncletopia | Dallas | 2 | All Maps | STV","players":null},{"server_id":5,"name":"Uncletopia | Frankfurt | 1 | All Maps","name_short":"frk-1","host":"frk-1.de.uncletopia.com","port":27015,"enabled":true,"region":"eu","cc":"de","latitude":50.110924,"longitude":8.682127,"reserved":0,"last_update":"0001-01-01T00:00:00Z","name_a2s":"Uncletopia | Frankfurt | 1 | All Maps","protocol":17,"map":"pl_frontier_final","folder":"tf","game":"Team Fortress","app_id":440,"player_count":24,"max_players":24,"Bots":0,"server_type":"Dedicated","server_os":"Linux","password":true,"vac":true,"version":"7742253","steam_id":85568392924469989,"keywords":["nocrits","nodmgspread","payload","uncletopia"],"game_id":440,"stv_port":27016,"stv_name":"Uncletopia | Frankfurt | 1 | All Maps | STV","players":[{"user_id":82,"name":"Umbro","steam_id":76561198087930438,"connected_time":1013000000000,"state":"active","ping":75},{"user_id":83,"name":"duster cat","steam_id":76561198832231975,"connected_time":955000000000,"state":"active","ping":90},{"user_id":43,"name":"geese","steam_id":76561198944578383,"connected_time":2279000000000,"state":"active","ping":96},{"user_id":86,"name":"potestas subversae","steam_id":76561198417999443,"connected_time":760000000000,"state":"active","ping":96},{"user_id":41,"name":"Утилизатор","steam_id":76561198001490104,"connected_time":2366000000000,"state":"active","ping":101},{"user_id":90,"name":"Platform666","steam_id":76561198314266851,"connected_time":188000000000,"state":"active","ping":93},{"user_id":79,"name":"DogBazooka23","steam_id":76561198251943518,"connected_time":1252000000000,"state":"active","ping":46},{"user_id":68,"name":"Virgil","steam_id":76561198248786778,"connected_time":1743000000000,"state":"active","ping":115},{"user_id":78,"name":"тукку ирма","steam_id":76561197998715016,"connected_time":1474000000000,"state":"active","ping":60},{"user_id":45,"name":"Izzermann","steam_id":76561199100131945,"connected_time":2204000000000,"state":"active","ping":46},{"user_id":46,"name":"nop 21","steam_id":76561198331641220,"connected_time":2176000000000,"state":"active","ping":59},{"user_id":87,"name":"black queer santa","steam_id":76561198040241299,"connected_time":438000000000,"state":"active","ping":64},{"user_id":48,"name":"TTV/pablo_ricco","steam_id":76561198279839318,"connected_time":2147000000000,"state":"active","ping":82},{"user_id":75,"name":"beurgeur","steam_id":76561198872426314,"connected_time":1596000000000,"state":"active","ping":45},{"user_id":63,"name":"Rezkey","steam_id":76561198206079048,"connected_time":1826000000000,"state":"active","ping":59},{"user_id":72,"name":"Salmiakki","steam_id":76561198061510276,"connected_time":1667000000000,"state":"active","ping":70},{"user_id":61,"name":"Amon Gus","steam_id":76561199094540960,"connected_time":1884000000000,"state":"active","ping":59},{"user_id":91,"name":"Maximus","steam_id":76561198032472655,"connected_time":144000000000,"state":"active","ping":56},{"user_id":70,"name":"ѕн ٠ Vae Victoribus","steam_id":76561198007178266,"connected_time":1698000000000,"state":"active","ping":61},{"user_id":92,"name":"Pyr0s_Fx","steam_id":76561198057201503,"connected_time":93000000000,"state":"active","ping":62},{"user_id":74,"name":"yasser","steam_id":76561198103973320,"connected_time":1625000000000,"state":"active","ping":106},{"user_id":76,"name":"Boyarishnik","steam_id":76561198986324207,"connected_time":1559000000000,"state":"active","ping":81},{"user_id":77,"name":"Guru","steam_id":76561198093853069,"connected_time":1532000000000,"state":"active","ping":60},{"user_id":81,"name":"EasyName","steam_id":76561198351836689,"connected_time":1062000000000,"state":"active","ping":101}]},{"server_id":110,"name":"Uncletopia | Frankfurt | 2 | All Maps","name_short":"frk-2","host":"frk-1.de.uncletopia.com","port":27025,"enabled":true,"region":"eu","cc":"de","latitude":50.110924,"longitude":8.682127,"reserved":0,"last_update":"0001-01-01T00:00:00Z","name_a2s":"Uncletopia | Frankfurt | 2 | All Maps","protocol":17,"map":"pl_swiftwater_final1","folder":"tf","game":"Team Fortress","app_id":440,"player_count":10,"max_players":24,"Bots":0,"server_type":"Dedicated","server_os":"Linux","password":true,"vac":true,"version":"7742253","steam_id":85568392924469990,"keywords":["nocrits","nodmgspread","payload","uncletopia"],"game_id":440,"stv_port":27026,"stv_name":"Uncletopia | Frankfurt | 2 | All Maps | STV","players":[{"user_id":4,"name":"tree__dude","steam_id":76561198975762241,"connected_time":565000000000,"state":"active","ping":104},{"user_id":5,"name":"tealoverr.190","steam_id":76561199028497703,"connected_time":455000000000,"state":"active","ping":90},{"user_id":9,"name":"steel_v41","steam_id":76561199014781716,"connected_time":247000000000,"state":"active","ping":65},{"user_id":7,"name":"fried","steam_id":76561198307522022,"connected_time":391000000000,"state":"active","ping":51},{"user_id":8,"name":"randomoneye","steam_id":76561199380157176,"connected_time":315000000000,"state":"active","ping":72},{"user_id":10,"name":"Начальник","steam_id":76561198422028453,"connected_time":123000000000,"state":"active","ping":82},{"user_id":11,"name":"nqwku","steam_id":76561198450451704,"connected_time":107000000000,"state":"active","ping":76},{"user_id":12,"name":"ɘƚɒ⅃ɘƚɒ⅃ /./ =)(= \\.\\","steam_id":76561198053339372,"connected_time":84000000000,"state":"active","ping":53},{"user_id":13,"name":"Creamy","steam_id":76561198063907478,"connected_time":26000000000,"state":"active","ping":59},{"user_id":14,"name":"dogwater69","steam_id":76561198058366676,"connected_time":9000000000,"state":"spawning","ping":90}]},{"server_id":308,"name":"Uncletopia | Frankfurt | 3 | All Maps","name_short":"frk-3","host":"frk-1.de.uncletopia.com","port":27035,"enabled":true,"region":"eu","cc":"de","latitude":50.110924,"longitude":8.682127,"reserved":0,"last_update":"0001-01-01T00:00:00Z","name_a2s":"Uncletopia | Frankfurt | 3 | All Maps","protocol":17,"map":"pl_upward","folder":"tf","game":"Team Fortress","app_id":440,"player_count":0,"max_players":24,"Bots":0,"server_type":"Dedicated","server_os":"Linux","password":true,"vac":true,"version":"7742253","steam_id":85568392924504274,"keywords":["nocrits","nodmgspread","payload","uncletopia"],"game_id":440,"stv_port":27036,"stv_name":"Uncletopia | Frankfurt | 3 | All Maps | STV","players":null},{"server_id":309,"name":"Uncletopia | Frankfurt | 4 | All Maps","name_short":"frk-4","host":"frk-1.de.uncletopia.com","port":27045,"enabled":true,"region":"eu","cc":"de","latitude":50.110924,"longitude":8.682127,"reserved":0,"last_update":"0001-01-01T00:00:00Z","name_a2s":"Uncletopia | Frankfurt | 4 | All Maps","protocol":17,"map":"pl_badwater","folder":"tf","game":"Team Fortress","app_id":440,"player_count":0,"max_players":24,"Bots":0,"server_type":"Dedicated","server_os":"Linux","password":true,"vac":true,"version":"7742253","steam_id":85568392924504275,"keywords":["nocrits","nodmgspread","payload","uncletopia"],"game_id":440,"stv_port":27046,"stv_name":"Uncletopia | Frankfurt | 4 | All Maps | STV","players":null},{"server_id":310,"name":"Uncletopia | Frankfurt | 5 | All Maps","name_short":"frk-5","host":"frk-1.de.uncletopia.com","port":27055,"enabled":true,"region":"eu","cc":"de","latitude":50.110924,"longitude":8.682127,"reserved":0,"last_update":"0001-01-01T00:00:00Z","name_a2s":"Uncletopia | Frankfurt | 5 | All Maps","protocol":17,"map":"cp_sunshine","folder":"tf","game":"Team Fortress","app_id":440,"player_count":0,"max_players":24,"Bots":0,"server_type":"Dedicated","server_os":"Linux","password":true,"vac":true,"version":"7742253","steam_id":85568392924504277,"keywords":["cp","nocrits","nodmgspread","uncletopia"],"game_id":440,"stv_port":27056,"stv_name":"Uncletopia | Frankfurt | 5 | All Maps | STV","players":null},{"server_id":311,"name":"Uncletopia | Frankfurt | 6 | All Maps","name_short":"frk-6","host":"frk-1.de.uncletopia.com","port":27065,"enabled":true,"region":"eu","cc":"de","latitude":50.110924,"longitude":8.682127,"reserved":0,"last_update":"0001-01-01T00:00:00Z","name_a2s":"Uncletopia | Frankfurt | 6 | All Maps","protocol":17,"map":"koth_lakeside_final","folder":"tf","game":"Team Fortress","app_id":440,"player_count":0,"max_players":24,"Bots":0,"server_type":"Dedicated","server_os":"Linux","password":true,"vac":true,"version":"7742253","steam_id":85568392924504278,"keywords":["cp","nocrits","nodmgspread","uncletopia"],"game_id":440,"stv_port":27066,"stv_name":"Uncletopia | Frankfurt | 6 | All Maps | STV","players":null},{"server_id":23,"name":"Uncletopia | Frankfurt | 7 | Stopwatch Beta","name_short":"frk-7","host":"frk-1.de.uncletopia.com","port":27075,"enabled":true,"region":"eu","cc":"de","latitude":50.110924,"longitude":8.682127,"reserved":0,"last_update":"0001-01-01T00:00:00Z","name_a2s":"Uncletopia | Frankfurt | 7 | Stopwatch Beta","protocol":17,"map":"pl_badwater","folder":"tf","game":"Team Fortress","app_id":440,"player_count":0,"max_players":24,"Bots":0,"server_type":"Dedicated","server_os":"Linux","password":true,"vac":true,"version":"7742253","steam_id":85568392924742827,"keywords":["nocrits","nodmgspread","payload","uncletopia"],"game_id":440,"stv_port":27076,"stv_name":"Uncletopia | Frankfurt | 7 | Stopwatch Beta | STV","players":null},{"server_id":24,"name":"Uncletopia | Frankfurt | 8 | Community","name_short":"frk-8","host":"frk-1.de.uncletopia.com","port":27085,"enabled":true,"region":"eu","cc":"de","latitude":50.110924,"longitude":8.682127,"reserved":0,"last_update":"0001-01-01T00:00:00Z","name_a2s":"Uncletopia | Frankfurt | 8 | Community","protocol":17,"map":"koth_cascade","folder":"tf","game":"Team Fortress","app_id":440,"player_count":0,"max_players":24,"Bots":0,"server_type":"Dedicated","server_os":"Linux","password":true,"vac":true,"version":"7742253","steam_id":85568392924742828,"keywords":["cp","nocrits","nodmgspread","uncletopia"],"game_id":440,"stv_port":27086,"stv_name":"Uncletopia | Frankfurt | 8 | Community | STV","players":null},{"server_id":202,"name":"Uncletopia | Hong Kong | 1 | All Maps","name_short":"hgk-1","host":"hgk-1.hk.uncletopia.com","port":27015,"enabled":true,"region":"asia","cc":"hk","latitude":22.302711,"longitude":114.177216,"reserved":0,"last_update":"0001-01-01T00:00:00Z","name_a2s":"Uncletopia | Hong Kong | 1 | All Maps","protocol":17,"map":"plr_hightower","folder":"tf","game":"Team Fortress","app_id":440,"player_count":20,"max_players":24,"Bots":0,"server_type":"Dedicated","server_os":"Linux","password":true,"vac":true,"version":"7742253","steam_id":85568392924494504,"keywords":["nocrits","nodmgspread","payload","uncletopia"],"game_id":440,"stv_port":27016,"stv_name":"Uncletopia | Hong Kong | 1 | All Maps | STV","players":[{"user_id":438,"name":"MR. BUTTER","steam_id":76561198329902657,"connected_time":485000000000,"state":"active","ping":97},{"user_id":441,"name":"CRépuscule","steam_id":76561199379223866,"connected_time":288000000000,"state":"active","ping":75},{"user_id":427,"name":"BubblySloth","steam_id":76561198982973686,"connected_time":975000000000,"state":"active","ping":89},{"user_id":320,"name":"brizzard","steam_id":76561198048438653,"connected_time":6601000000000,"state":"active","ping":39},{"user_id":428,"name":"Javariced","steam_id":76561198069402937,"connected_time":949000000000,"state":"active","ping":132},{"user_id":432,"name":"kaito","steam_id":76561198129205357,"connected_time":805000000000,"state":"active","ping":100},{"user_id":442,"name":"Cienaga","steam_id":76561198195149342,"connected_time":237000000000,"state":"active","ping":140},{"user_id":446,"name":"Sperky","steam_id":76561199234527388,"connected_time":75000000000,"state":"active","ping":77},{"user_id":447,"name":"no vc no c","steam_id":76561197989503095,"connected_time":16000000000,"state":"active","ping":104},{"user_id":443,"name":"juan233","steam_id":76561198867566247,"connected_time":198000000000,"state":"active","ping":107},{"user_id":424,"name":"apple2001","steam_id":76561198132888572,"connected_time":1076000000000,"state":"active","ping":75},{"user_id":436,"name":"Koishi","steam_id":76561198212114601,"connected_time":614000000000,"state":"active","ping":82},{"user_id":444,"name":"dumb exoc","steam_id":76561198966151288,"connected_time":196000000000,"state":"active","ping":61},{"user_id":344,"name":"Rephex","steam_id":76561198308185574,"connected_time":4963000000000,"state":"active","ping":137},{"user_id":425,"name":"Owmyn","steam_id":76561199239651098,"connected_time":1048000000000,"state":"active","ping":104},{"user_id":416,"name":"CASINO SIROL 333","steam_id":76561199244736181,"connected_time":1236000000000,"state":"active","ping":165},{"user_id":448,"name":"apollo","steam_id":76561198823374287,"connected_time":9000000000,"state":"active","ping":168},{"user_id":449,"name":"bad at everything(f2p)","steam_id":76561199378524169,"connected_time":6000000000,"state":"spawning","ping":175},{"user_id":400,"name":"corpse_cadaver","steam_id":76561199225360457,"connected_time":2155000000000,"state":"active","ping":64},{"user_id":350,"name":"ellz","steam_id":76561199216074568,"connected_time":4711000000000,"state":"active","ping":123}]},{"server_id":1,"name":"Uncletopia | Los Angeles | 1 | All Maps","name_short":"lax-1","host":"lax-1.us.uncletopia.com","port":27015,"enabled":true,"region":"us-west","cc":"us","latitude":33.94279,"longitude":-118.41004,"reserved":0,"last_update":"0001-01-01T00:00:00Z","name_a2s":"Uncletopia | Los Angeles | 1 | All Maps","protocol":17,"map":"koth_viaduct","folder":"tf","game":"Team Fortress","app_id":440,"player_count":0,"max_players":24,"Bots":0,"server_type":"Dedicated","server_os":"Linux","password":true,"vac":true,"version":"7742253","steam_id":85568392924469991,"keywords":["cp","nocrits","nodmgspread","uncletopia"],"game_id":440,"stv_port":27016,"stv_name":"Uncletopia | Los Angeles | 1 | All Maps | STV","players":null},{"server_id":112,"name":"Uncletopia | Los Angeles | 2 | All Maps","name_short":"lax-2","host":"lax-1.us.uncletopia.com","port":27025,"enabled":true,"region":"us-west","cc":"us","latitude":33.94279,"longitude":-118.41004,"reserved":0,"last_update":"0001-01-01T00:00:00Z","name_a2s":"Uncletopia | Los Angeles | 2 | All Maps","protocol":17,"map":"koth_viaduct","folder":"tf","game":"Team Fortress","app_id":440,"player_count":0,"max_players":24,"Bots":0,"server_type":"Dedicated","server_os":"Linux","password":true,"vac":true,"version":"7742253","steam_id":85568392924469992,"keywords":["cp","nocrits","nodmgspread","uncletopia"],"game_id":440,"stv_port":27026,"stv_name":"Uncletopia | Los Angeles | 2 | All Maps | STV","players":null},{"server_id":324,"name":"Uncletopia | Los Angeles | 3 | All Maps","name_short":"lax-3","host":"lax-1.us.uncletopia.com","port":27035,"enabled":true,"region":"us-west","cc":"us","latitude":33.94279,"longitude":-118.41004,"reserved":0,"last_update":"0001-01-01T00:00:00Z","name_a2s":"Uncletopia | Los Angeles | 3 | All Maps","protocol":17,"map":"cp_altitude","folder":"tf","game":"Team Fortress","app_id":440,"player_count":0,"max_players":24,"Bots":0,"server_type":"Dedicated","server_os":"Linux","password":true,"vac":true,"version":"7742253","steam_id":85568392924510198,"keywords":["cp","nocrits","nodmgspread","uncletopia"],"game_id":440,"stv_port":27036,"stv_name":"Uncletopia | Los Angeles | 3 | All Maps | STV","players":null},{"server_id":25,"name":"Uncletopia | Los Angeles | 4 | Stopwatch Beta","name_short":"lax-4","host":"lax-1.us.uncletopia.com","port":27045,"enabled":true,"region":"us-west","cc":"us","latitude":33.94279,"longitude":-118.41004,"reserved":0,"last_update":"0001-01-01T00:00:00Z","name_a2s":"Uncletopia | Los Angeles | 4 | Stopwatch Beta","protocol":17,"map":"workshop/koth_product_final.ugc454272353","folder":"tf","game":"Team Fortress","app_id":440,"player_count":0,"max_players":24,"Bots":0,"server_type":"Dedicated","server_os":"Linux","password":true,"vac":true,"version":"7742253","steam_id":85568392924510199,"keywords":["cp","nocrits","nodmgspread","uncletopia"],"game_id":440,"stv_port":27046,"stv_name":"Uncletopia | Los Angeles | 4 | Stopwatch Beta | STV","players":null},{"server_id":11,"name":"Uncletopia | London | 1 | All Maps","name_short":"lon-1","host":"lon-1.uk.uncletopia.com","port":27015,"enabled":true,"region":"eu","cc":"gb","latitude":51.509865,"longitude":-0.118092,"reserved":0,"last_update":"0001-01-01T00:00:00Z","name_a2s":"Uncletopia | London | 1 | All Maps","protocol":17,"map":"koth_viaduct","folder":"tf","game":"Team Fortress","app_id":440,"player_count":8,"max_players":24,"Bots":0,"server_type":"Dedicated","server_os":"Linux","password":true,"vac":true,"version":"7742253","steam_id":85568392924367362,"keywords":["cp","nocrits","nodmgspread","uncletopia"],"game_id":440,"stv_port":27016,"stv_name":"Uncletopia | London | 1 | All Maps | STV","players":[{"user_id":6,"name":"Mika","steam_id":76561199183780280,"connected_time":1121000000000,"state":"active","ping":46},{"user_id":7,"name":"mesoni","steam_id":76561199141290973,"connected_time":1114000000000,"state":"active","ping":73},{"user_id":8,"name":"khuligan.abdullah.95","steam_id":76561198349000185,"connected_time":1007000000000,"state":"active","ping":76},{"user_id":9,"name":"Milk","steam_id":76561198125876588,"connected_time":964000000000,"state":"active","ping":38},{"user_id":14,"name":"Mandel","steam_id":76561199183213205,"connected_time":265000000000,"state":"active","ping":64},{"user_id":11,"name":"Bepperman","steam_id":76561198397517828,"connected_time":902000000000,"state":"active","ping":56},{"user_id":12,"name":"Tam","steam_id":76561199039394252,"connected_time":847000000000,"state":"active","ping":133},{"user_id":15,"name":"Trombouner","steam_id":76561197992852282,"connected_time":115000000000,"state":"active","ping":39}]},{"server_id":114,"name":"Uncletopia | London | 2 | All Maps","name_short":"lon-2","host":"lon-1.uk.uncletopia.com","port":27025,"enabled":true,"region":"eu","cc":"gb","latitude":51.509865,"longitude":-0.118092,"reserved":0,"last_update":"0001-01-01T00:00:00Z","name_a2s":"Uncletopia | London | 2 | All Maps","protocol":17,"map":"pl_borneo","folder":"tf","game":"Team Fortress","app_id":440,"player_count":0,"max_players":24,"Bots":0,"server_type":"Dedicated","server_os":"Linux","password":true,"vac":true,"version":"7742253","steam_id":85568392924470941,"keywords":["nocrits","nodmgspread","payload","uncletopia"],"game_id":440,"stv_port":27026,"stv_name":"Uncletopia | London | 2 | All Maps | STV","players":null},{"server_id":320,"name":"Uncletopia | London | 3 | All Maps","name_short":"lon-3","host":"lon-1.uk.uncletopia.com","port":27035,"enabled":true,"region":"eu","cc":"gb","latitude":51.509865,"longitude":-0.118092,"reserved":0,"last_update":"0001-01-01T00:00:00Z","name_a2s":"Uncletopia | London | 3 | All Maps","protocol":17,"map":"pl_barnblitz","folder":"tf","game":"Team Fortress","app_id":440,"player_count":23,"max_players":24,"Bots":0,"server_type":"Dedicated","server_os":"Linux","password":true,"vac":true,"version":"7742253","steam_id":85568392924510192,"keywords":["nocrits","nodmgspread","payload","uncletopia"],"game_id":440,"stv_port":27036,"stv_name":"Uncletopia | London | 3 | All Maps | STV","players":[{"user_id":97,"name":"Lemmy","steam_id":76561199038870751,"connected_time":9500000000000,"state":"active","ping":55},{"user_id":219,"name":"Avoonix","steam_id":76561198186954897,"connected_time":844000000000,"state":"active","ping":75},{"user_id":207,"name":"Alice can't hit pipes","steam_id":76561198052410860,"connected_time":1935000000000,"state":"active","ping":142},{"user_id":198,"name":"to6o360_BG","steam_id":76561198276630392,"connected_time":2878000000000,"state":"active","ping":75},{"user_id":230,"name":"not a nihilist","steam_id":76561198004340466,"connected_time":155000000000,"state":"active","ping":38},{"user_id":212,"name":"KaptainOuka","steam_id":76561198079207888,"connected_time":1389000000000,"state":"active","ping":58},{"user_id":217,"name":"InsectKing","steam_id":76561199013519071,"connected_time":1037000000000,"state":"active","ping":35},{"user_id":226,"name":"jovi_","steam_id":76561198449280552,"connected_time":499000000000,"state":"active","ping":45},{"user_id":220,"name":"tactical783","steam_id":76561199051688560,"connected_time":843000000000,"state":"active","ping":65},{"user_id":179,"name":"Seppo Supermies","steam_id":76561199275012023,"connected_time":3804000000000,"state":"active","ping":118},{"user_id":210,"name":"JGV","steam_id":76561198094654971,"connected_time":1698000000000,"state":"active","ping":70},{"user_id":231,"name":"SlonkyDonky","steam_id":76561198425787528,"connected_time":45000000000,"state":"active","ping":51},{"user_id":172,"name":"ALARM","steam_id":76561198120686521,"connected_time":4620000000000,"state":"active","ping":68},{"user_id":38,"name":"Noodle","steam_id":76561197997208006,"connected_time":14721000000000,"state":"active","ping":60},{"user_id":227,"name":"Monke","steam_id":76561198066994468,"connected_time":436000000000,"state":"active","ping":69},{"user_id":222,"name":"shapeshifter","steam_id":76561198028444359,"connected_time":824000000000,"state":"active","ping":57},{"user_id":200,"name":"El Gato Volador","steam_id":76561198021296882,"connected_time":2682000000000,"state":"active","ping":75},{"user_id":201,"name":"TCIFU001","steam_id":76561198264044300,"connected_time":2384000000000,"state":"active","ping":102},{"user_id":232,"name":"pipthemouse","steam_id":76561199283862392,"connected_time":42000000000,"state":"spawning","ping":134},{"user_id":216,"name":"UnknownTM","steam_id":76561198262728330,"connected_time":1160000000000,"state":"active","ping":73},{"user_id":64,"name":"catboy trickster","steam_id":76561198075665211,"connected_time":12936000000000,"state":"active","ping":47},{"user_id":182,"name":"nobody","steam_id":76561198180637374,"connected_time":3501000000000,"state":"active","ping":92},{"user_id":178,"name":"dorak","steam_id":76561198818037965,"connected_time":3874000000000,"state":"active","ping":105}]},{"server_id":321,"name":"Uncletopia | London | 4 | All Maps","name_short":"lon-4","host":"lon-1.uk.uncletopia.com","port":27045,"enabled":true,"region":"eu","cc":"gb","latitude":51.509865,"longitude":-0.118092,"reserved":0,"last_update":"0001-01-01T00:00:00Z","name_a2s":"Uncletopia | London | 4 | All Maps","protocol":17,"map":"koth_highpass","folder":"tf","game":"Team Fortress","app_id":440,"player_count":0,"max_players":24,"Bots":0,"server_type":"Dedicated","server_os":"Linux","password":true,"vac":true,"version":"7742253","steam_id":85568392924510193,"keywords":["cp","nocrits","nodmgspread","uncletopia"],"game_id":440,"stv_port":27046,"stv_name":"Uncletopia | London | 4 | All Maps | STV","players":null},{"server_id":21,"name":"Uncletopia | London | 5 | All Maps","name_short":"lon-5","host":"lon-1.uk.uncletopia.com","port":27055,"enabled":true,"region":"eu","cc":"gb","latitude":51.509865,"longitude":-0.118092,"reserved":0,"last_update":"0001-01-01T00:00:00Z","name_a2s":"Uncletopia | London | 5 | All Maps","protocol":17,"map":"pl_swiftwater_final1","folder":"tf","game":"Team Fortress","app_id":440,"player_count":23,"max_players":24,"Bots":0,"server_type":"Dedicated","server_os":"Linux","password":true,"vac":true,"version":"7742253","steam_id":85568392924742829,"keywords":["nocrits","nodmgspread","payload","uncletopia"],"game_id":440,"stv_port":27056,"stv_name":"Uncletopia | London | 5 | All Maps | STV","players":[{"user_id":104,"name":"RIFT","steam_id":76561198991622379,"connected_time":703000000000,"state":"active","ping":46},{"user_id":101,"name":"tictak211","steam_id":76561198128091924,"connected_time":979000000000,"state":"active","ping":80},{"user_id":89,"name":"Bullets","steam_id":76561198058876482,"connected_time":1677000000000,"state":"active","ping":51},{"user_id":98,"name":"steinar","steam_id":76561198441857153,"connected_time":1085000000000,"state":"active","ping":83},{"user_id":50,"name":"Bob","steam_id":76561198218200489,"connected_time":4804000000000,"state":"active","ping":56},{"user_id":81,"name":"dorthyhy","steam_id":76561198062578399,"connected_time":2870000000000,"state":"active","ping":54},{"user_id":105,"name":"E1s (Kemalist)","steam_id":76561198894958917,"connected_time":698000000000,"state":"active","ping":55},{"user_id":106,"name":"Squash Banana","steam_id":76561198055480280,"connected_time":685000000000,"state":"active","ping":89},{"user_id":87,"name":"Economic crisis","steam_id":76561198063562843,"connected_time":1788000000000,"state":"active","ping":64},{"user_id":100,"name":"テイルス","steam_id":76561198022403271,"connected_time":1037000000000,"state":"active","ping":48},{"user_id":47,"name":"Sleepycoffyn","steam_id":76561199278648379,"connected_time":5051000000000,"state":"active","ping":52},{"user_id":107,"name":"Senior","steam_id":76561198065014164,"connected_time":657000000000,"state":"active","ping":48},{"user_id":97,"name":"Stitch","steam_id":76561198034169403,"connected_time":1169000000000,"state":"active","ping":61},{"user_id":117,"name":"de‏ms","steam_id":76561199445533758,"connected_time":54000000000,"state":"active","ping":601},{"user_id":94,"name":"Clumsy ♥","steam_id":76561199049413586,"connected_time":1480000000000,"state":"active","ping":74},{"user_id":59,"name":"jker","steam_id":76561198816714058,"connected_time":4288000000000,"state":"active","ping":117},{"user_id":108,"name":"dems","steam_id":76561198122546674,"connected_time":652000000000,"state":"active","ping":48},{"user_id":68,"name":"Welder","steam_id":76561198355300561,"connected_time":3696000000000,"state":"active","ping":71},{"user_id":109,"name":"Craftedlavaistrue","steam_id":76561198139036454,"connected_time":631000000000,"state":"active","ping":75},{"user_id":111,"name":"UnusualBrit","steam_id":76561198255679838,"connected_time":605000000000,"state":"active","ping":55},{"user_id":115,"name":"G/3","steam_id":76561198234844188,"connected_time":410000000000,"state":"active","ping":54},{"user_id":72,"name":"ХеҜ₡","steam_id":76561198073495059,"connected_time":3364000000000,"state":"active","ping":122},{"user_id":116,"name":"DOMAIN","steam_id":76561199095640319,"connected_time":173000000000,"state":"active","ping":93}]},{"server_id":22,"name":"Uncletopia | London | 6 | All Maps","name_short":"lon-6","host":"lon-1.uk.uncletopia.com","port":27065,"enabled":true,"region":"eu","cc":"gb","latitude":51.509865,"longitude":-0.118092,"reserved":0,"last_update":"0001-01-01T00:00:00Z","name_a2s":"Uncletopia | London | 6 | All Maps","protocol":17,"map":"pl_borneo","folder":"tf","game":"Team Fortress","app_id":440,"player_count":0,"max_players":24,"Bots":0,"server_type":"Dedicated","server_os":"Linux","password":true,"vac":true,"version":"7742253","steam_id":85568392924742830,"keywords":["nocrits","nodmgspread","payload","uncletopia"],"game_id":440,"stv_port":27066,"stv_name":"Uncletopia | London | 6 | All Maps | STV","players":null},{"server_id":40,"name":"Uncletopia | London | 7 | No Payload","name_short":"lon-7","host":"lon-1.uk.uncletopia.com","port":27075,"enabled":true,"region":"eu","cc":"gb","latitude":51.509865,"longitude":-0.118092,"reserved":0,"last_update":"0001-01-01T00:00:00Z","name_a2s":"Uncletopia | London | 7 | No Payload","protocol":17,"map":"koth_viaduct","folder":"tf","game":"Team Fortress","app_id":440,"player_count":0,"max_players":24,"Bots":0,"server_type":"Dedicated","server_os":"Linux","password":true,"vac":true,"version":"7742253","steam_id":85568392924964314,"keywords":["cp","nocrits","nodmgspread","uncletopia"],"game_id":440,"stv_port":27076,"stv_name":"Uncletopia | London | 7 | No Payload | STV","players":null},{"server_id":41,"name":"Uncletopia | London | 8 | Community","name_short":"lon-8","host":"lon-1.uk.uncletopia.com","port":27085,"enabled":true,"region":"eu","cc":"gb","latitude":51.509865,"longitude":-0.118092,"reserved":0,"last_update":"0001-01-01T00:00:00Z","name_a2s":"Uncletopia | London | 8 | Community","protocol":17,"map":"cp_altitude","folder":"tf","game":"Team Fortress","app_id":440,"player_count":0,"max_players":24,"Bots":0,"server_type":"Dedicated","server_os":"Linux","password":true,"vac":true,"version":"7742253","steam_id":85568392924964315,"keywords":["cp","nocrits","nodmgspread","uncletopia"],"game_id":440,"stv_port":27086,"stv_name":"Uncletopia | London | 8 | Community | STV","players":null},{"server_id":300,"name":"Uncletopia | Montréal | 1 | All Maps","name_short":"mtl-1","host":"mtl-1.ca.uncletopia.com","port":27015,"enabled":true,"region":"us-east","cc":"ca","latitude":45.50889,"longitude":-73.56167,"reserved":0,"last_update":"0001-01-01T00:00:00Z","name_a2s":"Uncletopia | Montréal | 1 | All Maps","protocol":17,"map":"cp_mountainlab","folder":"tf","game":"Team Fortress","app_id":440,"player_count":0,"max_players":24,"Bots":0,"server_type":"Dedicated","server_os":"Linux","password":true,"vac":true,"version":"7742253","steam_id":85568392924500087,"keywords":["cp","nocrits","nodmgspread","uncletopia"],"game_id":440,"stv_port":27016,"stv_name":"Uncletopia | Montréal | 1 | All Maps | STV","players":null},{"server_id":301,"name":"Uncletopia | Montréal | 2 | All Maps","name_short":"mtl-2","host":"mtl-1.ca.uncletopia.com","port":27025,"enabled":true,"region":"us-east","cc":"ca","latitude":45.50889,"longitude":-73.56167,"reserved":0,"last_update":"0001-01-01T00:00:00Z","name_a2s":"Uncletopia | Montréal | 2 | All Maps","protocol":17,"map":"cp_altitude","folder":"tf","game":"Team Fortress","app_id":440,"player_count":0,"max_players":24,"Bots":0,"server_type":"Dedicated","server_os":"Linux","password":true,"vac":true,"version":"7742253","steam_id":85568392924500088,"keywords":["cp","nocrits","nodmgspread","uncletopia"],"game_id":440,"stv_port":27026,"stv_name":"Uncletopia | Montréal | 2 | All Maps | STV","players":null},{"server_id":302,"name":"Uncletopia | Montréal | 3 | All Maps","name_short":"mtl-3","host":"mtl-1.ca.uncletopia.com","port":27035,"enabled":true,"region":"us-east","cc":"ca","latitude":45.50889,"longitude":-73.56167,"reserved":0,"last_update":"0001-01-01T00:00:00Z","name_a2s":"Uncletopia | Montréal | 3 | All Maps","protocol":17,"map":"cp_process_final","folder":"tf","game":"Team Fortress","app_id":440,"player_count":0,"max_players":24,"Bots":0,"server_type":"Dedicated","server_os":"Linux","password":true,"vac":true,"version":"7742253","steam_id":85568392924500089,"keywords":["cp","nocrits","nodmgspread","uncletopia"],"game_id":440,"stv_port":27036,"stv_name":"Uncletopia | Montréal | 3 | All Maps | STV","players":null},{"server_id":303,"name":"Uncletopia | Montréal | 4 | No Payload","name_short":"mtl-4","host":"mtl-1.ca.uncletopia.com","port":27045,"enabled":true,"region":"us-east","cc":"ca","latitude":45.50889,"longitude":-73.56167,"reserved":0,"last_update":"0001-01-01T00:00:00Z","name_a2s":"Uncletopia | Montréal | 4 | No Payload","protocol":17,"map":"plr_pipeline","folder":"tf","game":"Team Fortress","app_id":440,"player_count":0,"max_players":24,"Bots":0,"server_type":"Dedicated","server_os":"Linux","password":true,"vac":true,"version":"7742253","steam_id":85568392924500090,"keywords":["nocrits","nodmgspread","payload","uncletopia"],"game_id":440,"stv_port":27046,"stv_name":"Uncletopia | Montréal | 4 | No Payload | STV","players":null},{"server_id":13,"name":"Uncletopia | New York City | 1 | All Maps","name_short":"nyc-1","host":"nyc-1.us.uncletopia.com","port":27015,"enabled":true,"region":"us-east","cc":"us","latitude":40.73061,"longitude":-73.93524,"reserved":0,"last_update":"0001-01-01T00:00:00Z","name_a2s":"Uncletopia | New York City | 1 | All Maps","protocol":17,"map":"pl_swiftwater_final1","folder":"tf","game":"Team Fortress","app_id":440,"player_count":0,"max_players":24,"Bots":0,"server_type":"Dedicated","server_os":"Linux","password":true,"vac":true,"version":"7742253","steam_id":85568392924469993,"keywords":["nocrits","nodmgspread","payload","uncletopia"],"game_id":440,"stv_port":27016,"stv_name":"Uncletopia | New York City | 1 | All Maps | STV","players":null},{"server_id":14,"name":"Uncletopia | New York City | 2 | All Maps","name_short":"nyc-2","host":"nyc-1.us.uncletopia.com","port":27025,"enabled":true,"region":"us-east","cc":"us","latitude":40.73061,"longitude":-73.93524,"reserved":0,"last_update":"0001-01-01T00:00:00Z","name_a2s":"Uncletopia | New York City | 2 | All Maps","protocol":17,"map":"pl_badwater","folder":"tf","game":"Team Fortress","app_id":440,"player_count":0,"max_players":24,"Bots":0,"server_type":"Dedicated","server_os":"Linux","password":true,"vac":true,"version":"7742253","steam_id":85568392924469994,"keywords":["nocrits","nodmgspread","payload","uncletopia"],"game_id":440,"stv_port":27026,"stv_name":"Uncletopia | New York City | 2 | All Maps | STV","players":null},{"server_id":15,"name":"Uncletopia | New York City | 3 | Stopwatch Beta","name_short":"nyc-3","host":"nyc-1.us.uncletopia.com","port":27035,"enabled":true,"region":"us-east","cc":"us","latitude":40.73061,"longitude":-73.93524,"reserved":0,"last_update":"0001-01-01T00:00:00Z","name_a2s":"Uncletopia | New York City | 3 | Stopwatch Beta","protocol":17,"map":"workshop/pl_summercoast_rc8e.ugc1761528829","folder":"tf","game":"Team Fortress","app_id":440,"player_count":0,"max_players":24,"Bots":0,"server_type":"Dedicated","server_os":"Linux","password":true,"vac":true,"version":"7742253","steam_id":85568392924742820,"keywords":["nocrits","nodmgspread","payload","uncletopia"],"game_id":440,"stv_port":27036,"stv_name":"Uncletopia | New York City | 3 | Stopwatch Beta | STV","players":null},{"server_id":16,"name":"Uncletopia | New York City | 4 | Community","name_short":"nyc-4","host":"nyc-1.us.uncletopia.com","port":27045,"enabled":true,"region":"us-east","cc":"us","latitude":40.73061,"longitude":-73.93524,"reserved":0,"last_update":"0001-01-01T00:00:00Z","name_a2s":"Uncletopia | New York City | 4 | Community","protocol":17,"map":"workshop/pl_barnblitz_pro7.ugc582280235","folder":"tf","game":"Team Fortress","app_id":440,"player_count":0,"max_players":24,"Bots":0,"server_type":"Dedicated","server_os":"Linux","password":true,"vac":true,"version":"7742253","steam_id":85568392924742821,"keywords":["nocrits","nodmgspread","payload","uncletopia"],"game_id":440,"stv_port":27046,"stv_name":"Uncletopia | New York City | 4 | Community | STV","players":null},{"server_id":142,"name":"Uncletopia | São Paulo | 1 | All Maps","name_short":"sao-1","host":"sao-1.br.uncletopia.com","port":27015,"enabled":true,"region":"sa","cc":"br","latitude":-23.533773,"longitude":-46.62529,"reserved":0,"last_update":"0001-01-01T00:00:00Z","name_a2s":"Uncletopia | São Paulo | 1 | All Maps","protocol":17,"map":"koth_viaduct","folder":"tf","game":"Team Fortress","app_id":440,"player_count":0,"max_players":24,"Bots":0,"server_type":"Dedicated","server_os":"Linux","password":true,"vac":true,"version":"7742253","steam_id":85568392924469996,"keywords":["cp","nocrits","nodmgspread","uncletopia"],"game_id":440,"stv_port":27016,"stv_name":"Uncletopia | São Paulo | 1 | All Maps | STV","players":null},{"server_id":143,"name":"Uncletopia | São Paulo | 2 | All Maps","name_short":"sao-2","host":"sao-2.br.uncletopia.com","port":27015,"enabled":true,"region":"sa","cc":"br","latitude":-23.533773,"longitude":-46.62529,"reserved":0,"last_update":"0001-01-01T00:00:00Z","name_a2s":"Uncletopia | São Paulo | 2 | All Maps","protocol":17,"map":"koth_viaduct","folder":"tf","game":"Team Fortress","app_id":440,"player_count":0,"max_players":24,"Bots":0,"server_type":"Dedicated","server_os":"Linux","password":true,"vac":true,"version":"7742253","steam_id":85568392924485349,"keywords":["cp","nocrits","nodmgspread","uncletopia"],"game_id":440,"stv_port":27016,"stv_name":"Uncletopia | São Paulo | 2 | All Maps | STV","players":null},{"server_id":7,"name":"Uncletopia | Seattle | 1 | All Maps","name_short":"sea-1","host":"sea-1.us.uncletopia.com","port":27015,"enabled":true,"region":"us-west","cc":"us","latitude":47.608013,"longitude":-122.33517,"reserved":0,"last_update":"0001-01-01T00:00:00Z","name_a2s":"Uncletopia | Seattle | 1 | All Maps","protocol":17,"map":"pl_borneo","folder":"tf","game":"Team Fortress","app_id":440,"player_count":24,"max_players":24,"Bots":0,"server_type":"Dedicated","server_os":"Linux","password":true,"vac":true,"version":"7742253","steam_id":85568392924469997,"keywords":["nocrits","nodmgspread","payload","uncletopia"],"game_id":440,"stv_port":27016,"stv_name":"Uncletopia | Seattle | 1 | All Maps | STV","players":[{"user_id":669,"name":"JJP","steam_id":76561198032914094,"connected_time":11898000000000,"state":"active","ping":69},{"user_id":760,"name":"gay woman","steam_id":76561199051077883,"connected_time":2881000000000,"state":"active","ping":76},{"user_id":736,"name":"FCKGW-RHQQ2-YXRKT-8TG6W-2B7Q8","steam_id":76561197993138592,"connected_time":4660000000000,"state":"active","ping":34},{"user_id":774,"name":"kezia","steam_id":76561198059815894,"connected_time":1028000000000,"state":"active","ping":93},{"user_id":771,"name":"Delta Annihilator | trade.tf","steam_id":76561198055384748,"connected_time":1783000000000,"state":"active","ping":98},{"user_id":756,"name":"meow","steam_id":76561198298140571,"connected_time":2891000000000,"state":"active","ping":82},{"user_id":753,"name":"Beanssss","steam_id":76561198976050984,"connected_time":2903000000000,"state":"active","ping":113},{"user_id":770,"name":"piegirl21","steam_id":76561198125233120,"connected_time":2354000000000,"state":"active","ping":71},{"user_id":752,"name":"Sunny","steam_id":76561198394453415,"connected_time":2906000000000,"state":"active","ping":43},{"user_id":779,"name":"stockhack","steam_id":76561198050220225,"connected_time":555000000000,"state":"active","ping":130},{"user_id":758,"name":"jovial","steam_id":76561198297130941,"connected_time":2890000000000,"state":"active","ping":87},{"user_id":776,"name":"Amogous Supreme","steam_id":76561198025476774,"connected_time":991000000000,"state":"active","ping":71},{"user_id":780,"name":"TurboRaspberry","steam_id":76561199215360629,"connected_time":133000000000,"state":"active","ping":48},{"user_id":778,"name":"Fajita Master","steam_id":76561198329150962,"connected_time":746000000000,"state":"active","ping":77},{"user_id":750,"name":"rat gets the cheese","steam_id":76561198031234032,"connected_time":3733000000000,"state":"active","ping":100},{"user_id":765,"name":"A Pizza Already","steam_id":76561198064918401,"connected_time":2734000000000,"state":"active","ping":77},{"user_id":754,"name":"Percules 2023","steam_id":76561198195220521,"connected_time":2903000000000,"state":"active","ping":80},{"user_id":732,"name":"Agent","steam_id":76561199389584938,"connected_time":4825000000000,"state":"active","ping":43},{"user_id":766,"name":"sweaterfan","steam_id":76561199389567214,"connected_time":2722000000000,"state":"active","ping":109},{"user_id":740,"name":"SuaveFrenchman","steam_id":76561198043762683,"connected_time":4495000000000,"state":"active","ping":71},{"user_id":773,"name":"Boobie and vagene","steam_id":76561198078464924,"connected_time":1050000000000,"state":"active","ping":47},{"user_id":751,"name":"Mystic man of potatoe","steam_id":76561198027267207,"connected_time":3136000000000,"state":"active","ping":80},{"user_id":777,"name":"Saggle","steam_id":76561198056075147,"connected_time":843000000000,"state":"active","ping":186},{"user_id":775,"name":"Sniff","steam_id":76561198010270922,"connected_time":1021000000000,"state":"active","ping":46}]},{"server_id":119,"name":"Uncletopia | Seattle | 2 | All Maps","name_short":"sea-2","host":"sea-1.us.uncletopia.com","port":27025,"enabled":true,"region":"us-west","cc":"us","latitude":47.608013,"longitude":-122.33517,"reserved":0,"last_update":"0001-01-01T00:00:00Z","name_a2s":"Uncletopia | Seattle | 2 | All Maps","protocol":17,"map":"koth_highpass","folder":"tf","game":"Team Fortress","app_id":440,"player_count":0,"max_players":24,"Bots":0,"server_type":"Dedicated","server_os":"Linux","password":true,"vac":true,"version":"7742253","steam_id":85568392924469998,"keywords":["cp","nocrits","nodmgspread","uncletopia"],"game_id":440,"stv_port":27026,"stv_name":"Uncletopia | Seattle | 2 | All Maps | STV","players":null},{"server_id":406,"name":"Uncletopia | Seattle | 3 | Stopwatch Beta","name_short":"sea-3","host":"sea-1.us.uncletopia.com","port":27035,"enabled":true,"region":"us-west","cc":"us","latitude":47.608013,"longitude":-122.33517,"reserved":0,"last_update":"0001-01-01T00:00:00Z","name_a2s":"Uncletopia | Seattle | 3 | Stopwatch Beta","protocol":17,"map":"pl_borneo","folder":"tf","game":"Team Fortress","app_id":440,"player_count":0,"max_players":24,"Bots":0,"server_type":"Dedicated","server_os":"Linux","password":true,"vac":true,"version":"7742253","steam_id":85568392924515217,"keywords":["nocrits","nodmgspread","payload","uncletopia"],"game_id":440,"stv_port":27036,"stv_name":"Uncletopia | Seattle | 3 | Stopwatch Beta | STV","players":null},{"server_id":17,"name":"Uncletopia | San Francisco | 1 | All Maps","name_short":"sfo-1","host":"sfo-1.us.uncletopia.com","port":27015,"enabled":true,"region":"us-west","cc":"us","latitude":37.77397,"longitude":-122.4313,"reserved":0,"last_update":"0001-01-01T00:00:00Z","name_a2s":"Uncletopia | San Francisco | 1 | All Maps","protocol":17,"map":"koth_highpass","folder":"tf","game":"Team Fortress","app_id":440,"player_count":0,"max_players":24,"Bots":0,"server_type":"Dedicated","server_os":"Linux","password":true,"vac":true,"version":"7742253","steam_id":85568392924469999,"keywords":["cp","nocrits","nodmgspread","uncletopia"],"game_id":440,"stv_port":27016,"stv_name":"Uncletopia | San Francisco | 1 | All Maps | STV","players":null},{"server_id":18,"name":"Uncletopia | San Francisco | 2 | All Maps","name_short":"sfo-2","host":"sfo-1.us.uncletopia.com","port":27025,"enabled":true,"region":"us-west","cc":"us","latitude":37.77397,"longitude":-122.4313,"reserved":0,"last_update":"0001-01-01T00:00:00Z","name_a2s":"Uncletopia | San Francisco | 2 | All Maps","protocol":17,"map":"koth_lakeside_final","folder":"tf","game":"Team Fortress","app_id":440,"player_count":0,"max_players":24,"Bots":0,"server_type":"Dedicated","server_os":"Linux","password":true,"vac":true,"version":"7742253","steam_id":85568392924470000,"keywords":["cp","nocrits","nodmgspread","uncletopia"],"game_id":440,"stv_port":27026,"stv_name":"Uncletopia | San Francisco | 2 | All Maps | STV","players":null},{"server_id":19,"name":"Uncletopia | San Francisco | 3 | Stopwatch Beta","name_short":"sfo-3","host":"sfo-1.us.uncletopia.com","port":27035,"enabled":true,"region":"us-west","cc":"us","latitude":37.77397,"longitude":-122.4313,"reserved":0,"last_update":"0001-01-01T00:00:00Z","name_a2s":"Uncletopia | San Francisco | 3 | Stopwatch Beta","protocol":17,"map":"workshop/cp_process_f11.ugc2302948105","folder":"tf","game":"Team Fortress","app_id":440,"player_count":0,"max_players":24,"Bots":0,"server_type":"Dedicated","server_os":"Linux","password":true,"vac":true,"version":"7742253","steam_id":85568392924742824,"keywords":["cp","nocrits","nodmgspread","uncletopia"],"game_id":440,"stv_port":27036,"stv_name":"Uncletopia | San Francisco | 3 | Stopwatch Beta | STV","players":null},{"server_id":20,"name":"Uncletopia | San Francisco | 4 | Community","name_short":"sfo-4","host":"sfo-1.us.uncletopia.com","port":27045,"enabled":true,"region":"us-west","cc":"us","latitude":37.77397,"longitude":-122.4313,"reserved":0,"last_update":"0001-01-01T00:00:00Z","name_a2s":"Uncletopia | San Francisco | 4 | Community","protocol":17,"map":"workshop/koth_slaughter_rc1.ugc1712845210","folder":"tf","game":"Team Fortress","app_id":440,"player_count":0,"max_players":24,"Bots":0,"server_type":"Dedicated","server_os":"Linux","password":true,"vac":true,"version":"7742253","steam_id":85568392924742826,"keywords":["cp","nocrits","nodmgspread","uncletopia"],"game_id":440,"stv_port":27046,"stv_name":"Uncletopia | San Francisco | 4 | Community | STV","players":null},{"server_id":141,"name":"Uncletopia | Sydney | 1 | All Maps","name_short":"syd-1","host":"syd-1.au.uncletopia.com","port":27015,"enabled":true,"region":"au","cc":"au","latitude":-33.865143,"longitude":151.2099,"reserved":0,"last_update":"0001-01-01T00:00:00Z","name_a2s":"Uncletopia | Sydney | 1 | All Maps","protocol":17,"map":"pl_barnblitz","folder":"tf","game":"Team Fortress","app_id":440,"player_count":24,"max_players":24,"Bots":0,"server_type":"Dedicated","server_os":"Linux","password":true,"vac":true,"version":"7742253","steam_id":85568392924470001,"keywords":["nocrits","nodmgspread","payload","uncletopia"],"game_id":440,"stv_port":27016,"stv_name":"Uncletopia | Sydney | 1 | All Maps | STV","players":[{"user_id":653,"name":"immense","steam_id":76561198083470176,"connected_time":5924000000000,"state":"active","ping":104},{"user_id":707,"name":"AcidOxidant","steam_id":76561198053504029,"connected_time":2597000000000,"state":"active","ping":43},{"user_id":700,"name":"elbarto","steam_id":76561198122259040,"connected_time":2931000000000,"state":"active","ping":46},{"user_id":688,"name":"lapisss","steam_id":76561198828325267,"connected_time":3777000000000,"state":"active","ping":79},{"user_id":716,"name":"Sharpie Sniffer \u003c3","steam_id":76561198360222919,"connected_time":2343000000000,"state":"active","ping":66},{"user_id":723,"name":"Extra Exotic","steam_id":76561198045191981,"connected_time":1014000000000,"state":"active","ping":86},{"user_id":717,"name":"nori357","steam_id":76561198094691731,"connected_time":2331000000000,"state":"active","ping":49},{"user_id":682,"name":"ุbifcheg","steam_id":76561198319806610,"connected_time":4016000000000,"state":"active","ping":63},{"user_id":705,"name":"DKC","steam_id":76561198313578155,"connected_time":2688000000000,"state":"active","ping":44},{"user_id":708,"name":"tinkaton from pokemon gen 9 UU","steam_id":76561198079345240,"connected_time":2559000000000,"state":"active","ping":63},{"user_id":706,"name":"Pug","steam_id":76561198136794372,"connected_time":2617000000000,"state":"active","ping":51},{"user_id":722,"name":"It's barbin time","steam_id":76561198060225022,"connected_time":1282000000000,"state":"active","ping":96},{"user_id":667,"name":"Cya in Lumby","steam_id":76561198062693631,"connected_time":5185000000000,"state":"active","ping":49},{"user_id":691,"name":"Glockenspe (She/Her)","steam_id":76561199184115241,"connected_time":3472000000000,"state":"active","ping":45},{"user_id":710,"name":"₱elica₦","steam_id":76561198123827973,"connected_time":2460000000000,"state":"active","ping":90},{"user_id":702,"name":"Fentanyl Frank","steam_id":76561198044522636,"connected_time":2920000000000,"state":"active","ping":53},{"user_id":718,"name":"dustmephit","steam_id":76561198314776696,"connected_time":2248000000000,"state":"active","ping":65},{"user_id":610,"name":"LightningBlock","steam_id":76561198289997742,"connected_time":8551000000000,"state":"active","ping":40},{"user_id":725,"name":"bluehat","steam_id":76561198355125370,"connected_time":961000000000,"state":"active","ping":44},{"user_id":721,"name":"aerO.","steam_id":76561197988828263,"connected_time":2031000000000,"state":"active","ping":54},{"user_id":703,"name":"miguel","steam_id":76561198174077982,"connected_time":2912000000000,"state":"active","ping":47},{"user_id":627,"name":"michael","steam_id":76561198052848358,"connected_time":7501000000000,"state":"active","ping":60},{"user_id":727,"name":"Barchel (She/Her)","steam_id":76561197984629970,"connected_time":75000000000,"state":"spawning","ping":141},{"user_id":726,"name":"Deltairl","steam_id":76561198058866284,"connected_time":960000000000,"state":"active","ping":41}]},{"server_id":123,"name":"Uncletopia | Sydney | 2 | All Maps","name_short":"syd-2","host":"syd-1.au.uncletopia.com","port":27025,"enabled":true,"region":"au","cc":"au","latitude":-33.865143,"longitude":151.2099,"reserved":0,"last_update":"0001-01-01T00:00:00Z","name_a2s":"Uncletopia | Sydney | 2 | All Maps","protocol":17,"map":"cp_sunshine","folder":"tf","game":"Team Fortress","app_id":440,"player_count":24,"max_players":24,"Bots":0,"server_type":"Dedicated","server_os":"Linux","password":true,"vac":true,"version":"7742253","steam_id":85568392924470002,"keywords":["cp","nocrits","nodmgspread","uncletopia"],"game_id":440,"stv_port":27026,"stv_name":"Uncletopia | Sydney | 2 | All Maps | STV","players":[{"user_id":457,"name":"krandlez` (Any/All)","steam_id":76561198044839726,"connected_time":3362000000000,"state":"active","ping":37},{"user_id":478,"name":"the rot consumes","steam_id":76561199445490119,"connected_time":2266000000000,"state":"active","ping":42},{"user_id":459,"name":"CuzzyCuz","steam_id":76561198069054697,"connected_time":3265000000000,"state":"active","ping":59},{"user_id":497,"name":"HAND BANANA","steam_id":76561197960279341,"connected_time":417000000000,"state":"active","ping":80},{"user_id":458,"name":"Giant Rat","steam_id":76561198110170714,"connected_time":3318000000000,"state":"active","ping":49},{"user_id":498,"name":"the rizzler","steam_id":76561198129112901,"connected_time":417000000000,"state":"active","ping":60},{"user_id":472,"name":"pooparse","steam_id":76561198217959591,"connected_time":2947000000000,"state":"active","ping":60},{"user_id":501,"name":"҂Storm","steam_id":76561198073213264,"connected_time":257000000000,"state":"active","ping":55},{"user_id":461,"name":"Meerkat","steam_id":76561198298662979,"connected_time":3257000000000,"state":"active","ping":26},{"user_id":499,"name":"james16","steam_id":76561198362678073,"connected_time":369000000000,"state":"active","ping":41},{"user_id":486,"name":"Jimsehy","steam_id":76561198061059871,"connected_time":1482000000000,"state":"active","ping":65},{"user_id":505,"name":"cullen","steam_id":76561198128695488,"connected_time":225000000000,"state":"active","ping":59},{"user_id":473,"name":"70s demo","steam_id":76561198306660831,"connected_time":2778000000000,"state":"active","ping":59},{"user_id":488,"name":"humph","steam_id":76561198083730533,"connected_time":1321000000000,"state":"active","ping":57},{"user_id":502,"name":"Rizeo","steam_id":76561198147901488,"connected_time":256000000000,"state":"active","ping":65},{"user_id":464,"name":"Livid","steam_id":76561198060024585,"connected_time":3244000000000,"state":"active","ping":43},{"user_id":465,"name":"emperor palpating","steam_id":76561198079351541,"connected_time":3236000000000,"state":"active","ping":45},{"user_id":456,"name":"Just Brando","steam_id":76561198914415738,"connected_time":3437000000000,"state":"active","ping":54},{"user_id":503,"name":"Abraham Lincoln","steam_id":76561198095292515,"connected_time":253000000000,"state":"active","ping":65},{"user_id":504,"name":"JokerMain","steam_id":76561198144857794,"connected_time":253000000000,"state":"active","ping":45},{"user_id":500,"name":"DEMOPAN","steam_id":76561198183060018,"connected_time":368000000000,"state":"active","ping":66},{"user_id":484,"name":"pain train tf2","steam_id":76561198059284918,"connected_time":1716000000000,"state":"active","ping":50},{"user_id":490,"name":"\u003e:FrozenDragon:\u003c","steam_id":76561198227960928,"connected_time":1188000000000,"state":"active","ping":104},{"user_id":506,"name":"Moist","steam_id":76561198110566656,"connected_time":179000000000,"state":"active","ping":55}]},{"server_id":395,"name":"Uncletopia | Sydney | 3 | All Maps","name_short":"syd-3","host":"syd-1.au.uncletopia.com","port":27035,"enabled":true,"region":"au","cc":"au","latitude":-33.865143,"longitude":151.2099,"reserved":0,"last_update":"0001-01-01T00:00:00Z","name_a2s":"Uncletopia | Sydney | 3 | All Maps","protocol":17,"map":"koth_viaduct","folder":"tf","game":"Team Fortress","app_id":440,"player_count":7,"max_players":24,"Bots":0,"server_type":"Dedicated","server_os":"Linux","password":true,"vac":true,"version":"7742253","steam_id":85568392925194467,"keywords":["cp","nocrits","nodmgspread","uncletopia"],"game_id":440,"stv_port":27036,"stv_name":"Uncletopia | Sydney | 3 | All Maps | STV","players":[{"user_id":30,"name":"monnickev","steam_id":76561198252587162,"connected_time":494000000000,"state":"active","ping":30},{"user_id":32,"name":"Dangerdaaf","steam_id":76561198194587277,"connected_time":446000000000,"state":"active","ping":54},{"user_id":33,"name":"Branko [Server DJ]","steam_id":76561199262196710,"connected_time":257000000000,"state":"active","ping":45},{"user_id":34,"name":"Caberknight TF2","steam_id":76561199446773766,"connected_time":149000000000,"state":"active","ping":80},{"user_id":35,"name":"Uh Oh","steam_id":76561199215286000,"connected_time":120000000000,"state":"active","ping":66},{"user_id":36,"name":"pigeonpumper1991","steam_id":76561197985197292,"connected_time":90000000000,"state":"active","ping":45},{"user_id":37,"name":"Mr White Christmas","steam_id":76561198408723016,"connected_time":38000000000,"state":"active","ping":94}]},{"server_id":396,"name":"Uncletopia | Sydney | 4 | All Maps","name_short":"syd-4","host":"syd-1.au.uncletopia.com","port":27045,"enabled":true,"region":"au","cc":"au","latitude":-33.865143,"longitude":151.2099,"reserved":0,"last_update":"0001-01-01T00:00:00Z","name_a2s":"Uncletopia | Sydney | 4 | All Maps","protocol":17,"map":"cp_mountainlab","folder":"tf","game":"Team Fortress","app_id":440,"player_count":0,"max_players":24,"Bots":0,"server_type":"Dedicated","server_os":"Linux","password":true,"vac":true,"version":"7742253","steam_id":85568392925397958,"keywords":["cp","nocrits","nodmgspread","uncletopia"],"game_id":440,"stv_port":27046,"stv_name":"Uncletopia | Sydney | 4 | All Maps | STV","players":null},{"server_id":58,"name":"Uncletopia | Sydney | 5 | Stopwatch Beta","name_short":"syd-5","host":"syd-1.au.uncletopia.com","port":27055,"enabled":true,"region":"au","cc":"au","latitude":-33.865143,"longitude":151.2099,"reserved":0,"last_update":"0001-01-01T00:00:00Z","name_a2s":"Uncletopia | Sydney | 5 | Stopwatch Beta","protocol":17,"map":"koth_highpass","folder":"tf","game":"Team Fortress","app_id":440,"player_count":0,"max_players":24,"Bots":0,"server_type":"Dedicated","server_os":"Linux","password":true,"vac":true,"version":"7742253","steam_id":85568392925397959,"keywords":["cp","nocrits","nodmgspread","uncletopia"],"game_id":440,"stv_port":27056,"stv_name":"Uncletopia | Sydney | 5 | Stopwatch Beta | STV","players":null},{"server_id":59,"name":"Uncletopia | Sydney | 6 | Community","name_short":"syd-6","host":"syd-1.au.uncletopia.com","port":27065,"enabled":true,"region":"au","cc":"au","latitude":-33.865143,"longitude":151.2099,"reserved":0,"last_update":"0001-01-01T00:00:00Z","name_a2s":"Uncletopia | Sydney | 6 | Community","protocol":17,"map":"workshop/koth_ramjam_rc1.ugc459778887","folder":"tf","game":"Team Fortress","app_id":440,"player_count":0,"max_players":24,"Bots":0,"server_type":"Dedicated","server_os":"Linux","password":true,"vac":true,"version":"7742253","steam_id":85568392925397960,"keywords":["cp","nocrits","nodmgspread","uncletopia"],"game_id":440,"stv_port":27066,"stv_name":"Uncletopia | Sydney | 6 | Community | STV","players":null},{"server_id":49,"name":"Uncletopia | Warsaw | 1 | All Maps","name_short":"waw-1","host":"waw-1.pl.uncletopia.com","port":27015,"enabled":true,"region":"eu","cc":"pl","latitude":52.2297,"longitude":21.017532,"reserved":0,"last_update":"0001-01-01T00:00:00Z","name_a2s":"","protocol":0,"map":"","folder":"","game":"","app_id":0,"player_count":0,"max_players":0,"Bots":0,"server_type":"","server_os":"","password":false,"vac":false,"version":"","steam_id":0,"keywords":null,"game_id":0,"stv_port":0,"stv_name":"","players":null},{"server_id":50,"name":"Uncletopia | Warsaw | 2 | All Maps","name_short":"waw-2","host":"waw-1.pl.uncletopia.com","port":27025,"enabled":true,"region":"eu","cc":"pl","latitude":52.2297,"longitude":21.017532,"reserved":0,"last_update":"0001-01-01T00:00:00Z","name_a2s":"Uncletopia | Warsaw | 2 | All Maps","protocol":17,"map":"cp_snakewater_final1","folder":"tf","game":"Team Fortress","app_id":440,"player_count":0,"max_players":24,"Bots":0,"server_type":"Dedicated","server_os":"Linux","password":true,"vac":true,"version":"7742253","steam_id":85568392925397851,"keywords":["cp","nocrits","nodmgspread","uncletopia"],"game_id":440,"stv_port":27026,"stv_name":"Uncletopia | Warsaw | 2 | All Maps | STV","players":null},{"server_id":51,"name":"Uncletopia | Warsaw | 3 | All Maps","name_short":"waw-3","host":"waw-1.pl.uncletopia.com","port":27035,"enabled":true,"region":"eu","cc":"pl","latitude":52.2297,"longitude":21.017532,"reserved":0,"last_update":"0001-01-01T00:00:00Z","name_a2s":"Uncletopia | Warsaw | 3 | All Maps","protocol":17,"map":"koth_lakeside_final","folder":"tf","game":"Team Fortress","app_id":440,"player_count":0,"max_players":24,"Bots":0,"server_type":"Dedicated","server_os":"Linux","password":true,"vac":true,"version":"7742253","steam_id":85568392925397852,"keywords":["cp","nocrits","nodmgspread","uncletopia"],"game_id":440,"stv_port":27036,"stv_name":"Uncletopia | Warsaw | 3 | All Maps | STV","players":null},{"server_id":52,"name":"Uncletopia | Warsaw | 4 | All Maps","name_short":"waw-4","host":"waw-1.pl.uncletopia.com","port":27045,"enabled":true,"region":"eu","cc":"pl","latitude":52.2297,"longitude":21.017532,"reserved":0,"last_update":"0001-01-01T00:00:00Z","name_a2s":"Uncletopia | Warsaw | 4 | All Maps","protocol":17,"map":"pl_upward","folder":"tf","game":"Team Fortress","app_id":440,"player_count":0,"max_players":24,"Bots":0,"server_type":"Dedicated","server_os":"Linux","password":true,"vac":true,"version":"7742253","steam_id":85568392925397853,"keywords":["nocrits","nodmgspread","payload","uncletopia"],"game_id":440,"stv_port":27046,"stv_name":"Uncletopia | Warsaw | 4 | All Maps | STV","players":null},{"server_id":53,"name":"Uncletopia | Warsaw | 5 | Stopwatch Beta","name_short":"waw-5","host":"waw-1.pl.uncletopia.com","port":27055,"enabled":true,"region":"eu","cc":"pl","latitude":52.2297,"longitude":21.017532,"reserved":0,"last_update":"0001-01-01T00:00:00Z","name_a2s":"Uncletopia | Warsaw | 5 | Stopwatch Beta","protocol":17,"map":"pl_swiftwater_final1","folder":"tf","game":"Team Fortress","app_id":440,"player_count":0,"max_players":24,"Bots":0,"server_type":"Dedicated","server_os":"Linux","password":true,"vac":true,"version":"7742253","steam_id":85568392925397854,"keywords":["nocrits","nodmgspread","payload","uncletopia"],"game_id":440,"stv_port":27056,"stv_name":"Uncletopia | Warsaw | 5 | Stopwatch Beta | STV","players":null},{"server_id":54,"name":"Uncletopia | Warsaw | 6 | Community","name_short":"waw-6","host":"waw-1.pl.uncletopia.com","port":27065,"enabled":true,"region":"eu","cc":"pl","latitude":52.2297,"longitude":21.017532,"reserved":0,"last_update":"0001-01-01T00:00:00Z","name_a2s":"Uncletopia | Warsaw | 6 | Community","protocol":17,"map":"koth_highpass","folder":"tf","game":"Team Fortress","app_id":440,"player_count":0,"max_players":24,"Bots":0,"server_type":"Dedicated","server_os":"Linux","password":true,"vac":true,"version":"7742253","steam_id":85568392925397856,"keywords":["cp","nocrits","nodmgspread","uncletopia"],"game_id":440,"stv_port":27066,"stv_name":"Uncletopia | Warsaw | 6 | Community | STV","players":null}]}