{"status":true,"message":"","result":[{"server_id":9,"name":"Uncletopia | Atlanta | 1 | All Maps","name_short":"atl-1","host":"atl-1.us.uncletopia.com","port":27015,"enabled":true,"region":"us-east","cc":"us","latitude":33.753746,"longitude":-84.38633,"reserved":0,"last_update":"0001-01-01T00:00:00Z","name_a2s":"Uncletopia | Atlanta | 1 | All Maps","protocol":17,"map":"pl_badwater","folder":"tf","game":"Team Fortress","app_id":440,"player_count":24,"max_players":24,"Bots":0,"server_type":"Dedicated","server_os":"Linux","password":true,"vac":true,"version":"7742253","steam_id":85568392924469982,"keywords":["nocrits","nodmgspread","payload","uncletopia"],"game_id":440,"stv_port":27016,"stv_name":"Uncletopia | Atlanta | 1 | All Maps | STV","players":[{"user_id":155,"name":"Mr.Mug (Festive)","steam_id":76561199282207802,"connected_time":1757000000000,"state":"active","ping":69},{"user_id":180,"name":"callum","steam_id":76561198070918366,"connected_time":473000000000,"state":"active","ping":87},{"user_id":182,"name":"ash","steam_id":76561198127890645,"connected_time":90000000000,"state":"active","ping":65},{"user_id":144,"name":"SEKAI Player","steam_id":76561198025668771,"connected_time":3095000000000,"state":"active","ping":114},{"user_id":157,"name":"Lamb","steam_id":76561199406964877,"connected_time":1716000000000,"state":"active","ping":63},{"user_id":147,"name":"roln","steam_id":76561198041066271,"connected_time":3038000000000,"state":"active","ping":89},{"user_id":183,"name":"[GUT] RiDiK¬Æ","steam_id":76561197969756446,"connected_time":39000000000,"state":"active","ping":68},{"user_id":140,"name":"TheJuiceCrew","steam_id":76561198109073254,"connected_time":3477000000000,"state":"active","ping":61},{"user_id":179,"name":"The Goat","steam_id":76561197960432083,"connected_time":531000000000,"state":"active","ping":69},{"user_id":162,"name":"Phestive Pango","steam_id":76561198069811545,"connected_time":1303000000000,"state":"active","ping":49},{"user_id":129,"name":"conscripted monk","steam_id":76561199029246232,"connected_time":4590000000000,"state":"active","ping":70},{"user_id":134,"name":"ATL1 | Lancer Fan Club","steam_id":76561198355495948,"connected_time":4376000000000,"state":"active","ping":85},{"user_id":177,"name":"shadow","steam_id":76561198161824724,"connected_time":819000000000,"state":"active","ping":101},{"user_id":171,"name":"Gamut","steam_id":76561199185822800,"connected_time":1035000000000,"state":"active","ping":91},{"user_id":165,"name":"POV BALLER","steam_id":76561199144340440,"connected_time":1205000000000,"state":"active","ping":82},{"user_id":161,"name":"fac","steam_id":76561198009818412,"connected_time":1325000000000,"state":"active","ping":60},{"user_id":166,"name":"CJDGuy","steam_id":76561198213009545,"connected_time":1203000000000,"state":"active","ping":81},{"user_id":167,"name":"RedMustrd","steam_id":76561199246218857,"connected_time":1190000000000,"state":"active","ping":85},{"user_id":154,"name":"fingerbib","steam_id":76561198148132163,"connected_time":1807000000000,"state":"active","ping":87},{"user_id":168,"name":"Granny Krissy","steam_id":76561197960848174,"connected_time":1164000000000,"state":"active","ping":71},{"user_id":174,"name":"A_Malebolgia","steam_id":76561198097722818,"connected_time":1020000000000,"state":"active","ping":95},{"user_id":173,"name":"craxy fucking tavi","steam_id":76561198050192689,"connected_time":1033000000000,"state":"active","ping":113},{"user_id":175,"name":"beats","steam_id":76561199245717718,"connected_time":1003000000000,"state":"active","ping":73},{"user_id":176,"name":"mxgic","steam_id":76561198354656195,"connected_time":919000000000,"state":"active","ping":109}]},{"server_id":400,"name":"Uncletopia | Atlanta | 3 | Stopwatch Beta","name_short":"atl-3","host":"atl-1.us.uncletopia.com","port":27035,"enabled":true,"region":"us-east","cc":"us","latitude":33.753746,"longitude":-84.38633,"reserved":0,"last_update":"0001-01-01T00:00:00Z","name_a2s":"Uncletopia | Atlanta | 3 | Stopwatch Beta","protocol":17,"map":"workshop/koth_bagel_rc5.ugc2514036946","folder":"tf","game":"Team Fortress","app_id":440,"player_count":24,"max_players":24,"Bots":0,"server_type":"Dedicated","server_os":"Linux","password":true,"vac":true,"version":"7742253","steam_id":85568392924515187,"keywords":["cp","nocrits","nodmgspread","uncletopia"],"game_id":440,"stv_port":27036,"stv_name":"Uncletopia | Atlanta | 3 | Stopwatch Beta | STV","players":[{"user_id":102,"name":"Walmart Employee","steam_id":76561198840373909,"connected_time":3040000000000,"state":"active","ping":78},{"user_id":163,"name":"ECCO","steam_id":76561198002821513,"connected_time":275000000000,"state":"active","ping":64},{"user_id":153,"name":"Percy","steam_id":76561198875195004,"connected_time":622000000000,"state":"active","ping":114},{"user_id":154,"name":"Snugboo","steam_id":76561198147970327,"connected_time":583000000000,"state":"active","ping":60},{"user_id":157,"name":"hyeon @60Hz","steam_id":76561198246700372,"connected_time":500000000000,"state":"active","ping":51},{"user_id":146,"name":"please help me","steam_id":76561199084459911,"connected_time":902000000000,"state":"active","ping":62},{"user_id":104,"name":"Zeora","steam_id":76561198799145251,"connected_time":2955000000000,"state":"active","ping":49},{"user_id":159,"name":"luisdimesen28","steam_id":76561199213976201,"connected_time":438000000000,"state":"active","ping":126},{"user_id":162,"name":"Nermal Fan 2000","steam_id":76561198255823904,"connected_time":337000000000,"state":"active","ping":85},{"user_id":151,"name":"Can you sign my profile","steam_id":76561198799210771,"connected_time":669000000000,"state":"active","ping":88},{"user_id":152,"name":"dwight_schrute","steam_id":76561198041104084,"connected_time":655000000000,"state":"active","ping":63},{"user_id":76,"name":"Super Noob","steam_id":76561199179611350,"connected_time":4751000000000,"state":"active","ping":75},{"user_id":160,"name":"Le baguette neko","steam_id":76561198377044534,"connected_time":378000000000,"state":"active","ping":47},{"user_id":164,"name":"Menace to Sobriety","steam_id":76561198245103000,"connected_time":264000000000,"state":"active","ping":64},{"user_id":156,"name":"GooniOoni","steam_id":76561198102154561,"connected_time":565000000000,"state":"active","ping":73},{"user_id":158,"name":"All Tomorrow's Parties","steam_id":76561197995936212,"connected_time":495000000000,"state":"active","ping":60},{"user_id":165,"name":"Pills","steam_id":76561198799440163,"connected_time":264000000000,"state":"active","ping":88},{"user_id":166,"name":"Slice","steam_id":76561198046508636,"connected_time":225000000000,"state":"active","ping":67},{"user_id":111,"name":"jalexanderlbc","steam_id":76561199040456579,"connected_time":2828000000000,"state":"active","ping":122},{"user_id":92,"name":"KartGuy On Top","steam_id":76561198362915998,"connected_time":4108000000000,"state":"active","ping":52},{"user_id":167,"name":"Milwit","steam_id":76561199084423080,"connected_time":171000000000,"state":"active","ping":91},{"user_id":168,"name":"heavy gaming","steam_id":76561198123958244,"connected_time":134000000000,"state":"active","ping":63},{"user_id":170,"name":"Quincunx √ñlaavg√§√§rden","steam_id":76561198035618952,"connected_time":101000000000,"state":"active","ping":51},{"user_id":172,"name":"sheesh","steam_id":76561198855376206,"connected_time":68000000000,"state":"active","ping":62}]},{"server_id":401,"name":"Uncletopia | Atlanta | 4 | No Payload","name_short":"atl-4","host":"atl-1.us.uncletopia.com","port":27045,"enabled":true,"region":"us-east","cc":"us","latitude":33.753746,"longitude":-84.38633,"reserved":0,"last_update":"0001-01-01T00:00:00Z","name_a2s":"Uncletopia | Atlanta | 4 | No Payload","protocol":17,"map":"pl_pier","folder":"tf","game":"Team Fortress","app_id":440,"player_count":0,"max_players":24,"Bots":0,"server_type":"Dedicated","server_os":"Linux","password":true,"vac":true,"version":"7723704","steam_id":85568392924515188,"keywords":["nocrits","nodmgspread","payload","uncletopia"],"game_id":440,"stv_port":27046,"stv_name":"Uncletopia | Atlanta | 4 | No Payload | STV","players":null},{"server_id":2,"name":"Uncletopia | Chicago | 1 | All Maps","name_short":"chi-1","host":"chi-1.us.uncletopia.com","port":27015,"enabled":true,"region":"us-central","cc":"us","latitude":41.881832,"longitude":-87.62318,"reserved":0,"last_update":"0001-01-01T00:00:00Z","name_a2s":"Uncletopia | Chicago | 1 | All Maps","protocol":17,"map":"pl_upward","folder":"tf","game":"Team Fortress","app_id":440,"player_count":24,"max_players":24,"Bots":0,"server_type":"Dedicated","server_os":"Linux","password":true,"vac":true,"version":"7742253","steam_id":85568392924469984,"keywords":["nocrits","nodmgspread","payload","uncletopia"],"game_id":440,"stv_port":27016,"stv_name":"Uncletopia | Chicago | 1 | All Maps | STV","players":[{"user_id":30,"name":"nuclear bomb plans (used)","steam_id":76561198849316769,"connected_time":2465000000000,"state":"active","ping":61},{"user_id":11,"name":"Missing_data","steam_id":76561199199194882,"connected_time":3401000000000,"state":"active","ping":80},{"user_id":64,"name":"Dr. Feelsbad","steam_id":76561198117671709,"connected_time":433000000000,"state":"active","ping":76},{"user_id":61,"name":"T-jizzle","steam_id":76561198040332264,"connected_time":472000000000,"state":"active","ping":59},{"user_id":43,"name":"Fitts1099","steam_id":76561198044986906,"connected_time":1712000000000,"state":"active","ping":46},{"user_id":24,"name":"Smeelay","steam_id":76561198224812372,"connected_time":2709000000000,"state":"active","ping":52},{"user_id":65,"name":"[„èà] Bumpercars","steam_id":76561198061591743,"connected_time":420000000000,"state":"active","ping":74},{"user_id":44,"name":"VX Ghost (Holiday)","steam_id":76561198072541436,"connected_time":1614000000000,"state":"active","ping":44},{"user_id":28,"name":"IceFlower","steam_id":76561198207832149,"connected_time":2633000000000,"state":"active","ping":156},{"user_id":26,"name":"Now I'm a Little Motivated","steam_id":76561198069580305,"connected_time":2638000000000,"state":"active","ping":46},{"user_id":62,"name":"Eiffel","steam_id":76561198083685560,"connected_time":466000000000,"state":"active","ping":54},{"user_id":63,"name":"Kid named download","steam_id":76561199192074448,"connected_time":460000000000,"state":"active","ping":73},{"user_id":35,"name":"ch","steam_id":76561198012566405,"connected_time":2150000000000,"state":"active","ping":65},{"user_id":58,"name":"triangleman","steam_id":76561198972733542,"connected_time":847000000000,"state":"active","ping":62},{"user_id":47,"name":"Peanut Butter","steam_id":76561199229972249,"connected_time":1523000000000,"state":"active","ping":72},{"user_id":66,"name":"Squid","steam_id":76561198197045587,"connected_time":403000000000,"state":"active","ping":86},{"user_id":51,"name":"Zero","steam_id":76561199383267408,"connected_time":1361000000000,"state":"active","ping":63},{"user_id":67,"name":"Thwomp","steam_id":76561198043380851,"connected_time":395000000000,"state":"active","ping":91},{"user_id":69,"name":"DNC (do not contact)","steam_id":76561198312487248,"connected_time":338000000000,"state":"active","ping":82},{"user_id":52,"name":".jpg","steam_id":76561198137237377,"connected_time":1335000000000,"state":"active","ping":70},{"user_id":53,"name":"floofy","steam_id":76561198389769098,"connected_time":1328000000000,"state":"active","ping":77},{"user_id":55,"name":"extinct111","steam_id":76561199013696367,"connected_time":1291000000000,"state":"active","ping":62},{"user_id":56,"name":"Zeemii","steam_id":76561198809299581,"connected_time":1218000000000,"state":"active","ping":54},{"user_id":60,"name":"Chauckles","steam_id":76561197993151595,"connected_time":615000000000,"state":"active","ping":87}]},{"server_id":106,"name":"Uncletopia | Chicago | 2 | All Maps","name_short":"chi-2","host":"chi-1.us.uncletopia.com","port":27025,"enabled":true,"region":"us-central","cc":"us","latitude":41.881832,"longitude":-87.62318,"reserved":0,"last_update":"0001-01-01T00:00:00Z","name_a2s":"Uncletopia | Chicago | 2 | All Maps","protocol":17,"map":"koth_highpass","folder":"tf","game":"Team Fortress","app_id":440,"player_count":0,"max_players":24,"Bots":0,"server_type":"Dedicated","server_os":"Linux","password":true,"vac":true,"version":"7742253","steam_id":85568392924469985,"keywords":["cp","nocrits","nodmgspread","uncletopia"],"game_id":440,"stv_port":27026,"stv_name":"Uncletopia | Chicago | 2 | All Maps | STV","players":null},{"server_id":402,"name":"Uncletopia | Chicago | 3 | All Maps","name_short":"chi-3","host":"chi-1.us.uncletopia.com","port":27035,"enabled":true,"region":"us-central","cc":"us","latitude":41.881832,"longitude":-87.62318,"reserved":0,"last_update":"0001-01-01T00:00:00Z","name_a2s":"Uncletopia | Chicago | 3 | All Maps","protocol":17,"map":"cp_steel","folder":"tf","game":"Team Fortress","app_id":440,"player_count":24,"max_players":24,"Bots":0,"server_type":"Dedicated","server_os":"Linux","password":true,"vac":true,"version":"7742253","steam_id":85568392924515191,"keywords":["cp","nocrits","nodmgspread","uncletopia"],"game_id":440,"stv_port":27036,"stv_name":"Uncletopia | Chicago | 3 | All Maps | STV","players":[{"user_id":239,"name":"turnip","steam_id":76561197999375941,"connected_time":1063000000000,"state":"active","ping":75},{"user_id":240,"name":"amazing","steam_id":76561198386233160,"connected_time":864000000000,"state":"active","ping":85},{"user_id":210,"name":"CoconutRice","steam_id":76561198114909164,"connected_time":3109000000000,"state":"active","ping":50},{"user_id":188,"name":"KaiDuck4348","steam_id":76561199060186538,"connected_time":5551000000000,"state":"active","ping":75},{"user_id":115,"name":"Uso","steam_id":76561198012093238,"connected_time":10183000000000,"state":"active","ping":57},{"user_id":181,"name":"LerN","steam_id":76561198083463877,"connected_time":6612000000000,"state":"active","ping":60},{"user_id":241,"name":"Irontothecore","steam_id":76561198387384844,"connected_time":833000000000,"state":"active","ping":60},{"user_id":225,"name":"Jadus","steam_id":76561199091462938,"connected_time":1968000000000,"state":"active","ping":92},{"user_id":231,"name":"HollyBlocky","steam_id":76561198030156100,"connected_time":1774000000000,"state":"active","ping":75},{"user_id":214,"name":"no","steam_id":76561198248853140,"connected_time":2797000000000,"state":"active","ping":47},{"user_id":196,"name":"katryna","steam_id":76561198023440304,"connected_time":4997000000000,"state":"active","ping":54},{"user_id":70,"name":"christmas larguu","steam_id":76561197994336210,"connected_time":15696000000000,"state":"active","ping":59},{"user_id":237,"name":"Roberto Del Fuego","steam_id":76561198043458554,"connected_time":1341000000000,"state":"active","ping":47},{"user_id":236,"name":"bikerkid207","steam_id":76561198390782783,"connected_time":1388000000000,"state":"active","ping":65},{"user_id":223,"name":"ouch","steam_id":76561199384107069,"connected_time":2009000000000,"state":"active","ping":71},{"user_id":244,"name":"Pancreas Enjoyer","steam_id":76561199438598904,"connected_time":493000000000,"state":"active","ping":117},{"user_id":226,"name":"i deepthroat shiny keys","steam_id":76561198986534519,"connected_time":1947000000000,"state":"active","ping":100},{"user_id":227,"name":"motorized bar of soap","steam_id":76561198882404753,"connected_time":1897000000000,"state":"active","ping":75},{"user_id":229,"name":"Red Velveeta Cake","steam_id":76561198073764084,"connected_time":1841000000000,"state":"active","ping":65},{"user_id":242,"name":"rubb3r","steam_id":76561198096874230,"connected_time":781000000000,"state":"active","ping":71},{"user_id":234,"name":"BigOrca54","steam_id":76561198181360271,"connected_time":1629000000000,"state":"active","ping":75},{"user_id":245,"name":"SirJellyRolls","steam_id":76561198119277244,"connected_time":219000000000,"state":"active","ping":67},{"user_id":233,"name":"mega man","steam_id":76561197986805557,"connected_time":1738000000000,"state":"active","ping":81},{"user_id":246,"name":"Miramar","steam_id":76561198022057653,"connected_time":188000000000,"state":"active","ping":71}]},{"server_id":403,"name":"Uncletopia | Chicago | 4 | All Maps","name_short":"chi-4","host":"chi-1.us.uncletopia.com","port":27045,"enabled":true,"region":"us-central","cc":"us","latitude":41.881832,"longitude":-87.62318,"reserved":0,"last_update":"0001-01-01T00:00:00Z","name_a2s":"Uncletopia | Chicago | 4 | All Maps","protocol":17,"map":"cp_process_final","folder":"tf","game":"Team Fortress","app_id":440,"player_count":0,"max_players":24,"Bots":0,"server_type":"Dedicated","server_os":"Linux","password":true,"vac":true,"version":"7742253","steam_id":85568392924515193,"keywords":["cp","nocrits","nodmgspread","uncletopia"],"game_id":440,"stv_port":27046,"stv_name":"Uncletopia | Chicago | 4 | All Maps | STV","players":null},{"server_id":36,"name":"Uncletopia | Chicago | 5 | All Maps","name_short":"chi-5","host":"chi-2.us.uncletopia.com","port":27015,"enabled":true,"region":"us-central","cc":"us","latitude":41.881832,"longitude":-87.62318,"reserved":0,"last_update":"0001-01-01T00:00:00Z","name_a2s":"Uncletopia | Chicago | 5 | All Maps","protocol":17,"map":"koth_highpass","folder":"tf","game":"Team Fortress","app_id":440,"player_count":0,"max_players":24,"Bots":0,"server_type":"Dedicated","server_os":"Linux","password":true,"vac":true,"version":"7742253","steam_id":85568392924866362,"keywords":["cp","nocrits","nodmgspread","uncletopia"],"game_id":440,"stv_port":27016,"stv_name":"Uncletopia | Chicago | 5 | All Maps | STV","players":null},{"server_id":37,"name":"Uncletopia | Chicago | 6 | All Maps","name_short":"chi-6","host":"chi-2.us.uncletopia.com","port":27025,"enabled":true,"region":"us-central","cc":"us","latitude":41.881832,"longitude":-87.62318,"reserved":0,"last_update":"0001-01-01T00:00:00Z","name_a2s":"Uncletopia | Chicago | 6 | All Maps","protocol":17,"map":"pl_frontier_final","folder":"tf","game":"Team Fortress","app_id":440,"player_count":0,"max_players":24,"Bots":0,"server_type":"Dedicated","server_os":"Linux","password":true,"vac":true,"version":"7742253","steam_id":85568392924866363,"keywords":["nocrits","nodmgspread","payload","uncletopia"],"game_id":440,"stv_port":27026,"stv_name":"Uncletopia | Chicago | 6 | All Maps | STV","players":null},{"server_id":38,"name":"Uncletopia | Chicago | 7 | Stopwatch Beta","name_short":"chi-7","host":"chi-2.us.uncletopia.com","port":27035,"enabled":true,"region":"us-central","cc":"us","latitude":41.881832,"longitude":-87.62318,"reserved":0,"last_update":"0001-01-01T00:00:00Z","name_a2s":"Uncletopia | Chicago | 7 | Stopwatch Beta","protocol":17,"map":"cp_altitude","folder":"tf","game":"Team Fortress","app_id":440,"player_count":0,"max_players":24,"Bots":0,"server_type":"Dedicated","server_os":"Linux","password":true,"vac":true,"version":"7742253","steam_id":85568392924866364,"keywords":["cp","nocrits","nodmgspread","uncletopia"],"game_id":440,"stv_port":27036,"stv_name":"Uncletopia | Chicago | 7 | Stopwatch Beta | STV","players":null},{"server_id":39,"name":"Uncletopia | Chicago | 8 | Community","name_short":"chi-8","host":"chi-2.us.uncletopia.com","port":27045,"enabled":true,"region":"us-central","cc":"us","latitude":41.881832,"longitude":-87.62318,"reserved":0,"last_update":"0001-01-01T00:00:00Z","name_a2s":"Uncletopia | Chicago | 8 | Community","protocol":17,"map":"workshop/koth_ashville_final.ugc2130459942","folder":"tf","game":"Team Fortress","app_id":440,"player_count":0,"max_players":24,"Bots":0,"server_type":"Dedicated","server_os":"Linux","password":true,"vac":true,"version":"7742253","steam_id":85568392924866365,"keywords":["cp","nocrits","nodmgspread","uncletopia"],"game_id":440,"stv_port":27046,"stv_name":"Uncletopia | Chicago | 8 | Community | STV","players":null},{"server_id":8,"name":"Uncletopia | Dallas | 1 | All Maps","name_short":"dal-1","host":"dal-1.us.uncletopia.com","port":27015,"enabled":true,"region":"us-central","cc":"us","latitude":32.779167,"longitude":-96.80889,"reserved":0,"last_update":"0001-01-01T00:00:00Z","name_a2s":"Uncletopia | Dallas | 1 | All Maps","protocol":17,"map":"pl_badwater","folder":"tf","game":"Team Fortress","app_id":440,"player_count":24,"max_players":24,"Bots":0,"server_type":"Dedicated","server_os":"Linux","password":true,"vac":true,"version":"7742253","steam_id":85568392924469986,"keywords":["nocrits","nodmgspread","payload","uncletopia"],"game_id":440,"stv_port":27016,"stv_name":"Uncletopia | Dallas | 1 | All Maps | STV","players":[{"user_id":34,"name":"TTV AhoyK","steam_id":76561198274742715,"connected_time":3947000000000,"state":"active","ping":74},{"user_id":65,"name":"Watt Dafuq","steam_id":76561198194402925,"connected_time":2133000000000,"state":"active","ping":82},{"user_id":86,"name":"Ginger Powder","steam_id":76561198082650449,"connected_time":237000000000,"state":"active","ping":76},{"user_id":23,"name":"TheBiggerIron","steam_id":76561198257043605,"connected_time":4531000000000,"state":"active","ping":101},{"user_id":76,"name":"Sup","steam_id":76561198384763147,"connected_time":1527000000000,"state":"active","ping":157},{"user_id":80,"name":"Marc G","steam_id":76561198062650363,"connected_time":1097000000000,"state":"active","ping":45},{"user_id":27,"name":"LalitoTV","steam_id":76561198334302951,"connected_time":4268000000000,"state":"active","ping":92},{"user_id":59,"name":":3 | ph0va_ \u003c3 sab","steam_id":76561198309010627,"connected_time":2352000000000,"state":"active","ping":94},{"user_id":49,"name":"TofuCat","steam_id":76561198416746118,"connected_time":3585000000000,"state":"active","ping":45},{"user_id":21,"name":"Derply","steam_id":76561198871211642,"connected_time":4712000000000,"state":"active","ping":96},{"user_id":60,"name":"prosaic","steam_id":76561198353346922,"connected_time":2341000000000,"state":"active","ping":60},{"user_id":73,"name":"Kervin","steam_id":76561198087832178,"connected_time":1673000000000,"state":"active","ping":47},{"user_id":77,"name":"The World Is Changing‚Ñ¢","steam_id":76561198042952845,"connected_time":1503000000000,"state":"active","ping":106},{"user_id":87,"name":"BlueBoi2006","steam_id":76561199150475057,"connected_time":118000000000,"state":"active","ping":62},{"user_id":64,"name":"What are you doing?!","steam_id":76561198405248691,"connected_time":2166000000000,"state":"active","ping":116},{"user_id":81,"name":"Ricelover","steam_id":76561198064631164,"connected_time":1023000000000,"state":"active","ping":83},{"user_id":75,"name":"Boingo","steam_id":76561199086931535,"connected_time":1644000000000,"state":"active","ping":54},{"user_id":88,"name":"Lion","steam_id":76561198848879603,"connected_time":7000000000,"state":"spawning","ping":84},{"user_id":56,"name":"SwaggerMcJagger","steam_id":76561198366694430,"connected_time":2816000000000,"state":"active","ping":58},{"user_id":78,"name":"damiankiller1243","steam_id":76561198868885090,"connected_time":1499000000000,"state":"active","ping":58},{"user_id":83,"name":"Arrythmia","steam_id":76561198093748123,"connected_time":445000000000,"state":"active","ping":105},{"user_id":68,"name":"SuperJagops","steam_id":76561198034689716,"connected_time":1972000000000,"state":"active","ping":92},{"user_id":47,"name":"TheSaltRobot","steam_id":76561198839739497,"connected_time":3637000000000,"state":"active","ping":53},{"user_id":85,"name":"‚ù§RaRa‚ù§","steam_id":76561198089107665,"connected_time":305000000000,"state":"active","ping":100}]},{"server_id":108,"name":"Uncletopia | Dallas | 2 | All Maps","name_short":"dal-2","host":"dal-1.us.uncletopia.com","port":27025,"enabled":true,"region":"us-central","cc":"us","latitude":32.779167,"longitude":-96.80889,"reserved":0,"last_update":"0001-01-01T00:00:00Z","name_a2s":"Uncletopia | Dallas | 2 | All Maps","protocol":17,"map":"pl_frontier_final","folder":"tf","game":"Team Fortress","app_id":440,"player_count":0,"max_players":24,"Bots":0,"server_type":"Dedicated","server_os":"Linux","password":true,"vac":true,"version":"7742253","steam_id":85568392924469988,"keywords":["nocrits","nodmgspread","payload","uncletopia"],"game_id":440,"stv_port":27026,"stv_name":"Uncletopia | Dallas | 2 | All Maps | STV","players":null},{"server_id":5,"name":"Uncletopia | Frankfurt | 1 | All Maps","name_short":"frk-1","host":"frk-1.de.uncletopia.com","port":27015,"enabled":true,"region":"eu","cc":"de","latitude":50.110924,"longitude":8.682127,"reserved":0,"last_update":"0001-01-01T00:00:00Z","name_a2s":"Uncletopia | Frankfurt | 1 | All Maps","protocol":17,"map":"pl_pier","folder":"tf","game":"Team Fortress","app_id":440,"player_count":24,"max_players":24,"Bots":0,"server_type":"Dedicated","server_os":"Linux","password":true,"vac":true,"version":"7742253","steam_id":85568392924469989,"keywords":["nocrits","nodmgspread","payload","uncletopia"],"game_id":440,"stv_port":27016,"stv_name":"Uncletopia | Frankfurt | 1 | All Maps | STV","players":[{"user_id":432,"name":"Andreus","steam_id":76561199403926001,"connected_time":2549000000000,"state":"active","ping":61},{"user_id":403,"name":"MAJAX","steam_id":76561198254828632,"connected_time":4560000000000,"state":"active","ping":67},{"user_id":449,"name":"Insain Bolt!","steam_id":76561198025687726,"connected_time":1524000000000,"state":"active","ping":52},{"user_id":471,"name":"Borowka","steam_id":76561199095708127,"connected_time":344000000000,"state":"active","ping":94},{"user_id":476,"name":"My Friend Deagol","steam_id":76561198450859507,"connected_time":115000000000,"state":"active","ping":60},{"user_id":458,"name":"nicholas","steam_id":76561198058211873,"connected_time":649000000000,"state":"active","ping":47},{"user_id":409,"name":"[‚òÅ]ReseF","steam_id":76561198049390479,"connected_time":3505000000000,"state":"active","ping":101},{"user_id":472,"name":"wretched","steam_id":76561197974177672,"connected_time":243000000000,"state":"active","ping":86},{"user_id":456,"name":"Smucky","steam_id":76561197989231444,"connected_time":819000000000,"state":"active","ping":65},{"user_id":450,"name":"Julez","steam_id":76561198045505082,"connected_time":1513000000000,"state":"active","ping":64},{"user_id":468,"name":"razeboi7","steam_id":76561199236420552,"connected_time":475000000000,"state":"active","ping":77},{"user_id":473,"name":"Slimeby","steam_id":76561198353438688,"connected_time":221000000000,"state":"active","ping":76},{"user_id":474,"name":"Dezi","steam_id":76561198987947062,"connected_time":155000000000,"state":"active","ping":67},{"user_id":475,"name":"Salad's Warband","steam_id":76561198214089583,"connected_time":153000000000,"state":"active","ping":52},{"user_id":477,"name":"wolfgang","steam_id":76561199111818670,"connected_time":113000000000,"state":"active","ping":101},{"user_id":460,"name":"night.s","steam_id":76561198326287823,"connected_time":637000000000,"state":"active","ping":76},{"user_id":444,"name":"Clamor_","steam_id":76561198104368295,"connected_time":1671000000000,"state":"active","ping":74},{"user_id":448,"name":"CaptainMac","steam_id":76561198273156139,"connected_time":1620000000000,"state":"active","ping":44},{"user_id":464,"name":"Xx_„Åà„Å™„Å™„ÇìxX69","steam_id":76561199427679148,"connected_time":572000000000,"state":"active","ping":60},{"user_id":470,"name":"Dankor","steam_id":76561199443499490,"connected_time":436000000000,"state":"active","ping":72},{"user_id":478,"name":"üåº Hugee","steam_id":76561198245495152,"connected_time":107000000000,"state":"active","ping":62},{"user_id":452,"name":"Pootis","steam_id":76561199121999261,"connected_time":1492000000000,"state":"active","ping":96},{"user_id":453,"name":"Hage","steam_id":76561198135224982,"connected_time":1470000000000,"state":"active","ping":86},{"user_id":479,"name":"Festdoktor","steam_id":76561198058159271,"connected_time":67000000000,"state":"active","ping":57}]},{"server_id":110,"name":"Uncletopia | Frankfurt | 2 | All Maps","name_short":"frk-2","host":"frk-1.de.uncletopia.com","port":27025,"enabled":true,"region":"eu","cc":"de","latitude":50.110924,"longitude":8.682127,"reserved":0,"last_update":"0001-01-01T00:00:00Z","name_a2s":"Uncletopia | Frankfurt | 2 | All Maps","protocol":17,"map":"pl_borneo","folder":"tf","game":"Team Fortress","app_id":440,"player_count":24,"max_players":24,"Bots":0,"server_type":"Dedicated","server_os":"Linux","password":true,"vac":true,"version":"7742253","steam_id":85568392924469990,"keywords":["nocrits","nodmgspread","payload","uncletopia"],"game_id":440,"stv_port":27026,"stv_name":"Uncletopia | Frankfurt | 2 | All Maps | STV","players":[{"user_id":102,"name":"Telivan","steam_id":76561198026048940,"connected_time":1698000000000,"state":"active","ping":72},{"user_id":112,"name":"wee nut","steam_id":76561198083288197,"connected_time":1371000000000,"state":"active","ping":68},{"user_id":116,"name":"the vvvrinch","steam_id":76561198874811732,"connected_time":1096000000000,"state":"active","ping":92},{"user_id":105,"name":"ZOGG FearLand","steam_id":76561198352683491,"connected_time":1641000000000,"state":"active","ping":52},{"user_id":126,"name":"Hugz","steam_id":76561198069572147,"connected_time":579000000000,"state":"active","ping":63},{"user_id":100,"name":"Noob_with_source","steam_id":76561198870362103,"connected_time":2068000000000,"state":"active","ping":60},{"user_id":124,"name":"Kurage","steam_id":76561198021221288,"connected_time":655000000000,"state":"active","ping":57},{"user_id":92,"name":"sp00ky","steam_id":76561198279985917,"connected_time":2647000000000,"state":"active","ping":64},{"user_id":125,"name":"Cosmetic brain","steam_id":76561198055936410,"connected_time":639000000000,"state":"active","ping":89},{"user_id":123,"name":"nut cracker","steam_id":76561198237588932,"connected_time":709000000000,"state":"active","ping":59},{"user_id":117,"name":"baro.ricky","steam_id":76561198172204039,"connected_time":946000000000,"state":"active","ping":56},{"user_id":115,"name":"Brainlet","steam_id":76561198862617163,"connected_time":1156000000000,"state":"active","ping":59},{"user_id":131,"name":"im joel :)","steam_id":76561198430050570,"connected_time":318000000000,"state":"active","ping":70},{"user_id":119,"name":"PanPatrik","steam_id":76561198293331527,"connected_time":914000000000,"state":"active","ping":59},{"user_id":118,"name":"Sir Kiops","steam_id":76561198022769275,"connected_time":943000000000,"state":"active","ping":103},{"user_id":74,"name":"bigwish | bmod.tf","steam_id":76561197997859723,"connected_time":3425000000000,"state":"active","ping":69},{"user_id":127,"name":"sorry \u003c3 Der√©k","steam_id":76561198159410471,"connected_time":423000000000,"state":"active","ping":72},{"user_id":114,"name":"sesw","steam_id":76561198057332404,"connected_time":1329000000000,"state":"active","ping":50},{"user_id":122,"name":"DirtyFred","steam_id":76561198031814950,"connected_time":782000000000,"state":"active","ping":78},{"user_id":132,"name":"Lukas","steam_id":76561198009118452,"connected_time":180000000000,"state":"active","ping":56},{"user_id":130,"name":"unnam3d","steam_id":76561198286257338,"connected_time":373000000000,"state":"active","ping":60},{"user_id":90,"name":"Jughead","steam_id":76561198000355410,"connected_time":2700000000000,"state":"active","ping":44},{"user_id":87,"name":"Rappin' Sebastian","steam_id":76561198453928256,"connected_time":3031000000000,"state":"active","ping":90},{"user_id":134,"name":"yuh","steam_id":76561199005555839,"connected_time":124000000000,"state":"active","ping":76}]},{"server_id":308,"name":"Uncletopia | Frankfurt | 3 | All Maps","name_short":"frk-3","host":"frk-1.de.uncletopia.com","port":27035,"enabled":true,"region":"eu","cc":"de","latitude":50.110924,"longitude":8.682127,"reserved":0,"last_update":"0001-01-01T00:00:00Z","name_a2s":"Uncletopia | Frankfurt | 3 | All Maps","protocol":17,"map":"koth_viaduct","folder":"tf","game":"Team Fortress","app_id":440,"player_count":0,"max_players":24,"Bots":0,"server_type":"Dedicated","server_os":"Linux","password":true,"vac":true,"version":"7742253","steam_id":85568392924504274,"keywords":["cp","nocrits","nodmgspread","uncletopia"],"game_id":440,"stv_port":27036,"stv_name":"Uncletopia | Frankfurt | 3 | All Maps | STV","players":null},{"server_id":309,"name":"Uncletopia | Frankfurt | 4 | All Maps","name_short":"frk-4","host":"frk-1.de.uncletopia.com","port":27045,"enabled":true,"region":"eu","cc":"de","latitude":50.110924,"longitude":8.682127,"reserved":0,"last_update":"0001-01-01T00:00:00Z","name_a2s":"Uncletopia | Frankfurt | 4 | All Maps","protocol":17,"map":"cp_altitude","folder":"tf","game":"Team Fortress","app_id":440,"player_count":17,"max_players":24,"Bots":0,"server_type":"Dedicated","server_os":"Linux","password":true,"vac":true,"version":"7742253","steam_id":85568392924504275,"keywords":["cp","nocrits","nodmgspread","uncletopia"],"game_id":440,"stv_port":27046,"stv_name":"Uncletopia | Frankfurt | 4 | All Maps | STV","players":[{"user_id":36,"name":"FaceShackle","steam_id":76561198038371397,"connected_time":885000000000,"state":"active","ping":43},{"user_id":55,"name":"Klusterdash","steam_id":76561198115434016,"connected_time":303000000000,"state":"active","ping":170},{"user_id":33,"name":"Purple","steam_id":76561199032365015,"connected_time":1029000000000,"state":"active","ping":80},{"user_id":59,"name":"Mishaswy","steam_id":76561198156848144,"connected_time":102000000000,"state":"active","ping":97},{"user_id":56,"name":"Miton","steam_id":76561197970323209,"connected_time":277000000000,"state":"active","ping":75},{"user_id":20,"name":"kilo","steam_id":76561198015641339,"connected_time":1232000000000,"state":"active","ping":72},{"user_id":57,"name":"Falka","steam_id":76561198072182791,"connected_time":157000000000,"state":"active","ping":60},{"user_id":58,"name":"ToxychDaPacket","steam_id":76561198191216334,"connected_time":152000000000,"state":"active","ping":91},{"user_id":26,"name":"Poodle","steam_id":76561198015483504,"connected_time":1093000000000,"state":"active","ping":70},{"user_id":39,"name":"aaaaa aa aaa","steam_id":76561198377289568,"connected_time":830000000000,"state":"active","ping":52},{"user_id":40,"name":"WUNNA","steam_id":76561198999848273,"connected_time":829000000000,"state":"active","ping":74},{"user_id":41,"name":"weaselmeister","steam_id":76561199059841173,"connected_time":815000000000,"state":"active","ping":58},{"user_id":43,"name":"youmme95","steam_id":76561198049802823,"connected_time":779000000000,"state":"active","ping":75},{"user_id":46,"name":"Acid","steam_id":76561198102110680,"connected_time":728000000000,"state":"active","ping":89},{"user_id":47,"name":"TylowStar","steam_id":76561198357107806,"connected_time":724000000000,"state":"active","ping":60},{"user_id":48,"name":"Sniddies","steam_id":76561198208740557,"connected_time":711000000000,"state":"active","ping":45},{"user_id":50,"name":"Cazulas","steam_id":76561198027460283,"connected_time":664000000000,"state":"active","ping":62}]},{"server_id":310,"name":"Uncletopia | Frankfurt | 5 | All Maps","name_short":"frk-5","host":"frk-1.de.uncletopia.com","port":27055,"enabled":true,"region":"eu","cc":"de","latitude":50.110924,"longitude":8.682127,"reserved":0,"last_update":"0001-01-01T00:00:00Z","name_a2s":"Uncletopia | Frankfurt | 5 | All Maps","protocol":17,"map":"pl_upward","folder":"tf","game":"Team Fortress","app_id":440,"player_count":24,"max_players":24,"Bots":0,"server_type":"Dedicated","server_os":"Linux","password":true,"vac":true,"version":"7742253","steam_id":85568392924504277,"keywords":["nocrits","nodmgspread","payload","uncletopia"],"game_id":440,"stv_port":27056,"stv_name":"Uncletopia | Frankfurt | 5 | All Maps | STV","players":[{"user_id":274,"name":"goofy goober","steam_id":76561198013237629,"connected_time":2408000000000,"state":"active","ping":105},{"user_id":285,"name":".bRdyyy","steam_id":76561198057256978,"connected_time":1483000000000,"state":"active","ping":46},{"user_id":141,"name":"Vibing Wave [IRan]","steam_id":76561198866358613,"connected_time":9878000000000,"state":"active","ping":157},{"user_id":253,"name":"Wardruna96","steam_id":76561199057083828,"connected_time":3824000000000,"state":"active","ping":74},{"user_id":277,"name":"Leibeigener","steam_id":76561199275478305,"connected_time":2180000000000,"state":"active","ping":41},{"user_id":295,"name":"Gabys","steam_id":76561198282892553,"connected_time":359000000000,"state":"active","ping":74},{"user_id":279,"name":"Mor'du","steam_id":76561198274105878,"connected_time":2096000000000,"state":"active","ping":86},{"user_id":296,"name":"VolcanicArts","steam_id":76561198063453246,"connected_time":337000000000,"state":"active","ping":68},{"user_id":257,"name":"a Cat that cry","steam_id":76561198134378108,"connected_time":3562000000000,"state":"active","ping":79},{"user_id":265,"name":"homestuck on main","steam_id":76561198820197253,"connected_time":2775000000000,"state":"active","ping":73},{"user_id":289,"name":"Gver3113","steam_id":76561198118659012,"connected_time":1003000000000,"state":"active","ping":74},{"user_id":273,"name":"ducksattack","steam_id":76561198074706076,"connected_time":2491000000000,"state":"active","ping":73},{"user_id":281,"name":"kgf","steam_id":76561198181442259,"connected_time":2034000000000,"state":"active","ping":66},{"user_id":283,"name":"Umbro","steam_id":76561198087930438,"connected_time":1619000000000,"state":"active","ping":97},{"user_id":244,"name":"TheDreadDevil","steam_id":76561198195927623,"connected_time":4601000000000,"state":"active","ping":78},{"user_id":294,"name":"hushhx","steam_id":76561198216200092,"connected_time":416000000000,"state":"active","ping":68},{"user_id":284,"name":"bob","steam_id":76561198309295580,"connected_time":1560000000000,"state":"active","ping":58},{"user_id":282,"name":"Pregnant granny","steam_id":76561198042593027,"connected_time":1689000000000,"state":"active","ping":79},{"user_id":293,"name":"Chicker","steam_id":76561198809697283,"connected_time":650000000000,"state":"active","ping":53},{"user_id":256,"name":"DrExplosive","steam_id":76561198063678579,"connected_time":3615000000000,"state":"active","ping":49},{"user_id":297,"name":"kyzzieOh!","steam_id":76561198099021004,"connected_time":0,"state":"spawning","ping":0},{"user_id":290,"name":"System","steam_id":76561199442503973,"connected_time":955000000000,"state":"active","ping":39},{"user_id":241,"name":"AleXandriX","steam_id":76561198035203950,"connected_time":4745000000000,"state":"active","ping":60},{"user_id":292,"name":"SantiThePug #ReviveTheCaber","steam_id":76561199049615996,"connected_time":844000000000,"state":"active","ping":70}]},{"server_id":311,"name":"Uncletopia | Frankfurt | 6 | All Maps","name_short":"frk-6","host":"frk-1.de.uncletopia.com","port":27065,"enabled":true,"region":"eu","cc":"de","latitude":50.110924,"longitude":8.682127,"reserved":0,"last_update":"0001-01-01T00:00:00Z","name_a2s":"Uncletopia | Frankfurt | 6 | All Maps","protocol":17,"map":"cp_dustbowl","folder":"tf","game":"Team Fortress","app_id":440,"player_count":20,"max_players":24,"Bots":0,"server_type":"Dedicated","server_os":"Linux","password":true,"vac":true,"version":"7742253","steam_id":85568392924504278,"keywords":["cp","nocrits","nodmgspread","uncletopia"],"game_id":440,"stv_port":27066,"stv_name":"Uncletopia | Frankfurt | 6 | All Maps | STV","players":[{"user_id":196,"name":"hinfort","steam_id":76561198046354794,"connected_time":1519000000000,"state":"active","ping":70},{"user_id":208,"name":"UnusualBrit","steam_id":76561198255679838,"connected_time":839000000000,"state":"active","ping":61},{"user_id":204,"name":"ScarredPixel123","steam_id":76561199165112703,"connected_time":1078000000000,"state":"active","ping":78},{"user_id":200,"name":"clems17","steam_id":76561199420685482,"connected_time":1279000000000,"state":"active","ping":56},{"user_id":209,"name":"[1stBdC]SARG Quintal","steam_id":76561198171396362,"connected_time":835000000000,"state":"active","ping":91},{"user_id":198,"name":"citronous","steam_id":76561198093290934,"connected_time":1321000000000,"state":"active","ping":55},{"user_id":210,"name":"Ragnor","steam_id":76561198269543979,"connected_time":807000000000,"state":"active","ping":69},{"user_id":185,"name":"Large Seel","steam_id":76561198419483326,"connected_time":2068000000000,"state":"active","ping":89},{"user_id":175,"name":"swansong","steam_id":76561198082580561,"connected_time":3111000000000,"state":"active","ping":52},{"user_id":219,"name":"meatsoupcube","steam_id":76561198276802249,"connected_time":251000000000,"state":"active","ping":106},{"user_id":194,"name":"Gnarville","steam_id":76561198006373329,"connected_time":1823000000000,"state":"active","ping":60},{"user_id":213,"name":"waZywoo","steam_id":76561198313253111,"connected_time":522000000000,"state":"active","ping":65},{"user_id":218,"name":"GodOfGobboz","steam_id":76561198154677956,"connected_time":262000000000,"state":"active","ping":67},{"user_id":220,"name":"Dunboi","steam_id":76561198120949216,"connected_time":244000000000,"state":"active","ping":60},{"user_id":216,"name":"SunZi","steam_id":76561198139243535,"connected_time":366000000000,"state":"active","ping":89},{"user_id":217,"name":"Fortezza","steam_id":76561198972539903,"connected_time":346000000000,"state":"active","ping":46},{"user_id":221,"name":"Ged","steam_id":76561198079288943,"connected_time":239000000000,"state":"active","ping":114},{"user_id":191,"name":"Coldary","steam_id":76561198158968852,"connected_time":1970000000000,"state":"active","ping":54},{"user_id":193,"name":"gwa≈Çt wƒÖtroby 0,7 i 5 piw","steam_id":76561199038973360,"connected_time":1938000000000,"state":"active","ping":100},{"user_id":203,"name":"Biggest Boss [Knockout]","steam_id":76561198044387120,"connected_time":1137000000000,"state":"active","ping":84}]},{"server_id":23,"name":"Uncletopia | Frankfurt | 7 | Stopwatch Beta","name_short":"frk-7","host":"frk-1.de.uncletopia.com","port":27075,"enabled":true,"region":"eu","cc":"de","latitude":50.110924,"longitude":8.682127,"reserved":0,"last_update":"0001-01-01T00:00:00Z","name_a2s":"Uncletopia | Frankfurt | 7 | Stopwatch Beta","protocol":17,"map":"koth_lakeside_final","folder":"tf","game":"Team Fortress","app_id":440,"player_count":0,"max_players":24,"Bots":0,"server_type":"Dedicated","server_os":"Linux","password":true,"vac":true,"version":"7742253","steam_id":85568392924742827,"keywords":["cp","nocrits","nodmgspread","uncletopia"],"game_id":440,"stv_port":27076,"stv_name":"Uncletopia | Frankfurt | 7 | Stopwatch Beta | STV","players":null},{"server_id":24,"name":"Uncletopia | Frankfurt | 8 | Community","name_short":"frk-8","host":"frk-1.de.uncletopia.com","port":27085,"enabled":true,"region":"eu","cc":"de","latitude":50.110924,"longitude":8.682127,"reserved":0,"last_update":"0001-01-01T00:00:00Z","name_a2s":"Uncletopia | Frankfurt | 8 | Community","protocol":17,"map":"workshop/koth_slaughter_rc1.ugc1712845210","folder":"tf","game":"Team Fortress","app_id":440,"player_count":0,"max_players":24,"Bots":0,"server_type":"Dedicated","server_os":"Linux","password":true,"vac":true,"version":"7742253","steam_id":85568392924742828,"keywords":["cp","nocrits","nodmgspread","uncletopia"],"game_id":440,"stv_port":27086,"stv_name":"Uncletopia | Frankfurt | 8 | Community | STV","players":null},{"server_id":202,"name":"Uncletopia | Hong Kong | 1 | All Maps","name_short":"hgk-1","host":"hgk-1.hk.uncletopia.com","port":27015,"enabled":true,"region":"asia","cc":"hk","latitude":22.302711,"longitude":114.177216,"reserved":0,"last_update":"0001-01-01T00:00:00Z","name_a2s":"Uncletopia | Hong Kong | 1 | All Maps","protocol":17,"map":"cp_snakewater_final1","folder":"tf","game":"Team Fortress","app_id":440,"player_count":0,"max_players":24,"Bots":0,"server_type":"Dedicated","server_os":"Linux","password":true,"vac":true,"version":"7742253","steam_id":85568392924494504,"keywords":["cp","nocrits","nodmgspread","uncletopia"],"game_id":440,"stv_port":27016,"stv_name":"Uncletopia | Hong Kong | 1 | All Maps | STV","players":null},{"server_id":1,"name":"Uncletopia | Los Angeles | 1 | All Maps","name_short":"lax-1","host":"lax-1.us.uncletopia.com","port":27015,"enabled":true,"region":"us-west","cc":"us","latitude":33.94279,"longitude":-118.41004,"reserved":0,"last_update":"0001-01-01T00:00:00Z","name_a2s":"Uncletopia | Los Angeles | 1 | All Maps","protocol":17,"map":"pl_borneo","folder":"tf","game":"Team Fortress","app_id":440,"player_count":0,"max_players":24,"Bots":0,"server_type":"Dedicated","server_os":"Linux","password":true,"vac":true,"version":"7742253","steam_id":85568392924469991,"keywords":["nocrits","nodmgspread","payload","uncletopia"],"game_id":440,"stv_port":27016,"stv_name":"Uncletopia | Los Angeles | 1 | All Maps | STV","players":null},{"server_id":112,"name":"Uncletopia | Los Angeles | 2 | All Maps","name_short":"lax-2","host":"lax-1.us.uncletopia.com","port":27025,"enabled":true,"region":"us-west","cc":"us","latitude":33.94279,"longitude":-118.41004,"reserved":0,"last_update":"0001-01-01T00:00:00Z","name_a2s":"Uncletopia | Los Angeles | 2 | All Maps","protocol":17,"map":"pl_upward","folder":"tf","game":"Team Fortress","app_id":440,"player_count":0,"max_players":24,"Bots":0,"server_type":"Dedicated","server_os":"Linux","password":true,"vac":true,"version":"7742253","steam_id":85568392924469992,"keywords":["nocrits","nodmgspread","payload","uncletopia"],"game_id":440,"stv_port":27026,"stv_name":"Uncletopia | Los Angeles | 2 | All Maps | STV","players":null},{"server_id":324,"name":"Uncletopia | Los Angeles | 3 | All Maps","name_short":"lax-3","host":"lax-1.us.uncletopia.com","port":27035,"enabled":true,"region":"us-west","cc":"us","latitude":33.94279,"longitude":-118.41004,"reserved":0,"last_update":"0001-01-01T00:00:00Z","name_a2s":"Uncletopia | Los Angeles | 3 | All Maps","protocol":17,"map":"pl_borneo","folder":"tf","game":"Team Fortress","app_id":440,"player_count":0,"max_players":24,"Bots":0,"server_type":"Dedicated","server_os":"Linux","password":true,"vac":true,"version":"7742253","steam_id":85568392924510198,"keywords":["nocrits","nodmgspread","payload","uncletopia"],"game_id":440,"stv_port":27036,"stv_name":"Uncletopia | Los Angeles | 3 | All Maps | STV","players":null},{"server_id":25,"name":"Uncletopia | Los Angeles | 4 | Stopwatch Beta","name_short":"lax-4","host":"lax-1.us.uncletopia.com","port":27045,"enabled":true,"region":"us-west","cc":"us","latitude":33.94279,"longitude":-118.41004,"reserved":0,"last_update":"0001-01-01T00:00:00Z","name_a2s":"Uncletopia | Los Angeles | 4 | Stopwatch Beta","protocol":17,"map":"cp_process_final","folder":"tf","game":"Team Fortress","app_id":440,"player_count":0,"max_players":24,"Bots":0,"server_type":"Dedicated","server_os":"Linux","password":true,"vac":true,"version":"7742253","steam_id":85568392924510199,"keywords":["cp","nocrits","nodmgspread","uncletopia"],"game_id":440,"stv_port":27046,"stv_name":"Uncletopia | Los Angeles | 4 | Stopwatch Beta | STV","players":null},{"server_id":11,"name":"Uncletopia | London | 1 | All Maps","name_short":"lon-1","host":"lon-1.uk.uncletopia.com","port":27015,"enabled":true,"region":"eu","cc":"gb","latitude":51.509865,"longitude":-0.118092,"reserved":0,"last_update":"0001-01-01T00:00:00Z","name_a2s":"Uncletopia | London | 1 | All Maps","protocol":17,"map":"cp_snakewater_final1","folder":"tf","game":"Team Fortress","app_id":440,"player_count":24,"max_players":24,"Bots":0,"server_type":"Dedicated","server_os":"Linux","password":true,"vac":true,"version":"7742253","steam_id":85568392924367362,"keywords":["cp","nocrits","nodmgspread","uncletopia"],"game_id":440,"stv_port":27016,"stv_name":"Uncletopia | London | 1 | All Maps | STV","players":[{"user_id":459,"name":"SuperBob103","steam_id":76561199175360012,"connected_time":3888000000000,"state":"active","ping":51},{"user_id":498,"name":"Rory","steam_id":76561198354037580,"connected_time":658000000000,"state":"active","ping":44},{"user_id":487,"name":"your dads bald spot","steam_id":76561199383437138,"connected_time":1657000000000,"state":"active","ping":141},{"user_id":503,"name":"shithead gaming","steam_id":76561198019065232,"connected_time":16000000000,"state":"active","ping":46},{"user_id":502,"name":"ghost","steam_id":76561198189940229,"connected_time":88000000000,"state":"active","ping":52},{"user_id":484,"name":"dafydd","steam_id":76561198052200325,"connected_time":2064000000000,"state":"active","ping":89},{"user_id":466,"name":"Bones","steam_id":76561198065081225,"connected_time":3494000000000,"state":"active","ping":27},{"user_id":472,"name":"Zateske","steam_id":76561198047446276,"connected_time":3257000000000,"state":"active","ping":66},{"user_id":500,"name":"Hodge","steam_id":76561198054518843,"connected_time":512000000000,"state":"active","ping":44},{"user_id":452,"name":"whimsy.","steam_id":76561198878171763,"connected_time":4356000000000,"state":"active","ping":52},{"user_id":492,"name":"sawburst","steam_id":76561198113143238,"connected_time":1397000000000,"state":"active","ping":121},{"user_id":468,"name":"vi","steam_id":76561198303147966,"connected_time":3391000000000,"state":"active","ping":40},{"user_id":495,"name":"Lyra","steam_id":76561198043601838,"connected_time":1028000000000,"state":"active","ping":60},{"user_id":447,"name":"Piss taster","steam_id":76561198152576682,"connected_time":4667000000000,"state":"active","ping":77},{"user_id":504,"name":"Welder","steam_id":76561198355300561,"connected_time":13000000000,"state":"active","ping":81},{"user_id":475,"name":"most sane mentalist","steam_id":76561198310095220,"connected_time":2955000000000,"state":"active","ping":44},{"user_id":431,"name":"Senior","steam_id":76561198065014164,"connected_time":5830000000000,"state":"active","ping":49},{"user_id":497,"name":"Zwphyr | TourBot.TF","steam_id":76561198160772793,"connected_time":710000000000,"state":"active","ping":53},{"user_id":491,"name":"XxhollowninjaxX","steam_id":76561199054048217,"connected_time":1598000000000,"state":"active","ping":157},{"user_id":458,"name":"Kahvi","steam_id":76561198723244199,"connected_time":3905000000000,"state":"active","ping":76},{"user_id":477,"name":"jge","steam_id":76561198123186387,"connected_time":2799000000000,"state":"active","ping":68},{"user_id":496,"name":"InsectKing","steam_id":76561199013519071,"connected_time":882000000000,"state":"active","ping":43},{"user_id":415,"name":"ciliorkun18","steam_id":76561198228942500,"connected_time":7377000000000,"state":"active","ping":100}]},{"server_id":114,"name":"Uncletopia | London | 2 | All Maps","name_short":"lon-2","host":"lon-1.uk.uncletopia.com","port":27025,"enabled":true,"region":"eu","cc":"gb","latitude":51.509865,"longitude":-0.118092,"reserved":0,"last_update":"0001-01-01T00:00:00Z","name_a2s":"Uncletopia | London | 2 | All Maps","protocol":17,"map":"pl_upward","folder":"tf","game":"Team Fortress","app_id":440,"player_count":24,"max_players":24,"Bots":0,"server_type":"Dedicated","server_os":"Linux","password":true,"vac":true,"version":"7742253","steam_id":85568392924470941,"keywords":["nocrits","nodmgspread","payload","uncletopia"],"game_id":440,"stv_port":27026,"stv_name":"Uncletopia | London | 2 | All Maps | STV","players":[{"user_id":407,"name":"Someone","steam_id":76561199030195879,"connected_time":49000000000,"state":"active","ping":35},{"user_id":380,"name":"999","steam_id":76561198306856753,"connected_time":2474000000000,"state":"active","ping":59},{"user_id":358,"name":"LittleTimWantWin","steam_id":76561198801490317,"connected_time":4176000000000,"state":"active","ping":108},{"user_id":399,"name":"One armed fiddle enthusiast","steam_id":76561198045847051,"connected_time":805000000000,"state":"active","ping":61},{"user_id":367,"name":"Soulman25 (FIN)","steam_id":76561198103611974,"connected_time":3772000000000,"state":"active","ping":100},{"user_id":388,"name":"Chimpish","steam_id":76561199263493270,"connected_time":1533000000000,"state":"active","ping":146},{"user_id":374,"name":"Frazzles","steam_id":76561199228009586,"connected_time":2512000000000,"state":"active","ping":53},{"user_id":271,"name":"jeffrey on the scheme","steam_id":76561198046873337,"connected_time":8318000000000,"state":"active","ping":48},{"user_id":398,"name":"Minecraftien_76","steam_id":76561198443111849,"connected_time":843000000000,"state":"active","ping":71},{"user_id":400,"name":"Nika","steam_id":76561198355965587,"connected_time":635000000000,"state":"active","ping":68},{"user_id":235,"name":"cirrem","steam_id":76561198265192382,"connected_time":11811000000000,"state":"active","ping":72},{"user_id":402,"name":"alfus","steam_id":76561198071003109,"connected_time":206000000000,"state":"active","ping":60},{"user_id":405,"name":"luma","steam_id":76561198081649669,"connected_time":177000000000,"state":"active","ping":77},{"user_id":391,"name":"SpyCrab  Erik Twice","steam_id":76561198009710309,"connected_time":1366000000000,"state":"active","ping":50},{"user_id":386,"name":"johnny on the block","steam_id":76561198076219289,"connected_time":1887000000000,"state":"active","ping":53},{"user_id":387,"name":"Parigonicalus","steam_id":76561198044637492,"connected_time":1761000000000,"state":"active","ping":70},{"user_id":381,"name":"fem kitty cat meow :3","steam_id":76561198010662796,"connected_time":2349000000000,"state":"active","ping":46},{"user_id":311,"name":"Kyeel_Smeel","steam_id":76561199164471622,"connected_time":6647000000000,"state":"active","ping":58},{"user_id":389,"name":"Dr.Fish","steam_id":76561198008732728,"connected_time":1406000000000,"state":"active","ping":58},{"user_id":404,"name":"WolfmanCZ","steam_id":76561199157141414,"connected_time":185000000000,"state":"active","ping":78},{"user_id":396,"name":"bob","steam_id":76561198060262409,"connected_time":1067000000000,"state":"active","ping":61},{"user_id":397,"name":"Virgil","steam_id":76561198248786778,"connected_time":1024000000000,"state":"active","ping":114},{"user_id":406,"name":"Pizza/Cheese/Pepperoni","steam_id":76561198174510235,"connected_time":168000000000,"state":"active","ping":52},{"user_id":395,"name":"UltimateSlayer","steam_id":76561198384109309,"connected_time":1151000000000,"state":"active","ping":59}]},{"server_id":320,"name":"Uncletopia | London | 3 | All Maps","name_short":"lon-3","host":"lon-1.uk.uncletopia.com","port":27035,"enabled":true,"region":"eu","cc":"gb","latitude":51.509865,"longitude":-0.118092,"reserved":0,"last_update":"0001-01-01T00:00:00Z","name_a2s":"Uncletopia | London | 3 | All Maps","protocol":17,"map":"pl_pier","folder":"tf","game":"Team Fortress","app_id":440,"player_count":6,"max_players":24,"Bots":0,"server_type":"Dedicated","server_os":"Linux","password":true,"vac":true,"version":"7742253","steam_id":85568392924510192,"keywords":["nocrits","nodmgspread","payload","uncletopia"],"game_id":440,"stv_port":27036,"stv_name":"Uncletopia | London | 3 | All Maps | STV","players":[{"user_id":40,"name":"Shawty","steam_id":76561198256704286,"connected_time":854000000000,"state":"active","ping":61},{"user_id":41,"name":"Domberry","steam_id":76561199346712175,"connected_time":837000000000,"state":"active","ping":130},{"user_id":44,"name":"21st century schizoid man","steam_id":76561199442415175,"connected_time":665000000000,"state":"active","ping":80},{"user_id":45,"name":"ashsbhop","steam_id":76561199155075476,"connected_time":435000000000,"state":"active","ping":89},{"user_id":48,"name":"Valoxi","steam_id":76561197995042938,"connected_time":9000000000,"state":"spawning","ping":66},{"user_id":47,"name":"The_Jaystone","steam_id":76561198126280691,"connected_time":150000000000,"state":"active","ping":33}]},{"server_id":321,"name":"Uncletopia | London | 4 | All Maps","name_short":"lon-4","host":"lon-1.uk.uncletopia.com","port":27045,"enabled":true,"region":"eu","cc":"gb","latitude":51.509865,"longitude":-0.118092,"reserved":0,"last_update":"0001-01-01T00:00:00Z","name_a2s":"Uncletopia | London | 4 | All Maps","protocol":17,"map":"koth_viaduct","folder":"tf","game":"Team Fortress","app_id":440,"player_count":23,"max_players":24,"Bots":0,"server_type":"Dedicated","server_os":"Linux","password":true,"vac":true,"version":"7742253","steam_id":85568392924510193,"keywords":["cp","nocrits","nodmgspread","uncletopia"],"game_id":440,"stv_port":27046,"stv_name":"Uncletopia | London | 4 | All Maps | STV","players":[{"user_id":225,"name":"john fluidmasterballwasher doe","steam_id":76561199006462039,"connected_time":82000000000,"state":"active","ping":53},{"user_id":186,"name":"Crab that ate amelia earhart","steam_id":76561198103175187,"connected_time":2951000000000,"state":"active","ping":68},{"user_id":200,"name":"ChrisBast","steam_id":76561198257444693,"connected_time":2056000000000,"state":"active","ping":61},{"user_id":204,"name":"LordTrap.exe","steam_id":76561198318089716,"connected_time":1980000000000,"state":"active","ping":50},{"user_id":219,"name":"the joy of recycling","steam_id":76561198415564349,"connected_time":1236000000000,"state":"active","ping":60},{"user_id":226,"name":"red‚ãÜmits","steam_id":76561198015590113,"connected_time":20000000000,"state":"spawning","ping":50},{"user_id":195,"name":"bola typu ≈õwiƒôta","steam_id":76561199145943588,"connected_time":2512000000000,"state":"active","ping":90},{"user_id":188,"name":"Medieval Doktor","steam_id":76561198075373362,"connected_time":2866000000000,"state":"active","ping":38},{"user_id":185,"name":"Taktikfuchs","steam_id":76561198055326196,"connected_time":3042000000000,"state":"active","ping":67},{"user_id":205,"name":"Milk","steam_id":76561198125876588,"connected_time":1904000000000,"state":"active","ping":42},{"user_id":203,"name":"Henk_de_Patatman","steam_id":76561198070103191,"connected_time":2024000000000,"state":"active","ping":40},{"user_id":206,"name":"LOBZIK","steam_id":76561198114830120,"connected_time":1901000000000,"state":"active","ping":81},{"user_id":214,"name":"Trytard","steam_id":76561198094507220,"connected_time":1649000000000,"state":"active","ping":49},{"user_id":208,"name":"Ummdustry","steam_id":76561198063470477,"connected_time":1798000000000,"state":"active","ping":48},{"user_id":213,"name":"Eck","steam_id":76561198170101474,"connected_time":1700000000000,"state":"active","ping":52},{"user_id":222,"name":"wasto-/-‚Ñ¢","steam_id":76561198102888038,"connected_time":374000000000,"state":"active","ping":72},{"user_id":179,"name":"Syd","steam_id":76561198020515027,"connected_time":3497000000000,"state":"active","ping":88},{"user_id":211,"name":"MarHTy","steam_id":76561198119586923,"connected_time":1769000000000,"state":"active","ping":115},{"user_id":223,"name":"pepper","steam_id":76561198059782462,"connected_time":169000000000,"state":"active","ping":65},{"user_id":216,"name":"Vollys","steam_id":76561198018077773,"connected_time":1554000000000,"state":"active","ping":66},{"user_id":212,"name":"Pingus","steam_id":76561198164880756,"connected_time":1751000000000,"state":"active","ping":75},{"user_id":194,"name":"Ben Redic Fy Fazan","steam_id":76561198069946573,"connected_time":2573000000000,"state":"active","ping":102},{"user_id":218,"name":"bean","steam_id":76561198347365909,"connected_time":1515000000000,"state":"active","ping":72}]},{"server_id":21,"name":"Uncletopia | London | 5 | All Maps","name_short":"lon-5","host":"lon-1.uk.uncletopia.com","port":27055,"enabled":true,"region":"eu","cc":"gb","latitude":51.509865,"longitude":-0.118092,"reserved":0,"last_update":"0001-01-01T00:00:00Z","name_a2s":"Uncletopia | London | 5 | All Maps","protocol":17,"map":"cp_altitude","folder":"tf","game":"Team Fortress","app_id":440,"player_count":0,"max_players":24,"Bots":0,"server_type":"Dedicated","server_os":"Linux","password":true,"vac":true,"version":"7742253","steam_id":85568392924742829,"keywords":["cp","nocrits","nodmgspread","uncletopia"],"game_id":440,"stv_port":27056,"stv_name":"Uncletopia | London | 5 | All Maps | STV","players":null},{"server_id":22,"name":"Uncletopia | London | 6 | All Maps","name_short":"lon-6","host":"lon-1.uk.uncletopia.com","port":27065,"enabled":true,"region":"eu","cc":"gb","latitude":51.509865,"longitude":-0.118092,"reserved":0,"last_update":"0001-01-01T00:00:00Z","name_a2s":"Uncletopia | London | 6 | All Maps","protocol":17,"map":"koth_lakeside_final","folder":"tf","game":"Team Fortress","app_id":440,"player_count":17,"max_players":24,"Bots":0,"server_type":"Dedicated","server_os":"Linux","password":true,"vac":true,"version":"7742253","steam_id":85568392924742830,"keywords":["cp","nocrits","nodmgspread","uncletopia"],"game_id":440,"stv_port":27066,"stv_name":"Uncletopia | London | 6 | All Maps | STV","players":[{"user_id":384,"name":"average fungus","steam_id":76561198199993741,"connected_time":794000000000,"state":"active","ping":63},{"user_id":395,"name":"The BOY","steam_id":76561199248698896,"connected_time":188000000000,"state":"active","ping":55},{"user_id":381,"name":"Smag","steam_id":76561198153675141,"connected_time":862000000000,"state":"active","ping":49},{"user_id":386,"name":"Nexosert","steam_id":76561198941142018,"connected_time":731000000000,"state":"active","ping":117},{"user_id":390,"name":"conradknitter #savetf2","steam_id":76561198900177514,"connected_time":483000000000,"state":"active","ping":65},{"user_id":389,"name":"aaaaaaaaaaa","steam_id":76561199439030016,"connected_time":576000000000,"state":"active","ping":168},{"user_id":391,"name":"Cobb Salads","steam_id":76561197971140507,"connected_time":453000000000,"state":"active","ping":75},{"user_id":396,"name":"hmscole09","steam_id":76561198811362788,"connected_time":161000000000,"state":"active","ping":48},{"user_id":354,"name":"Tachanka","steam_id":76561198329246233,"connected_time":2984000000000,"state":"active","ping":37},{"user_id":393,"name":"Dummy","steam_id":76561198349741126,"connected_time":406000000000,"state":"active","ping":65},{"user_id":394,"name":"Minion","steam_id":76561198155365753,"connected_time":316000000000,"state":"active","ping":164},{"user_id":399,"name":"poop gaming","steam_id":76561198042268174,"connected_time":35000000000,"state":"active","ping":45},{"user_id":398,"name":"Shymtzack","steam_id":76561198160369616,"connected_time":139000000000,"state":"active","ping":91},{"user_id":324,"name":"Coac","steam_id":76561198085265740,"connected_time":4803000000000,"state":"active","ping":73},{"user_id":375,"name":"Dominus.","steam_id":76561199065917088,"connected_time":1558000000000,"state":"active","ping":61},{"user_id":336,"name":"Tmpod","steam_id":76561198069210431,"connected_time":4031000000000,"state":"active","ping":74},{"user_id":361,"name":"jormavainen","steam_id":76561198126115435,"connected_time":2477000000000,"state":"active","ping":103}]},{"server_id":40,"name":"Uncletopia | London | 7 | No Payload","name_short":"lon-7","host":"lon-1.uk.uncletopia.com","port":27075,"enabled":true,"region":"eu","cc":"gb","latitude":51.509865,"longitude":-0.118092,"reserved":0,"last_update":"0001-01-01T00:00:00Z","name_a2s":"Uncletopia | London | 7 | No Payload","protocol":17,"map":"cp_snakewater_final1","folder":"tf","game":"Team Fortress","app_id":440,"player_count":0,"max_players":24,"Bots":0,"server_type":"Dedicated","server_os":"Linux","password":true,"vac":true,"version":"7742253","steam_id":85568392924964314,"keywords":["cp","nocrits","nodmgspread","uncletopia"],"game_id":440,"stv_port":27076,"stv_name":"Uncletopia | London | 7 | No Payload | STV","players":null},{"server_id":41,"name":"Uncletopia | London | 8 | Community","name_short":"lon-8","host":"lon-1.uk.uncletopia.com","port":27085,"enabled":true,"region":"eu","cc":"gb","latitude":51.509865,"longitude":-0.118092,"reserved":0,"last_update":"0001-01-01T00:00:00Z","name_a2s":"Uncletopia | London | 8 | Community","protocol":17,"map":"workshop/pl_fifthcurve_rc1.ugc648227046","folder":"tf","game":"Team Fortress","app_id":440,"player_count":0,"max_players":24,"Bots":0,"server_type":"Dedicated","server_os":"Linux","password":true,"vac":true,"version":"7742253","steam_id":85568392924964315,"keywords":["nocrits","nodmgspread","payload","uncletopia"],"game_id":440,"stv_port":27086,"stv_name":"Uncletopia | London | 8 | Community | STV","players":null},{"server_id":300,"name":"Uncletopia | Montr√©al | 1 | All Maps","name_short":"mtl-1","host":"mtl-1.ca.uncletopia.com","port":27015,"enabled":true,"region":"us-east","cc":"ca","latitude":45.50889,"longitude":-73.56167,"reserved":0,"last_update":"0001-01-01T00:00:00Z","name_a2s":"Uncletopia | Montr√©al | 1 | All Maps","protocol":17,"map":"koth_lakeside_final","folder":"tf","game":"Team Fortress","app_id":440,"player_count":0,"max_players":24,"Bots":0,"server_type":"Dedicated","server_os":"Linux","password":true,"vac":true,"version":"7742253","steam_id":85568392924500087,"keywords":["cp","nocrits","nodmgspread","uncletopia"],"game_id":440,"stv_port":27016,"stv_name":"Uncletopia | Montr√©al | 1 | All Maps | STV","players":null},{"server_id":301,"name":"Uncletopia | Montr√©al | 2 | All Maps","name_short":"mtl-2","host":"mtl-1.ca.uncletopia.com","port":27025,"enabled":true,"region":"us-east","cc":"ca","latitude":45.50889,"longitude":-73.56167,"reserved":0,"last_update":"0001-01-01T00:00:00Z","name_a2s":"Uncletopia | Montr√©al | 2 | All Maps","protocol":17,"map":"koth_lakeside_final","folder":"tf","game":"Team Fortress","app_id":440,"player_count":0,"max_players":24,"Bots":0,"server_type":"Dedicated","server_os":"Linux","password":true,"vac":true,"version":"7742253","steam_id":85568392924500088,"keywords":["cp","nocrits","nodmgspread","uncletopia"],"game_id":440,"stv_port":27026,"stv_name":"Uncletopia | Montr√©al | 2 | All Maps | STV","players":null},{"server_id":302,"name":"Uncletopia | Montr√©al | 3 | All Maps","name_short":"mtl-3","host":"mtl-1.ca.uncletopia.com","port":27035,"enabled":true,"region":"us-east","cc":"ca","latitude":45.50889,"longitude":-73.56167,"reserved":0,"last_update":"0001-01-01T00:00:00Z","name_a2s":"Uncletopia | Montr√©al | 3 | All Maps","protocol":17,"map":"cp_mountainlab","folder":"tf","game":"Team Fortress","app_id":440,"player_count":0,"max_players":24,"Bots":0,"server_type":"Dedicated","server_os":"Linux","password":true,"vac":true,"version":"7742253","steam_id":85568392924500089,"keywords":["cp","nocrits","nodmgspread","uncletopia"],"game_id":440,"stv_port":27036,"stv_name":"Uncletopia | Montr√©al | 3 | All Maps | STV","players":null},{"server_id":303,"name":"Uncletopia | Montr√©al | 4 | No Payload","name_short":"mtl-4","host":"mtl-1.ca.uncletopia.com","port":27045,"enabled":true,"region":"us-east","cc":"ca","latitude":45.50889,"longitude":-73.56167,"reserved":0,"last_update":"0001-01-01T00:00:00Z","name_a2s":"Uncletopia | Montr√©al | 4 | No Payload","protocol":17,"map":"cp_gravelpit","folder":"tf","game":"Team Fortress","app_id":440,"player_count":0,"max_players":24,"Bots":0,"server_type":"Dedicated","server_os":"Linux","password":true,"vac":true,"version":"7742253","steam_id":85568392924500090,"keywords":["cp","nocrits","nodmgspread","uncletopia"],"game_id":440,"stv_port":27046,"stv_name":"Uncletopia | Montr√©al | 4 | No Payload | STV","players":null},{"server_id":13,"name":"Uncletopia | New York City | 1 | All Maps","name_short":"nyc-1","host":"nyc-1.us.uncletopia.com","port":27015,"enabled":true,"region":"us-east","cc":"us","latitude":40.73061,"longitude":-73.93524,"reserved":0,"last_update":"0001-01-01T00:00:00Z","name_a2s":"Uncletopia | New York City | 1 | All Maps","protocol":17,"map":"pl_wutville_event","folder":"tf","game":"Team Fortress","app_id":440,"player_count":23,"max_players":24,"Bots":0,"server_type":"Dedicated","server_os":"Linux","password":true,"vac":true,"version":"7742253","steam_id":85568392924469993,"keywords":["nocrits","nodmgspread","payload","uncletopia"],"game_id":440,"stv_port":27016,"stv_name":"Uncletopia | New York City | 1 | All Maps | STV","players":[{"user_id":31,"name":"A_A","steam_id":76561199443932721,"connected_time":717000000000,"state":"active","ping":111},{"user_id":12,"name":"No Name","steam_id":76561198131430010,"connected_time":2810000000000,"state":"active","ping":128},{"user_id":29,"name":"Nasu","steam_id":76561198168735322,"connected_time":806000000000,"state":"active","ping":74},{"user_id":13,"name":"Bazzeboy","steam_id":76561198192456274,"connected_time":2802000000000,"state":"active","ping":135},{"user_id":14,"name":"free pizza 2004","steam_id":76561198965333080,"connected_time":2801000000000,"state":"active","ping":139},{"user_id":36,"name":"Sconedog04","steam_id":76561198410923783,"connected_time":444000000000,"state":"active","ping":63},{"user_id":19,"name":"champion  turkey","steam_id":76561198151338482,"connected_time":1923000000000,"state":"active","ping":50},{"user_id":37,"name":"Ashe","steam_id":76561198166165887,"connected_time":422000000000,"state":"active","ping":58},{"user_id":35,"name":"BIGGEST MAC","steam_id":76561198847517098,"connected_time":581000000000,"state":"active","ping":80},{"user_id":38,"name":"JimmySquid","steam_id":76561198254242530,"connected_time":386000000000,"state":"active","ping":87},{"user_id":40,"name":"Swift","steam_id":76561199230997289,"connected_time":336000000000,"state":"active","ping":122},{"user_id":27,"name":"LividALX","steam_id":76561198145429015,"connected_time":1174000000000,"state":"active","ping":50},{"user_id":41,"name":"Dahrealjerry","steam_id":76561199114254890,"connected_time":308000000000,"state":"active","ping":111},{"user_id":42,"name":"DEEZ","steam_id":76561199387941580,"connected_time":298000000000,"state":"active","ping":115},{"user_id":43,"name":"Stressmelo","steam_id":76561199204445185,"connected_time":257000000000,"state":"active","ping":137},{"user_id":44,"name":"dyragu","steam_id":76561198172046883,"connected_time":247000000000,"state":"active","ping":32},{"user_id":45,"name":"ratio","steam_id":76561198122059018,"connected_time":164000000000,"state":"active","ping":71},{"user_id":46,"name":"cremeoner","steam_id":76561198372332251,"connected_time":164000000000,"state":"active","ping":35},{"user_id":47,"name":"None of that $9.99 bullshit","steam_id":76561198116169903,"connected_time":143000000000,"state":"active","ping":79},{"user_id":48,"name":"Vaude","steam_id":76561198369187511,"connected_time":124000000000,"state":"active","ping":53},{"user_id":49,"name":"Seru","steam_id":76561199219827214,"connected_time":89000000000,"state":"active","ping":70},{"user_id":50,"name":"L","steam_id":76561198067556825,"connected_time":31000000000,"state":"spawning","ping":123},{"user_id":52,"name":"EmilyChains\u003c3","steam_id":76561198132008027,"connected_time":26000000000,"state":"active","ping":105}]},{"server_id":14,"name":"Uncletopia | New York City | 2 | All Maps","name_short":"nyc-2","host":"nyc-1.us.uncletopia.com","port":27025,"enabled":true,"region":"us-east","cc":"us","latitude":40.73061,"longitude":-73.93524,"reserved":0,"last_update":"0001-01-01T00:00:00Z","name_a2s":"Uncletopia | New York City | 2 | All Maps","protocol":17,"map":"cp_dustbowl","folder":"tf","game":"Team Fortress","app_id":440,"player_count":0,"max_players":24,"Bots":0,"server_type":"Dedicated","server_os":"Linux","password":true,"vac":true,"version":"7742253","steam_id":85568392924469994,"keywords":["cp","nocrits","nodmgspread","uncletopia"],"game_id":440,"stv_port":27026,"stv_name":"Uncletopia | New York City | 2 | All Maps | STV","players":null},{"server_id":15,"name":"Uncletopia | New York City | 3 | Stopwatch Beta","name_short":"nyc-3","host":"nyc-1.us.uncletopia.com","port":27035,"enabled":true,"region":"us-east","cc":"us","latitude":40.73061,"longitude":-73.93524,"reserved":0,"last_update":"0001-01-01T00:00:00Z","name_a2s":"Uncletopia | New York City | 3 | Stopwatch Beta","protocol":17,"map":"cp_altitude","folder":"tf","game":"Team Fortress","app_id":440,"player_count":0,"max_players":24,"Bots":0,"server_type":"Dedicated","server_os":"Linux","password":true,"vac":true,"version":"7742253","steam_id":85568392924742820,"keywords":["cp","nocrits","nodmgspread","uncletopia"],"game_id":440,"stv_port":27036,"stv_name":"Uncletopia | New York City | 3 | Stopwatch Beta | STV","players":null},{"server_id":16,"name":"Uncletopia | New York City | 4 | Community","name_short":"nyc-4","host":"nyc-1.us.uncletopia.com","port":27045,"enabled":true,"region":"us-east","cc":"us","latitude":40.73061,"longitude":-73.93524,"reserved":0,"last_update":"0001-01-01T00:00:00Z","name_a2s":"Uncletopia | New York City | 4 | Community","protocol":17,"map":"workshop/koth_synthetic_rc6a.ugc1549817316","folder":"tf","game":"Team Fortress","app_id":440,"player_count":0,"max_players":24,"Bots":0,"server_type":"Dedicated","server_os":"Linux","password":true,"vac":true,"version":"7742253","steam_id":85568392924742821,"keywords":["cp","nocrits","nodmgspread","uncletopia"],"game_id":440,"stv_port":27046,"stv_name":"Uncletopia | New York City | 4 | Community | STV","players":null},{"server_id":142,"name":"Uncletopia | S√£o Paulo | 1 | All Maps","name_short":"sao-1","host":"sao-1.br.uncletopia.com","port":27015,"enabled":true,"region":"sa","cc":"br","latitude":-23.533773,"longitude":-46.62529,"reserved":0,"last_update":"0001-01-01T00:00:00Z","name_a2s":"Uncletopia | S√£o Paulo | 1 | All Maps","protocol":17,"map":"pl_swiftwater_final1","folder":"tf","game":"Team Fortress","app_id":440,"player_count":0,"max_players":24,"Bots":0,"server_type":"Dedicated","server_os":"Linux","password":true,"vac":true,"version":"7742253","steam_id":85568392924469996,"keywords":["nocrits","nodmgspread","payload","uncletopia"],"game_id":440,"stv_port":27016,"stv_name":"Uncletopia | S√£o Paulo | 1 | All Maps | STV","players":null},{"server_id":143,"name":"Uncletopia | S√£o Paulo | 2 | All Maps","name_short":"sao-2","host":"sao-2.br.uncletopia.com","port":27015,"enabled":true,"region":"sa","cc":"br","latitude":-23.533773,"longitude":-46.62529,"reserved":0,"last_update":"0001-01-01T00:00:00Z","name_a2s":"Uncletopia | S√£o Paulo | 2 | All Maps","protocol":17,"map":"cp_mountainlab","folder":"tf","game":"Team Fortress","app_id":440,"player_count":0,"max_players":24,"Bots":0,"server_type":"Dedicated","server_os":"Linux","password":true,"vac":true,"version":"7742253","steam_id":85568392924485349,"keywords":["cp","nocrits","nodmgspread","uncletopia"],"game_id":440,"stv_port":27016,"stv_name":"Uncletopia | S√£o Paulo | 2 | All Maps | STV","players":null},{"server_id":7,"name":"Uncletopia | Seattle | 1 | All Maps","name_short":"sea-1","host":"sea-1.us.uncletopia.com","port":27015,"enabled":true,"region":"us-west","cc":"us","latitude":47.608013,"longitude":-122.33517,"reserved":0,"last_update":"0001-01-01T00:00:00Z","name_a2s":"Uncletopia | Seattle | 1 | All Maps","protocol":17,"map":"pl_badwater","folder":"tf","game":"Team Fortress","app_id":440,"player_count":0,"max_players":24,"Bots":0,"server_type":"Dedicated","server_os":"Linux","password":true,"vac":true,"version":"7742253","steam_id":85568392924469997,"keywords":["nocrits","nodmgspread","payload","uncletopia"],"game_id":440,"stv_port":27016,"stv_name":"Uncletopia | Seattle | 1 | All Maps | STV","players":null},{"server_id":119,"name":"Uncletopia | Seattle | 2 | All Maps","name_short":"sea-2","host":"sea-1.us.uncletopia.com","port":27025,"enabled":true,"region":"us-west","cc":"us","latitude":47.608013,"longitude":-122.33517,"reserved":0,"last_update":"0001-01-01T00:00:00Z","name_a2s":"Uncletopia | Seattle | 2 | All Maps","protocol":17,"map":"koth_lakeside_final","folder":"tf","game":"Team Fortress","app_id":440,"player_count":0,"max_players":24,"Bots":0,"server_type":"Dedicated","server_os":"Linux","password":true,"vac":true,"version":"7742253","steam_id":85568392924469998,"keywords":["cp","nocrits","nodmgspread","uncletopia"],"game_id":440,"stv_port":27026,"stv_name":"Uncletopia | Seattle | 2 | All Maps | STV","players":null},{"server_id":406,"name":"Uncletopia | Seattle | 3 | Stopwatch Beta","name_short":"sea-3","host":"sea-1.us.uncletopia.com","port":27035,"enabled":true,"region":"us-west","cc":"us","latitude":47.608013,"longitude":-122.33517,"reserved":0,"last_update":"0001-01-01T00:00:00Z","name_a2s":"Uncletopia | Seattle | 3 | Stopwatch Beta","protocol":17,"map":"pl_upward","folder":"tf","game":"Team Fortress","app_id":440,"player_count":0,"max_players":24,"Bots":0,"server_type":"Dedicated","server_os":"Linux","password":true,"vac":false,"version":"7742253","steam_id":0,"keywords":["nocrits","nodmgspread","payload","uncletopia"],"game_id":440,"stv_port":27036,"stv_name":"Uncletopia | Seattle | 3 | Stopwatch Beta | STV","players":null},{"server_id":17,"name":"Uncletopia | San Francisco | 1 | All Maps","name_short":"sfo-1","host":"sfo-1.us.uncletopia.com","port":27015,"enabled":true,"region":"us-west","cc":"us","latitude":37.77397,"longitude":-122.4313,"reserved":0,"last_update":"0001-01-01T00:00:00Z","name_a2s":"Uncletopia | San Francisco | 1 | All Maps","protocol":17,"map":"pl_pier","folder":"tf","game":"Team Fortress","app_id":440,"player_count":0,"max_players":24,"Bots":0,"server_type":"Dedicated","server_os":"Linux","password":true,"vac":true,"version":"7742253","steam_id":85568392924469999,"keywords":["nocrits","nodmgspread","payload","uncletopia"],"game_id":440,"stv_port":27016,"stv_name":"Uncletopia | San Francisco | 1 | All Maps | STV","players":null},{"server_id":18,"name":"Uncletopia | San Francisco | 2 | All Maps","name_short":"sfo-2","host":"sfo-1.us.uncletopia.com","port":27025,"enabled":true,"region":"us-west","cc":"us","latitude":37.77397,"longitude":-122.4313,"reserved":0,"last_update":"0001-01-01T00:00:00Z","name_a2s":"Uncletopia | San Francisco | 2 | All Maps","protocol":17,"map":"cp_process_final","folder":"tf","game":"Team Fortress","app_id":440,"player_count":0,"max_players":24,"Bots":0,"server_type":"Dedicated","server_os":"Linux","password":true,"vac":true,"version":"7742253","steam_id":85568392924470000,"keywords":["cp","nocrits","nodmgspread","uncletopia"],"game_id":440,"stv_port":27026,"stv_name":"Uncletopia | San Francisco | 2 | All Maps | STV","players":null},{"server_id":19,"name":"Uncletopia | San Francisco | 3 | Stopwatch Beta","name_short":"sfo-3","host":"sfo-1.us.uncletopia.com","port":27035,"enabled":true,"region":"us-west","cc":"us","latitude":37.77397,"longitude":-122.4313,"reserved":0,"last_update":"0001-01-01T00:00:00Z","name_a2s":"Uncletopia | San Francisco | 3 | Stopwatch Beta","protocol":17,"map":"cp_snakewater_final1","folder":"tf","game":"Team Fortress","app_id":440,"player_count":0,"max_players":24,"Bots":0,"server_type":"Dedicated","server_os":"Linux","password":true,"vac":true,"version":"7742253","steam_id":85568392924742824,"keywords":["cp","nocrits","nodmgspread","uncletopia"],"game_id":440,"stv_port":27036,"stv_name":"Uncletopia | San Francisco | 3 | Stopwatch Beta | STV","players":null},{"server_id":20,"name":"Uncletopia | San Francisco | 4 | Community","name_short":"sfo-4","host":"sfo-1.us.uncletopia.com","port":27045,"enabled":true,"region":"us-west","cc":"us","latitude":37.77397,"longitude":-122.4313,"reserved":0,"last_update":"0001-01-01T00:00:00Z","name_a2s":"Uncletopia | San Francisco | 4 | Community","protocol":17,"map":"cp_altitude","folder":"tf","game":"Team Fortress","app_id":440,"player_count":0,"max_players":24,"Bots":0,"server_type":"Dedicated","server_os":"Linux","password":true,"vac":true,"version":"7742253","steam_id":85568392924742826,"keywords":["cp","nocrits","nodmgspread","uncletopia"],"game_id":440,"stv_port":27046,"stv_name":"Uncletopia | San Francisco | 4 | Community | STV","players":null},{"server_id":141,"name":"Uncletopia | Sydney | 1 | All Maps","name_short":"syd-1","host":"syd-1.au.uncletopia.com","port":27015,"enabled":true,"region":"au","cc":"au","latitude":-33.865143,"longitude":151.2099,"reserved":0,"last_update":"0001-01-01T00:00:00Z","name_a2s":"Uncletopia | Sydney | 1 | All Maps","protocol":17,"map":"cp_mountainlab","folder":"tf","game":"Team Fortress","app_id":440,"player_count":0,"max_players":24,"Bots":0,"server_type":"Dedicated","server_os":"Linux","password":true,"vac":true,"version":"7742253","steam_id":85568392924470001,"keywords":["cp","nocrits","nodmgspread","uncletopia"],"game_id":440,"stv_port":27016,"stv_name":"Uncletopia | Sydney | 1 | All Maps | STV","players":null},{"server_id":123,"name":"Uncletopia | Sydney | 2 | All Maps","name_short":"syd-2","host":"syd-1.au.uncletopia.com","port":27025,"enabled":true,"region":"au","cc":"au","latitude":-33.865143,"longitude":151.2099,"reserved":0,"last_update":"0001-01-01T00:00:00Z","name_a2s":"Uncletopia | Sydney | 2 | All Maps","protocol":17,"map":"koth_cascade","folder":"tf","game":"Team Fortress","app_id":440,"player_count":0,"max_players":24,"Bots":0,"server_type":"Dedicated","server_os":"Linux","password":true,"vac":true,"version":"7742253","steam_id":85568392924470002,"keywords":["cp","nocrits","nodmgspread","uncletopia"],"game_id":440,"stv_port":27026,"stv_name":"Uncletopia | Sydney | 2 | All Maps | STV","players":null},{"server_id":395,"name":"Uncletopia | Sydney | 3 | All Maps","name_short":"syd-3","host":"syd-1.au.uncletopia.com","port":27035,"enabled":true,"region":"au","cc":"au","latitude":-33.865143,"longitude":151.2099,"reserved":0,"last_update":"0001-01-01T00:00:00Z","name_a2s":"Uncletopia | Sydney | 3 | All Maps","protocol":17,"map":"cp_process_final","folder":"tf","game":"Team Fortress","app_id":440,"player_count":0,"max_players":24,"Bots":0,"server_type":"Dedicated","server_os":"Linux","password":true,"vac":true,"version":"7742253","steam_id":85568392925194467,"keywords":["cp","nocrits","nodmgspread","uncletopia"],"game_id":440,"stv_port":27036,"stv_name":"Uncletopia | Sydney | 3 | All Maps | STV","players":null},{"server_id":396,"name":"Uncletopia | Sydney | 4 | All Maps","name_short":"syd-4","host":"syd-1.au.uncletopia.com","port":27045,"enabled":true,"region":"au","cc":"au","latitude":-33.865143,"longitude":151.2099,"reserved":0,"last_update":"0001-01-01T00:00:00Z","name_a2s":"Uncletopia | Sydney | 4 | All Maps","protocol":17,"map":"pl_badwater","folder":"tf","game":"Team Fortress","app_id":440,"player_count":0,"max_players":24,"Bots":0,"server_type":"Dedicated","server_os":"Linux","password":true,"vac":true,"version":"7742253","steam_id":85568392925397958,"keywords":["nocrits","nodmgspread","payload","uncletopia"],"game_id":440,"stv_port":27046,"stv_name":"Uncletopia | Sydney | 4 | All Maps | STV","players":null},{"server_id":58,"name":"Uncletopia | Sydney | 5 | Stopwatch Beta","name_short":"syd-5","host":"syd-1.au.uncletopia.com","port":27055,"enabled":true,"region":"au","cc":"au","latitude":-33.865143,"longitude":151.2099,"reserved":0,"last_update":"0001-01-01T00:00:00Z","name_a2s":"Uncletopia | Sydney | 5 | Stopwatch Beta","protocol":17,"map":"cp_snakewater_final1","folder":"tf","game":"Team Fortress","app_id":440,"player_count":0,"max_players":24,"Bots":0,"server_type":"Dedicated","server_os":"Linux","password":true,"vac":true,"version":"7742253","steam_id":85568392925397959,"keywords":["cp","nocrits","nodmgspread","uncletopia"],"game_id":440,"stv_port":27056,"stv_name":"Uncletopia | Sydney | 5 | Stopwatch Beta | STV","players":null},{"server_id":59,"name":"Uncletopia | Sydney | 6 | Community","name_short":"syd-6","host":"syd-1.au.uncletopia.com","port":27065,"enabled":true,"region":"au","cc":"au","latitude":-33.865143,"longitude":151.2099,"reserved":0,"last_update":"0001-01-01T00:00:00Z","name_a2s":"Uncletopia | Sydney | 6 | Community","protocol":17,"map":"workshop/cp_logjam_rc12.ugc454812035","folder":"tf","game":"Team Fortress","app_id":440,"player_count":0,"max_players":24,"Bots":0,"server_type":"Dedicated","server_os":"Linux","password":true,"vac":true,"version":"7742253","steam_id":85568392925397960,"keywords":["cp","nocrits","nodmgspread","uncletopia"],"game_id":440,"stv_port":27066,"stv_name":"Uncletopia | Sydney | 6 | Community | STV","players":null},{"server_id":49,"name":"Uncletopia | Warsaw | 1 | All Maps","name_short":"waw-1","host":"waw-1.pl.uncletopia.com","port":27015,"enabled":true,"region":"eu","cc":"pl","latitude":52.2297,"longitude":21.017532,"reserved":0,"last_update":"0001-01-01T00:00:00Z","name_a2s":"Uncletopia | Warsaw | 1 | All Maps","protocol":17,"map":"koth_lakeside_final","folder":"tf","game":"Team Fortress","app_id":440,"player_count":0,"max_players":24,"Bots":0,"server_type":"Dedicated","server_os":"Linux","password":true,"vac":true,"version":"7723704","steam_id":85568392925397850,"keywords":["cp","nocrits","nodmgspread","uncletopia"],"game_id":440,"stv_port":27016,"stv_name":"Uncletopia | Warsaw | 1 | All Maps | STV","players":null},{"server_id":50,"name":"Uncletopia | Warsaw | 2 | All Maps","name_short":"waw-2","host":"waw-1.pl.uncletopia.com","port":27025,"enabled":true,"region":"eu","cc":"pl","latitude":52.2297,"longitude":21.017532,"reserved":0,"last_update":"0001-01-01T00:00:00Z","name_a2s":"Uncletopia | Warsaw | 2 | All Maps","protocol":17,"map":"koth_cascade","folder":"tf","game":"Team Fortress","app_id":440,"player_count":0,"max_players":24,"Bots":0,"server_type":"Dedicated","server_os":"Linux","password":true,"vac":true,"version":"7742253","steam_id":85568392925397851,"keywords":["cp","nocrits","nodmgspread","uncletopia"],"game_id":440,"stv_port":27026,"stv_name":"Uncletopia | Warsaw | 2 | All Maps | STV","players":null},{"server_id":51,"name":"Uncletopia | Warsaw | 3 | All Maps","name_short":"waw-3","host":"waw-1.pl.uncletopia.com","port":27035,"enabled":true,"region":"eu","cc":"pl","latitude":52.2297,"longitude":21.017532,"reserved":0,"last_update":"0001-01-01T00:00:00Z","name_a2s":"Uncletopia | Warsaw | 3 | All Maps","protocol":17,"map":"cp_snakewater_final1","folder":"tf","game":"Team Fortress","app_id":440,"player_count":0,"max_players":24,"Bots":0,"server_type":"Dedicated","server_os":"Linux","password":true,"vac":true,"version":"7742253","steam_id":85568392925397852,"keywords":["cp","nocrits","nodmgspread","uncletopia"],"game_id":440,"stv_port":27036,"stv_name":"Uncletopia | Warsaw | 3 | All Maps | STV","players":null},{"server_id":52,"name":"Uncletopia | Warsaw | 4 | All Maps","name_short":"waw-4","host":"waw-1.pl.uncletopia.com","port":27045,"enabled":true,"region":"eu","cc":"pl","latitude":52.2297,"longitude":21.017532,"reserved":0,"last_update":"0001-01-01T00:00:00Z","name_a2s":"Uncletopia | Warsaw | 4 | All Maps","protocol":17,"map":"pl_swiftwater_final1","folder":"tf","game":"Team Fortress","app_id":440,"player_count":0,"max_players":24,"Bots":0,"server_type":"Dedicated","server_os":"Linux","password":true,"vac":true,"version":"7742253","steam_id":85568392925397853,"keywords":["nocrits","nodmgspread","payload","uncletopia"],"game_id":440,"stv_port":27046,"stv_name":"Uncletopia | Warsaw | 4 | All Maps | STV","players":null},{"server_id":53,"name":"Uncletopia | Warsaw | 5 | Stopwatch Beta","name_short":"waw-5","host":"waw-1.pl.uncletopia.com","port":27055,"enabled":true,"region":"eu","cc":"pl","latitude":52.2297,"longitude":21.017532,"reserved":0,"last_update":"0001-01-01T00:00:00Z","name_a2s":"Uncletopia | Warsaw | 5 | Stopwatch Beta","protocol":17,"map":"pl_pier","folder":"tf","game":"Team Fortress","app_id":440,"player_count":0,"max_players":24,"Bots":0,"server_type":"Dedicated","server_os":"Linux","password":true,"vac":true,"version":"7742253","steam_id":85568392925397854,"keywords":["nocrits","nodmgspread","payload","uncletopia"],"game_id":440,"stv_port":27056,"stv_name":"Uncletopia | Warsaw | 5 | Stopwatch Beta | STV","players":null},{"server_id":54,"name":"Uncletopia | Warsaw | 6 | Community","name_short":"waw-6","host":"waw-1.pl.uncletopia.com","port":27065,"enabled":true,"region":"eu","cc":"pl","latitude":52.2297,"longitude":21.017532,"reserved":0,"last_update":"0001-01-01T00:00:00Z","name_a2s":"Uncletopia | Warsaw | 6 | Community","protocol":17,"map":"cp_sunshine","folder":"tf","game":"Team Fortress","app_id":440,"player_count":0,"max_players":24,"Bots":0,"server_type":"Dedicated","server_os":"Linux","password":true,"vac":true,"version":"7742253","steam_id":85568392925397856,"keywords":["cp","nocrits","nodmgspread","uncletopia"],"game_id":440,"stv_port":27066,"stv_name":"Uncletopia | Warsaw | 6 | Community | STV","players":null}]}