{"status":true,"message":"","result":[{"server_id":9,"name":"Uncletopia | Atlanta | 1 | All Maps","name_short":"atl-1","host":"atl-1.us.uncletopia.com","port":27015,"enabled":true,"region":"us-east","cc":"us","latitude":33.753746,"longitude":-84.38633,"reserved":0,"last_update":"0001-01-01T00:00:00Z","name_a2s":"Uncletopia | Atlanta | 1 | All Maps","protocol":17,"map":"pl_upward","folder":"tf","game":"Team Fortress","app_id":440,"player_count":24,"max_players":24,"Bots":0,"server_type":"Dedicated","server_os":"Linux","password":true,"vac":true,"version":"7708610","steam_id":85568392924469982,"keywords":["nocrits","nodmgspread","payload","uncletopia"],"game_id":440,"stv_port":27016,"stv_name":"Uncletopia | Atlanta | 1 | All Maps | STV","players":[{"user_id":164,"name":"Clean","steam_id":76561198061224922,"connected_time":6000000000,"state":"spawning","ping":83},{"user_id":163,"name":"Hot Boy","steam_id":76561198235994316,"connected_time":167000000000,"state":"active","ping":58},{"user_id":24,"name":"monke gaming","steam_id":76561198838245430,"connected_time":10620000000000,"state":"active","ping":100},{"user_id":122,"name":"Atlas","steam_id":76561198127975050,"connected_time":2811000000000,"state":"active","ping":45},{"user_id":142,"name":"GREG","steam_id":76561198073021168,"connected_time":1909000000000,"state":"active","ping":44},{"user_id":159,"name":"DRISZI","steam_id":76561198209217272,"connected_time":653000000000,"state":"active","ping":126},{"user_id":126,"name":"inzang","steam_id":76561198088318074,"connected_time":2603000000000,"state":"active","ping":69},{"user_id":148,"name":"SuperJagops","steam_id":76561198034689716,"connected_time":1438000000000,"state":"active","ping":76},{"user_id":151,"name":"recycle","steam_id":76561198819562111,"connected_time":1259000000000,"state":"active","ping":88},{"user_id":71,"name":"timesool","steam_id":76561198367583372,"connected_time":6318000000000,"state":"active","ping":82},{"user_id":136,"name":"Zhenaj","steam_id":76561199209016136,"connected_time":2303000000000,"state":"active","ping":77},{"user_id":149,"name":"ultrax.extremex","steam_id":76561199201770653,"connected_time":1352000000000,"state":"active","ping":80},{"user_id":150,"name":"Momo_Seyfret","steam_id":76561199214247273,"connected_time":1319000000000,"state":"active","ping":145},{"user_id":35,"name":"Cthulwho?","steam_id":76561198165550810,"connected_time":9416000000000,"state":"active","ping":60},{"user_id":153,"name":"Knightshade","steam_id":76561198047225393,"connected_time":1029000000000,"state":"active","ping":104},{"user_id":155,"name":"loser","steam_id":76561198171507451,"connected_time":824000000000,"state":"active","ping":88},{"user_id":140,"name":"SLiPpeRyJoe.nosound","steam_id":76561197977206359,"connected_time":2155000000000,"state":"active","ping":69},{"user_id":147,"name":"Coup de Grass","steam_id":76561198011643226,"connected_time":1622000000000,"state":"active","ping":61},{"user_id":152,"name":"rlty","steam_id":76561198009395055,"connected_time":1241000000000,"state":"active","ping":63},{"user_id":120,"name":"GujaJuice","steam_id":76561199025126191,"connected_time":2865000000000,"state":"active","ping":59},{"user_id":161,"name":"DeathwingTheDestroyer","steam_id":76561199147322448,"connected_time":651000000000,"state":"active","ping":56},{"user_id":157,"name":"√íw√ì","steam_id":76561197997304387,"connected_time":667000000000,"state":"active","ping":73},{"user_id":162,"name":"slurp","steam_id":76561198323497535,"connected_time":650000000000,"state":"active","ping":73},{"user_id":156,"name":"ShiYor","steam_id":76561199117260032,"connected_time":823000000000,"state":"active","ping":126}]},{"server_id":400,"name":"Uncletopia | Atlanta | 3 | All Maps","name_short":"atl-3","host":"atl-1.us.uncletopia.com","port":27035,"enabled":true,"region":"us-east","cc":"us","latitude":33.753746,"longitude":-84.38633,"reserved":0,"last_update":"0001-01-01T00:00:00Z","name_a2s":"Uncletopia | Atlanta | 3 | All Maps","protocol":17,"map":"pl_badwater","folder":"tf","game":"Team Fortress","app_id":440,"player_count":2,"max_players":24,"Bots":0,"server_type":"Dedicated","server_os":"Linux","password":true,"vac":true,"version":"7708610","steam_id":85568392924515187,"keywords":["nocrits","nodmgspread","payload","uncletopia"],"game_id":440,"stv_port":0,"stv_name":"","players":[{"user_id":4,"name":"abomination","steam_id":76561198167974713,"connected_time":385000000000,"state":"active","ping":47},{"user_id":6,"name":"Space bar ¬©","steam_id":76561199405318831,"connected_time":13000000000,"state":"active","ping":91}]},{"server_id":401,"name":"Uncletopia | Atlanta | 4 | No Payload","name_short":"atl-4","host":"atl-1.us.uncletopia.com","port":27045,"enabled":true,"region":"us-east","cc":"us","latitude":33.753746,"longitude":-84.38633,"reserved":0,"last_update":"0001-01-01T00:00:00Z","name_a2s":"Uncletopia | Atlanta | 4 | No Payload","protocol":17,"map":"pl_upward","folder":"tf","game":"Team Fortress","app_id":440,"player_count":0,"max_players":24,"Bots":0,"server_type":"Dedicated","server_os":"Linux","password":true,"vac":true,"version":"7708610","steam_id":85568392924515188,"keywords":["nocrits","nodmgspread","payload","uncletopia"],"game_id":440,"stv_port":0,"stv_name":"","players":null},{"server_id":2,"name":"Uncletopia | Chicago | 1 | All Maps","name_short":"chi-1","host":"chi-1.us.uncletopia.com","port":27015,"enabled":true,"region":"us-central","cc":"us","latitude":41.881832,"longitude":-87.62318,"reserved":0,"last_update":"0001-01-01T00:00:00Z","name_a2s":"Uncletopia | Chicago | 1 | All Maps","protocol":17,"map":"koth_highpass","folder":"tf","game":"Team Fortress","app_id":440,"player_count":0,"max_players":24,"Bots":0,"server_type":"Dedicated","server_os":"Linux","password":true,"vac":true,"version":"7708610","steam_id":85568392924469984,"keywords":["cp","nocrits","nodmgspread","uncletopia"],"game_id":440,"stv_port":0,"stv_name":"","players":null},{"server_id":106,"name":"Uncletopia | Chicago | 2 | All Maps","name_short":"chi-2","host":"chi-1.us.uncletopia.com","port":27025,"enabled":true,"region":"us-central","cc":"us","latitude":41.881832,"longitude":-87.62318,"reserved":0,"last_update":"0001-01-01T00:00:00Z","name_a2s":"Uncletopia | Chicago | 2 | All Maps","protocol":17,"map":"cp_sunshine","folder":"tf","game":"Team Fortress","app_id":440,"player_count":0,"max_players":24,"Bots":0,"server_type":"Dedicated","server_os":"Linux","password":true,"vac":true,"version":"7708610","steam_id":85568392924469985,"keywords":["cp","nocrits","nodmgspread","uncletopia"],"game_id":440,"stv_port":0,"stv_name":"","players":null},{"server_id":402,"name":"Uncletopia | Chicago | 3 | All Maps","name_short":"chi-3","host":"chi-1.us.uncletopia.com","port":27035,"enabled":true,"region":"us-central","cc":"us","latitude":41.881832,"longitude":-87.62318,"reserved":0,"last_update":"0001-01-01T00:00:00Z","name_a2s":"Uncletopia | Chicago | 3 | All Maps","protocol":17,"map":"cp_dustbowl","folder":"tf","game":"Team Fortress","app_id":440,"player_count":0,"max_players":24,"Bots":0,"server_type":"Dedicated","server_os":"Linux","password":true,"vac":true,"version":"7708610","steam_id":85568392924515191,"keywords":["cp","nocrits","nodmgspread","uncletopia"],"game_id":440,"stv_port":0,"stv_name":"","players":null},{"server_id":403,"name":"Uncletopia | Chicago | 4 | All Maps","name_short":"chi-4","host":"chi-1.us.uncletopia.com","port":27045,"enabled":true,"region":"us-central","cc":"us","latitude":41.881832,"longitude":-87.62318,"reserved":0,"last_update":"0001-01-01T00:00:00Z","name_a2s":"Uncletopia | Chicago | 4 | All Maps","protocol":17,"map":"koth_highpass","folder":"tf","game":"Team Fortress","app_id":440,"player_count":0,"max_players":24,"Bots":0,"server_type":"Dedicated","server_os":"Linux","password":true,"vac":true,"version":"7708610","steam_id":85568392924515193,"keywords":["cp","nocrits","nodmgspread","uncletopia"],"game_id":440,"stv_port":27046,"stv_name":"Uncletopia | Chicago | 4 | All Maps | STV","players":null},{"server_id":36,"name":"Uncletopia | Chicago | 5 | All Maps","name_short":"chi-5","host":"chi-2.us.uncletopia.com","port":27015,"enabled":true,"region":"us-central","cc":"us","latitude":41.881832,"longitude":-87.62318,"reserved":0,"last_update":"0001-01-01T00:00:00Z","name_a2s":"Uncletopia | Chicago | 5 | All Maps","protocol":17,"map":"cp_snakewater_final1","folder":"tf","game":"Team Fortress","app_id":440,"player_count":0,"max_players":24,"Bots":0,"server_type":"Dedicated","server_os":"Linux","password":true,"vac":true,"version":"7708610","steam_id":85568392924866362,"keywords":["cp","nocrits","nodmgspread","uncletopia"],"game_id":440,"stv_port":0,"stv_name":"","players":null},{"server_id":37,"name":"Uncletopia | Chicago | 6 | All Maps","name_short":"chi-6","host":"chi-2.us.uncletopia.com","port":27025,"enabled":true,"region":"us-central","cc":"us","latitude":41.881832,"longitude":-87.62318,"reserved":0,"last_update":"0001-01-01T00:00:00Z","name_a2s":"Uncletopia | Chicago | 6 | All Maps","protocol":17,"map":"koth_cascade","folder":"tf","game":"Team Fortress","app_id":440,"player_count":0,"max_players":24,"Bots":0,"server_type":"Dedicated","server_os":"Linux","password":true,"vac":true,"version":"7708610","steam_id":85568392924866363,"keywords":["cp","nocrits","nodmgspread","uncletopia"],"game_id":440,"stv_port":0,"stv_name":"","players":null},{"server_id":38,"name":"Uncletopia | Chicago | 7 | No Payload","name_short":"chi-7","host":"chi-2.us.uncletopia.com","port":27035,"enabled":true,"region":"us-central","cc":"us","latitude":41.881832,"longitude":-87.62318,"reserved":0,"last_update":"0001-01-01T00:00:00Z","name_a2s":"Uncletopia | Chicago | 7 | No Payload","protocol":17,"map":"koth_viaduct","folder":"tf","game":"Team Fortress","app_id":440,"player_count":1,"max_players":24,"Bots":0,"server_type":"Dedicated","server_os":"Linux","password":true,"vac":true,"version":"7708610","steam_id":85568392924866364,"keywords":["cp","nocrits","nodmgspread","uncletopia"],"game_id":440,"stv_port":0,"stv_name":"","players":[{"user_id":2,"name":"its personal","steam_id":76561199098408531,"connected_time":162000000000,"state":"active","ping":88}]},{"server_id":39,"name":"Uncletopia | Chicago | 8 | Community","name_short":"chi-8","host":"chi-2.us.uncletopia.com","port":27045,"enabled":true,"region":"us-central","cc":"us","latitude":41.881832,"longitude":-87.62318,"reserved":0,"last_update":"0001-01-01T00:00:00Z","name_a2s":"Uncletopia | Chicago | 8 | Community","protocol":17,"map":"pl_pier","folder":"tf","game":"Team Fortress","app_id":440,"player_count":0,"max_players":24,"Bots":0,"server_type":"Dedicated","server_os":"Linux","password":true,"vac":true,"version":"7708610","steam_id":85568392924866365,"keywords":["nocrits","nodmgspread","payload","uncletopia"],"game_id":440,"stv_port":0,"stv_name":"","players":null},{"server_id":8,"name":"Uncletopia | Dallas | 1 | All Maps","name_short":"dal-1","host":"dal-1.us.uncletopia.com","port":27015,"enabled":true,"region":"us-central","cc":"us","latitude":32.779167,"longitude":-96.80889,"reserved":0,"last_update":"0001-01-01T00:00:00Z","name_a2s":"Uncletopia | Dallas | 1 | All Maps","protocol":17,"map":"pl_borneo","folder":"tf","game":"Team Fortress","app_id":440,"player_count":4,"max_players":24,"Bots":0,"server_type":"Dedicated","server_os":"Linux","password":true,"vac":true,"version":"7708610","steam_id":85568392924469986,"keywords":["nocrits","nodmgspread","payload","uncletopia"],"game_id":440,"stv_port":27016,"stv_name":"Uncletopia | Dallas | 1 | All Maps | STV","players":[{"user_id":6,"name":"Viperbro_FGC #SaveTF2","steam_id":76561198140863068,"connected_time":2018000000000,"state":"active","ping":62},{"user_id":10,"name":"john315546","steam_id":76561199186537930,"connected_time":1415000000000,"state":"active","ping":194},{"user_id":16,"name":"Hobocop","steam_id":76561198076321907,"connected_time":150000000000,"state":"active","ping":100},{"user_id":8,"name":"Hindmost","steam_id":76561199081837220,"connected_time":1924000000000,"state":"active","ping":59}]},{"server_id":108,"name":"Uncletopia | Dallas | 2 | All Maps","name_short":"dal-2","host":"dal-1.us.uncletopia.com","port":27025,"enabled":true,"region":"us-central","cc":"us","latitude":32.779167,"longitude":-96.80889,"reserved":0,"last_update":"0001-01-01T00:00:00Z","name_a2s":"Uncletopia | Dallas | 2 | All Maps","protocol":17,"map":"koth_cascade","folder":"tf","game":"Team Fortress","app_id":440,"player_count":0,"max_players":24,"Bots":0,"server_type":"Dedicated","server_os":"Linux","password":true,"vac":true,"version":"7708610","steam_id":85568392924469988,"keywords":["cp","nocrits","nodmgspread","uncletopia"],"game_id":440,"stv_port":27026,"stv_name":"Uncletopia | Dallas | 2 | All Maps | STV","players":null},{"server_id":5,"name":"Uncletopia | Frankfurt | 1 | All Maps","name_short":"frk-1","host":"frk-1.de.uncletopia.com","port":27015,"enabled":true,"region":"eu","cc":"de","latitude":50.110924,"longitude":8.682127,"reserved":0,"last_update":"0001-01-01T00:00:00Z","name_a2s":"Uncletopia | Frankfurt | 1 | All Maps","protocol":17,"map":"ctf_doublecross_snowy","folder":"tf","game":"Team Fortress","app_id":440,"player_count":23,"max_players":24,"Bots":0,"server_type":"Dedicated","server_os":"Linux","password":true,"vac":true,"version":"7708610","steam_id":85568392924469989,"keywords":["ctf","nocrits","nodmgspread","uncletopia"],"game_id":440,"stv_port":27016,"stv_name":"Uncletopia | Frankfurt | 1 | All Maps | STV","players":[{"user_id":268,"name":"Hage","steam_id":76561198135224982,"connected_time":544000000000,"state":"active","ping":92},{"user_id":255,"name":"bola typu ≈õwiƒôta","steam_id":76561199145943588,"connected_time":1002000000000,"state":"active","ping":77},{"user_id":251,"name":"PolishInsert","steam_id":76561198282646158,"connected_time":1079000000000,"state":"active","ping":78},{"user_id":275,"name":"JP3","steam_id":76561197970963576,"connected_time":10000000000,"state":"spawning","ping":73},{"user_id":264,"name":"Boobs rater","steam_id":76561198066977580,"connected_time":776000000000,"state":"active","ping":89},{"user_id":252,"name":"Ivun","steam_id":76561198250199228,"connected_time":1077000000000,"state":"active","ping":137},{"user_id":220,"name":"heavy sings (real)","steam_id":76561199023804405,"connected_time":3957000000000,"state":"active","ping":86},{"user_id":237,"name":"Glocket","steam_id":76561198068460684,"connected_time":2929000000000,"state":"active","ping":60},{"user_id":254,"name":"yadro","steam_id":76561199146333459,"connected_time":1062000000000,"state":"active","ping":80},{"user_id":242,"name":"Hasamnas","steam_id":76561199125038537,"connected_time":2316000000000,"state":"active","ping":63},{"user_id":136,"name":"amogus","steam_id":76561198119439177,"connected_time":10415000000000,"state":"active","ping":58},{"user_id":253,"name":"Yxel","steam_id":76561198123982890,"connected_time":1064000000000,"state":"active","ping":62},{"user_id":140,"name":"Umme","steam_id":76561198053809566,"connected_time":9597000000000,"state":"active","ping":74},{"user_id":256,"name":"average voices enjoyer","steam_id":76561198307919303,"connected_time":957000000000,"state":"active","ping":45},{"user_id":243,"name":"Alegz","steam_id":76561198287810139,"connected_time":2313000000000,"state":"active","ping":53},{"user_id":214,"name":"thovee","steam_id":76561198107206006,"connected_time":4516000000000,"state":"active","ping":60},{"user_id":239,"name":"Gordon Birdman","steam_id":76561198013382324,"connected_time":2517000000000,"state":"active","ping":74},{"user_id":273,"name":"Cardbrige","steam_id":76561198294453886,"connected_time":69000000000,"state":"spawning","ping":58},{"user_id":244,"name":"Gunto","steam_id":76561199046992205,"connected_time":2312000000000,"state":"active","ping":54},{"user_id":259,"name":"Vollys","steam_id":76561198018077773,"connected_time":918000000000,"state":"active","ping":51},{"user_id":266,"name":"assassin","steam_id":76561199016050401,"connected_time":659000000000,"state":"active","ping":132},{"user_id":267,"name":"Bunnytt","steam_id":76561198340246275,"connected_time":616000000000,"state":"active","ping":104},{"user_id":245,"name":"SIGMA BALLS","steam_id":76561198302623594,"connected_time":2310000000000,"state":"active","ping":91}]},{"server_id":110,"name":"Uncletopia | Frankfurt | 2 | All Maps","name_short":"frk-2","host":"frk-1.de.uncletopia.com","port":27025,"enabled":true,"region":"eu","cc":"de","latitude":50.110924,"longitude":8.682127,"reserved":0,"last_update":"0001-01-01T00:00:00Z","name_a2s":"Uncletopia | Frankfurt | 2 | All Maps","protocol":17,"map":"pl_swiftwater_final1","folder":"tf","game":"Team Fortress","app_id":440,"player_count":24,"max_players":24,"Bots":0,"server_type":"Dedicated","server_os":"Linux","password":true,"vac":true,"version":"7708610","steam_id":85568392924469990,"keywords":["nocrits","nodmgspread","payload","uncletopia"],"game_id":440,"stv_port":27026,"stv_name":"Uncletopia | Frankfurt | 2 | All Maps | STV","players":[{"user_id":99,"name":"seneca","steam_id":76561198189243221,"connected_time":1367000000000,"state":"active","ping":104},{"user_id":89,"name":"Lost And Damned","steam_id":76561198453240974,"connected_time":1573000000000,"state":"active","ping":166},{"user_id":112,"name":"Êó©‰∏äÂ•Ω‰∏≠ÂõΩ","steam_id":76561198033205384,"connected_time":857000000000,"state":"active","ping":63},{"user_id":103,"name":"I-I","steam_id":76561198267969436,"connected_time":1143000000000,"state":"active","ping":51},{"user_id":113,"name":"Human Rights","steam_id":76561198102420849,"connected_time":830000000000,"state":"active","ping":60},{"user_id":105,"name":"Deadly Queen","steam_id":76561198352144873,"connected_time":1114000000000,"state":"active","ping":75},{"user_id":67,"name":"YHO","steam_id":76561198339976286,"connected_time":2677000000000,"state":"active","ping":61},{"user_id":107,"name":"lisnin2deathgrips/gec :3","steam_id":76561199013457963,"connected_time":1060000000000,"state":"active","ping":69},{"user_id":90,"name":"Oak_Tree_From_Minecraft","steam_id":76561199223984137,"connected_time":1526000000000,"state":"active","ping":45},{"user_id":91,"name":"round object","steam_id":76561198136239861,"connected_time":1525000000000,"state":"active","ping":60},{"user_id":72,"name":"richardhpg","steam_id":76561199027087074,"connected_time":2439000000000,"state":"active","ping":64},{"user_id":116,"name":"Kanon","steam_id":76561198295037860,"connected_time":512000000000,"state":"active","ping":93},{"user_id":114,"name":".::[SerafeTTiN]::.","steam_id":76561198009471724,"connected_time":737000000000,"state":"active","ping":90},{"user_id":86,"name":"F.S.Kleister","steam_id":76561199053686649,"connected_time":1677000000000,"state":"active","ping":135},{"user_id":75,"name":"freemantel30","steam_id":76561198065669800,"connected_time":2390000000000,"state":"active","ping":49},{"user_id":109,"name":"jorj3821","steam_id":76561198844794367,"connected_time":1038000000000,"state":"active","ping":76},{"user_id":117,"name":"bocian2703","steam_id":76561198134203031,"connected_time":394000000000,"state":"active","ping":60},{"user_id":80,"name":"Dominus.","steam_id":76561199065917088,"connected_time":1932000000000,"state":"active","ping":71},{"user_id":110,"name":"Tibbs","steam_id":76561197987980406,"connected_time":1028000000000,"state":"active","ping":81},{"user_id":118,"name":"Cats4E","steam_id":76561198403547639,"connected_time":346000000000,"state":"active","ping":46},{"user_id":111,"name":"V‚òÖren","steam_id":76561198063138371,"connected_time":869000000000,"state":"active","ping":68},{"user_id":94,"name":"loveless","steam_id":76561198142256651,"connected_time":1493000000000,"state":"active","ping":80},{"user_id":95,"name":"il","steam_id":76561198122662610,"connected_time":1491000000000,"state":"active","ping":77},{"user_id":115,"name":"MAKENTAKEN","steam_id":76561199127359587,"connected_time":618000000000,"state":"active","ping":93}]},{"server_id":308,"name":"Uncletopia | Frankfurt | 3 | All Maps","name_short":"frk-3","host":"frk-1.de.uncletopia.com","port":27035,"enabled":true,"region":"eu","cc":"de","latitude":50.110924,"longitude":8.682127,"reserved":0,"last_update":"0001-01-01T00:00:00Z","name_a2s":"Uncletopia | Frankfurt | 3 | All Maps","protocol":17,"map":"pl_pier","folder":"tf","game":"Team Fortress","app_id":440,"player_count":24,"max_players":24,"Bots":0,"server_type":"Dedicated","server_os":"Linux","password":true,"vac":true,"version":"7708610","steam_id":85568392924504274,"keywords":["nocrits","nodmgspread","payload","uncletopia"],"game_id":440,"stv_port":27036,"stv_name":"Uncletopia | Frankfurt | 3 | All Maps | STV","players":[{"user_id":210,"name":"Dolcelatte","steam_id":76561198038501770,"connected_time":1960000000000,"state":"active","ping":47},{"user_id":209,"name":"Prismoo","steam_id":76561198320524819,"connected_time":2014000000000,"state":"active","ping":77},{"user_id":230,"name":"Sad Slut","steam_id":76561198838277022,"connected_time":227000000000,"state":"active","ping":64},{"user_id":224,"name":"Technic","steam_id":76561198128096130,"connected_time":833000000000,"state":"active","ping":47},{"user_id":225,"name":"Paulie \"Walnuts\" Gualtieri","steam_id":76561198364121077,"connected_time":798000000000,"state":"active","ping":95},{"user_id":226,"name":"Greed","steam_id":76561198034264020,"connected_time":793000000000,"state":"active","ping":118},{"user_id":211,"name":"benchapman1011","steam_id":76561199014502613,"connected_time":1831000000000,"state":"active","ping":167},{"user_id":235,"name":"sexbom","steam_id":76561198917309036,"connected_time":98000000000,"state":"active","ping":139},{"user_id":236,"name":"Tywhip","steam_id":76561199207545191,"connected_time":41000000000,"state":"active","ping":60},{"user_id":228,"name":"Panzerwaffle","steam_id":76561198030382800,"connected_time":471000000000,"state":"active","ping":53},{"user_id":194,"name":"dotdotdot","steam_id":76561198057628751,"connected_time":3728000000000,"state":"active","ping":63},{"user_id":213,"name":"GMsU | Rebikas","steam_id":76561198077053764,"connected_time":1810000000000,"state":"active","ping":43},{"user_id":202,"name":"Smissmin","steam_id":76561198005342133,"connected_time":2363000000000,"state":"active","ping":58},{"user_id":233,"name":"DodoImperium","steam_id":76561198996862938,"connected_time":185000000000,"state":"active","ping":110},{"user_id":162,"name":"cat (they/them)","steam_id":76561198416657815,"connected_time":4695000000000,"state":"active","ping":70},{"user_id":206,"name":"apollo","steam_id":76561198008107656,"connected_time":2268000000000,"state":"active","ping":46},{"user_id":214,"name":"GMsU | Smiley","steam_id":76561198121494414,"connected_time":1798000000000,"state":"active","ping":77},{"user_id":229,"name":"alvinulv","steam_id":76561198024487177,"connected_time":468000000000,"state":"active","ping":70},{"user_id":222,"name":"Nick (Mute banned on Uncletopia","steam_id":76561198036109469,"connected_time":1428000000000,"state":"active","ping":93},{"user_id":223,"name":"GMsU | Acoul","steam_id":76561198229222992,"connected_time":848000000000,"state":"active","ping":50},{"user_id":218,"name":"obelsik","steam_id":76561199203511638,"connected_time":1742000000000,"state":"active","ping":184},{"user_id":234,"name":"Mistress of the universe","steam_id":76561198115988477,"connected_time":177000000000,"state":"active","ping":61},{"user_id":193,"name":"Pyr0s_Fx","steam_id":76561198057201503,"connected_time":3769000000000,"state":"active","ping":62},{"user_id":219,"name":"DelT","steam_id":76561198204007537,"connected_time":1736000000000,"state":"active","ping":45}]},{"server_id":309,"name":"Uncletopia | Frankfurt | 4 | All Maps","name_short":"frk-4","host":"frk-1.de.uncletopia.com","port":27045,"enabled":true,"region":"eu","cc":"de","latitude":50.110924,"longitude":8.682127,"reserved":0,"last_update":"0001-01-01T00:00:00Z","name_a2s":"Uncletopia | Frankfurt | 4 | All Maps","protocol":17,"map":"pl_pier","folder":"tf","game":"Team Fortress","app_id":440,"player_count":17,"max_players":24,"Bots":0,"server_type":"Dedicated","server_os":"Linux","password":true,"vac":true,"version":"7708610","steam_id":85568392924504275,"keywords":["nocrits","nodmgspread","payload","uncletopia"],"game_id":440,"stv_port":27046,"stv_name":"Uncletopia | Frankfurt | 4 | All Maps | STV","players":[{"user_id":364,"name":" ï ·µî·¥•·µî  î","steam_id":76561199117720299,"connected_time":997000000000,"state":"active","ping":60},{"user_id":359,"name":"gogomaster24","steam_id":76561198100112989,"connected_time":1452000000000,"state":"active","ping":71},{"user_id":369,"name":"üåº POWER_Hugee","steam_id":76561198245495152,"connected_time":606000000000,"state":"active","ping":64},{"user_id":373,"name":"Farmercy","steam_id":76561198000038039,"connected_time":377000000000,"state":"active","ping":50},{"user_id":302,"name":"galaxy","steam_id":76561198164819022,"connected_time":5140000000000,"state":"active","ping":56},{"user_id":352,"name":"I Bleed Butter","steam_id":76561198130814770,"connected_time":2011000000000,"state":"active","ping":81},{"user_id":374,"name":"Maxmen","steam_id":76561198188541510,"connected_time":148000000000,"state":"active","ping":134},{"user_id":375,"name":"dusty","steam_id":76561199011977567,"connected_time":137000000000,"state":"active","ping":65},{"user_id":371,"name":"Yoshikage Kira","steam_id":76561199051752886,"connected_time":472000000000,"state":"active","ping":50},{"user_id":238,"name":"lurjus","steam_id":76561198042894236,"connected_time":9151000000000,"state":"active","ping":99},{"user_id":361,"name":"Redmailbox","steam_id":76561198042930322,"connected_time":1086000000000,"state":"active","ping":60},{"user_id":358,"name":"Fox","steam_id":76561198079364100,"connected_time":1721000000000,"state":"active","ping":61},{"user_id":334,"name":"roblan11","steam_id":76561198066839258,"connected_time":3292000000000,"state":"active","ping":45},{"user_id":370,"name":"Shynii","steam_id":76561198194682105,"connected_time":543000000000,"state":"active","ping":68},{"user_id":349,"name":"reho-iwnw","steam_id":76561198348062373,"connected_time":2145000000000,"state":"active","ping":89},{"user_id":357,"name":"ducks","steam_id":76561198166148685,"connected_time":1810000000000,"state":"active","ping":46},{"user_id":368,"name":"Carrot","steam_id":76561198119340863,"connected_time":651000000000,"state":"active","ping":66}]},{"server_id":310,"name":"Uncletopia | Frankfurt | 5 | All Maps","name_short":"frk-5","host":"frk-1.de.uncletopia.com","port":27055,"enabled":true,"region":"eu","cc":"de","latitude":50.110924,"longitude":8.682127,"reserved":0,"last_update":"0001-01-01T00:00:00Z","name_a2s":"Uncletopia | Frankfurt | 5 | All Maps","protocol":17,"map":"cp_sunshine","folder":"tf","game":"Team Fortress","app_id":440,"player_count":20,"max_players":24,"Bots":0,"server_type":"Dedicated","server_os":"Linux","password":true,"vac":true,"version":"7708610","steam_id":85568392924504277,"keywords":["cp","nocrits","nodmgspread","uncletopia"],"game_id":440,"stv_port":27056,"stv_name":"Uncletopia | Frankfurt | 5 | All Maps | STV","players":[{"user_id":212,"name":"Ecy","steam_id":76561198110756682,"connected_time":1948000000000,"state":"active","ping":55},{"user_id":208,"name":"Dr. Oetker","steam_id":76561198202668788,"connected_time":2254000000000,"state":"spawning","ping":63},{"user_id":233,"name":"Jekyll","steam_id":76561198052071406,"connected_time":17000000000,"state":"spawning","ping":94},{"user_id":171,"name":"fediokorko","steam_id":76561199040359077,"connected_time":5166000000000,"state":"spawning","ping":201},{"user_id":216,"name":"TheBeardedM1G","steam_id":76561198040208946,"connected_time":1641000000000,"state":"active","ping":59},{"user_id":231,"name":"Syringe Gun","steam_id":76561198097789669,"connected_time":44000000000,"state":"spawning","ping":79},{"user_id":165,"name":"ashsbhop","steam_id":76561199155075476,"connected_time":5335000000000,"state":"active","ping":89},{"user_id":214,"name":"Dudboi","steam_id":76561199166486303,"connected_time":1818000000000,"state":"spawning","ping":87},{"user_id":222,"name":"yummy_treat_for_mr_beast","steam_id":76561198010251613,"connected_time":1064000000000,"state":"spawning","ping":111},{"user_id":225,"name":"Tweehoek","steam_id":76561197993796913,"connected_time":849000000000,"state":"spawning","ping":72},{"user_id":189,"name":"Wagner Combat Elite Z","steam_id":76561198446797116,"connected_time":3974000000000,"state":"active","ping":106},{"user_id":209,"name":"Cuthbert","steam_id":76561198204649481,"connected_time":2175000000000,"state":"active","ping":111},{"user_id":217,"name":"Mklavzovc","steam_id":76561198305794970,"connected_time":1629000000000,"state":"spawning","ping":94},{"user_id":211,"name":"beer","steam_id":76561198442962043,"connected_time":2089000000000,"state":"spawning","ping":90},{"user_id":232,"name":"Denialman (Muted)","steam_id":76561198309182092,"connected_time":41000000000,"state":"spawning","ping":74},{"user_id":228,"name":"Peanut","steam_id":76561197995312454,"connected_time":612000000000,"state":"spawning","ping":76},{"user_id":179,"name":"√Ñ√§rik ‚ô£","steam_id":76561198131871737,"connected_time":4901000000000,"state":"active","ping":77},{"user_id":218,"name":"Rezolt","steam_id":76561198069074807,"connected_time":1625000000000,"state":"spawning","ping":114},{"user_id":219,"name":"DowPao","steam_id":76561198372906237,"connected_time":1621000000000,"state":"spawning","ping":102},{"user_id":220,"name":"Croix","steam_id":76561198059642945,"connected_time":1604000000000,"state":"spawning","ping":35}]},{"server_id":311,"name":"Uncletopia | Frankfurt | 6 | All Maps","name_short":"frk-6","host":"frk-1.de.uncletopia.com","port":27065,"enabled":true,"region":"eu","cc":"de","latitude":50.110924,"longitude":8.682127,"reserved":0,"last_update":"0001-01-01T00:00:00Z","name_a2s":"Uncletopia | Frankfurt | 6 | All Maps","protocol":17,"map":"koth_lakeside_final","folder":"tf","game":"Team Fortress","app_id":440,"player_count":0,"max_players":24,"Bots":0,"server_type":"Dedicated","server_os":"Linux","password":true,"vac":true,"version":"7708610","steam_id":85568392924504278,"keywords":["cp","nocrits","nodmgspread","uncletopia"],"game_id":440,"stv_port":0,"stv_name":"","players":null},{"server_id":23,"name":"Uncletopia | Frankfurt | 7 | No Payload","name_short":"frk-7","host":"frk-1.de.uncletopia.com","port":27075,"enabled":true,"region":"eu","cc":"de","latitude":50.110924,"longitude":8.682127,"reserved":0,"last_update":"0001-01-01T00:00:00Z","name_a2s":"Uncletopia | Frankfurt | 7 | No Payload","protocol":17,"map":"cp_standin_final","folder":"tf","game":"Team Fortress","app_id":440,"player_count":0,"max_players":24,"Bots":0,"server_type":"Dedicated","server_os":"Linux","password":true,"vac":true,"version":"7708610","steam_id":85568392924742827,"keywords":["cp","nocrits","nodmgspread","uncletopia"],"game_id":440,"stv_port":27076,"stv_name":"Uncletopia | Frankfurt | 7 | No Payload | STV","players":null},{"server_id":24,"name":"Uncletopia | Frankfurt | 8 | Community","name_short":"frk-8","host":"frk-1.de.uncletopia.com","port":27085,"enabled":true,"region":"eu","cc":"de","latitude":50.110924,"longitude":8.682127,"reserved":0,"last_update":"0001-01-01T00:00:00Z","name_a2s":"Uncletopia | Frankfurt | 8 | Community","protocol":17,"map":"workshop/pl_barnblitz_pro7.ugc582280235","folder":"tf","game":"Team Fortress","app_id":440,"player_count":4,"max_players":24,"Bots":0,"server_type":"Dedicated","server_os":"Linux","password":true,"vac":true,"version":"7708610","steam_id":85568392924742828,"keywords":["nocrits","nodmgspread","payload","uncletopia"],"game_id":440,"stv_port":27086,"stv_name":"Uncletopia | Frankfurt | 8 | Community | STV","players":[{"user_id":5,"name":"Spazmatic","steam_id":76561198060956170,"connected_time":829000000000,"state":"active","ping":109},{"user_id":12,"name":"Millenial on a Phone","steam_id":76561199236549417,"connected_time":23000000000,"state":"active","ping":150},{"user_id":9,"name":"fried","steam_id":76561198307522022,"connected_time":518000000000,"state":"active","ping":50},{"user_id":11,"name":"MR.lag the demoknight (maybe)","steam_id":76561199219955074,"connected_time":72000000000,"state":"spawning","ping":399}]},{"server_id":202,"name":"Uncletopia | Hong Kong | 1 | All Maps","name_short":"hgk-1","host":"hgk-1.hk.uncletopia.com","port":27015,"enabled":true,"region":"asia","cc":"hk","latitude":22.302711,"longitude":114.177216,"reserved":0,"last_update":"0001-01-01T00:00:00Z","name_a2s":"Uncletopia | Hong Kong | 1 | All Maps","protocol":17,"map":"pl_pier","folder":"tf","game":"Team Fortress","app_id":440,"player_count":24,"max_players":24,"Bots":0,"server_type":"Dedicated","server_os":"Linux","password":true,"vac":true,"version":"7708610","steam_id":85568392924494504,"keywords":["nocrits","nodmgspread","payload","uncletopia"],"game_id":440,"stv_port":27016,"stv_name":"Uncletopia | Hong Kong | 1 | All Maps | STV","players":[{"user_id":657,"name":"Kall","steam_id":76561197993608660,"connected_time":104000000000,"state":"active","ping":96},{"user_id":659,"name":"Buttman","steam_id":76561198044693388,"connected_time":102000000000,"state":"active","ping":36},{"user_id":658,"name":"eeeeeee","steam_id":76561199205561410,"connected_time":103000000000,"state":"active","ping":91},{"user_id":629,"name":"ellz","steam_id":76561199216074568,"connected_time":2561000000000,"state":"active","ping":188},{"user_id":653,"name":"the big guy","steam_id":76561198412329672,"connected_time":569000000000,"state":"active","ping":89},{"user_id":647,"name":"screaming sniper","steam_id":76561199085568674,"connected_time":1691000000000,"state":"active","ping":76},{"user_id":660,"name":"Pinecomb","steam_id":76561198825329716,"connected_time":102000000000,"state":"active","ping":52},{"user_id":662,"name":"Paragon","steam_id":76561197983816430,"connected_time":94000000000,"state":"active","ping":129},{"user_id":661,"name":"Saffron","steam_id":76561199025320247,"connected_time":102000000000,"state":"active","ping":66},{"user_id":635,"name":"SissyFemboy‚ô°","steam_id":76561198841376347,"connected_time":2327000000000,"state":"active","ping":57},{"user_id":642,"name":"Bert","steam_id":76561199229912984,"connected_time":1987000000000,"state":"active","ping":62},{"user_id":636,"name":"Cheesey","steam_id":76561198975684137,"connected_time":2325000000000,"state":"active","ping":85},{"user_id":663,"name":"TouchWeed","steam_id":76561198451235659,"connected_time":93000000000,"state":"active","ping":58},{"user_id":641,"name":"tiden2000","steam_id":76561198092969425,"connected_time":2037000000000,"state":"active","ping":91},{"user_id":632,"name":"Hallucates","steam_id":76561198872636453,"connected_time":2544000000000,"state":"active","ping":93},{"user_id":645,"name":"Ë°£ÊóßÁΩ¢‰πÖÈéèÂ≤≥ËÇÜ","steam_id":76561198083234925,"connected_time":1899000000000,"state":"active","ping":76},{"user_id":634,"name":"hpeed","steam_id":76561198808595586,"connected_time":2452000000000,"state":"active","ping":73},{"user_id":648,"name":"Me is gaming","steam_id":76561199025438331,"connected_time":1376000000000,"state":"active","ping":60},{"user_id":651,"name":"Gotta be Mad","steam_id":76561198013546584,"connected_time":581000000000,"state":"active","ping":61},{"user_id":628,"name":"RedBee (Femboy Nurse Èõô)","steam_id":76561198976736971,"connected_time":2565000000000,"state":"active","ping":44},{"user_id":606,"name":"Saggle","steam_id":76561198056075147,"connected_time":4522000000000,"state":"active","ping":126},{"user_id":587,"name":"table","steam_id":76561198055553140,"connected_time":7032000000000,"state":"active","ping":95},{"user_id":652,"name":"IFUDGISTICX","steam_id":76561199105415893,"connected_time":580000000000,"state":"active","ping":72},{"user_id":618,"name":"ÊØç„ÅÆËÇâÂõ£Â≠ê","steam_id":76561198069561896,"connected_time":3429000000000,"state":"active","ping":42}]},{"server_id":1,"name":"Uncletopia | Los Angeles | 1 | All Maps","name_short":"lax-1","host":"lax-1.us.uncletopia.com","port":27015,"enabled":true,"region":"us-west","cc":"us","latitude":33.94279,"longitude":-118.41004,"reserved":0,"last_update":"0001-01-01T00:00:00Z","name_a2s":"Uncletopia | Los Angeles | 1 | All Maps","protocol":17,"map":"cp_process_final","folder":"tf","game":"Team Fortress","app_id":440,"player_count":0,"max_players":24,"Bots":0,"server_type":"Dedicated","server_os":"Linux","password":true,"vac":true,"version":"7708610","steam_id":85568392924469991,"keywords":["cp","nocrits","nodmgspread","uncletopia"],"game_id":440,"stv_port":0,"stv_name":"","players":null},{"server_id":112,"name":"Uncletopia | Los Angeles | 2 | All Maps","name_short":"lax-2","host":"lax-1.us.uncletopia.com","port":27025,"enabled":true,"region":"us-west","cc":"us","latitude":33.94279,"longitude":-118.41004,"reserved":0,"last_update":"0001-01-01T00:00:00Z","name_a2s":"Uncletopia | Los Angeles | 2 | All Maps","protocol":17,"map":"cp_altitude","folder":"tf","game":"Team Fortress","app_id":440,"player_count":0,"max_players":24,"Bots":0,"server_type":"Dedicated","server_os":"Linux","password":true,"vac":true,"version":"7708610","steam_id":85568392924469992,"keywords":["cp","nocrits","nodmgspread","uncletopia"],"game_id":440,"stv_port":0,"stv_name":"","players":null},{"server_id":324,"name":"Uncletopia | Los Angeles | 3 | All Maps","name_short":"lax-3","host":"lax-1.us.uncletopia.com","port":27035,"enabled":true,"region":"us-west","cc":"us","latitude":33.94279,"longitude":-118.41004,"reserved":0,"last_update":"0001-01-01T00:00:00Z","name_a2s":"Uncletopia | Los Angeles | 3 | All Maps","protocol":17,"map":"cp_altitude","folder":"tf","game":"Team Fortress","app_id":440,"player_count":0,"max_players":24,"Bots":0,"server_type":"Dedicated","server_os":"Linux","password":true,"vac":true,"version":"7708610","steam_id":85568392924510198,"keywords":["cp","nocrits","nodmgspread","uncletopia"],"game_id":440,"stv_port":0,"stv_name":"","players":null},{"server_id":25,"name":"Uncletopia | Los Angeles | 4 | No Payload","name_short":"lax-4","host":"lax-1.us.uncletopia.com","port":27045,"enabled":true,"region":"us-west","cc":"us","latitude":33.94279,"longitude":-118.41004,"reserved":0,"last_update":"0001-01-01T00:00:00Z","name_a2s":"Uncletopia | Los Angeles | 4 | No Payload","protocol":17,"map":"pl_upward","folder":"tf","game":"Team Fortress","app_id":440,"player_count":0,"max_players":24,"Bots":0,"server_type":"Dedicated","server_os":"Linux","password":true,"vac":true,"version":"7708610","steam_id":85568392924510199,"keywords":["nocrits","nodmgspread","payload","uncletopia"],"game_id":440,"stv_port":0,"stv_name":"","players":null},{"server_id":11,"name":"Uncletopia | London | 1 | All Maps","name_short":"lon-1","host":"lon-1.uk.uncletopia.com","port":27015,"enabled":true,"region":"eu","cc":"gb","latitude":51.509865,"longitude":-0.118092,"reserved":0,"last_update":"0001-01-01T00:00:00Z","name_a2s":"Uncletopia | London | 1 | All Maps","protocol":17,"map":"pl_borneo","folder":"tf","game":"Team Fortress","app_id":440,"player_count":24,"max_players":24,"Bots":0,"server_type":"Dedicated","server_os":"Linux","password":true,"vac":true,"version":"7708610","steam_id":85568392924367362,"keywords":["nocrits","nodmgspread","payload","uncletopia"],"game_id":440,"stv_port":27016,"stv_name":"Uncletopia | London | 1 | All Maps | STV","players":[{"user_id":131,"name":"sumweeb","steam_id":76561198311624395,"connected_time":2296000000000,"state":"active","ping":40},{"user_id":90,"name":"How do i jump?","steam_id":76561198091734693,"connected_time":5000000000000,"state":"active","ping":75},{"user_id":154,"name":"Rory","steam_id":76561198354037580,"connected_time":290000000000,"state":"active","ping":35},{"user_id":137,"name":"Mapavri","steam_id":76561198370196400,"connected_time":1725000000000,"state":"active","ping":88},{"user_id":55,"name":"player","steam_id":76561198054474684,"connected_time":7194000000000,"state":"active","ping":78},{"user_id":135,"name":"ciliorkun18","steam_id":76561198228942500,"connected_time":1852000000000,"state":"active","ping":95},{"user_id":153,"name":"Pogi820","steam_id":76561198320573568,"connected_time":304000000000,"state":"active","ping":110},{"user_id":147,"name":"A creature","steam_id":76561199176610938,"connected_time":1456000000000,"state":"active","ping":82},{"user_id":24,"name":"Blacksheep","steam_id":76561198019621063,"connected_time":8921000000000,"state":"active","ping":43},{"user_id":136,"name":"Romu3","steam_id":76561198055484251,"connected_time":1837000000000,"state":"active","ping":109},{"user_id":148,"name":"CosminSL","steam_id":76561198055827684,"connected_time":1450000000000,"state":"active","ping":80},{"user_id":132,"name":"steff","steam_id":76561198013306538,"connected_time":2079000000000,"state":"active","ping":55},{"user_id":149,"name":"Aspartus","steam_id":76561198101385763,"connected_time":1434000000000,"state":"active","ping":41},{"user_id":108,"name":"Johnny Boy","steam_id":76561197969525453,"connected_time":3836000000000,"state":"active","ping":65},{"user_id":155,"name":"moon","steam_id":76561199212557251,"connected_time":204000000000,"state":"active","ping":117},{"user_id":35,"name":"Apocalypse Potatoes","steam_id":76561199001466356,"connected_time":8413000000000,"state":"active","ping":43},{"user_id":145,"name":"Wuffington","steam_id":76561198033762881,"connected_time":1575000000000,"state":"active","ping":54},{"user_id":151,"name":"shuffler12","steam_id":76561198083063005,"connected_time":1262000000000,"state":"active","ping":36},{"user_id":139,"name":"Revettah","steam_id":76561198040442214,"connected_time":1675000000000,"state":"active","ping":30},{"user_id":157,"name":"HimpoX","steam_id":76561198043946778,"connected_time":135000000000,"state":"active","ping":93},{"user_id":129,"name":"JOHN GAMING (based)","steam_id":76561199085822219,"connected_time":2314000000000,"state":"active","ping":82},{"user_id":120,"name":"Kahvi","steam_id":76561198723244199,"connected_time":2579000000000,"state":"active","ping":87},{"user_id":142,"name":"Splarvis","steam_id":76561198007792525,"connected_time":1616000000000,"state":"active","ping":41},{"user_id":150,"name":"„ÄåK I L L E R  Q U E E N„Äç","steam_id":76561198010269803,"connected_time":1433000000000,"state":"active","ping":45}]},{"server_id":114,"name":"Uncletopia | London | 2 | All Maps","name_short":"lon-2","host":"lon-1.uk.uncletopia.com","port":27025,"enabled":true,"region":"eu","cc":"gb","latitude":51.509865,"longitude":-0.118092,"reserved":0,"last_update":"0001-01-01T00:00:00Z","name_a2s":"Uncletopia | London | 2 | All Maps","protocol":17,"map":"koth_highpass","folder":"tf","game":"Team Fortress","app_id":440,"player_count":0,"max_players":24,"Bots":0,"server_type":"Dedicated","server_os":"Linux","password":true,"vac":true,"version":"7708610","steam_id":85568392924470941,"keywords":["cp","nocrits","nodmgspread","uncletopia"],"game_id":440,"stv_port":27026,"stv_name":"Uncletopia | London | 2 | All Maps | STV","players":null},{"server_id":320,"name":"Uncletopia | London | 3 | All Maps","name_short":"lon-3","host":"lon-1.uk.uncletopia.com","port":27035,"enabled":true,"region":"eu","cc":"gb","latitude":51.509865,"longitude":-0.118092,"reserved":0,"last_update":"0001-01-01T00:00:00Z","name_a2s":"Uncletopia | London | 3 | All Maps","protocol":17,"map":"pl_upward","folder":"tf","game":"Team Fortress","app_id":440,"player_count":14,"max_players":24,"Bots":0,"server_type":"Dedicated","server_os":"Linux","password":true,"vac":true,"version":"7708610","steam_id":85568392924510192,"keywords":["nocrits","nodmgspread","payload","uncletopia"],"game_id":440,"stv_port":27036,"stv_name":"Uncletopia | London | 3 | All Maps | STV","players":[{"user_id":4,"name":"Domberry","steam_id":76561199346712175,"connected_time":3444000000000,"state":"active","ping":67},{"user_id":32,"name":"–º–∞—Ä–∏–æ3636","steam_id":76561198893371258,"connected_time":98000000000,"state":"active","ping":106},{"user_id":19,"name":"VolcanicArts","steam_id":76561198063453246,"connected_time":681000000000,"state":"active","ping":50},{"user_id":15,"name":"The Imperial","steam_id":76561198374118102,"connected_time":807000000000,"state":"active","ping":40},{"user_id":23,"name":"Rudebwoyyy","steam_id":76561199387956486,"connected_time":569000000000,"state":"active","ping":66},{"user_id":17,"name":"tori_spring #savetf2","steam_id":76561199375975842,"connected_time":777000000000,"state":"active","ping":37},{"user_id":21,"name":"Spread Eagle","steam_id":76561198027738546,"connected_time":605000000000,"state":"active","ping":59},{"user_id":22,"name":"eggslut","steam_id":76561198010752241,"connected_time":587000000000,"state":"active","ping":69},{"user_id":27,"name":"Stitch","steam_id":76561198104613474,"connected_time":448000000000,"state":"active","ping":75},{"user_id":26,"name":"Koele Bonen","steam_id":76561198073326820,"connected_time":516000000000,"state":"active","ping":56},{"user_id":28,"name":"thegrapeshavebeeneatenbythelog","steam_id":76561198179339326,"connected_time":435000000000,"state":"active","ping":75},{"user_id":29,"name":"Laax","steam_id":76561198938409558,"connected_time":413000000000,"state":"active","ping":90},{"user_id":30,"name":"delta man","steam_id":76561198204491245,"connected_time":391000000000,"state":"active","ping":140},{"user_id":31,"name":"syla8215","steam_id":76561199007869949,"connected_time":293000000000,"state":"active","ping":93}]},{"server_id":321,"name":"Uncletopia | London | 4 | All Maps","name_short":"lon-4","host":"lon-1.uk.uncletopia.com","port":27045,"enabled":true,"region":"eu","cc":"gb","latitude":51.509865,"longitude":-0.118092,"reserved":0,"last_update":"0001-01-01T00:00:00Z","name_a2s":"Uncletopia | London | 4 | All Maps","protocol":17,"map":"pl_snowycoast","folder":"tf","game":"Team Fortress","app_id":440,"player_count":22,"max_players":24,"Bots":0,"server_type":"Dedicated","server_os":"Linux","password":true,"vac":true,"version":"7708610","steam_id":85568392924510193,"keywords":["nocrits","nodmgspread","payload","uncletopia"],"game_id":440,"stv_port":27046,"stv_name":"Uncletopia | London | 4 | All Maps | STV","players":[{"user_id":279,"name":"Lil Woody","steam_id":76561198135594072,"connected_time":555000000000,"state":"active","ping":50},{"user_id":281,"name":"cheveuxbrillantenneig√©39800","steam_id":76561198084056439,"connected_time":442000000000,"state":"active","ping":55},{"user_id":268,"name":"Mineboi98","steam_id":76561199076830259,"connected_time":979000000000,"state":"active","ping":134},{"user_id":269,"name":"Godot","steam_id":76561198339980449,"connected_time":957000000000,"state":"active","ping":73},{"user_id":220,"name":"CamoS1250","steam_id":76561198309917434,"connected_time":3199000000000,"state":"active","ping":138},{"user_id":255,"name":"apple","steam_id":76561198350676879,"connected_time":1414000000000,"state":"active","ping":95},{"user_id":250,"name":"Gnome561","steam_id":76561198183771141,"connected_time":1588000000000,"state":"active","ping":64},{"user_id":249,"name":"anabolic steroids","steam_id":76561199097771720,"connected_time":1707000000000,"state":"active","ping":157},{"user_id":247,"name":"Sir H√§berli B√§nz","steam_id":76561198138294650,"connected_time":2121000000000,"state":"active","ping":60},{"user_id":256,"name":"tukata","steam_id":76561198861013993,"connected_time":1358000000000,"state":"active","ping":69},{"user_id":194,"name":"Sputnik1","steam_id":76561199059003709,"connected_time":4288000000000,"state":"active","ping":121},{"user_id":264,"name":"Craig Crusade","steam_id":76561199225918086,"connected_time":1164000000000,"state":"active","ping":52},{"user_id":270,"name":"ralph62x","steam_id":76561198865294231,"connected_time":949000000000,"state":"active","ping":51},{"user_id":282,"name":"LasagnaLarry22","steam_id":76561198089478290,"connected_time":362000000000,"state":"active","ping":39},{"user_id":257,"name":"Bubu","steam_id":76561199305428573,"connected_time":1324000000000,"state":"active","ping":38},{"user_id":202,"name":"Flare","steam_id":76561198039098320,"connected_time":4067000000000,"state":"active","ping":54},{"user_id":280,"name":"adriankurek","steam_id":76561199349026873,"connected_time":469000000000,"state":"active","ping":109},{"user_id":272,"name":"kalaa ‚Ä†","steam_id":76561198134652336,"connected_time":935000000000,"state":"active","ping":74},{"user_id":283,"name":"–ò–Ω—Å–ø–µ–∫—Ç–æ—Ä –ê—Ç–∞—Å","steam_id":76561199175688390,"connected_time":323000000000,"state":"active","ping":88},{"user_id":284,"name":"Banzaaaai","steam_id":76561198443887966,"connected_time":290000000000,"state":"active","ping":83},{"user_id":277,"name":"yoursbzt","steam_id":76561198201866574,"connected_time":852000000000,"state":"active","ping":80},{"user_id":274,"name":"Tom Foolery","steam_id":76561198358895809,"connected_time":907000000000,"state":"active","ping":55}]},{"server_id":21,"name":"Uncletopia | London | 5 | All Maps","name_short":"lon-5","host":"lon-1.uk.uncletopia.com","port":27055,"enabled":true,"region":"eu","cc":"gb","latitude":51.509865,"longitude":-0.118092,"reserved":0,"last_update":"0001-01-01T00:00:00Z","name_a2s":"Uncletopia | London | 5 | All Maps","protocol":17,"map":"pl_badwater","folder":"tf","game":"Team Fortress","app_id":440,"player_count":3,"max_players":24,"Bots":0,"server_type":"Dedicated","server_os":"Linux","password":true,"vac":true,"version":"7708610","steam_id":85568392924742829,"keywords":["nocrits","nodmgspread","payload","uncletopia"],"game_id":440,"stv_port":27056,"stv_name":"Uncletopia | London | 5 | All Maps | STV","players":[{"user_id":8,"name":"DEMURE","steam_id":76561198263299590,"connected_time":638000000000,"state":"active","ping":70},{"user_id":10,"name":"Darky","steam_id":76561198004733239,"connected_time":564000000000,"state":"active","ping":44},{"user_id":12,"name":"Fr0xy","steam_id":76561198340137890,"connected_time":1000000000,"state":"spawning","ping":41}]},{"server_id":22,"name":"Uncletopia | London | 6 | All Maps","name_short":"lon-6","host":"lon-1.uk.uncletopia.com","port":27065,"enabled":true,"region":"eu","cc":"gb","latitude":51.509865,"longitude":-0.118092,"reserved":0,"last_update":"0001-01-01T00:00:00Z","name_a2s":"Uncletopia | London | 6 | All Maps","protocol":17,"map":"koth_cascade","folder":"tf","game":"Team Fortress","app_id":440,"player_count":17,"max_players":24,"Bots":0,"server_type":"Dedicated","server_os":"Linux","password":true,"vac":true,"version":"7708610","steam_id":85568392924742830,"keywords":["cp","nocrits","nodmgspread","uncletopia"],"game_id":440,"stv_port":27066,"stv_name":"Uncletopia | London | 6 | All Maps | STV","players":[{"user_id":274,"name":"Raph'Ihm","steam_id":76561198108788456,"connected_time":522000000000,"state":"active","ping":67},{"user_id":279,"name":"TechAchech","steam_id":76561198304077408,"connected_time":433000000000,"state":"active","ping":66},{"user_id":281,"name":"Minimi","steam_id":76561198873850443,"connected_time":275000000000,"state":"active","ping":34},{"user_id":283,"name":"RedFox","steam_id":76561198020168480,"connected_time":169000000000,"state":"active","ping":69},{"user_id":262,"name":"downtown boy","steam_id":76561197983094802,"connected_time":1574000000000,"state":"active","ping":88},{"user_id":249,"name":"Skoualala","steam_id":76561198121754445,"connected_time":2368000000000,"state":"active","ping":49},{"user_id":282,"name":"TheFox.tf","steam_id":76561197996851702,"connected_time":251000000000,"state":"active","ping":60},{"user_id":286,"name":"herzos567","steam_id":76561199201084840,"connected_time":12000000000,"state":"spawning","ping":62},{"user_id":285,"name":"ReDsinat0r","steam_id":76561198365973345,"connected_time":75000000000,"state":"active","ping":68},{"user_id":277,"name":"Joseph Stalin LFT","steam_id":76561198033199746,"connected_time":464000000000,"state":"active","ping":55},{"user_id":131,"name":"Notorious_Pat","steam_id":76561198092348214,"connected_time":9642000000000,"state":"active","ping":149},{"user_id":256,"name":"Him","steam_id":76561198086400484,"connected_time":2038000000000,"state":"active","ping":67},{"user_id":228,"name":"Archie","steam_id":76561199061232100,"connected_time":3222000000000,"state":"active","ping":71},{"user_id":206,"name":"Bepperman","steam_id":76561198397517828,"connected_time":4131000000000,"state":"active","ping":57},{"user_id":242,"name":"DeCypher","steam_id":76561198171992619,"connected_time":2754000000000,"state":"active","ping":66},{"user_id":234,"name":"d4cz","steam_id":76561199067358414,"connected_time":3104000000000,"state":"active","ping":45},{"user_id":271,"name":"Wyvern786","steam_id":76561199137770636,"connected_time":778000000000,"state":"active","ping":48}]},{"server_id":40,"name":"Uncletopia | London | 7 | No Payload","name_short":"lon-7","host":"lon-1.uk.uncletopia.com","port":27075,"enabled":true,"region":"eu","cc":"gb","latitude":51.509865,"longitude":-0.118092,"reserved":0,"last_update":"0001-01-01T00:00:00Z","name_a2s":"Uncletopia | London | 7 | No Payload","protocol":17,"map":"cp_snakewater_final1","folder":"tf","game":"Team Fortress","app_id":440,"player_count":0,"max_players":24,"Bots":0,"server_type":"Dedicated","server_os":"Linux","password":true,"vac":true,"version":"7708610","steam_id":85568392924964314,"keywords":["cp","nocrits","nodmgspread","uncletopia"],"game_id":440,"stv_port":0,"stv_name":"","players":null},{"server_id":41,"name":"Uncletopia | London | 8 | Community","name_short":"lon-8","host":"lon-1.uk.uncletopia.com","port":27085,"enabled":true,"region":"eu","cc":"gb","latitude":51.509865,"longitude":-0.118092,"reserved":0,"last_update":"0001-01-01T00:00:00Z","name_a2s":"Uncletopia | London | 8 | Community","protocol":17,"map":"workshop/cp_overgrown_rc7b.ugc503939302","folder":"tf","game":"Team Fortress","app_id":440,"player_count":0,"max_players":24,"Bots":0,"server_type":"Dedicated","server_os":"Linux","password":true,"vac":true,"version":"7708610","steam_id":85568392924964315,"keywords":["cp","nocrits","nodmgspread","uncletopia"],"game_id":440,"stv_port":27086,"stv_name":"Uncletopia | London | 8 | Community | STV","players":null},{"server_id":300,"name":"Uncletopia | Montr√©al | 1 | All Maps","name_short":"mtl-1","host":"mtl-1.ca.uncletopia.com","port":27015,"enabled":true,"region":"us-east","cc":"ca","latitude":45.50889,"longitude":-73.56167,"reserved":0,"last_update":"0001-01-01T00:00:00Z","name_a2s":"Uncletopia | Montr√©al | 1 | All Maps","protocol":17,"map":"pl_barnblitz","folder":"tf","game":"Team Fortress","app_id":440,"player_count":0,"max_players":24,"Bots":0,"server_type":"Dedicated","server_os":"Linux","password":true,"vac":true,"version":"7708610","steam_id":85568392924500087,"keywords":["nocrits","nodmgspread","payload","uncletopia"],"game_id":440,"stv_port":0,"stv_name":"","players":null},{"server_id":301,"name":"Uncletopia | Montr√©al | 2 | All Maps","name_short":"mtl-2","host":"mtl-1.ca.uncletopia.com","port":27025,"enabled":true,"region":"us-east","cc":"ca","latitude":45.50889,"longitude":-73.56167,"reserved":0,"last_update":"0001-01-01T00:00:00Z","name_a2s":"Uncletopia | Montr√©al | 2 | All Maps","protocol":17,"map":"pl_frontier_final","folder":"tf","game":"Team Fortress","app_id":440,"player_count":0,"max_players":24,"Bots":0,"server_type":"Dedicated","server_os":"Linux","password":true,"vac":true,"version":"7708610","steam_id":85568392924500088,"keywords":["nocrits","nodmgspread","payload","uncletopia"],"game_id":440,"stv_port":0,"stv_name":"","players":null},{"server_id":302,"name":"Uncletopia | Montr√©al | 3 | All Maps","name_short":"mtl-3","host":"mtl-1.ca.uncletopia.com","port":27035,"enabled":true,"region":"us-east","cc":"ca","latitude":45.50889,"longitude":-73.56167,"reserved":0,"last_update":"0001-01-01T00:00:00Z","name_a2s":"Uncletopia | Montr√©al | 3 | All Maps","protocol":17,"map":"pl_snowycoast","folder":"tf","game":"Team Fortress","app_id":440,"player_count":0,"max_players":24,"Bots":0,"server_type":"Dedicated","server_os":"Linux","password":true,"vac":true,"version":"7708610","steam_id":85568392924500089,"keywords":["nocrits","nodmgspread","payload","uncletopia"],"game_id":440,"stv_port":0,"stv_name":"","players":null},{"server_id":303,"name":"Uncletopia | Montr√©al | 4 | No Payload","name_short":"mtl-4","host":"mtl-1.ca.uncletopia.com","port":27045,"enabled":true,"region":"us-east","cc":"ca","latitude":45.50889,"longitude":-73.56167,"reserved":0,"last_update":"0001-01-01T00:00:00Z","name_a2s":"Uncletopia | Montr√©al | 4 | No Payload","protocol":17,"map":"pl_frontier_final","folder":"tf","game":"Team Fortress","app_id":440,"player_count":0,"max_players":24,"Bots":0,"server_type":"Dedicated","server_os":"Linux","password":true,"vac":true,"version":"7708610","steam_id":85568392924500090,"keywords":["nocrits","nodmgspread","payload","uncletopia"],"game_id":440,"stv_port":0,"stv_name":"","players":null},{"server_id":13,"name":"Uncletopia | New York City | 1 | All Maps","name_short":"nyc-1","host":"nyc-1.us.uncletopia.com","port":27015,"enabled":true,"region":"us-east","cc":"us","latitude":40.73061,"longitude":-73.93524,"reserved":0,"last_update":"0001-01-01T00:00:00Z","name_a2s":"Uncletopia | New York City | 1 | All Maps","protocol":17,"map":"cp_mountainlab","folder":"tf","game":"Team Fortress","app_id":440,"player_count":0,"max_players":24,"Bots":0,"server_type":"Dedicated","server_os":"Linux","password":true,"vac":true,"version":"7708610","steam_id":85568392924469993,"keywords":["cp","nocrits","nodmgspread","uncletopia"],"game_id":440,"stv_port":27016,"stv_name":"Uncletopia | New York City | 1 | All Maps | STV","players":null},{"server_id":14,"name":"Uncletopia | New York City | 2 | All Maps","name_short":"nyc-2","host":"nyc-1.us.uncletopia.com","port":27025,"enabled":true,"region":"us-east","cc":"us","latitude":40.73061,"longitude":-73.93524,"reserved":0,"last_update":"0001-01-01T00:00:00Z","name_a2s":"Uncletopia | New York City | 2 | All Maps","protocol":17,"map":"cp_dustbowl","folder":"tf","game":"Team Fortress","app_id":440,"player_count":2,"max_players":24,"Bots":0,"server_type":"Dedicated","server_os":"Linux","password":true,"vac":true,"version":"7708610","steam_id":85568392924469994,"keywords":["cp","nocrits","nodmgspread","uncletopia"],"game_id":440,"stv_port":27026,"stv_name":"Uncletopia | New York City | 2 | All Maps | STV","players":[{"user_id":5,"name":"strzygon","steam_id":76561198799216093,"connected_time":89000000000,"state":"active","ping":131},{"user_id":6,"name":"Slipknotic","steam_id":76561199015943201,"connected_time":41000000000,"state":"active","ping":57}]},{"server_id":15,"name":"Uncletopia | New York City | 3 | All Maps","name_short":"nyc-3","host":"nyc-1.us.uncletopia.com","port":27035,"enabled":true,"region":"us-east","cc":"us","latitude":40.73061,"longitude":-73.93524,"reserved":0,"last_update":"0001-01-01T00:00:00Z","name_a2s":"Uncletopia | New York City | 3 | All Maps","protocol":17,"map":"cp_sunshine","folder":"tf","game":"Team Fortress","app_id":440,"player_count":0,"max_players":24,"Bots":0,"server_type":"Dedicated","server_os":"Linux","password":true,"vac":true,"version":"7708610","steam_id":85568392924742820,"keywords":["cp","nocrits","nodmgspread","uncletopia"],"game_id":440,"stv_port":0,"stv_name":"","players":null},{"server_id":16,"name":"Uncletopia | New York City | 4 | Community","name_short":"nyc-4","host":"nyc-1.us.uncletopia.com","port":27045,"enabled":true,"region":"us-east","cc":"us","latitude":40.73061,"longitude":-73.93524,"reserved":0,"last_update":"0001-01-01T00:00:00Z","name_a2s":"Uncletopia | New York City | 4 | Community","protocol":17,"map":"pl_badwater","folder":"tf","game":"Team Fortress","app_id":440,"player_count":0,"max_players":24,"Bots":0,"server_type":"Dedicated","server_os":"Linux","password":true,"vac":true,"version":"7708610","steam_id":85568392924742821,"keywords":["nocrits","nodmgspread","payload","uncletopia"],"game_id":440,"stv_port":0,"stv_name":"","players":null},{"server_id":142,"name":"Uncletopia | S√£o Paulo | 1 | All Maps","name_short":"sao-1","host":"sao-1.br.uncletopia.com","port":27015,"enabled":true,"region":"sa","cc":"br","latitude":-23.533773,"longitude":-46.62529,"reserved":0,"last_update":"0001-01-01T00:00:00Z","name_a2s":"Uncletopia | S√£o Paulo | 1 | All Maps","protocol":17,"map":"koth_highpass","folder":"tf","game":"Team Fortress","app_id":440,"player_count":1,"max_players":24,"Bots":0,"server_type":"Dedicated","server_os":"Linux","password":true,"vac":true,"version":"7708610","steam_id":85568392924469996,"keywords":["cp","nocrits","nodmgspread","uncletopia"],"game_id":440,"stv_port":0,"stv_name":"","players":[{"user_id":11,"name":"Appollo","steam_id":76561199441662625,"connected_time":525000000000,"state":"active","ping":64}]},{"server_id":143,"name":"Uncletopia | S√£o Paulo | 2 | All Maps","name_short":"sao-2","host":"sao-2.br.uncletopia.com","port":27015,"enabled":true,"region":"sa","cc":"br","latitude":-23.533773,"longitude":-46.62529,"reserved":0,"last_update":"0001-01-01T00:00:00Z","name_a2s":"Uncletopia | S√£o Paulo | 2 | All Maps","protocol":17,"map":"koth_lakeside_final","folder":"tf","game":"Team Fortress","app_id":440,"player_count":0,"max_players":24,"Bots":0,"server_type":"Dedicated","server_os":"Linux","password":true,"vac":true,"version":"7708610","steam_id":85568392924485349,"keywords":["cp","nocrits","nodmgspread","uncletopia"],"game_id":440,"stv_port":0,"stv_name":"","players":null},{"server_id":7,"name":"Uncletopia | Seattle | 1 | All Maps","name_short":"sea-1","host":"sea-1.us.uncletopia.com","port":27015,"enabled":true,"region":"us-west","cc":"us","latitude":47.608013,"longitude":-122.33517,"reserved":0,"last_update":"0001-01-01T00:00:00Z","name_a2s":"Uncletopia | Seattle | 1 | All Maps","protocol":17,"map":"koth_cascade","folder":"tf","game":"Team Fortress","app_id":440,"player_count":0,"max_players":24,"Bots":0,"server_type":"Dedicated","server_os":"Linux","password":true,"vac":true,"version":"7708610","steam_id":85568392924469997,"keywords":["cp","nocrits","nodmgspread","uncletopia"],"game_id":440,"stv_port":0,"stv_name":"","players":null},{"server_id":119,"name":"Uncletopia | Seattle | 2 | All Maps","name_short":"sea-2","host":"sea-1.us.uncletopia.com","port":27025,"enabled":true,"region":"us-west","cc":"us","latitude":47.608013,"longitude":-122.33517,"reserved":0,"last_update":"0001-01-01T00:00:00Z","name_a2s":"Uncletopia | Seattle | 2 | All Maps","protocol":17,"map":"cp_process_final","folder":"tf","game":"Team Fortress","app_id":440,"player_count":0,"max_players":24,"Bots":0,"server_type":"Dedicated","server_os":"Linux","password":true,"vac":true,"version":"7708610","steam_id":85568392924469998,"keywords":["cp","nocrits","nodmgspread","uncletopia"],"game_id":440,"stv_port":0,"stv_name":"","players":null},{"server_id":17,"name":"Uncletopia | San Francisco | 1 | All Maps","name_short":"sfo-1","host":"sfo-1.us.uncletopia.com","port":27015,"enabled":true,"region":"us-west","cc":"us","latitude":37.77397,"longitude":-122.4313,"reserved":0,"last_update":"0001-01-01T00:00:00Z","name_a2s":"Uncletopia | San Francisco | 1 | All Maps","protocol":17,"map":"cp_sunshine","folder":"tf","game":"Team Fortress","app_id":440,"player_count":0,"max_players":24,"Bots":0,"server_type":"Dedicated","server_os":"Linux","password":true,"vac":true,"version":"7708610","steam_id":85568392924469999,"keywords":["cp","nocrits","nodmgspread","uncletopia"],"game_id":440,"stv_port":0,"stv_name":"","players":null},{"server_id":18,"name":"Uncletopia | San Francisco | 2 | All Maps","name_short":"sfo-2","host":"sfo-1.us.uncletopia.com","port":27025,"enabled":true,"region":"us-west","cc":"us","latitude":37.77397,"longitude":-122.4313,"reserved":0,"last_update":"0001-01-01T00:00:00Z","name_a2s":"Uncletopia | San Francisco | 2 | All Maps","protocol":17,"map":"koth_cascade","folder":"tf","game":"Team Fortress","app_id":440,"player_count":0,"max_players":24,"Bots":0,"server_type":"Dedicated","server_os":"Linux","password":true,"vac":true,"version":"7708610","steam_id":85568392924470000,"keywords":["cp","nocrits","nodmgspread","uncletopia"],"game_id":440,"stv_port":0,"stv_name":"","players":null},{"server_id":19,"name":"Uncletopia | San Francisco | 3 | No Payload","name_short":"sfo-3","host":"sfo-1.us.uncletopia.com","port":27035,"enabled":true,"region":"us-west","cc":"us","latitude":37.77397,"longitude":-122.4313,"reserved":0,"last_update":"0001-01-01T00:00:00Z","name_a2s":"Uncletopia | San Francisco | 3 | No Payload","protocol":17,"map":"cp_snakewater_final1","folder":"tf","game":"Team Fortress","app_id":440,"player_count":0,"max_players":24,"Bots":0,"server_type":"Dedicated","server_os":"Linux","password":true,"vac":true,"version":"7708610","steam_id":85568392924742824,"keywords":["cp","nocrits","nodmgspread","uncletopia"],"game_id":440,"stv_port":0,"stv_name":"","players":null},{"server_id":20,"name":"Uncletopia | San Francisco | 4 | Community","name_short":"sfo-4","host":"sfo-1.us.uncletopia.com","port":27045,"enabled":true,"region":"us-west","cc":"us","latitude":37.77397,"longitude":-122.4313,"reserved":0,"last_update":"0001-01-01T00:00:00Z","name_a2s":"Uncletopia | San Francisco | 4 | Community","protocol":17,"map":"pl_barnblitz","folder":"tf","game":"Team Fortress","app_id":440,"player_count":0,"max_players":24,"Bots":0,"server_type":"Dedicated","server_os":"Linux","password":true,"vac":true,"version":"7708610","steam_id":85568392924742826,"keywords":["nocrits","nodmgspread","payload","uncletopia"],"game_id":440,"stv_port":0,"stv_name":"","players":null},{"server_id":141,"name":"Uncletopia | Sydney | 1 | All Maps","name_short":"syd-1","host":"syd-1.au.uncletopia.com","port":27015,"enabled":true,"region":"au","cc":"au","latitude":-33.865143,"longitude":151.2099,"reserved":0,"last_update":"0001-01-01T00:00:00Z","name_a2s":"Uncletopia | Sydney | 1 | All Maps","protocol":17,"map":"cp_snakewater_final1","folder":"tf","game":"Team Fortress","app_id":440,"player_count":23,"max_players":24,"Bots":0,"server_type":"Dedicated","server_os":"Linux","password":true,"vac":true,"version":"7708610","steam_id":85568392924470001,"keywords":["cp","nocrits","nodmgspread","uncletopia"],"game_id":440,"stv_port":27016,"stv_name":"Uncletopia | Sydney | 1 | All Maps | STV","players":[{"user_id":857,"name":"for fuck sake","steam_id":76561198795895050,"connected_time":56000000000,"state":"active","ping":142},{"user_id":815,"name":"Tiger_Tan","steam_id":76561198221733844,"connected_time":3931000000000,"state":"active","ping":62},{"user_id":813,"name":"April","steam_id":76561198848287180,"connected_time":4129000000000,"state":"active","ping":47},{"user_id":844,"name":"tim88435","steam_id":76561198089653987,"connected_time":1345000000000,"state":"active","ping":47},{"user_id":854,"name":"Pizzaray","steam_id":76561198005075102,"connected_time":417000000000,"state":"active","ping":36},{"user_id":752,"name":"hive","steam_id":76561199099744527,"connected_time":9309000000000,"state":"active","ping":47},{"user_id":847,"name":"TAKYON","steam_id":76561198001134647,"connected_time":630000000000,"state":"active","ping":74},{"user_id":816,"name":"Tony","steam_id":76561198157250318,"connected_time":3915000000000,"state":"active","ping":52},{"user_id":858,"name":"f2p noob","steam_id":76561199136905551,"connected_time":45000000000,"state":"active","ping":291},{"user_id":790,"name":"Homebrand Chronic","steam_id":76561198941549137,"connected_time":6298000000000,"state":"active","ping":80},{"user_id":848,"name":"[-ScarPe-]","steam_id":76561199379429440,"connected_time":599000000000,"state":"active","ping":52},{"user_id":849,"name":"Heya","steam_id":76561199164167795,"connected_time":592000000000,"state":"active","ping":46},{"user_id":852,"name":"VIVA","steam_id":76561198048017265,"connected_time":503000000000,"state":"active","ping":48},{"user_id":853,"name":"Haste","steam_id":76561198173155142,"connected_time":498000000000,"state":"active","ping":64},{"user_id":855,"name":"chimken","steam_id":76561199111538215,"connected_time":389000000000,"state":"active","ping":54},{"user_id":758,"name":"Rogue (Anti-fire)","steam_id":76561198055404248,"connected_time":9043000000000,"state":"active","ping":47},{"user_id":836,"name":"Crusader","steam_id":76561198193238569,"connected_time":2098000000000,"state":"active","ping":64},{"user_id":859,"name":"79","steam_id":76561198349207524,"connected_time":9000000000,"state":"spawning","ping":62},{"user_id":740,"name":"Captain Canadia","steam_id":76561198167967735,"connected_time":10186000000000,"state":"active","ping":48},{"user_id":856,"name":"Pepsi [TH]","steam_id":76561199078829035,"connected_time":381000000000,"state":"active","ping":160},{"user_id":799,"name":"Skeptikal01","steam_id":76561199064694137,"connected_time":5930000000000,"state":"active","ping":157},{"user_id":820,"name":"T0vex","steam_id":76561198127222589,"connected_time":3705000000000,"state":"active","ping":76},{"user_id":839,"name":"yons","steam_id":76561198083920784,"connected_time":1966000000000,"state":"active","ping":60}]},{"server_id":123,"name":"Uncletopia | Sydney | 2 | All Maps","name_short":"syd-2","host":"syd-1.au.uncletopia.com","port":27025,"enabled":true,"region":"au","cc":"au","latitude":-33.865143,"longitude":151.2099,"reserved":0,"last_update":"0001-01-01T00:00:00Z","name_a2s":"Uncletopia | Sydney | 2 | All Maps","protocol":17,"map":"koth_cascade","folder":"tf","game":"Team Fortress","app_id":440,"player_count":0,"max_players":24,"Bots":0,"server_type":"Dedicated","server_os":"Linux","password":true,"vac":true,"version":"7708610","steam_id":85568392924470002,"keywords":["cp","nocrits","nodmgspread","uncletopia"],"game_id":440,"stv_port":27026,"stv_name":"Uncletopia | Sydney | 2 | All Maps | STV","players":null},{"server_id":395,"name":"Uncletopia | Sydney | 3 | All Maps","name_short":"syd-3","host":"syd-1.au.uncletopia.com","port":27035,"enabled":true,"region":"au","cc":"au","latitude":-33.865143,"longitude":151.2099,"reserved":0,"last_update":"0001-01-01T00:00:00Z","name_a2s":"Uncletopia | Sydney | 3 | All Maps","protocol":17,"map":"koth_viaduct","folder":"tf","game":"Team Fortress","app_id":440,"player_count":0,"max_players":24,"Bots":0,"server_type":"Dedicated","server_os":"Linux","password":true,"vac":true,"version":"7708610","steam_id":85568392925194467,"keywords":["cp","nocrits","nodmgspread","uncletopia"],"game_id":440,"stv_port":27036,"stv_name":"Uncletopia | Sydney | 3 | All Maps | STV","players":null},{"server_id":396,"name":"Uncletopia | Sydney | 4 | All Maps","name_short":"syd-4","host":"syd-1.au.uncletopia.com","port":27045,"enabled":true,"region":"au","cc":"au","latitude":-33.865143,"longitude":151.2099,"reserved":0,"last_update":"0001-01-01T00:00:00Z","name_a2s":"Uncletopia | Sydney | 4 | All Maps","protocol":17,"map":"pl_barnblitz","folder":"tf","game":"Team Fortress","app_id":440,"player_count":0,"max_players":24,"Bots":0,"server_type":"Dedicated","server_os":"Linux","password":true,"vac":true,"version":"7708610","steam_id":85568392925397958,"keywords":["nocrits","nodmgspread","payload","uncletopia"],"game_id":440,"stv_port":27046,"stv_name":"Uncletopia | Sydney | 4 | All Maps | STV","players":null},{"server_id":58,"name":"Uncletopia | Sydney | 5 | No Payload","name_short":"syd-5","host":"syd-1.au.uncletopia.com","port":27055,"enabled":true,"region":"au","cc":"au","latitude":-33.865143,"longitude":151.2099,"reserved":0,"last_update":"0001-01-01T00:00:00Z","name_a2s":"Uncletopia | Sydney | 5 | No Payload","protocol":17,"map":"koth_cascade","folder":"tf","game":"Team Fortress","app_id":440,"player_count":0,"max_players":24,"Bots":0,"server_type":"Dedicated","server_os":"Linux","password":true,"vac":true,"version":"7708610","steam_id":85568392925397959,"keywords":["cp","nocrits","nodmgspread","uncletopia"],"game_id":440,"stv_port":0,"stv_name":"","players":null},{"server_id":59,"name":"Uncletopia | Sydney | 6 | Community","name_short":"syd-6","host":"syd-1.au.uncletopia.com","port":27065,"enabled":true,"region":"au","cc":"au","latitude":-33.865143,"longitude":151.2099,"reserved":0,"last_update":"0001-01-01T00:00:00Z","name_a2s":"Uncletopia | Sydney | 6 | Community","protocol":17,"map":"workshop/koth_synthetic_rc6a.ugc1549817316","folder":"tf","game":"Team Fortress","app_id":440,"player_count":0,"max_players":24,"Bots":0,"server_type":"Dedicated","server_os":"Linux","password":true,"vac":true,"version":"7708610","steam_id":85568392925397960,"keywords":["cp","nocrits","nodmgspread","uncletopia"],"game_id":440,"stv_port":27066,"stv_name":"Uncletopia | Sydney | 6 | Community | STV","players":null},{"server_id":49,"name":"Uncletopia | Warsaw | 1 | All Maps","name_short":"waw-1","host":"waw-1.pl.uncletopia.com","port":27015,"enabled":true,"region":"eu","cc":"pl","latitude":52.2297,"longitude":21.017532,"reserved":0,"last_update":"0001-01-01T00:00:00Z","name_a2s":"Uncletopia | Warsaw | 1 | All Maps","protocol":17,"map":"cp_mountainlab","folder":"tf","game":"Team Fortress","app_id":440,"player_count":0,"max_players":24,"Bots":0,"server_type":"Dedicated","server_os":"Linux","password":true,"vac":true,"version":"7708610","steam_id":85568392925397850,"keywords":["cp","nocrits","nodmgspread","uncletopia"],"game_id":440,"stv_port":0,"stv_name":"","players":null},{"server_id":50,"name":"Uncletopia | Warsaw | 2 | All Maps","name_short":"waw-2","host":"waw-1.pl.uncletopia.com","port":27025,"enabled":true,"region":"eu","cc":"pl","latitude":52.2297,"longitude":21.017532,"reserved":0,"last_update":"0001-01-01T00:00:00Z","name_a2s":"Uncletopia | Warsaw | 2 | All Maps","protocol":17,"map":"koth_highpass","folder":"tf","game":"Team Fortress","app_id":440,"player_count":0,"max_players":24,"Bots":0,"server_type":"Dedicated","server_os":"Linux","password":true,"vac":true,"version":"7708610","steam_id":85568392925397851,"keywords":["cp","nocrits","nodmgspread","uncletopia"],"game_id":440,"stv_port":27026,"stv_name":"Uncletopia | Warsaw | 2 | All Maps | STV","players":null},{"server_id":51,"name":"Uncletopia | Warsaw | 3 | All Maps","name_short":"waw-3","host":"waw-1.pl.uncletopia.com","port":27035,"enabled":true,"region":"eu","cc":"pl","latitude":52.2297,"longitude":21.017532,"reserved":0,"last_update":"0001-01-01T00:00:00Z","name_a2s":"Uncletopia | Warsaw | 3 | All Maps","protocol":17,"map":"koth_cascade","folder":"tf","game":"Team Fortress","app_id":440,"player_count":0,"max_players":24,"Bots":0,"server_type":"Dedicated","server_os":"Linux","password":true,"vac":true,"version":"7708610","steam_id":85568392925397852,"keywords":["cp","nocrits","nodmgspread","uncletopia"],"game_id":440,"stv_port":0,"stv_name":"","players":null},{"server_id":52,"name":"Uncletopia | Warsaw | 4 | All Maps","name_short":"waw-4","host":"waw-1.pl.uncletopia.com","port":27045,"enabled":true,"region":"eu","cc":"pl","latitude":52.2297,"longitude":21.017532,"reserved":0,"last_update":"0001-01-01T00:00:00Z","name_a2s":"Uncletopia | Warsaw | 4 | All Maps","protocol":17,"map":"cp_dustbowl","folder":"tf","game":"Team Fortress","app_id":440,"player_count":0,"max_players":24,"Bots":0,"server_type":"Dedicated","server_os":"Linux","password":true,"vac":true,"version":"7708610","steam_id":85568392925397853,"keywords":["cp","nocrits","nodmgspread","uncletopia"],"game_id":440,"stv_port":27046,"stv_name":"Uncletopia | Warsaw | 4 | All Maps | STV","players":null},{"server_id":53,"name":"Uncletopia | Warsaw | 5 | No Payload","name_short":"waw-5","host":"waw-1.pl.uncletopia.com","port":27055,"enabled":true,"region":"eu","cc":"pl","latitude":52.2297,"longitude":21.017532,"reserved":0,"last_update":"0001-01-01T00:00:00Z","name_a2s":"Uncletopia | Warsaw | 5 | No Payload","protocol":17,"map":"koth_nucleus","folder":"tf","game":"Team Fortress","app_id":440,"player_count":0,"max_players":24,"Bots":0,"server_type":"Dedicated","server_os":"Linux","password":true,"vac":true,"version":"7708610","steam_id":85568392925397854,"keywords":["cp","nocrits","nodmgspread","uncletopia"],"game_id":440,"stv_port":27056,"stv_name":"Uncletopia | Warsaw | 5 | No Payload | STV","players":null},{"server_id":54,"name":"Uncletopia | Warsaw | 6 | Community","name_short":"waw-6","host":"waw-1.pl.uncletopia.com","port":27065,"enabled":true,"region":"eu","cc":"pl","latitude":52.2297,"longitude":21.017532,"reserved":0,"last_update":"0001-01-01T00:00:00Z","name_a2s":"Uncletopia | Warsaw | 6 | Community","protocol":17,"map":"koth_highpass","folder":"tf","game":"Team Fortress","app_id":440,"player_count":0,"max_players":24,"Bots":0,"server_type":"Dedicated","server_os":"Linux","password":true,"vac":true,"version":"7708610","steam_id":85568392925397856,"keywords":["cp","nocrits","nodmgspread","uncletopia"],"game_id":440,"stv_port":0,"stv_name":"","players":null}]}