{"status":true,"message":"","result":[{"server_id":9,"name":"Uncletopia | Atlanta | 1 | All Maps","name_short":"atl-1","host":"atl-1.us.uncletopia.com","port":27015,"enabled":true,"region":"us-east","cc":"us","latitude":33.753746,"longitude":-84.38633,"reserved":0,"last_update":"0001-01-01T00:00:00Z","name_a2s":"Uncletopia | Atlanta | 1 | All Maps","protocol":17,"map":"pl_swiftwater_final1","folder":"tf","game":"Team Fortress","app_id":440,"player_count":0,"max_players":24,"Bots":0,"server_type":"Dedicated","server_os":"Linux","password":true,"vac":true,"version":"7882260","steam_id":85568392924469982,"keywords":["nocrits","nodmgspread","payload","uncletopia"],"game_id":440,"stv_port":27016,"stv_name":"Uncletopia | Atlanta | 1 | All Maps | STV","players":null},{"server_id":104,"name":"Uncletopia | Atlanta | 2 | All Maps","name_short":"atl-2","host":"atl-1.us.uncletopia.com","port":27025,"enabled":true,"region":"us-east","cc":"us","latitude":33.753746,"longitude":-84.38633,"reserved":0,"last_update":"0001-01-01T00:00:00Z","name_a2s":"Uncletopia | Atlanta | 2 | All Maps","protocol":17,"map":"pl_snowycoast","folder":"tf","game":"Team Fortress","app_id":440,"player_count":0,"max_players":24,"Bots":0,"server_type":"Dedicated","server_os":"Linux","password":true,"vac":true,"version":"7882260","steam_id":85568392924469983,"keywords":["nocrits","nodmgspread","payload","uncletopia"],"game_id":440,"stv_port":27026,"stv_name":"Uncletopia | Atlanta | 2 | All Maps | STV","players":null},{"server_id":400,"name":"Uncletopia | Atlanta | 3 | Community","name_short":"atl-3","host":"atl-1.us.uncletopia.com","port":27035,"enabled":true,"region":"us-east","cc":"us","latitude":33.753746,"longitude":-84.38633,"reserved":0,"last_update":"0001-01-01T00:00:00Z","name_a2s":"Uncletopia | Atlanta | 3 | Community","protocol":17,"map":"workshop/pl_barnblitz_pro7.ugc582280235","folder":"tf","game":"Team Fortress","app_id":440,"player_count":0,"max_players":24,"Bots":0,"server_type":"Dedicated","server_os":"Linux","password":true,"vac":true,"version":"7882260","steam_id":85568392924515187,"keywords":["nocrits","nodmgspread","payload","uncletopia"],"game_id":440,"stv_port":27036,"stv_name":"Uncletopia | Atlanta | 3 | Community | STV","players":null},{"server_id":401,"name":"Uncletopia | Atlanta | 4 | No Payload","name_short":"atl-4","host":"atl-1.us.uncletopia.com","port":27045,"enabled":true,"region":"us-east","cc":"us","latitude":33.753746,"longitude":-84.38633,"reserved":0,"last_update":"0001-01-01T00:00:00Z","name_a2s":"","protocol":0,"map":"","folder":"","game":"","app_id":0,"player_count":0,"max_players":0,"Bots":0,"server_type":"","server_os":"","password":false,"vac":false,"version":"","steam_id":0,"keywords":null,"game_id":0,"stv_port":0,"stv_name":"","players":null},{"server_id":2,"name":"Uncletopia | Chicago | 1 | All Maps","name_short":"chi-1","host":"chi-1.us.uncletopia.com","port":27015,"enabled":true,"region":"us-central","cc":"us","latitude":41.881832,"longitude":-87.62318,"reserved":0,"last_update":"0001-01-01T00:00:00Z","name_a2s":"Uncletopia | Chicago | 1 | All Maps","protocol":17,"map":"pl_borneo","folder":"tf","game":"Team Fortress","app_id":440,"player_count":24,"max_players":24,"Bots":0,"server_type":"Dedicated","server_os":"Linux","password":true,"vac":true,"version":"7882260","steam_id":85568392924469984,"keywords":["nocrits","nodmgspread","payload","uncletopia"],"game_id":440,"stv_port":27016,"stv_name":"Uncletopia | Chicago | 1 | All Maps | STV","players":[{"user_id":722,"name":"gose","steam_id":76561198167117263,"connected_time":844000000000,"state":"active","ping":78},{"user_id":723,"name":"Thingy","steam_id":76561198140161202,"connected_time":682000000000,"state":"active","ping":98},{"user_id":689,"name":"{FITH}‚Ñ¢ Halcyon","steam_id":76561198049132808,"connected_time":4342000000000,"state":"active","ping":90},{"user_id":691,"name":"Pagan min","steam_id":76561198065181538,"connected_time":4204000000000,"state":"active","ping":60},{"user_id":728,"name":"Scut","steam_id":76561198973734291,"connected_time":462000000000,"state":"active","ping":97},{"user_id":725,"name":"mad ignant","steam_id":76561198093152064,"connected_time":618000000000,"state":"active","ping":60},{"user_id":687,"name":"Two-Teste Tommy","steam_id":76561198064308936,"connected_time":4492000000000,"state":"active","ping":76},{"user_id":727,"name":"Catboy! :3","steam_id":76561199371694361,"connected_time":530000000000,"state":"active","ping":90},{"user_id":737,"name":"no.","steam_id":76561198988350454,"connected_time":123000000000,"state":"spawning","ping":151},{"user_id":738,"name":"cinamin.kake","steam_id":76561199003171233,"connected_time":103000000000,"state":"active","ping":67},{"user_id":729,"name":"Bunt","steam_id":76561198124477567,"connected_time":413000000000,"state":"active","ping":63},{"user_id":730,"name":"FATMAN....HOOVY","steam_id":76561198125277447,"connected_time":353000000000,"state":"active","ping":46},{"user_id":739,"name":"JZ","steam_id":76561198377029198,"connected_time":73000000000,"state":"active","ping":105},{"user_id":740,"name":"crunchy country","steam_id":76561198319442494,"connected_time":58000000000,"state":"active","ping":101},{"user_id":733,"name":"hud_saytext_time 0","steam_id":76561198010327228,"connected_time":186000000000,"state":"active","ping":167},{"user_id":734,"name":"pogo","steam_id":76561198148913461,"connected_time":186000000000,"state":"active","ping":61},{"user_id":735,"name":"Smittywerbenjager-manjenson","steam_id":76561198067060742,"connected_time":161000000000,"state":"active","ping":70},{"user_id":741,"name":"You're Cheeks","steam_id":76561198065479486,"connected_time":56000000000,"state":"active","ping":69},{"user_id":742,"name":"vi","steam_id":76561198388123421,"connected_time":39000000000,"state":"active","ping":105},{"user_id":710,"name":"Random","steam_id":76561199116602799,"connected_time":1822000000000,"state":"active","ping":140},{"user_id":743,"name":"Bobbyboray100","steam_id":76561198053513622,"connected_time":6000000000,"state":"spawning","ping":71},{"user_id":713,"name":"JustSomePest","steam_id":76561198185573363,"connected_time":1687000000000,"state":"active","ping":95},{"user_id":717,"name":"TheScootGuy","steam_id":76561198847107866,"connected_time":1266000000000,"state":"active","ping":56},{"user_id":716,"name":"cringeass nae-nae girl","steam_id":76561198108753857,"connected_time":1554000000000,"state":"active","ping":66}]},{"server_id":106,"name":"Uncletopia | Chicago | 2 | All Maps","name_short":"chi-2","host":"chi-1.us.uncletopia.com","port":27025,"enabled":true,"region":"us-central","cc":"us","latitude":41.881832,"longitude":-87.62318,"reserved":0,"last_update":"0001-01-01T00:00:00Z","name_a2s":"Uncletopia | Chicago | 2 | All Maps","protocol":17,"map":"pl_pier","folder":"tf","game":"Team Fortress","app_id":440,"player_count":0,"max_players":24,"Bots":0,"server_type":"Dedicated","server_os":"Linux","password":true,"vac":true,"version":"7882260","steam_id":85568392924469985,"keywords":["nocrits","nodmgspread","payload","uncletopia"],"game_id":440,"stv_port":27026,"stv_name":"Uncletopia | Chicago | 2 | All Maps | STV","players":null},{"server_id":402,"name":"Uncletopia | Chicago | 3 | All Maps","name_short":"chi-3","host":"chi-1.us.uncletopia.com","port":27035,"enabled":true,"region":"us-central","cc":"us","latitude":41.881832,"longitude":-87.62318,"reserved":0,"last_update":"0001-01-01T00:00:00Z","name_a2s":"Uncletopia | Chicago | 3 | All Maps","protocol":17,"map":"koth_viaduct","folder":"tf","game":"Team Fortress","app_id":440,"player_count":18,"max_players":24,"Bots":0,"server_type":"Dedicated","server_os":"Linux","password":true,"vac":true,"version":"7882260","steam_id":85568392924515191,"keywords":["cp","nocrits","nodmgspread","uncletopia"],"game_id":440,"stv_port":27036,"stv_name":"Uncletopia | Chicago | 3 | All Maps | STV","players":[{"user_id":820,"name":"Toucher of Grass","steam_id":76561199475829930,"connected_time":238000000000,"state":"active","ping":97},{"user_id":821,"name":"Rusted Cake","steam_id":76561198209755931,"connected_time":147000000000,"state":"active","ping":100},{"user_id":822,"name":"space ghost","steam_id":76561198044416336,"connected_time":121000000000,"state":"active","ping":89},{"user_id":810,"name":"xxa","steam_id":76561197984735021,"connected_time":2427000000000,"state":"active","ping":75},{"user_id":805,"name":"ball thrower","steam_id":76561198433240073,"connected_time":2772000000000,"state":"active","ping":49},{"user_id":793,"name":"Stan","steam_id":76561199057962816,"connected_time":3960000000000,"state":"active","ping":54},{"user_id":787,"name":"Bobby Ray","steam_id":76561198044131188,"connected_time":4101000000000,"state":"active","ping":75},{"user_id":779,"name":"Ludcmorais","steam_id":76561198359217809,"connected_time":4567000000000,"state":"active","ping":181},{"user_id":819,"name":"Femboy Pirate","steam_id":76561198170209689,"connected_time":417000000000,"state":"active","ping":133},{"user_id":808,"name":"JEFF","steam_id":76561198044059073,"connected_time":2463000000000,"state":"active","ping":44},{"user_id":809,"name":"laputan machine","steam_id":76561198046324336,"connected_time":2459000000000,"state":"active","ping":93},{"user_id":788,"name":"Soap","steam_id":76561197994893383,"connected_time":4098000000000,"state":"active","ping":70},{"user_id":811,"name":"Mr Pokey","steam_id":76561197993269087,"connected_time":2382000000000,"state":"active","ping":101},{"user_id":815,"name":"Gary Gilbert","steam_id":76561198143988056,"connected_time":1929000000000,"state":"active","ping":113},{"user_id":814,"name":"Gustavo Fring","steam_id":76561198132807405,"connected_time":2113000000000,"state":"active","ping":87},{"user_id":804,"name":"Kasodani Kyouko","steam_id":76561198023178589,"connected_time":3056000000000,"state":"active","ping":85},{"user_id":816,"name":"Duk","steam_id":76561198450692568,"connected_time":1905000000000,"state":"active","ping":65},{"user_id":772,"name":"M249 | Spectre","steam_id":76561198118334485,"connected_time":5371000000000,"state":"active","ping":74}]},{"server_id":403,"name":"Uncletopia | Chicago | 4 | All Maps","name_short":"chi-4","host":"chi-1.us.uncletopia.com","port":27045,"enabled":true,"region":"us-central","cc":"us","latitude":41.881832,"longitude":-87.62318,"reserved":0,"last_update":"0001-01-01T00:00:00Z","name_a2s":"Uncletopia | Chicago | 4 | All Maps","protocol":17,"map":"pl_thundermountain","folder":"tf","game":"Team Fortress","app_id":440,"player_count":23,"max_players":24,"Bots":0,"server_type":"Dedicated","server_os":"Linux","password":true,"vac":true,"version":"7882260","steam_id":85568392924515193,"keywords":["nocrits","nodmgspread","payload","uncletopia"],"game_id":440,"stv_port":27046,"stv_name":"Uncletopia | Chicago | 4 | All Maps | STV","players":[{"user_id":485,"name":"Rinsworth","steam_id":76561198071110753,"connected_time":3439000000000,"state":"active","ping":99},{"user_id":486,"name":"Conclusion E¬≤","steam_id":76561198100017156,"connected_time":3425000000000,"state":"active","ping":63},{"user_id":465,"name":"Nilantive","steam_id":76561198177565082,"connected_time":4692000000000,"state":"active","ping":54},{"user_id":466,"name":"Oberon","steam_id":76561199360964272,"connected_time":4654000000000,"state":"active","ping":59},{"user_id":497,"name":"Hoob","steam_id":76561198122948299,"connected_time":2013000000000,"state":"active","ping":110},{"user_id":496,"name":"Minerva Amadon","steam_id":76561198138543341,"connected_time":2183000000000,"state":"active","ping":59},{"user_id":503,"name":"THAN-Os!","steam_id":76561198140137142,"connected_time":1630000000000,"state":"active","ping":77},{"user_id":505,"name":"Candy Mann From Brooklyn","steam_id":76561198251655918,"connected_time":1454000000000,"state":"active","ping":73},{"user_id":487,"name":"Hexalellogram","steam_id":76561198075217568,"connected_time":3423000000000,"state":"active","ping":106},{"user_id":513,"name":"WCF BBL","steam_id":76561198819564432,"connected_time":63000000000,"state":"active","ping":54},{"user_id":488,"name":"Horse Battery Staple","steam_id":76561198058947011,"connected_time":3420000000000,"state":"active","ping":93},{"user_id":500,"name":"frank","steam_id":76561198137777483,"connected_time":1871000000000,"state":"active","ping":63},{"user_id":489,"name":"gnomer","steam_id":76561198046926728,"connected_time":3415000000000,"state":"active","ping":90},{"user_id":508,"name":"‚í∑‚ì™‚ì™‚ì£‚ì®‚ìí‚ìê‚ìö‚ìî‚ì¢","steam_id":76561198088776421,"connected_time":829000000000,"state":"active","ping":55},{"user_id":510,"name":"Pongallow","steam_id":76561198146876078,"connected_time":779000000000,"state":"active","ping":47},{"user_id":511,"name":"NewerCoke","steam_id":76561198042911847,"connected_time":240000000000,"state":"active","ping":75},{"user_id":512,"name":"YellowShade","steam_id":76561198200828527,"connected_time":213000000000,"state":"active","ping":63},{"user_id":490,"name":"Tofu","steam_id":76561198083778611,"connected_time":3384000000000,"state":"active","ping":100},{"user_id":491,"name":"[R–Ø] ShibesGoneWow","steam_id":76561198036090516,"connected_time":3341000000000,"state":"active","ping":71},{"user_id":492,"name":"I'm So Fucking Cool","steam_id":76561198098418071,"connected_time":3311000000000,"state":"active","ping":107},{"user_id":495,"name":"Oixo","steam_id":76561198076035468,"connected_time":2243000000000,"state":"active","ping":77},{"user_id":461,"name":"Lex","steam_id":76561198069948353,"connected_time":5090000000000,"state":"active","ping":74},{"user_id":494,"name":"Storm_FireFox1","steam_id":76561198063387990,"connected_time":2489000000000,"state":"active","ping":79}]},{"server_id":36,"name":"Uncletopia | Chicago | 5 | All Maps","name_short":"chi-5","host":"chi-2.us.uncletopia.com","port":27015,"enabled":true,"region":"us-central","cc":"us","latitude":41.881832,"longitude":-87.62318,"reserved":0,"last_update":"0001-01-01T00:00:00Z","name_a2s":"Uncletopia | Chicago | 5 | All Maps","protocol":17,"map":"pl_badwater","folder":"tf","game":"Team Fortress","app_id":440,"player_count":0,"max_players":24,"Bots":0,"server_type":"Dedicated","server_os":"Linux","password":true,"vac":true,"version":"7882260","steam_id":85568392924866362,"keywords":["nocrits","nodmgspread","payload","uncletopia"],"game_id":440,"stv_port":27016,"stv_name":"Uncletopia | Chicago | 5 | All Maps | STV","players":null},{"server_id":37,"name":"Uncletopia | Chicago | 6 | All Maps","name_short":"chi-6","host":"chi-2.us.uncletopia.com","port":27025,"enabled":true,"region":"us-central","cc":"us","latitude":41.881832,"longitude":-87.62318,"reserved":0,"last_update":"0001-01-01T00:00:00Z","name_a2s":"Uncletopia | Chicago | 6 | All Maps","protocol":17,"map":"cp_altitude","folder":"tf","game":"Team Fortress","app_id":440,"player_count":5,"max_players":24,"Bots":0,"server_type":"Dedicated","server_os":"Linux","password":true,"vac":true,"version":"7882260","steam_id":85568392924866363,"keywords":["cp","nocrits","nodmgspread","uncletopia"],"game_id":440,"stv_port":27026,"stv_name":"Uncletopia | Chicago | 6 | All Maps | STV","players":[{"user_id":630,"name":"atk","steam_id":76561198022653448,"connected_time":118000000000,"state":"active","ping":241},{"user_id":625,"name":"nnobi","steam_id":76561198878729277,"connected_time":1297000000000,"state":"active","ping":74},{"user_id":572,"name":"GROOVYROOM","steam_id":76561199153684166,"connected_time":6208000000000,"state":"active","ping":55},{"user_id":586,"name":"VidzCMC","steam_id":76561198848142973,"connected_time":5600000000000,"state":"active","ping":45},{"user_id":627,"name":"nori_420 (mute)","steam_id":76561199117134203,"connected_time":1094000000000,"state":"active","ping":107}]},{"server_id":38,"name":"Uncletopia | Chicago | 7 | Stopwatch Beta","name_short":"chi-7","host":"chi-2.us.uncletopia.com","port":27035,"enabled":true,"region":"us-central","cc":"us","latitude":41.881832,"longitude":-87.62318,"reserved":0,"last_update":"0001-01-01T00:00:00Z","name_a2s":"Uncletopia | Chicago | 7 | Stopwatch Beta","protocol":17,"map":"workshop/koth_ashville_final.ugc2130459942","folder":"tf","game":"Team Fortress","app_id":440,"player_count":0,"max_players":24,"Bots":0,"server_type":"Dedicated","server_os":"Linux","password":true,"vac":true,"version":"7882260","steam_id":85568392924866364,"keywords":["cp","nocrits","nodmgspread","uncletopia"],"game_id":440,"stv_port":27036,"stv_name":"Uncletopia | Chicago | 7 | Stopwatch Beta | STV","players":null},{"server_id":39,"name":"Uncletopia | Chicago | 8 | Community","name_short":"chi-8","host":"chi-2.us.uncletopia.com","port":27045,"enabled":true,"region":"us-central","cc":"us","latitude":41.881832,"longitude":-87.62318,"reserved":0,"last_update":"0001-01-01T00:00:00Z","name_a2s":"Uncletopia | Chicago | 8 | Community","protocol":17,"map":"cp_snakewater_final1","folder":"tf","game":"Team Fortress","app_id":440,"player_count":0,"max_players":24,"Bots":0,"server_type":"Dedicated","server_os":"Linux","password":true,"vac":true,"version":"7882260","steam_id":85568392924866365,"keywords":["cp","nocrits","nodmgspread","uncletopia"],"game_id":440,"stv_port":27046,"stv_name":"Uncletopia | Chicago | 8 | Community | STV","players":null},{"server_id":8,"name":"Uncletopia | Dallas | 1 | All Maps","name_short":"dal-1","host":"dal-1.us.uncletopia.com","port":27015,"enabled":true,"region":"us-central","cc":"us","latitude":32.779167,"longitude":-96.80889,"reserved":0,"last_update":"0001-01-01T00:00:00Z","name_a2s":"Uncletopia | Dallas | 1 | All Maps","protocol":17,"map":"cp_dustbowl","folder":"tf","game":"Team Fortress","app_id":440,"player_count":17,"max_players":24,"Bots":0,"server_type":"Dedicated","server_os":"Linux","password":true,"vac":true,"version":"7882260","steam_id":85568392924469986,"keywords":["cp","nocrits","nodmgspread","uncletopia"],"game_id":440,"stv_port":27016,"stv_name":"Uncletopia | Dallas | 1 | All Maps | STV","players":[{"user_id":742,"name":"SAD MOSCOVIA","steam_id":76561198101081520,"connected_time":67000000000,"state":"active","ping":118},{"user_id":698,"name":"Hoofuyu","steam_id":76561199022142345,"connected_time":4174000000000,"state":"active","ping":85},{"user_id":723,"name":"zapato","steam_id":76561198142278437,"connected_time":1333000000000,"state":"active","ping":90},{"user_id":736,"name":"Heamed Stams","steam_id":76561198163644842,"connected_time":644000000000,"state":"active","ping":76},{"user_id":718,"name":"Dask","steam_id":76561198043385839,"connected_time":1800000000000,"state":"active","ping":73},{"user_id":719,"name":"Gasly The Red","steam_id":76561198397898297,"connected_time":1563000000000,"state":"active","ping":116},{"user_id":700,"name":"roast pig with apple in mouth","steam_id":76561198051353647,"connected_time":3979000000000,"state":"active","ping":81},{"user_id":724,"name":"Linguini Bros | SploogieMcNoodl","steam_id":76561198262842999,"connected_time":1329000000000,"state":"active","ping":105},{"user_id":741,"name":"wakeupbdot","steam_id":76561198160786631,"connected_time":75000000000,"state":"active","ping":75},{"user_id":725,"name":"WOW i'm dead","steam_id":76561199082267619,"connected_time":1269000000000,"state":"active","ping":186},{"user_id":726,"name":"Anthrax","steam_id":76561197998145550,"connected_time":1210000000000,"state":"active","ping":74},{"user_id":732,"name":"dinky little beanie baby","steam_id":76561197999318398,"connected_time":753000000000,"state":"active","ping":106},{"user_id":703,"name":"Sucy","steam_id":76561198293202551,"connected_time":3849000000000,"state":"active","ping":45},{"user_id":733,"name":"FirleFranz","steam_id":76561199261282264,"connected_time":700000000000,"state":"active","ping":179},{"user_id":705,"name":"C o n s t a n s","steam_id":76561198138680203,"connected_time":3816000000000,"state":"active","ping":65},{"user_id":734,"name":"Chunky Little Chongus","steam_id":76561199094873145,"connected_time":699000000000,"state":"active","ping":102},{"user_id":695,"name":"pipeline","steam_id":76561198212263380,"connected_time":4328000000000,"state":"active","ping":52}]},{"server_id":108,"name":"Uncletopia | Dallas | 2 | All Maps","name_short":"dal-2","host":"dal-1.us.uncletopia.com","port":27025,"enabled":true,"region":"us-central","cc":"us","latitude":32.779167,"longitude":-96.80889,"reserved":0,"last_update":"0001-01-01T00:00:00Z","name_a2s":"Uncletopia | Dallas | 2 | All Maps","protocol":17,"map":"koth_lakeside_final","folder":"tf","game":"Team Fortress","app_id":440,"player_count":24,"max_players":24,"Bots":0,"server_type":"Dedicated","server_os":"Linux","password":true,"vac":true,"version":"7882260","steam_id":85568392924469988,"keywords":["cp","nocrits","nodmgspread","uncletopia"],"game_id":440,"stv_port":27026,"stv_name":"Uncletopia | Dallas | 2 | All Maps | STV","players":[{"user_id":756,"name":"Mainlanders","steam_id":76561198329361992,"connected_time":1712000000000,"state":"active","ping":91},{"user_id":760,"name":"DeviledEgg","steam_id":76561198318797339,"connected_time":1248000000000,"state":"active","ping":60},{"user_id":745,"name":"Savage Cephalopod","steam_id":76561198099073657,"connected_time":2289000000000,"state":"active","ping":73},{"user_id":643,"name":"Hideout","steam_id":76561198163765260,"connected_time":11060000000000,"state":"active","ping":55},{"user_id":737,"name":"Auggy","steam_id":76561198041816037,"connected_time":2676000000000,"state":"active","ping":100},{"user_id":736,"name":"Big Jon","steam_id":76561198402285099,"connected_time":2736000000000,"state":"active","ping":98},{"user_id":768,"name":"Bikeway Naros","steam_id":76561198086676786,"connected_time":829000000000,"state":"active","ping":78},{"user_id":741,"name":"The GimZ","steam_id":76561198337264085,"connected_time":2409000000000,"state":"active","ping":46},{"user_id":740,"name":"Tribrothers_2","steam_id":76561198143972134,"connected_time":2441000000000,"state":"active","ping":93},{"user_id":757,"name":"My name is indeed Jeff","steam_id":76561199115838614,"connected_time":1585000000000,"state":"active","ping":105},{"user_id":759,"name":"ErikG65USA","steam_id":76561199381735619,"connected_time":1314000000000,"state":"active","ping":68},{"user_id":766,"name":"I have DS","steam_id":76561198842315184,"connected_time":911000000000,"state":"active","ping":101},{"user_id":762,"name":"Fish","steam_id":76561198834220164,"connected_time":1018000000000,"state":"active","ping":107},{"user_id":742,"name":"Pineapple Pizza","steam_id":76561197997233176,"connected_time":2363000000000,"state":"active","ping":101},{"user_id":758,"name":"goblino","steam_id":76561198068260422,"connected_time":1534000000000,"state":"active","ping":67},{"user_id":697,"name":"Woozy","steam_id":76561198008220735,"connected_time":7789000000000,"state":"active","ping":83},{"user_id":743,"name":"AlejandraCat","steam_id":76561198372966192,"connected_time":2320000000000,"state":"active","ping":69},{"user_id":748,"name":"Satan-2","steam_id":76561199231742764,"connected_time":2176000000000,"state":"active","ping":91},{"user_id":763,"name":"Ravioli Time","steam_id":76561198288633724,"connected_time":1001000000000,"state":"active","ping":85},{"user_id":767,"name":"jackpots","steam_id":76561198103515747,"connected_time":898000000000,"state":"active","ping":85},{"user_id":751,"name":"Blink","steam_id":76561197986181277,"connected_time":1918000000000,"state":"active","ping":51},{"user_id":752,"name":"Doctorcere","steam_id":76561199188802978,"connected_time":1896000000000,"state":"active","ping":55},{"user_id":765,"name":"nelly modelo","steam_id":76561198044875206,"connected_time":919000000000,"state":"active","ping":89},{"user_id":755,"name":"The Caretaker","steam_id":76561198125241411,"connected_time":1827000000000,"state":"active","ping":100}]},{"server_id":5,"name":"Uncletopia | Frankfurt | 1 | All Maps","name_short":"frk-1","host":"frk-1.de.uncletopia.com","port":27015,"enabled":true,"region":"eu","cc":"de","latitude":50.110924,"longitude":8.682127,"reserved":0,"last_update":"0001-01-01T00:00:00Z","name_a2s":"Uncletopia | Frankfurt | 1 | All Maps","protocol":17,"map":"cp_altitude","folder":"tf","game":"Team Fortress","app_id":440,"player_count":24,"max_players":24,"Bots":0,"server_type":"Dedicated","server_os":"Linux","password":true,"vac":true,"version":"7882260","steam_id":85568392924469989,"keywords":["cp","nocrits","nodmgspread","uncletopia"],"game_id":440,"stv_port":27016,"stv_name":"Uncletopia | Frankfurt | 1 | All Maps | STV","players":[{"user_id":3,"name":"Razorback from Team Fortress 2","steam_id":76561199214163032,"connected_time":7693000000000,"state":"active","ping":91},{"user_id":45,"name":"Sauce Joke","steam_id":76561198842979843,"connected_time":2975000000000,"state":"active","ping":50},{"user_id":13,"name":"Wujek Cacek","steam_id":76561198010267943,"connected_time":4360000000000,"state":"active","ping":66},{"user_id":28,"name":"nemelex","steam_id":76561198958005865,"connected_time":3473000000000,"state":"active","ping":58},{"user_id":9,"name":"icebro","steam_id":76561199123450840,"connected_time":5340000000000,"state":"active","ping":62},{"user_id":12,"name":"Ixion","steam_id":76561198041660675,"connected_time":4663000000000,"state":"active","ping":70},{"user_id":55,"name":"Leibeigener","steam_id":76561199275478305,"connected_time":2042000000000,"state":"active","ping":37},{"user_id":25,"name":"Killing","steam_id":76561198107392931,"connected_time":3617000000000,"state":"active","ping":50},{"user_id":63,"name":"Aleknat","steam_id":76561198055379857,"connected_time":1388000000000,"state":"active","ping":71},{"user_id":29,"name":"Nyhde","steam_id":76561198012771416,"connected_time":3400000000000,"state":"active","ping":86},{"user_id":52,"name":"qwertyrealschru_lll","steam_id":76561199120083473,"connected_time":2428000000000,"state":"active","ping":76},{"user_id":19,"name":"W.","steam_id":76561198097420050,"connected_time":3880000000000,"state":"active","ping":56},{"user_id":30,"name":"CarBombEnthusiast","steam_id":76561199448185434,"connected_time":3313000000000,"state":"active","ping":64},{"user_id":71,"name":"alice roblox chad poot demon","steam_id":76561198180361759,"connected_time":581000000000,"state":"active","ping":51},{"user_id":64,"name":"Rin-Nakaret","steam_id":76561197971051188,"connected_time":1369000000000,"state":"active","ping":68},{"user_id":34,"name":"regimiro","steam_id":76561198120457008,"connected_time":3257000000000,"state":"active","ping":70},{"user_id":58,"name":"aolkdi","steam_id":76561198025479415,"connected_time":1981000000000,"state":"active","ping":128},{"user_id":36,"name":"KAZAM | Tervez","steam_id":76561198045459068,"connected_time":3245000000000,"state":"active","ping":79},{"user_id":60,"name":"mira","steam_id":76561199040246790,"connected_time":1407000000000,"state":"active","ping":64},{"user_id":68,"name":"solus control unit","steam_id":76561198131944941,"connected_time":1163000000000,"state":"active","ping":68},{"user_id":70,"name":"Borat","steam_id":76561198122226417,"connected_time":856000000000,"state":"active","ping":53},{"user_id":69,"name":"Lothar","steam_id":76561198035530798,"connected_time":995000000000,"state":"active","ping":84},{"user_id":67,"name":"Valkyr","steam_id":76561197994049208,"connected_time":1204000000000,"state":"active","ping":67},{"user_id":73,"name":"Stuid","steam_id":76561199427506542,"connected_time":309000000000,"state":"active","ping":75}]},{"server_id":110,"name":"Uncletopia | Frankfurt | 2 | All Maps","name_short":"frk-2","host":"frk-1.de.uncletopia.com","port":27025,"enabled":true,"region":"eu","cc":"de","latitude":50.110924,"longitude":8.682127,"reserved":0,"last_update":"0001-01-01T00:00:00Z","name_a2s":"Uncletopia | Frankfurt | 2 | All Maps","protocol":17,"map":"koth_viaduct","folder":"tf","game":"Team Fortress","app_id":440,"player_count":0,"max_players":24,"Bots":0,"server_type":"Dedicated","server_os":"Linux","password":true,"vac":true,"version":"7882260","steam_id":85568392924469990,"keywords":["cp","nocrits","nodmgspread","uncletopia"],"game_id":440,"stv_port":27026,"stv_name":"Uncletopia | Frankfurt | 2 | All Maps | STV","players":null},{"server_id":308,"name":"Uncletopia | Frankfurt | 3 | All Maps","name_short":"frk-3","host":"frk-1.de.uncletopia.com","port":27035,"enabled":true,"region":"eu","cc":"de","latitude":50.110924,"longitude":8.682127,"reserved":0,"last_update":"0001-01-01T00:00:00Z","name_a2s":"Uncletopia | Frankfurt | 3 | All Maps","protocol":17,"map":"cp_sunshine","folder":"tf","game":"Team Fortress","app_id":440,"player_count":0,"max_players":24,"Bots":0,"server_type":"Dedicated","server_os":"Linux","password":true,"vac":true,"version":"7882260","steam_id":85568392924504274,"keywords":["cp","nocrits","nodmgspread","uncletopia"],"game_id":440,"stv_port":27036,"stv_name":"Uncletopia | Frankfurt | 3 | All Maps | STV","players":null},{"server_id":309,"name":"Uncletopia | Frankfurt | 4 | All Maps","name_short":"frk-4","host":"frk-1.de.uncletopia.com","port":27045,"enabled":true,"region":"eu","cc":"de","latitude":50.110924,"longitude":8.682127,"reserved":0,"last_update":"0001-01-01T00:00:00Z","name_a2s":"Uncletopia | Frankfurt | 4 | All Maps","protocol":17,"map":"koth_lakeside_final","folder":"tf","game":"Team Fortress","app_id":440,"player_count":0,"max_players":24,"Bots":0,"server_type":"Dedicated","server_os":"Linux","password":true,"vac":true,"version":"7882260","steam_id":85568392924504275,"keywords":["cp","nocrits","nodmgspread","uncletopia"],"game_id":440,"stv_port":27046,"stv_name":"Uncletopia | Frankfurt | 4 | All Maps | STV","players":null},{"server_id":310,"name":"Uncletopia | Frankfurt | 5 | All Maps","name_short":"frk-5","host":"frk-1.de.uncletopia.com","port":27055,"enabled":true,"region":"eu","cc":"de","latitude":50.110924,"longitude":8.682127,"reserved":0,"last_update":"0001-01-01T00:00:00Z","name_a2s":"Uncletopia | Frankfurt | 5 | All Maps","protocol":17,"map":"cp_mountainlab","folder":"tf","game":"Team Fortress","app_id":440,"player_count":0,"max_players":24,"Bots":0,"server_type":"Dedicated","server_os":"Linux","password":true,"vac":true,"version":"7882260","steam_id":85568392924504277,"keywords":["cp","nocrits","nodmgspread","uncletopia"],"game_id":440,"stv_port":27056,"stv_name":"Uncletopia | Frankfurt | 5 | All Maps | STV","players":null},{"server_id":311,"name":"Uncletopia | Frankfurt | 6 | All Maps","name_short":"frk-6","host":"frk-1.de.uncletopia.com","port":27065,"enabled":true,"region":"eu","cc":"de","latitude":50.110924,"longitude":8.682127,"reserved":0,"last_update":"0001-01-01T00:00:00Z","name_a2s":"Uncletopia | Frankfurt | 6 | All Maps","protocol":17,"map":"cp_sunshine","folder":"tf","game":"Team Fortress","app_id":440,"player_count":0,"max_players":24,"Bots":0,"server_type":"Dedicated","server_os":"Linux","password":true,"vac":true,"version":"7882260","steam_id":85568392924504278,"keywords":["cp","nocrits","nodmgspread","uncletopia"],"game_id":440,"stv_port":27066,"stv_name":"Uncletopia | Frankfurt | 6 | All Maps | STV","players":null},{"server_id":23,"name":"Uncletopia | Frankfurt | 7 | Stopwatch Beta","name_short":"frk-7","host":"frk-1.de.uncletopia.com","port":27075,"enabled":true,"region":"eu","cc":"de","latitude":50.110924,"longitude":8.682127,"reserved":0,"last_update":"0001-01-01T00:00:00Z","name_a2s":"Uncletopia | Frankfurt | 7 | Stopwatch Beta","protocol":17,"map":"cp_dustbowl","folder":"tf","game":"Team Fortress","app_id":440,"player_count":0,"max_players":24,"Bots":0,"server_type":"Dedicated","server_os":"Linux","password":true,"vac":true,"version":"7882260","steam_id":85568392924742827,"keywords":["cp","nocrits","nodmgspread","uncletopia"],"game_id":440,"stv_port":27076,"stv_name":"Uncletopia | Frankfurt | 7 | Stopwatch Beta | STV","players":null},{"server_id":24,"name":"Uncletopia | Frankfurt | 8 | Community","name_short":"frk-8","host":"frk-1.de.uncletopia.com","port":27085,"enabled":true,"region":"eu","cc":"de","latitude":50.110924,"longitude":8.682127,"reserved":0,"last_update":"0001-01-01T00:00:00Z","name_a2s":"Uncletopia | Frankfurt | 8 | Community","protocol":17,"map":"koth_cascade","folder":"tf","game":"Team Fortress","app_id":440,"player_count":0,"max_players":24,"Bots":0,"server_type":"Dedicated","server_os":"Linux","password":true,"vac":true,"version":"7882260","steam_id":85568392924742828,"keywords":["cp","nocrits","nodmgspread","uncletopia"],"game_id":440,"stv_port":27086,"stv_name":"Uncletopia | Frankfurt | 8 | Community | STV","players":null},{"server_id":202,"name":"Uncletopia | Hong Kong | 1 | All Maps","name_short":"hgk-1","host":"hgk-1.hk.uncletopia.com","port":27015,"enabled":true,"region":"asia","cc":"hk","latitude":22.302711,"longitude":114.177216,"reserved":0,"last_update":"0001-01-01T00:00:00Z","name_a2s":"Uncletopia | Hong Kong | 1 | All Maps","protocol":17,"map":"pl_badwater","folder":"tf","game":"Team Fortress","app_id":440,"player_count":24,"max_players":24,"Bots":0,"server_type":"Dedicated","server_os":"Linux","password":true,"vac":true,"version":"7882260","steam_id":85568392924494504,"keywords":["nocrits","nodmgspread","payload","uncletopia"],"game_id":440,"stv_port":27016,"stv_name":"Uncletopia | Hong Kong | 1 | All Maps | STV","players":[{"user_id":95,"name":"Â∏ï","steam_id":76561198439343999,"connected_time":5776000000000,"state":"active","ping":132},{"user_id":205,"name":"Samoyed","steam_id":76561198299150410,"connected_time":54000000000,"state":"active","ping":134},{"user_id":119,"name":"Sayo-Nara","steam_id":76561198005744733,"connected_time":3675000000000,"state":"active","ping":94},{"user_id":124,"name":"monke mode","steam_id":76561198992723983,"connected_time":3297000000000,"state":"active","ping":97},{"user_id":69,"name":"bam","steam_id":76561198418964176,"connected_time":8530000000000,"state":"active","ping":100},{"user_id":112,"name":"TomProPlayer","steam_id":76561199223292521,"connected_time":4809000000000,"state":"active","ping":69},{"user_id":203,"name":"uptriste","steam_id":76561198158666692,"connected_time":234000000000,"state":"active","ping":44},{"user_id":85,"name":"bodacious bogey","steam_id":76561198055553140,"connected_time":7446000000000,"state":"active","ping":86},{"user_id":185,"name":"clori","steam_id":76561199146847474,"connected_time":1325000000000,"state":"active","ping":41},{"user_id":204,"name":"Diavolo Diablo","steam_id":76561198166295333,"connected_time":219000000000,"state":"active","ping":80},{"user_id":187,"name":"\"SKS\"","steam_id":76561198187995386,"connected_time":1308000000000,"state":"active","ping":85},{"user_id":190,"name":"zeus","steam_id":76561198828564918,"connected_time":1143000000000,"state":"active","ping":94},{"user_id":191,"name":"‡πã","steam_id":76561198413116920,"connected_time":1096000000000,"state":"active","ping":86},{"user_id":200,"name":"Milf (The fan O'Milk)","steam_id":76561198213031155,"connected_time":279000000000,"state":"active","ping":93},{"user_id":192,"name":"Vortex Medico","steam_id":76561198833527091,"connected_time":1095000000000,"state":"active","ping":95},{"user_id":194,"name":"Dr. Piss Rat","steam_id":76561199074809838,"connected_time":475000000000,"state":"active","ping":71},{"user_id":202,"name":"WhereAmai","steam_id":76561199122491157,"connected_time":272000000000,"state":"active","ping":173},{"user_id":106,"name":"no vc no c","steam_id":76561197989503095,"connected_time":5404000000000,"state":"active","ping":88},{"user_id":199,"name":"RAemP","steam_id":76561199067774179,"connected_time":302000000000,"state":"active","ping":173},{"user_id":77,"name":"UltraFat","steam_id":76561198253918132,"connected_time":8143000000000,"state":"active","ping":90},{"user_id":118,"name":"ÊØç„ÅÆËÇâÂõ£Â≠ê@hao123.com","steam_id":76561198069561896,"connected_time":3812000000000,"state":"active","ping":35},{"user_id":80,"name":"spinach (old mouse)","steam_id":76561198042539541,"connected_time":8098000000000,"state":"active","ping":81},{"user_id":182,"name":"screaming sniper","steam_id":76561199085568674,"connected_time":1350000000000,"state":"active","ping":94},{"user_id":183,"name":"Jackal Queenston","steam_id":76561199012678702,"connected_time":1350000000000,"state":"active","ping":165}]},{"server_id":1,"name":"Uncletopia | Los Angeles | 1 | All Maps","name_short":"lax-1","host":"lax-1.us.uncletopia.com","port":27015,"enabled":true,"region":"us-west","cc":"us","latitude":33.94279,"longitude":-118.41004,"reserved":0,"last_update":"0001-01-01T00:00:00Z","name_a2s":"Uncletopia | Los Angeles | 1 | All Maps","protocol":17,"map":"pl_barnblitz","folder":"tf","game":"Team Fortress","app_id":440,"player_count":14,"max_players":24,"Bots":0,"server_type":"Dedicated","server_os":"Linux","password":true,"vac":true,"version":"7882260","steam_id":85568392924469991,"keywords":["nocrits","nodmgspread","payload","uncletopia"],"game_id":440,"stv_port":27016,"stv_name":"Uncletopia | Los Angeles | 1 | All Maps | STV","players":[{"user_id":609,"name":"SwiftVines","steam_id":76561198083682421,"connected_time":2008000000000,"state":"active","ping":75},{"user_id":584,"name":"Nuggies","steam_id":76561198272432592,"connected_time":3849000000000,"state":"active","ping":54},{"user_id":604,"name":"Wendall555","steam_id":76561198985637603,"connected_time":2406000000000,"state":"active","ping":49},{"user_id":605,"name":"Meepster","steam_id":76561198146305159,"connected_time":2381000000000,"state":"active","ping":70},{"user_id":624,"name":"Plastic","steam_id":76561198082908736,"connected_time":1306000000000,"state":"active","ping":85},{"user_id":592,"name":"Kurttheking","steam_id":76561198241449562,"connected_time":3195000000000,"state":"active","ping":81},{"user_id":612,"name":"stinky fresh","steam_id":76561198004022947,"connected_time":1946000000000,"state":"active","ping":87},{"user_id":621,"name":"evril vvizard miku","steam_id":76561198164445414,"connected_time":1578000000000,"state":"active","ping":58},{"user_id":614,"name":"CHILLY CORONA","steam_id":76561198063277152,"connected_time":1928000000000,"state":"active","ping":90},{"user_id":615,"name":"reverie","steam_id":76561198168158637,"connected_time":1884000000000,"state":"active","ping":68},{"user_id":626,"name":"RaTtYc","steam_id":76561198954419354,"connected_time":1095000000000,"state":"active","ping":79},{"user_id":581,"name":"Derpy Hooves???","steam_id":76561198101505695,"connected_time":3981000000000,"state":"active","ping":46},{"user_id":628,"name":"CHIKN","steam_id":76561198277792665,"connected_time":1045000000000,"state":"active","ping":49},{"user_id":582,"name":"a 1930","steam_id":76561198320639814,"connected_time":3970000000000,"state":"active","ping":87}]},{"server_id":112,"name":"Uncletopia | Los Angeles | 2 | All Maps","name_short":"lax-2","host":"lax-1.us.uncletopia.com","port":27025,"enabled":true,"region":"us-west","cc":"us","latitude":33.94279,"longitude":-118.41004,"reserved":0,"last_update":"0001-01-01T00:00:00Z","name_a2s":"Uncletopia | Los Angeles | 2 | All Maps","protocol":17,"map":"cp_process_final","folder":"tf","game":"Team Fortress","app_id":440,"player_count":24,"max_players":24,"Bots":0,"server_type":"Dedicated","server_os":"Linux","password":true,"vac":true,"version":"7882260","steam_id":85568392924469992,"keywords":["cp","nocrits","nodmgspread","uncletopia"],"game_id":440,"stv_port":27026,"stv_name":"Uncletopia | Los Angeles | 2 | All Maps | STV","players":[{"user_id":364,"name":"DOPEam1ne","steam_id":76561198112204774,"connected_time":4181000000000,"state":"active","ping":53},{"user_id":395,"name":"Clornk (Destroyer of Happiness)","steam_id":76561198360396485,"connected_time":2733000000000,"state":"active","ping":65},{"user_id":401,"name":"dinocoder","steam_id":76561198311038263,"connected_time":2140000000000,"state":"active","ping":55},{"user_id":409,"name":"bladees saddest, realest verse","steam_id":76561198098099826,"connected_time":1722000000000,"state":"active","ping":47},{"user_id":297,"name":"Grand","steam_id":76561198290143399,"connected_time":9119000000000,"state":"active","ping":77},{"user_id":412,"name":"Some Big Mean Mother Hubbard","steam_id":76561198436672138,"connected_time":1456000000000,"state":"active","ping":83},{"user_id":420,"name":"Jerry Bondle","steam_id":76561198337512213,"connected_time":671000000000,"state":"active","ping":122},{"user_id":410,"name":"dare","steam_id":76561197960977496,"connected_time":1615000000000,"state":"active","ping":60},{"user_id":425,"name":"'93","steam_id":76561198069979962,"connected_time":259000000000,"state":"active","ping":103},{"user_id":296,"name":"Truffles","steam_id":76561198095868800,"connected_time":9137000000000,"state":"active","ping":98},{"user_id":388,"name":"Stoofy","steam_id":76561198280750328,"connected_time":3033000000000,"state":"active","ping":89},{"user_id":419,"name":"A B1 Battle Droid","steam_id":76561198050678984,"connected_time":714000000000,"state":"active","ping":67},{"user_id":423,"name":"johnny karate","steam_id":76561198165847261,"connected_time":474000000000,"state":"active","ping":76},{"user_id":428,"name":"Skoomar","steam_id":76561198116515589,"connected_time":19000000000,"state":"spawning","ping":54},{"user_id":424,"name":"creamer","steam_id":76561198144095056,"connected_time":422000000000,"state":"active","ping":91},{"user_id":394,"name":"denim repair service","steam_id":76561198075666613,"connected_time":2840000000000,"state":"active","ping":57},{"user_id":380,"name":"austintacious","steam_id":76561198054118061,"connected_time":3564000000000,"state":"active","ping":94},{"user_id":426,"name":"ùïÆùñÜùñíùñäùñóùñîùñì \ufffd\ufffd","steam_id":76561198045826628,"connected_time":250000000000,"state":"active","ping":45},{"user_id":427,"name":"UnknownError42","steam_id":76561198087467339,"connected_time":250000000000,"state":"active","ping":105},{"user_id":406,"name":"noellehound","steam_id":76561198108844158,"connected_time":2034000000000,"state":"active","ping":59},{"user_id":415,"name":"An Entire 2006 Honda Civic Si","steam_id":76561198102009930,"connected_time":1390000000000,"state":"active","ping":56},{"user_id":429,"name":"rose","steam_id":76561197995200743,"connected_time":1000000000,"state":"spawning","ping":36},{"user_id":418,"name":"ShadowBolt","steam_id":76561198061610985,"connected_time":1170000000000,"state":"active","ping":134},{"user_id":392,"name":"Raizen","steam_id":76561199092445367,"connected_time":2883000000000,"state":"active","ping":102}]},{"server_id":324,"name":"Uncletopia | Los Angeles | 3 | All Maps","name_short":"lax-3","host":"lax-1.us.uncletopia.com","port":27035,"enabled":true,"region":"us-west","cc":"us","latitude":33.94279,"longitude":-118.41004,"reserved":0,"last_update":"0001-01-01T00:00:00Z","name_a2s":"Uncletopia | Los Angeles | 3 | All Maps","protocol":17,"map":"plr_hightower","folder":"tf","game":"Team Fortress","app_id":440,"player_count":0,"max_players":24,"Bots":0,"server_type":"Dedicated","server_os":"Linux","password":true,"vac":true,"version":"7882260","steam_id":85568392924510198,"keywords":["nocrits","nodmgspread","payload","uncletopia"],"game_id":440,"stv_port":27036,"stv_name":"Uncletopia | Los Angeles | 3 | All Maps | STV","players":null},{"server_id":25,"name":"Uncletopia | Los Angeles | 4 | Stopwatch Beta","name_short":"lax-4","host":"lax-1.us.uncletopia.com","port":27045,"enabled":true,"region":"us-west","cc":"us","latitude":33.94279,"longitude":-118.41004,"reserved":0,"last_update":"0001-01-01T00:00:00Z","name_a2s":"Uncletopia | Los Angeles | 4 | Stopwatch Beta","protocol":17,"map":"koth_lakeside_final","folder":"tf","game":"Team Fortress","app_id":440,"player_count":0,"max_players":24,"Bots":0,"server_type":"Dedicated","server_os":"Linux","password":true,"vac":true,"version":"7882260","steam_id":85568392924510199,"keywords":["cp","nocrits","nodmgspread","uncletopia"],"game_id":440,"stv_port":27046,"stv_name":"Uncletopia | Los Angeles | 4 | Stopwatch Beta | STV","players":null},{"server_id":11,"name":"Uncletopia | London | 1 | All Maps","name_short":"lon-1","host":"lon-1.uk.uncletopia.com","port":27015,"enabled":true,"region":"eu","cc":"gb","latitude":51.509865,"longitude":-0.118092,"reserved":0,"last_update":"0001-01-01T00:00:00Z","name_a2s":"Uncletopia | London | 1 | All Maps","protocol":17,"map":"pl_snowycoast","folder":"tf","game":"Team Fortress","app_id":440,"player_count":0,"max_players":24,"Bots":0,"server_type":"Dedicated","server_os":"Linux","password":true,"vac":true,"version":"7882260","steam_id":85568392924367362,"keywords":["nocrits","nodmgspread","payload","uncletopia"],"game_id":440,"stv_port":27016,"stv_name":"Uncletopia | London | 1 | All Maps | STV","players":null},{"server_id":114,"name":"Uncletopia | London | 2 | All Maps","name_short":"lon-2","host":"lon-1.uk.uncletopia.com","port":27025,"enabled":true,"region":"eu","cc":"gb","latitude":51.509865,"longitude":-0.118092,"reserved":0,"last_update":"0001-01-01T00:00:00Z","name_a2s":"Uncletopia | London | 2 | All Maps","protocol":17,"map":"pl_pier","folder":"tf","game":"Team Fortress","app_id":440,"player_count":24,"max_players":24,"Bots":0,"server_type":"Dedicated","server_os":"Linux","password":true,"vac":true,"version":"7882260","steam_id":85568392924470941,"keywords":["nocrits","nodmgspread","payload","uncletopia"],"game_id":440,"stv_port":27026,"stv_name":"Uncletopia | London | 2 | All Maps | STV","players":[{"user_id":163,"name":"J√∏rn","steam_id":76561199073257952,"connected_time":844000000000,"state":"active","ping":67},{"user_id":144,"name":"ayadam","steam_id":76561198161515769,"connected_time":2727000000000,"state":"active","ping":122},{"user_id":139,"name":"Bottom feeder","steam_id":76561198181298169,"connected_time":3344000000000,"state":"active","ping":143},{"user_id":129,"name":"hipster_doofus","steam_id":76561197970902697,"connected_time":3804000000000,"state":"active","ping":55},{"user_id":161,"name":"dotdotdot","steam_id":76561198057628751,"connected_time":1097000000000,"state":"active","ping":60},{"user_id":151,"name":"Hann√º","steam_id":76561197969886128,"connected_time":2337000000000,"state":"active","ping":53},{"user_id":166,"name":"ashwin9631","steam_id":76561198207406319,"connected_time":665000000000,"state":"active","ping":160},{"user_id":173,"name":"goofster","steam_id":76561199052275857,"connected_time":268000000000,"state":"active","ping":114},{"user_id":130,"name":"Sybille Sirky","steam_id":76561198082407725,"connected_time":3792000000000,"state":"active","ping":56},{"user_id":169,"name":"padillacampos","steam_id":76561198161923970,"connected_time":497000000000,"state":"active","ping":70},{"user_id":176,"name":"shotgunplayer2004","steam_id":76561198382281653,"connected_time":21000000000,"state":"active","ping":123},{"user_id":164,"name":"Kedy","steam_id":76561198308990457,"connected_time":707000000000,"state":"active","ping":114},{"user_id":167,"name":"Egor Pomidor","steam_id":76561199175688390,"connected_time":566000000000,"state":"active","ping":89},{"user_id":170,"name":"6'3 horny aroused male with gun","steam_id":76561199042470246,"connected_time":436000000000,"state":"active","ping":60},{"user_id":172,"name":"JUST C2","steam_id":76561199194240072,"connected_time":282000000000,"state":"active","ping":125},{"user_id":155,"name":"swagbra","steam_id":76561198051828515,"connected_time":2186000000000,"state":"active","ping":42},{"user_id":99,"name":"Lewylow","steam_id":76561198005425686,"connected_time":5637000000000,"state":"active","ping":58},{"user_id":125,"name":"Fuvuk","steam_id":76561198044458593,"connected_time":4201000000000,"state":"active","ping":98},{"user_id":174,"name":"No | S | uS","steam_id":76561199195727551,"connected_time":235000000000,"state":"active","ping":53},{"user_id":175,"name":"Sonic","steam_id":76561198081692577,"connected_time":215000000000,"state":"active","ping":72},{"user_id":110,"name":"Urfangonultasadana","steam_id":76561199389286151,"connected_time":4972000000000,"state":"active","ping":104},{"user_id":171,"name":"first time caller","steam_id":76561198031573426,"connected_time":333000000000,"state":"active","ping":81},{"user_id":154,"name":"revolver CHEH","steam_id":76561198851411530,"connected_time":2318000000000,"state":"active","ping":49},{"user_id":162,"name":"One-Face","steam_id":76561197999384826,"connected_time":955000000000,"state":"active","ping":64}]},{"server_id":320,"name":"Uncletopia | London | 3 | All Maps","name_short":"lon-3","host":"lon-1.uk.uncletopia.com","port":27035,"enabled":true,"region":"eu","cc":"gb","latitude":51.509865,"longitude":-0.118092,"reserved":0,"last_update":"0001-01-01T00:00:00Z","name_a2s":"Uncletopia | London | 3 | All Maps","protocol":17,"map":"koth_highpass","folder":"tf","game":"Team Fortress","app_id":440,"player_count":0,"max_players":24,"Bots":0,"server_type":"Dedicated","server_os":"Linux","password":true,"vac":true,"version":"7882260","steam_id":85568392924510192,"keywords":["cp","nocrits","nodmgspread","uncletopia"],"game_id":440,"stv_port":27036,"stv_name":"Uncletopia | London | 3 | All Maps | STV","players":null},{"server_id":321,"name":"Uncletopia | London | 4 | All Maps","name_short":"lon-4","host":"lon-1.uk.uncletopia.com","port":27045,"enabled":true,"region":"eu","cc":"gb","latitude":51.509865,"longitude":-0.118092,"reserved":0,"last_update":"0001-01-01T00:00:00Z","name_a2s":"Uncletopia | London | 4 | All Maps","protocol":17,"map":"pl_upward","folder":"tf","game":"Team Fortress","app_id":440,"player_count":0,"max_players":24,"Bots":0,"server_type":"Dedicated","server_os":"Linux","password":true,"vac":true,"version":"7882260","steam_id":85568392924510193,"keywords":["nocrits","nodmgspread","payload","uncletopia"],"game_id":440,"stv_port":27046,"stv_name":"Uncletopia | London | 4 | All Maps | STV","players":null},{"server_id":21,"name":"Uncletopia | London | 5 | All Maps","name_short":"lon-5","host":"lon-1.uk.uncletopia.com","port":27055,"enabled":true,"region":"eu","cc":"gb","latitude":51.509865,"longitude":-0.118092,"reserved":0,"last_update":"0001-01-01T00:00:00Z","name_a2s":"Uncletopia | London | 5 | All Maps","protocol":17,"map":"pl_frontier_final","folder":"tf","game":"Team Fortress","app_id":440,"player_count":0,"max_players":24,"Bots":0,"server_type":"Dedicated","server_os":"Linux","password":true,"vac":true,"version":"7882260","steam_id":85568392924742829,"keywords":["nocrits","nodmgspread","payload","uncletopia"],"game_id":440,"stv_port":27056,"stv_name":"Uncletopia | London | 5 | All Maps | STV","players":null},{"server_id":22,"name":"Uncletopia | London | 6 | All Maps","name_short":"lon-6","host":"lon-1.uk.uncletopia.com","port":27065,"enabled":true,"region":"eu","cc":"gb","latitude":51.509865,"longitude":-0.118092,"reserved":0,"last_update":"0001-01-01T00:00:00Z","name_a2s":"Uncletopia | London | 6 | All Maps","protocol":17,"map":"cp_process_final","folder":"tf","game":"Team Fortress","app_id":440,"player_count":14,"max_players":24,"Bots":0,"server_type":"Dedicated","server_os":"Linux","password":true,"vac":true,"version":"7882260","steam_id":85568392924742830,"keywords":["cp","nocrits","nodmgspread","uncletopia"],"game_id":440,"stv_port":27066,"stv_name":"Uncletopia | London | 6 | All Maps | STV","players":[{"user_id":19,"name":"RoJoCal","steam_id":76561198084029937,"connected_time":812000000000,"state":"active","ping":63},{"user_id":11,"name":"pako","steam_id":76561198429046379,"connected_time":1686000000000,"state":"active","ping":57},{"user_id":9,"name":"Sex Man TF2","steam_id":76561198798657045,"connected_time":1989000000000,"state":"active","ping":74},{"user_id":20,"name":"Storm's Foreshadow","steam_id":76561198098462526,"connected_time":755000000000,"state":"active","ping":73},{"user_id":27,"name":"CNTRL","steam_id":76561199125803827,"connected_time":135000000000,"state":"active","ping":66},{"user_id":22,"name":"bad at tf2 episode 2","steam_id":76561198002451113,"connected_time":614000000000,"state":"active","ping":102},{"user_id":23,"name":"hunte","steam_id":76561198063483484,"connected_time":576000000000,"state":"active","ping":73},{"user_id":16,"name":"FanFish","steam_id":76561199389558024,"connected_time":1462000000000,"state":"active","ping":72},{"user_id":17,"name":"Fus in Boots","steam_id":76561198053897722,"connected_time":1452000000000,"state":"active","ping":48},{"user_id":28,"name":"Kocham Wode z Filtra","steam_id":76561198016042113,"connected_time":108000000000,"state":"active","ping":76},{"user_id":29,"name":"Mandele","steam_id":76561199183213205,"connected_time":96000000000,"state":"active","ping":97},{"user_id":26,"name":"Mclovin","steam_id":76561199082620246,"connected_time":402000000000,"state":"active","ping":73},{"user_id":30,"name":"W+M1 noob","steam_id":76561198120460686,"connected_time":81000000000,"state":"active","ping":123},{"user_id":31,"name":"O-linked Œ≤-N-acetylglucosamine","steam_id":76561198150034145,"connected_time":52000000000,"state":"active","ping":60}]},{"server_id":40,"name":"Uncletopia | London | 7 | No Payload","name_short":"lon-7","host":"lon-1.uk.uncletopia.com","port":27075,"enabled":true,"region":"eu","cc":"gb","latitude":51.509865,"longitude":-0.118092,"reserved":0,"last_update":"0001-01-01T00:00:00Z","name_a2s":"Uncletopia | London | 7 | No Payload","protocol":17,"map":"pl_pier","folder":"tf","game":"Team Fortress","app_id":440,"player_count":0,"max_players":24,"Bots":0,"server_type":"Dedicated","server_os":"Linux","password":true,"vac":true,"version":"7882260","steam_id":85568392924964314,"keywords":["nocrits","nodmgspread","payload","uncletopia"],"game_id":440,"stv_port":27076,"stv_name":"Uncletopia | London | 7 | No Payload | STV","players":null},{"server_id":41,"name":"Uncletopia | London | 8 | Community","name_short":"lon-8","host":"lon-1.uk.uncletopia.com","port":27085,"enabled":true,"region":"eu","cc":"gb","latitude":51.509865,"longitude":-0.118092,"reserved":0,"last_update":"0001-01-01T00:00:00Z","name_a2s":"Uncletopia | London | 8 | Community","protocol":17,"map":"pl_swiftwater_final1","folder":"tf","game":"Team Fortress","app_id":440,"player_count":0,"max_players":24,"Bots":0,"server_type":"Dedicated","server_os":"Linux","password":true,"vac":true,"version":"7882260","steam_id":85568392924964315,"keywords":["nocrits","nodmgspread","payload","uncletopia"],"game_id":440,"stv_port":27086,"stv_name":"Uncletopia | London | 8 | Community | STV","players":null},{"server_id":300,"name":"Uncletopia | Montr√©al | 1 | All Maps","name_short":"mtl-1","host":"mtl-1.ca.uncletopia.com","port":27015,"enabled":true,"region":"us-east","cc":"ca","latitude":45.50889,"longitude":-73.56167,"reserved":0,"last_update":"0001-01-01T00:00:00Z","name_a2s":"Uncletopia | Montr√©al | 1 | All Maps","protocol":17,"map":"cp_dustbowl","folder":"tf","game":"Team Fortress","app_id":440,"player_count":0,"max_players":24,"Bots":0,"server_type":"Dedicated","server_os":"Linux","password":true,"vac":true,"version":"7882260","steam_id":85568392924500087,"keywords":["cp","nocrits","nodmgspread","uncletopia"],"game_id":440,"stv_port":27016,"stv_name":"Uncletopia | Montr√©al | 1 | All Maps | STV","players":null},{"server_id":301,"name":"Uncletopia | Montr√©al | 2 | All Maps","name_short":"mtl-2","host":"mtl-1.ca.uncletopia.com","port":27025,"enabled":true,"region":"us-east","cc":"ca","latitude":45.50889,"longitude":-73.56167,"reserved":0,"last_update":"0001-01-01T00:00:00Z","name_a2s":"Uncletopia | Montr√©al | 2 | All Maps","protocol":17,"map":"cp_process_final","folder":"tf","game":"Team Fortress","app_id":440,"player_count":0,"max_players":24,"Bots":0,"server_type":"Dedicated","server_os":"Linux","password":true,"vac":true,"version":"7882260","steam_id":85568392924500088,"keywords":["cp","nocrits","nodmgspread","uncletopia"],"game_id":440,"stv_port":27026,"stv_name":"Uncletopia | Montr√©al | 2 | All Maps | STV","players":null},{"server_id":302,"name":"Uncletopia | Montr√©al | 3 | All Maps","name_short":"mtl-3","host":"mtl-1.ca.uncletopia.com","port":27035,"enabled":true,"region":"us-east","cc":"ca","latitude":45.50889,"longitude":-73.56167,"reserved":0,"last_update":"0001-01-01T00:00:00Z","name_a2s":"Uncletopia | Montr√©al | 3 | All Maps","protocol":17,"map":"koth_viaduct","folder":"tf","game":"Team Fortress","app_id":440,"player_count":0,"max_players":24,"Bots":0,"server_type":"Dedicated","server_os":"Linux","password":true,"vac":true,"version":"7882260","steam_id":85568392924500089,"keywords":["cp","nocrits","nodmgspread","uncletopia"],"game_id":440,"stv_port":27036,"stv_name":"Uncletopia | Montr√©al | 3 | All Maps | STV","players":null},{"server_id":303,"name":"Uncletopia | Montr√©al | 4 | No Payload","name_short":"mtl-4","host":"mtl-1.ca.uncletopia.com","port":27045,"enabled":true,"region":"us-east","cc":"ca","latitude":45.50889,"longitude":-73.56167,"reserved":0,"last_update":"0001-01-01T00:00:00Z","name_a2s":"Uncletopia | Montr√©al | 4 | No Payload","protocol":17,"map":"ctf_doublecross","folder":"tf","game":"Team Fortress","app_id":440,"player_count":0,"max_players":24,"Bots":0,"server_type":"Dedicated","server_os":"Linux","password":true,"vac":true,"version":"7882260","steam_id":85568392924500090,"keywords":["ctf","nocrits","nodmgspread","uncletopia"],"game_id":440,"stv_port":27046,"stv_name":"Uncletopia | Montr√©al | 4 | No Payload | STV","players":null},{"server_id":13,"name":"Uncletopia | New York City | 1 | All Maps","name_short":"nyc-1","host":"nyc-1.us.uncletopia.com","port":27015,"enabled":true,"region":"us-east","cc":"us","latitude":40.73061,"longitude":-73.93524,"reserved":0,"last_update":"0001-01-01T00:00:00Z","name_a2s":"Uncletopia | New York City | 1 | All Maps","protocol":17,"map":"pl_barnblitz","folder":"tf","game":"Team Fortress","app_id":440,"player_count":0,"max_players":24,"Bots":0,"server_type":"Dedicated","server_os":"Linux","password":true,"vac":true,"version":"7882260","steam_id":85568392924469993,"keywords":["nocrits","nodmgspread","payload","uncletopia"],"game_id":440,"stv_port":27016,"stv_name":"Uncletopia | New York City | 1 | All Maps | STV","players":null},{"server_id":14,"name":"Uncletopia | New York City | 2 | All Maps","name_short":"nyc-2","host":"nyc-1.us.uncletopia.com","port":27025,"enabled":true,"region":"us-east","cc":"us","latitude":40.73061,"longitude":-73.93524,"reserved":0,"last_update":"0001-01-01T00:00:00Z","name_a2s":"Uncletopia | New York City | 2 | All Maps","protocol":17,"map":"pl_upward","folder":"tf","game":"Team Fortress","app_id":440,"player_count":2,"max_players":24,"Bots":0,"server_type":"Dedicated","server_os":"Linux","password":true,"vac":true,"version":"7882260","steam_id":85568392924469994,"keywords":["nocrits","nodmgspread","payload","uncletopia"],"game_id":440,"stv_port":27026,"stv_name":"Uncletopia | New York City | 2 | All Maps | STV","players":[{"user_id":870,"name":"Snugglebug Midnight","steam_id":76561198045190355,"connected_time":8834000000000,"state":"active","ping":72},{"user_id":867,"name":"big tiddie deathclaw gf","steam_id":76561198101450925,"connected_time":8986000000000,"state":"active","ping":78}]},{"server_id":15,"name":"Uncletopia | New York City | 3 | Stopwatch Beta","name_short":"nyc-3","host":"nyc-1.us.uncletopia.com","port":27035,"enabled":true,"region":"us-east","cc":"us","latitude":40.73061,"longitude":-73.93524,"reserved":0,"last_update":"0001-01-01T00:00:00Z","name_a2s":"Uncletopia | New York City | 3 | Stopwatch Beta","protocol":17,"map":"pl_borneo","folder":"tf","game":"Team Fortress","app_id":440,"player_count":0,"max_players":24,"Bots":0,"server_type":"Dedicated","server_os":"Linux","password":true,"vac":true,"version":"7882260","steam_id":85568392924742820,"keywords":["nocrits","nodmgspread","payload","uncletopia"],"game_id":440,"stv_port":27036,"stv_name":"Uncletopia | New York City | 3 | Stopwatch Beta | STV","players":null},{"server_id":16,"name":"Uncletopia | New York City | 4 | Community","name_short":"nyc-4","host":"nyc-1.us.uncletopia.com","port":27045,"enabled":true,"region":"us-east","cc":"us","latitude":40.73061,"longitude":-73.93524,"reserved":0,"last_update":"0001-01-01T00:00:00Z","name_a2s":"Uncletopia | New York City | 4 | Community","protocol":17,"map":"pl_badwater","folder":"tf","game":"Team Fortress","app_id":440,"player_count":0,"max_players":24,"Bots":0,"server_type":"Dedicated","server_os":"Linux","password":true,"vac":true,"version":"7882260","steam_id":85568392924742821,"keywords":["nocrits","nodmgspread","payload","uncletopia"],"game_id":440,"stv_port":27046,"stv_name":"Uncletopia | New York City | 4 | Community | STV","players":null},{"server_id":142,"name":"Uncletopia | S√£o Paulo | 1 | All Maps","name_short":"sao-1","host":"sao-1.br.uncletopia.com","port":27015,"enabled":true,"region":"sa","cc":"br","latitude":-23.533773,"longitude":-46.62529,"reserved":0,"last_update":"0001-01-01T00:00:00Z","name_a2s":"Uncletopia | S√£o Paulo | 1 | All Maps","protocol":17,"map":"cp_process_final","folder":"tf","game":"Team Fortress","app_id":440,"player_count":0,"max_players":24,"Bots":0,"server_type":"Dedicated","server_os":"Linux","password":true,"vac":true,"version":"7882260","steam_id":85568392924469996,"keywords":["cp","nocrits","nodmgspread","uncletopia"],"game_id":440,"stv_port":27016,"stv_name":"Uncletopia | S√£o Paulo | 1 | All Maps | STV","players":null},{"server_id":143,"name":"Uncletopia | S√£o Paulo | 2 | All Maps","name_short":"sao-2","host":"sao-2.br.uncletopia.com","port":27015,"enabled":true,"region":"sa","cc":"br","latitude":-23.533773,"longitude":-46.62529,"reserved":0,"last_update":"0001-01-01T00:00:00Z","name_a2s":"Uncletopia | S√£o Paulo | 2 | All Maps","protocol":17,"map":"pl_pier","folder":"tf","game":"Team Fortress","app_id":440,"player_count":0,"max_players":24,"Bots":0,"server_type":"Dedicated","server_os":"Linux","password":true,"vac":true,"version":"7882260","steam_id":85568392924485349,"keywords":["nocrits","nodmgspread","payload","uncletopia"],"game_id":440,"stv_port":27016,"stv_name":"Uncletopia | S√£o Paulo | 2 | All Maps | STV","players":null},{"server_id":7,"name":"Uncletopia | Seattle | 1 | All Maps","name_short":"sea-1","host":"sea-1.us.uncletopia.com","port":27015,"enabled":true,"region":"us-west","cc":"us","latitude":47.608013,"longitude":-122.33517,"reserved":0,"last_update":"0001-01-01T00:00:00Z","name_a2s":"Uncletopia | Seattle | 1 | All Maps","protocol":17,"map":"cp_gorge","folder":"tf","game":"Team Fortress","app_id":440,"player_count":17,"max_players":24,"Bots":0,"server_type":"Dedicated","server_os":"Linux","password":true,"vac":true,"version":"7882260","steam_id":85568392924469997,"keywords":["cp","nocrits","nodmgspread","uncletopia"],"game_id":440,"stv_port":27016,"stv_name":"Uncletopia | Seattle | 1 | All Maps | STV","players":[{"user_id":899,"name":"THAT CAT","steam_id":76561198010828625,"connected_time":6441000000000,"state":"active","ping":45},{"user_id":945,"name":"John Calibur","steam_id":76561197999986606,"connected_time":1769000000000,"state":"active","ping":66},{"user_id":770,"name":"toes","steam_id":76561198221151676,"connected_time":10994000000000,"state":"active","ping":52},{"user_id":938,"name":"Cam","steam_id":76561198285054047,"connected_time":4321000000000,"state":"active","ping":82},{"user_id":955,"name":"Crit","steam_id":76561198854805202,"connected_time":44000000000,"state":"active","ping":69},{"user_id":947,"name":"mega","steam_id":76561198089520959,"connected_time":1034000000000,"state":"active","ping":100},{"user_id":954,"name":"PrairieChilla","steam_id":76561198165094055,"connected_time":85000000000,"state":"active","ping":130},{"user_id":812,"name":"S Q U I S H E  T H A T  C A T","steam_id":76561198293865429,"connected_time":7554000000000,"state":"active","ping":44},{"user_id":777,"name":"Ayayayayayahuasca","steam_id":76561199002906056,"connected_time":9799000000000,"state":"active","ping":45},{"user_id":928,"name":"oil","steam_id":76561198099980149,"connected_time":5300000000000,"state":"active","ping":81},{"user_id":906,"name":"roryisreallyoutofit","steam_id":76561198065825165,"connected_time":6328000000000,"state":"active","ping":95},{"user_id":946,"name":"Beebons","steam_id":76561198170091433,"connected_time":1046000000000,"state":"active","ping":59},{"user_id":939,"name":"resh","steam_id":76561198239598834,"connected_time":4314000000000,"state":"active","ping":125},{"user_id":951,"name":"Fortuitous","steam_id":76561198009121060,"connected_time":528000000000,"state":"active","ping":44},{"user_id":935,"name":"forest (girldick)","steam_id":76561198157960257,"connected_time":4803000000000,"state":"active","ping":44},{"user_id":864,"name":"Level 99 Mudcrab","steam_id":76561198077452771,"connected_time":6987000000000,"state":"active","ping":58},{"user_id":913,"name":"jjorpts","steam_id":76561199041179985,"connected_time":6139000000000,"state":"active","ping":62}]},{"server_id":119,"name":"Uncletopia | Seattle | 2 | All Maps","name_short":"sea-2","host":"sea-1.us.uncletopia.com","port":27025,"enabled":true,"region":"us-west","cc":"us","latitude":47.608013,"longitude":-122.33517,"reserved":0,"last_update":"0001-01-01T00:00:00Z","name_a2s":"Uncletopia | Seattle | 2 | All Maps","protocol":17,"map":"cp_steel","folder":"tf","game":"Team Fortress","app_id":440,"player_count":17,"max_players":24,"Bots":0,"server_type":"Dedicated","server_os":"Linux","password":true,"vac":true,"version":"7882260","steam_id":85568392924469998,"keywords":["cp","nocrits","nodmgspread","uncletopia"],"game_id":440,"stv_port":27026,"stv_name":"Uncletopia | Seattle | 2 | All Maps | STV","players":[{"user_id":636,"name":"Hydramanium","steam_id":76561198799726703,"connected_time":132000000000,"state":"active","ping":76},{"user_id":625,"name":"cracky","steam_id":76561197971365444,"connected_time":1019000000000,"state":"active","ping":40},{"user_id":601,"name":"‚ô¶Benji‚ô¶","steam_id":76561198313529973,"connected_time":2717000000000,"state":"active","ping":39},{"user_id":616,"name":"perc 10","steam_id":76561198116471653,"connected_time":2375000000000,"state":"active","ping":65},{"user_id":633,"name":"hosewater","steam_id":76561198023383126,"connected_time":676000000000,"state":"active","ping":47},{"user_id":563,"name":"Soda","steam_id":76561198219209367,"connected_time":6110000000000,"state":"active","ping":57},{"user_id":626,"name":"Starseeing Oracle","steam_id":76561198097720124,"connected_time":944000000000,"state":"active","ping":145},{"user_id":624,"name":"Yosh","steam_id":76561198027078899,"connected_time":1055000000000,"state":"active","ping":75},{"user_id":635,"name":"Marc G","steam_id":76561198062650363,"connected_time":353000000000,"state":"active","ping":105},{"user_id":623,"name":"feleciad_robinson","steam_id":76561199468304020,"connected_time":1301000000000,"state":"active","ping":95},{"user_id":627,"name":"Willy Wonker","steam_id":76561198082944789,"connected_time":860000000000,"state":"active","ping":79},{"user_id":606,"name":"KOOLAID","steam_id":76561198062775462,"connected_time":2665000000000,"state":"active","ping":71},{"user_id":621,"name":"Handsome Pete","steam_id":76561198003224229,"connected_time":1802000000000,"state":"active","ping":79},{"user_id":629,"name":"HeavenHearst","steam_id":76561198066083947,"connected_time":844000000000,"state":"active","ping":121},{"user_id":618,"name":"Xyvanereth","steam_id":76561198844137326,"connected_time":2232000000000,"state":"active","ping":55},{"user_id":613,"name":"Sweatpants","steam_id":76561198097188001,"connected_time":2592000000000,"state":"active","ping":60},{"user_id":614,"name":"Dunkle","steam_id":76561198041903573,"connected_time":2585000000000,"state":"active","ping":40}]},{"server_id":406,"name":"Uncletopia | Seattle | 3 | Stopwatch Beta","name_short":"sea-3","host":"sea-1.us.uncletopia.com","port":27035,"enabled":true,"region":"us-west","cc":"us","latitude":47.608013,"longitude":-122.33517,"reserved":0,"last_update":"0001-01-01T00:00:00Z","name_a2s":"Uncletopia | Seattle | 3 | Stopwatch Beta","protocol":17,"map":"workshop/koth_ramjam_rc1.ugc459778887","folder":"tf","game":"Team Fortress","app_id":440,"player_count":0,"max_players":24,"Bots":0,"server_type":"Dedicated","server_os":"Linux","password":true,"vac":true,"version":"7882260","steam_id":85568392924515217,"keywords":["cp","nocrits","nodmgspread","uncletopia"],"game_id":440,"stv_port":27036,"stv_name":"Uncletopia | Seattle | 3 | Stopwatch Beta | STV","players":null},{"server_id":17,"name":"Uncletopia | San Francisco | 1 | All Maps","name_short":"sfo-1","host":"sfo-1.us.uncletopia.com","port":27015,"enabled":true,"region":"us-west","cc":"us","latitude":37.77397,"longitude":-122.4313,"reserved":0,"last_update":"0001-01-01T00:00:00Z","name_a2s":"Uncletopia | San Francisco | 1 | All Maps","protocol":17,"map":"cp_process_final","folder":"tf","game":"Team Fortress","app_id":440,"player_count":0,"max_players":24,"Bots":0,"server_type":"Dedicated","server_os":"Linux","password":true,"vac":true,"version":"7757534","steam_id":85568392924469999,"keywords":["cp","nocrits","nodmgspread","uncletopia"],"game_id":440,"stv_port":27016,"stv_name":"Uncletopia | San Francisco | 1 | All Maps | STV","players":null},{"server_id":18,"name":"Uncletopia | San Francisco | 2 | All Maps","name_short":"sfo-2","host":"sfo-1.us.uncletopia.com","port":27025,"enabled":true,"region":"us-west","cc":"us","latitude":37.77397,"longitude":-122.4313,"reserved":0,"last_update":"0001-01-01T00:00:00Z","name_a2s":"Uncletopia | San Francisco | 2 | All Maps","protocol":17,"map":"koth_highpass","folder":"tf","game":"Team Fortress","app_id":440,"player_count":0,"max_players":24,"Bots":0,"server_type":"Dedicated","server_os":"Linux","password":true,"vac":true,"version":"7757534","steam_id":85568392924470000,"keywords":["cp","nocrits","nodmgspread","uncletopia"],"game_id":440,"stv_port":27026,"stv_name":"Uncletopia | San Francisco | 2 | All Maps | STV","players":null},{"server_id":19,"name":"Uncletopia | San Francisco | 3 | Stopwatch Beta","name_short":"sfo-3","host":"sfo-1.us.uncletopia.com","port":27035,"enabled":true,"region":"us-west","cc":"us","latitude":37.77397,"longitude":-122.4313,"reserved":0,"last_update":"0001-01-01T00:00:00Z","name_a2s":"Uncletopia | San Francisco | 3 | Stopwatch Beta","protocol":17,"map":"koth_lakeside_final","folder":"tf","game":"Team Fortress","app_id":440,"player_count":0,"max_players":24,"Bots":0,"server_type":"Dedicated","server_os":"Linux","password":true,"vac":true,"version":"7757534","steam_id":85568392924742824,"keywords":["cp","nocrits","nodmgspread","uncletopia"],"game_id":440,"stv_port":27036,"stv_name":"Uncletopia | San Francisco | 3 | Stopwatch Beta | STV","players":null},{"server_id":20,"name":"Uncletopia | San Francisco | 4 | Community","name_short":"sfo-4","host":"sfo-1.us.uncletopia.com","port":27045,"enabled":true,"region":"us-west","cc":"us","latitude":37.77397,"longitude":-122.4313,"reserved":0,"last_update":"0001-01-01T00:00:00Z","name_a2s":"Uncletopia | San Francisco | 4 | Community","protocol":17,"map":"cp_altitude","folder":"tf","game":"Team Fortress","app_id":440,"player_count":0,"max_players":24,"Bots":0,"server_type":"Dedicated","server_os":"Linux","password":true,"vac":true,"version":"7757534","steam_id":85568392924742826,"keywords":["cp","nocrits","nodmgspread","uncletopia"],"game_id":440,"stv_port":27046,"stv_name":"Uncletopia | San Francisco | 4 | Community | STV","players":null},{"server_id":141,"name":"Uncletopia | Sydney | 1 | All Maps","name_short":"syd-1","host":"syd-1.au.uncletopia.com","port":27015,"enabled":true,"region":"au","cc":"au","latitude":-33.865143,"longitude":151.2099,"reserved":0,"last_update":"0001-01-01T00:00:00Z","name_a2s":"Uncletopia | Sydney | 1 | All Maps","protocol":17,"map":"pl_rumford_event","folder":"tf","game":"Team Fortress","app_id":440,"player_count":24,"max_players":24,"Bots":0,"server_type":"Dedicated","server_os":"Linux","password":true,"vac":true,"version":"7882260","steam_id":85568392924470001,"keywords":["nocrits","nodmgspread","payload","uncletopia"],"game_id":440,"stv_port":27016,"stv_name":"Uncletopia | Sydney | 1 | All Maps | STV","players":[{"user_id":545,"name":"blongus wazongus","steam_id":76561198063481761,"connected_time":96000000000,"state":"active","ping":44},{"user_id":519,"name":"sex man","steam_id":76561198209554691,"connected_time":2203000000000,"state":"active","ping":59},{"user_id":530,"name":"Charikarp","steam_id":76561198132766743,"connected_time":1059000000000,"state":"active","ping":89},{"user_id":539,"name":"Y0shua3","steam_id":76561199381627916,"connected_time":621000000000,"state":"active","ping":124},{"user_id":533,"name":"bread","steam_id":76561199405764106,"connected_time":995000000000,"state":"active","ping":40},{"user_id":504,"name":"voxii","steam_id":76561198099698281,"connected_time":3704000000000,"state":"active","ping":68},{"user_id":547,"name":"C‚àÖRVUS","steam_id":76561198100640019,"connected_time":7000000000,"state":"spawning","ping":232},{"user_id":546,"name":"Scorchinq","steam_id":76561198169423722,"connected_time":89000000000,"state":"active","ping":45},{"user_id":488,"name":"NollReed","steam_id":76561198098501571,"connected_time":4428000000000,"state":"active","ping":80},{"user_id":542,"name":"Cardboard (No mic gamer)","steam_id":76561199099769110,"connected_time":515000000000,"state":"active","ping":54},{"user_id":509,"name":"Kremmen","steam_id":76561198051368641,"connected_time":3305000000000,"state":"active","ping":63},{"user_id":529,"name":"WOMB4T","steam_id":76561198809819723,"connected_time":1080000000000,"state":"active","ping":73},{"user_id":484,"name":"Pickled Possum","steam_id":76561197995845352,"connected_time":4530000000000,"state":"active","ping":92},{"user_id":486,"name":"DragRiper","steam_id":76561198050917553,"connected_time":4470000000000,"state":"active","ping":59},{"user_id":543,"name":"FrOStY","steam_id":76561198088155805,"connected_time":201000000000,"state":"active","ping":83},{"user_id":522,"name":"goob","steam_id":76561199480479443,"connected_time":1735000000000,"state":"active","ping":85},{"user_id":528,"name":"smite","steam_id":76561198845304189,"connected_time":1085000000000,"state":"active","ping":83},{"user_id":499,"name":"PieMuncher","steam_id":76561198107221185,"connected_time":4111000000000,"state":"active","ping":71},{"user_id":535,"name":"JustGaming","steam_id":76561198086431902,"connected_time":973000000000,"state":"active","ping":51},{"user_id":525,"name":"holy frijoles","steam_id":76561198043903958,"connected_time":1694000000000,"state":"active","ping":59},{"user_id":538,"name":"Ling Ling From QLD","steam_id":76561198087759879,"connected_time":796000000000,"state":"active","ping":55},{"user_id":537,"name":"Jdn","steam_id":76561198293079232,"connected_time":870000000000,"state":"active","ping":65},{"user_id":513,"name":"CrowPBS1 PC","steam_id":76561198943274401,"connected_time":2559000000000,"state":"active","ping":97},{"user_id":501,"name":"Rivers Cuomo","steam_id":76561198814458512,"connected_time":3989000000000,"state":"active","ping":82}]},{"server_id":123,"name":"Uncletopia | Sydney | 2 | All Maps","name_short":"syd-2","host":"syd-1.au.uncletopia.com","port":27025,"enabled":true,"region":"au","cc":"au","latitude":-33.865143,"longitude":151.2099,"reserved":0,"last_update":"0001-01-01T00:00:00Z","name_a2s":"Uncletopia | Sydney | 2 | All Maps","protocol":17,"map":"pl_rumford_event","folder":"tf","game":"Team Fortress","app_id":440,"player_count":23,"max_players":24,"Bots":0,"server_type":"Dedicated","server_os":"Linux","password":true,"vac":true,"version":"7882260","steam_id":85568392924470002,"keywords":["nocrits","nodmgspread","payload","uncletopia"],"game_id":440,"stv_port":27026,"stv_name":"Uncletopia | Sydney | 2 | All Maps | STV","players":[{"user_id":420,"name":"Flash","steam_id":76561198116748729,"connected_time":623000000000,"state":"active","ping":89},{"user_id":394,"name":"perturb (feed/seed)","steam_id":76561198085124297,"connected_time":2404000000000,"state":"active","ping":47},{"user_id":417,"name":"Snowy","steam_id":76561198255720598,"connected_time":682000000000,"state":"active","ping":54},{"user_id":422,"name":"jim :)","steam_id":76561198127508905,"connected_time":600000000000,"state":"active","ping":38},{"user_id":415,"name":"Didgereedank","steam_id":76561198043068128,"connected_time":695000000000,"state":"active","ping":42},{"user_id":346,"name":"SUSHIMAN","steam_id":76561199089989428,"connected_time":6958000000000,"state":"active","ping":83},{"user_id":423,"name":"YOU'RE WRONG ! SULFIRIC ACID!","steam_id":76561199174449723,"connected_time":549000000000,"state":"active","ping":157},{"user_id":424,"name":"R","steam_id":76561197996963023,"connected_time":545000000000,"state":"active","ping":68},{"user_id":428,"name":"Zieria","steam_id":76561199261811388,"connected_time":368000000000,"state":"active","ping":39},{"user_id":425,"name":"mmmmm (microwave)","steam_id":76561198066726621,"connected_time":521000000000,"state":"active","ping":53},{"user_id":348,"name":"doctor sex (she/her)","steam_id":76561199076015267,"connected_time":6647000000000,"state":"active","ping":63},{"user_id":401,"name":"seiran","steam_id":76561198880907232,"connected_time":2290000000000,"state":"active","ping":104},{"user_id":419,"name":"average nothing enjoyer","steam_id":76561198302936089,"connected_time":663000000000,"state":"active","ping":70},{"user_id":405,"name":"RustyMeat","steam_id":76561198119162442,"connected_time":2015000000000,"state":"active","ping":74},{"user_id":426,"name":"Vanessa","steam_id":76561198077728992,"connected_time":484000000000,"state":"active","ping":66},{"user_id":412,"name":"BruceWillis235","steam_id":76561198884324029,"connected_time":1364000000000,"state":"active","ping":92},{"user_id":429,"name":"flatty 500 champion","steam_id":76561198195519834,"connected_time":349000000000,"state":"active","ping":45},{"user_id":377,"name":"Tiggerex","steam_id":76561198049006869,"connected_time":2844000000000,"state":"active","ping":106},{"user_id":367,"name":"yarbinator","steam_id":76561198204678828,"connected_time":3783000000000,"state":"active","ping":55},{"user_id":309,"name":"Sentry Gun (EpicGuy4227)","steam_id":76561198094132328,"connected_time":10033000000000,"state":"active","ping":46},{"user_id":381,"name":"Warren","steam_id":76561198120350917,"connected_time":2755000000000,"state":"active","ping":43},{"user_id":430,"name":"\u003e:FrozenDragon:\u003c","steam_id":76561198227960928,"connected_time":318000000000,"state":"active","ping":102},{"user_id":248,"name":"Jodelk√∂nig Franzl Lang","steam_id":76561198007667830,"connected_time":14266000000000,"state":"active","ping":56}]},{"server_id":395,"name":"Uncletopia | Sydney | 3 | All Maps","name_short":"syd-3","host":"syd-1.au.uncletopia.com","port":27035,"enabled":true,"region":"au","cc":"au","latitude":-33.865143,"longitude":151.2099,"reserved":0,"last_update":"0001-01-01T00:00:00Z","name_a2s":"Uncletopia | Sydney | 3 | All Maps","protocol":17,"map":"koth_highpass","folder":"tf","game":"Team Fortress","app_id":440,"player_count":0,"max_players":24,"Bots":0,"server_type":"Dedicated","server_os":"Linux","password":true,"vac":true,"version":"7882260","steam_id":85568392925194467,"keywords":["cp","nocrits","nodmgspread","uncletopia"],"game_id":440,"stv_port":27036,"stv_name":"Uncletopia | Sydney | 3 | All Maps | STV","players":null},{"server_id":396,"name":"Uncletopia | Sydney | 4 | All Maps","name_short":"syd-4","host":"syd-1.au.uncletopia.com","port":27045,"enabled":true,"region":"au","cc":"au","latitude":-33.865143,"longitude":151.2099,"reserved":0,"last_update":"0001-01-01T00:00:00Z","name_a2s":"Uncletopia | Sydney | 4 | All Maps","protocol":17,"map":"koth_viaduct","folder":"tf","game":"Team Fortress","app_id":440,"player_count":9,"max_players":24,"Bots":0,"server_type":"Dedicated","server_os":"Linux","password":true,"vac":true,"version":"7882260","steam_id":85568392925397958,"keywords":["cp","nocrits","nodmgspread","uncletopia"],"game_id":440,"stv_port":27046,"stv_name":"Uncletopia | Sydney | 4 | All Maps | STV","players":[{"user_id":35,"name":"ziah","steam_id":76561198159375596,"connected_time":538000000000,"state":"active","ping":58},{"user_id":16,"name":"mixyad3","steam_id":76561198046461767,"connected_time":2308000000000,"state":"active","ping":60},{"user_id":37,"name":"jv","steam_id":76561198267475132,"connected_time":342000000000,"state":"active","ping":57},{"user_id":18,"name":"emo tom.","steam_id":76561198332850708,"connected_time":1938000000000,"state":"active","ping":65},{"user_id":20,"name":"Nah moment","steam_id":76561198869190432,"connected_time":1675000000000,"state":"active","ping":55},{"user_id":24,"name":"certified girl kisser","steam_id":76561198163369325,"connected_time":1078000000000,"state":"active","ping":32},{"user_id":39,"name":"heather","steam_id":76561198145136439,"connected_time":76000000000,"state":"active","ping":56},{"user_id":38,"name":"MrSnoly","steam_id":76561199474418098,"connected_time":227000000000,"state":"active","ping":73},{"user_id":33,"name":"Alex","steam_id":76561198020099643,"connected_time":703000000000,"state":"active","ping":65}]},{"server_id":58,"name":"Uncletopia | Sydney | 5 | Stopwatch Beta","name_short":"syd-5","host":"syd-1.au.uncletopia.com","port":27055,"enabled":true,"region":"au","cc":"au","latitude":-33.865143,"longitude":151.2099,"reserved":0,"last_update":"0001-01-01T00:00:00Z","name_a2s":"Uncletopia | Sydney | 5 | Stopwatch Beta","protocol":17,"map":"cp_snakewater_final1","folder":"tf","game":"Team Fortress","app_id":440,"player_count":0,"max_players":24,"Bots":0,"server_type":"Dedicated","server_os":"Linux","password":true,"vac":true,"version":"7882260","steam_id":85568392925397959,"keywords":["cp","nocrits","nodmgspread","uncletopia"],"game_id":440,"stv_port":27056,"stv_name":"Uncletopia | Sydney | 5 | Stopwatch Beta | STV","players":null},{"server_id":59,"name":"Uncletopia | Sydney | 6 | Community","name_short":"syd-6","host":"syd-1.au.uncletopia.com","port":27065,"enabled":true,"region":"au","cc":"au","latitude":-33.865143,"longitude":151.2099,"reserved":0,"last_update":"0001-01-01T00:00:00Z","name_a2s":"Uncletopia | Sydney | 6 | Community","protocol":17,"map":"workshop/koth_product_final.ugc454272353","folder":"tf","game":"Team Fortress","app_id":440,"player_count":0,"max_players":24,"Bots":0,"server_type":"Dedicated","server_os":"Linux","password":true,"vac":true,"version":"7882260","steam_id":85568392925397960,"keywords":["cp","nocrits","nodmgspread","uncletopia"],"game_id":440,"stv_port":27066,"stv_name":"Uncletopia | Sydney | 6 | Community | STV","players":null},{"server_id":49,"name":"Uncletopia | Warsaw | 1 | All Maps","name_short":"waw-1","host":"waw-1.pl.uncletopia.com","port":27015,"enabled":true,"region":"eu","cc":"pl","latitude":52.2297,"longitude":21.017532,"reserved":0,"last_update":"0001-01-01T00:00:00Z","name_a2s":"","protocol":0,"map":"","folder":"","game":"","app_id":0,"player_count":0,"max_players":0,"Bots":0,"server_type":"","server_os":"","password":false,"vac":false,"version":"","steam_id":0,"keywords":null,"game_id":0,"stv_port":0,"stv_name":"","players":null},{"server_id":50,"name":"Uncletopia | Warsaw | 2 | All Maps","name_short":"waw-2","host":"waw-1.pl.uncletopia.com","port":27025,"enabled":true,"region":"eu","cc":"pl","latitude":52.2297,"longitude":21.017532,"reserved":0,"last_update":"0001-01-01T00:00:00Z","name_a2s":"Uncletopia | Warsaw | 2 | All Maps","protocol":17,"map":"pl_swiftwater_final1","folder":"tf","game":"Team Fortress","app_id":440,"player_count":0,"max_players":24,"Bots":0,"server_type":"Dedicated","server_os":"Linux","password":true,"vac":true,"version":"7882260","steam_id":85568392925397851,"keywords":["nocrits","nodmgspread","payload","uncletopia"],"game_id":440,"stv_port":27026,"stv_name":"Uncletopia | Warsaw | 2 | All Maps | STV","players":null},{"server_id":51,"name":"Uncletopia | Warsaw | 3 | All Maps","name_short":"waw-3","host":"waw-1.pl.uncletopia.com","port":27035,"enabled":true,"region":"eu","cc":"pl","latitude":52.2297,"longitude":21.017532,"reserved":0,"last_update":"0001-01-01T00:00:00Z","name_a2s":"Uncletopia | Warsaw | 3 | All Maps","protocol":17,"map":"koth_viaduct","folder":"tf","game":"Team Fortress","app_id":440,"player_count":0,"max_players":24,"Bots":0,"server_type":"Dedicated","server_os":"Linux","password":true,"vac":true,"version":"7882260","steam_id":85568392925397852,"keywords":["cp","nocrits","nodmgspread","uncletopia"],"game_id":440,"stv_port":27036,"stv_name":"Uncletopia | Warsaw | 3 | All Maps | STV","players":null},{"server_id":52,"name":"Uncletopia | Warsaw | 4 | All Maps","name_short":"waw-4","host":"waw-1.pl.uncletopia.com","port":27045,"enabled":true,"region":"eu","cc":"pl","latitude":52.2297,"longitude":21.017532,"reserved":0,"last_update":"0001-01-01T00:00:00Z","name_a2s":"Uncletopia | Warsaw | 4 | All Maps","protocol":17,"map":"koth_highpass","folder":"tf","game":"Team Fortress","app_id":440,"player_count":0,"max_players":24,"Bots":0,"server_type":"Dedicated","server_os":"Linux","password":true,"vac":true,"version":"7882260","steam_id":85568392925397853,"keywords":["cp","nocrits","nodmgspread","uncletopia"],"game_id":440,"stv_port":27046,"stv_name":"Uncletopia | Warsaw | 4 | All Maps | STV","players":null},{"server_id":53,"name":"Uncletopia | Warsaw | 5 | Stopwatch Beta","name_short":"waw-5","host":"waw-1.pl.uncletopia.com","port":27055,"enabled":true,"region":"eu","cc":"pl","latitude":52.2297,"longitude":21.017532,"reserved":0,"last_update":"0001-01-01T00:00:00Z","name_a2s":"Uncletopia | Warsaw | 5 | Stopwatch Beta","protocol":17,"map":"cp_gullywash_final1","folder":"tf","game":"Team Fortress","app_id":440,"player_count":0,"max_players":24,"Bots":0,"server_type":"Dedicated","server_os":"Linux","password":true,"vac":true,"version":"7882260","steam_id":85568392925397854,"keywords":["cp","nocrits","nodmgspread","uncletopia"],"game_id":440,"stv_port":27056,"stv_name":"Uncletopia | Warsaw | 5 | Stopwatch Beta | STV","players":null},{"server_id":54,"name":"Uncletopia | Warsaw | 6 | Community","name_short":"waw-6","host":"waw-1.pl.uncletopia.com","port":27065,"enabled":true,"region":"eu","cc":"pl","latitude":52.2297,"longitude":21.017532,"reserved":0,"last_update":"0001-01-01T00:00:00Z","name_a2s":"Uncletopia | Warsaw | 6 | Community","protocol":17,"map":"koth_viaduct","folder":"tf","game":"Team Fortress","app_id":440,"player_count":0,"max_players":24,"Bots":0,"server_type":"Dedicated","server_os":"Linux","password":true,"vac":true,"version":"7882260","steam_id":85568392925397856,"keywords":["cp","nocrits","nodmgspread","uncletopia"],"game_id":440,"stv_port":27066,"stv_name":"Uncletopia | Warsaw | 6 | Community | STV","players":null}]}