{"status":true,"message":"","result":[{"server_id":9,"name":"Uncletopia | Atlanta | 1 | All Maps","name_short":"atl-1","host":"atl-1.us.uncletopia.com","port":27015,"enabled":true,"region":"us-east","cc":"us","latitude":33.753746,"longitude":-84.38633,"reserved":0,"last_update":"0001-01-01T00:00:00Z","name_a2s":"Uncletopia | Atlanta | 1 | All Maps","protocol":17,"map":"pl_borneo","folder":"tf","game":"Team Fortress","app_id":440,"player_count":24,"max_players":24,"Bots":0,"server_type":"Dedicated","server_os":"Linux","password":true,"vac":true,"version":"7961495","steam_id":85568392924469982,"keywords":["nocrits","nodmgspread","payload","uncletopia"],"game_id":440,"stv_port":27016,"stv_name":"Uncletopia | Atlanta | 1 | All Maps | STV","players":null},{"server_id":104,"name":"Uncletopia | Atlanta | 2 | All Maps","name_short":"atl-2","host":"atl-1.us.uncletopia.com","port":27025,"enabled":true,"region":"us-east","cc":"us","latitude":33.753746,"longitude":-84.38633,"reserved":0,"last_update":"0001-01-01T00:00:00Z","name_a2s":"Uncletopia | Atlanta | 2 | All Maps","protocol":17,"map":"pl_frontier_final","folder":"tf","game":"Team Fortress","app_id":440,"player_count":22,"max_players":24,"Bots":0,"server_type":"Dedicated","server_os":"Linux","password":true,"vac":true,"version":"7961495","steam_id":85568392924469983,"keywords":["nocrits","nodmgspread","payload","uncletopia"],"game_id":440,"stv_port":27026,"stv_name":"Uncletopia | Atlanta | 2 | All Maps | STV","players":null},{"server_id":400,"name":"Uncletopia | Atlanta | 3 | Stopwatch","name_short":"atl-3","host":"atl-1.us.uncletopia.com","port":27035,"enabled":true,"region":"us-east","cc":"us","latitude":33.753746,"longitude":-84.38633,"reserved":0,"last_update":"0001-01-01T00:00:00Z","name_a2s":"Uncletopia | Atlanta | 3 | Stopwatch","protocol":17,"map":"koth_highpass","folder":"tf","game":"Team Fortress","app_id":440,"player_count":0,"max_players":24,"Bots":0,"server_type":"Dedicated","server_os":"Linux","password":true,"vac":true,"version":"7961495","steam_id":85568392924515187,"keywords":["cp","nocrits","nodmgspread","uncletopia"],"game_id":440,"stv_port":27036,"stv_name":"Uncletopia | Atlanta | 3 | Stopwatch | STV","players":null},{"server_id":401,"name":"Uncletopia | Atlanta | 4 | Community","name_short":"atl-4","host":"atl-1.us.uncletopia.com","port":27045,"enabled":true,"region":"us-east","cc":"us","latitude":33.753746,"longitude":-84.38633,"reserved":0,"last_update":"0001-01-01T00:00:00Z","name_a2s":"Uncletopia | Atlanta | 4 | Community","protocol":17,"map":"koth_product_final","folder":"tf","game":"Team Fortress","app_id":440,"player_count":0,"max_players":24,"Bots":0,"server_type":"Dedicated","server_os":"Linux","password":true,"vac":true,"version":"7961495","steam_id":85568392924515188,"keywords":["cp","nocrits","nodmgspread","uncletopia"],"game_id":440,"stv_port":27046,"stv_name":"Uncletopia | Atlanta | 4 | Community | STV","players":null},{"server_id":2,"name":"Uncletopia | Chicago | 1 | All Maps","name_short":"chi-1","host":"chi-1.us.uncletopia.com","port":27015,"enabled":true,"region":"us-central","cc":"us","latitude":41.881832,"longitude":-87.62318,"reserved":0,"last_update":"0001-01-01T00:00:00Z","name_a2s":"Uncletopia | Chicago | 1 | All Maps","protocol":17,"map":"pl_thundermountain","folder":"tf","game":"Team Fortress","app_id":440,"player_count":24,"max_players":24,"Bots":0,"server_type":"Dedicated","server_os":"Linux","password":true,"vac":true,"version":"7961495","steam_id":85568392924469984,"keywords":["nocrits","nodmgspread","payload","uncletopia"],"game_id":440,"stv_port":27016,"stv_name":"Uncletopia | Chicago | 1 | All Maps | STV","players":[{"user_id":621,"name":"loscemo","steam_id":76561197994884609,"connected_time":237000000000,"state":"active","ping":65},{"user_id":610,"name":"Laogh Marbh","steam_id":76561198115240256,"connected_time":773000000000,"state":"active","ping":57},{"user_id":617,"name":"edwinbrood","steam_id":76561198044848769,"connected_time":521000000000,"state":"active","ping":65},{"user_id":602,"name":"Chilihuahua","steam_id":76561198004929152,"connected_time":1014000000000,"state":"active","ping":115},{"user_id":586,"name":"Heathcliff","steam_id":76561198044288534,"connected_time":2222000000000,"state":"active","ping":90},{"user_id":607,"name":"GamingJuice42","steam_id":76561198110469437,"connected_time":821000000000,"state":"active","ping":60},{"user_id":583,"name":"Papahemmy","steam_id":76561198155470810,"connected_time":2481000000000,"state":"active","ping":65},{"user_id":556,"name":"thecal","steam_id":76561198307893384,"connected_time":4116000000000,"state":"active","ping":52},{"user_id":612,"name":"Bewen","steam_id":76561198325334261,"connected_time":743000000000,"state":"active","ping":61},{"user_id":587,"name":"Space Lizard","steam_id":76561198056798193,"connected_time":2185000000000,"state":"active","ping":78},{"user_id":592,"name":"Moss","steam_id":76561199122200727,"connected_time":1533000000000,"state":"active","ping":71},{"user_id":615,"name":"big steve","steam_id":76561199037050183,"connected_time":538000000000,"state":"active","ping":85},{"user_id":605,"name":"Bee","steam_id":76561198074681324,"connected_time":905000000000,"state":"active","ping":63},{"user_id":540,"name":"SPIRE_FAN","steam_id":76561198001486573,"connected_time":6387000000000,"state":"active","ping":69},{"user_id":616,"name":"your local forecast","steam_id":76561198042243083,"connected_time":535000000000,"state":"active","ping":60},{"user_id":604,"name":"Ellis McGruber","steam_id":76561198060739536,"connected_time":943000000000,"state":"active","ping":76},{"user_id":577,"name":"Minus 8","steam_id":76561198812090491,"connected_time":2851000000000,"state":"active","ping":128},{"user_id":601,"name":"Beepleton The 3rd","steam_id":76561198081466207,"connected_time":1090000000000,"state":"active","ping":86},{"user_id":477,"name":"VisibleForce","steam_id":76561198104178938,"connected_time":10162000000000,"state":"active","ping":78},{"user_id":545,"name":"Swiftmend","steam_id":76561197995595692,"connected_time":4764000000000,"state":"active","ping":77},{"user_id":589,"name":"Hobo Ninja","steam_id":76561198029755261,"connected_time":2066000000000,"state":"active","ping":50},{"user_id":575,"name":"Catherine","steam_id":76561198125233120,"connected_time":2947000000000,"state":"active","ping":101},{"user_id":614,"name":"jayhong","steam_id":76561198046772832,"connected_time":712000000000,"state":"active","ping":39},{"user_id":620,"name":"ATL1 Lavender","steam_id":76561198825997674,"connected_time":358000000000,"state":"active","ping":77}]},{"server_id":106,"name":"Uncletopia | Chicago | 2 | All Maps","name_short":"chi-2","host":"chi-1.us.uncletopia.com","port":27025,"enabled":true,"region":"us-central","cc":"us","latitude":41.881832,"longitude":-87.62318,"reserved":0,"last_update":"0001-01-01T00:00:00Z","name_a2s":"Uncletopia | Chicago | 2 | All Maps","protocol":17,"map":"cp_mountainlab","folder":"tf","game":"Team Fortress","app_id":440,"player_count":24,"max_players":24,"Bots":0,"server_type":"Dedicated","server_os":"Linux","password":true,"vac":true,"version":"7961495","steam_id":85568392924469985,"keywords":["cp","nocrits","nodmgspread","uncletopia"],"game_id":440,"stv_port":27026,"stv_name":"Uncletopia | Chicago | 2 | All Maps | STV","players":[{"user_id":458,"name":"kefkja","steam_id":76561198283963218,"connected_time":2152000000000,"state":"active","ping":48},{"user_id":485,"name":"K.O. Stradivarius","steam_id":76561198974913245,"connected_time":494000000000,"state":"active","ping":73},{"user_id":482,"name":"Lydians","steam_id":76561198057985908,"connected_time":698000000000,"state":"active","ping":71},{"user_id":410,"name":"Deathpill","steam_id":76561197994404793,"connected_time":5205000000000,"state":"active","ping":75},{"user_id":461,"name":"Deathor","steam_id":76561198072960817,"connected_time":1957000000000,"state":"active","ping":69},{"user_id":483,"name":"Bronze Age Furvert","steam_id":76561198859118263,"connected_time":636000000000,"state":"active","ping":60},{"user_id":486,"name":"My 600 lbs gaming","steam_id":76561198027968822,"connected_time":198000000000,"state":"active","ping":91},{"user_id":484,"name":"stormfoam","steam_id":76561198936871387,"connected_time":594000000000,"state":"active","ping":59},{"user_id":463,"name":"cheeser","steam_id":76561198281772700,"connected_time":1951000000000,"state":"active","ping":62},{"user_id":474,"name":"3/4'' x 18'' industrial pipe","steam_id":76561198094042613,"connected_time":955000000000,"state":"active","ping":70},{"user_id":460,"name":"P.C. Baby","steam_id":76561198067011379,"connected_time":1974000000000,"state":"active","ping":115},{"user_id":448,"name":"gendermutt","steam_id":76561198152857317,"connected_time":2823000000000,"state":"active","ping":55},{"user_id":478,"name":"Uplego13","steam_id":76561198135415659,"connected_time":864000000000,"state":"active","ping":139},{"user_id":459,"name":"๖ۣۜMagic","steam_id":76561199272962550,"connected_time":1985000000000,"state":"active","ping":80},{"user_id":455,"name":"igotmail","steam_id":76561198070631899,"connected_time":2459000000000,"state":"active","ping":64},{"user_id":466,"name":"WitheringLeo","steam_id":76561198046722918,"connected_time":1907000000000,"state":"active","ping":75},{"user_id":480,"name":"CJDGuy","steam_id":76561198213009545,"connected_time":832000000000,"state":"active","ping":49},{"user_id":443,"name":"CherriKat","steam_id":76561198821297512,"connected_time":3520000000000,"state":"active","ping":100},{"user_id":465,"name":"19th Cowboy","steam_id":76561198166454148,"connected_time":1932000000000,"state":"active","ping":86},{"user_id":444,"name":"Sanuary","steam_id":76561198075597588,"connected_time":3445000000000,"state":"active","ping":50},{"user_id":467,"name":"Daksuki","steam_id":76561198084127751,"connected_time":1902000000000,"state":"active","ping":76},{"user_id":395,"name":"Sneerful","steam_id":76561198032663494,"connected_time":7058000000000,"state":"active","ping":75},{"user_id":468,"name":"ThePopularLoner3334","steam_id":76561198202436474,"connected_time":1896000000000,"state":"active","ping":60},{"user_id":481,"name":"Shuu","steam_id":76561199199180558,"connected_time":807000000000,"state":"active","ping":62}]},{"server_id":402,"name":"Uncletopia | Chicago | 3 | All Maps","name_short":"chi-3","host":"chi-1.us.uncletopia.com","port":27035,"enabled":true,"region":"us-central","cc":"us","latitude":41.881832,"longitude":-87.62318,"reserved":0,"last_update":"0001-01-01T00:00:00Z","name_a2s":"Uncletopia | Chicago | 3 | All Maps","protocol":17,"map":"pl_upward","folder":"tf","game":"Team Fortress","app_id":440,"player_count":24,"max_players":24,"Bots":0,"server_type":"Dedicated","server_os":"Linux","password":true,"vac":true,"version":"7961495","steam_id":85568392924515191,"keywords":["nocrits","nodmgspread","payload","uncletopia"],"game_id":440,"stv_port":27036,"stv_name":"Uncletopia | Chicago | 3 | All Maps | STV","players":[{"user_id":608,"name":"my kneecap cartilage is eroding","steam_id":76561198012126625,"connected_time":3840000000000,"state":"active","ping":62},{"user_id":625,"name":"nomis","steam_id":76561198115367704,"connected_time":2121000000000,"state":"active","ping":80},{"user_id":629,"name":"Pluto","steam_id":76561198338593690,"connected_time":1665000000000,"state":"active","ping":83},{"user_id":630,"name":"Lorberry","steam_id":76561198023706058,"connected_time":1664000000000,"state":"active","ping":30},{"user_id":647,"name":"Biscipline","steam_id":76561198019206178,"connected_time":108000000000,"state":"active","ping":76},{"user_id":648,"name":"Tired","steam_id":76561198072620682,"connected_time":102000000000,"state":"active","ping":77},{"user_id":631,"name":"Hunt0rb","steam_id":76561198120527608,"connected_time":1614000000000,"state":"active","ping":56},{"user_id":633,"name":"chikmslaad","steam_id":76561198871478705,"connected_time":1580000000000,"state":"active","ping":66},{"user_id":649,"name":"laaghice","steam_id":76561198274021552,"connected_time":96000000000,"state":"active","ping":74},{"user_id":634,"name":"Jousty","steam_id":76561199162677853,"connected_time":1574000000000,"state":"active","ping":94},{"user_id":637,"name":"samb0","steam_id":76561198055876337,"connected_time":1509000000000,"state":"active","ping":77},{"user_id":635,"name":"OrionKid","steam_id":76561198359094901,"connected_time":1568000000000,"state":"active","ping":63},{"user_id":645,"name":"Shitsack the Indomitable","steam_id":76561198408159536,"connected_time":968000000000,"state":"active","ping":46},{"user_id":646,"name":"Withered Bonnie (Real)","steam_id":76561198423310113,"connected_time":173000000000,"state":"active","ping":76},{"user_id":565,"name":"cart","steam_id":76561198253731826,"connected_time":7089000000000,"state":"active","ping":65},{"user_id":639,"name":"Booty Woyer","steam_id":76561198168852050,"connected_time":1498000000000,"state":"active","ping":72},{"user_id":640,"name":"StormyBoyo","steam_id":76561198273482774,"connected_time":1482000000000,"state":"active","ping":88},{"user_id":651,"name":"CyborgHexapus4","steam_id":76561198160335724,"connected_time":78000000000,"state":"active","ping":101},{"user_id":641,"name":"[BU773T\u003e","steam_id":76561197991671942,"connected_time":1465000000000,"state":"active","ping":97},{"user_id":652,"name":"Mongoose","steam_id":76561198020361641,"connected_time":76000000000,"state":"active","ping":112},{"user_id":653,"name":"Natsuki the Scunt","steam_id":76561199175922684,"connected_time":70000000000,"state":"active","ping":107},{"user_id":616,"name":"Mom","steam_id":76561198207936000,"connected_time":2967000000000,"state":"active","ping":92},{"user_id":609,"name":"Shorty","steam_id":76561198044873248,"connected_time":3401000000000,"state":"active","ping":45},{"user_id":624,"name":"pilot914","steam_id":76561199146198862,"connected_time":2427000000000,"state":"active","ping":85}]},{"server_id":403,"name":"Uncletopia | Chicago | 4 | All Maps","name_short":"chi-4","host":"chi-1.us.uncletopia.com","port":27045,"enabled":true,"region":"us-central","cc":"us","latitude":41.881832,"longitude":-87.62318,"reserved":0,"last_update":"0001-01-01T00:00:00Z","name_a2s":"Uncletopia | Chicago | 4 | All Maps","protocol":17,"map":"pl_swiftwater_final1","folder":"tf","game":"Team Fortress","app_id":440,"player_count":24,"max_players":24,"Bots":0,"server_type":"Dedicated","server_os":"Linux","password":true,"vac":true,"version":"7961495","steam_id":85568392924515193,"keywords":["nocrits","nodmgspread","payload","uncletopia"],"game_id":440,"stv_port":27046,"stv_name":"Uncletopia | Chicago | 4 | All Maps | STV","players":[{"user_id":640,"name":"leeeeeeeeeeeeeeeeeeeeeeeeeee","steam_id":76561199083322731,"connected_time":247000000000,"state":"active","ping":89},{"user_id":615,"name":"Saikou!!!","steam_id":76561198044045406,"connected_time":3252000000000,"state":"active","ping":74},{"user_id":631,"name":"Hidden Phantom","steam_id":76561198115531799,"connected_time":441000000000,"state":"active","ping":72},{"user_id":593,"name":"Calryan","steam_id":76561198060080966,"connected_time":4827000000000,"state":"active","ping":90},{"user_id":595,"name":"Space⭐Taffy","steam_id":76561198002271720,"connected_time":4806000000000,"state":"active","ping":70},{"user_id":644,"name":"mrappledumb","steam_id":76561199133590774,"connected_time":186000000000,"state":"active","ping":80},{"user_id":632,"name":"darkerogamer","steam_id":76561198341101156,"connected_time":441000000000,"state":"active","ping":116},{"user_id":613,"name":"drugger. (makster implant)","steam_id":76561198353463585,"connected_time":3460000000000,"state":"active","ping":70},{"user_id":620,"name":"EpicNGamerz","steam_id":76561198304292582,"connected_time":2832000000000,"state":"active","ping":139},{"user_id":629,"name":"HannibalTheCannibal","steam_id":76561198193673982,"connected_time":530000000000,"state":"active","ping":54},{"user_id":633,"name":"pHsHy","steam_id":76561198013195018,"connected_time":413000000000,"state":"active","ping":80},{"user_id":634,"name":"Egg","steam_id":76561198028157625,"connected_time":357000000000,"state":"active","ping":87},{"user_id":575,"name":"Cosmic sR","steam_id":76561198081738675,"connected_time":5767000000000,"state":"active","ping":80},{"user_id":635,"name":"butchersnake","steam_id":76561198162618469,"connected_time":347000000000,"state":"active","ping":59},{"user_id":626,"name":"Mayan","steam_id":76561198087915957,"connected_time":1612000000000,"state":"active","ping":47},{"user_id":636,"name":"Joe Rogan in the Backrooms","steam_id":76561198066143780,"connected_time":316000000000,"state":"active","ping":79},{"user_id":637,"name":"Storm Avenger","steam_id":76561198326327367,"connected_time":303000000000,"state":"active","ping":80},{"user_id":645,"name":"Omega Move","steam_id":76561198031577205,"connected_time":156000000000,"state":"active","ping":78},{"user_id":628,"name":"could you care less?","steam_id":76561199122183697,"connected_time":769000000000,"state":"active","ping":72},{"user_id":641,"name":"SpongedSocks","steam_id":76561198374009086,"connected_time":230000000000,"state":"active","ping":70},{"user_id":605,"name":"jimmyfnaf172198yay","steam_id":76561198311446636,"connected_time":4343000000000,"state":"active","ping":64},{"user_id":642,"name":"J3X","steam_id":76561198184753858,"connected_time":211000000000,"state":"active","ping":103},{"user_id":618,"name":"Boof","steam_id":76561198054806250,"connected_time":3055000000000,"state":"active","ping":91},{"user_id":606,"name":"epix","steam_id":76561198354108114,"connected_time":4226000000000,"state":"active","ping":87}]},{"server_id":36,"name":"Uncletopia | Chicago | 5 | All Maps","name_short":"chi-5","host":"chi-2.us.uncletopia.com","port":27015,"enabled":true,"region":"us-central","cc":"us","latitude":41.881832,"longitude":-87.62318,"reserved":0,"last_update":"0001-01-01T00:00:00Z","name_a2s":"Uncletopia | Chicago | 5 | All Maps","protocol":17,"map":"pl_borneo","folder":"tf","game":"Team Fortress","app_id":440,"player_count":24,"max_players":24,"Bots":0,"server_type":"Dedicated","server_os":"Linux","password":true,"vac":true,"version":"7961495","steam_id":85568392924866362,"keywords":["nocrits","nodmgspread","payload","uncletopia"],"game_id":440,"stv_port":27016,"stv_name":"Uncletopia | Chicago | 5 | All Maps | STV","players":[{"user_id":267,"name":"Ludcmorais","steam_id":76561198359217809,"connected_time":7156000000000,"state":"active","ping":183},{"user_id":331,"name":"Toaster","steam_id":76561199275830628,"connected_time":1655000000000,"state":"active","ping":101},{"user_id":332,"name":"-W3E- grim10465","steam_id":76561198045698581,"connected_time":1630000000000,"state":"active","ping":45},{"user_id":322,"name":"Paris Hilton's McLaren SLR","steam_id":76561198045599872,"connected_time":3135000000000,"state":"active","ping":86},{"user_id":310,"name":"Ghost","steam_id":76561198110914180,"connected_time":3354000000000,"state":"active","ping":191},{"user_id":353,"name":"Blue Eyes Ace Dragon.","steam_id":76561198048214237,"connected_time":130000000000,"state":"active","ping":60},{"user_id":329,"name":"sweaver","steam_id":76561199156551835,"connected_time":1681000000000,"state":"active","ping":43},{"user_id":343,"name":"pl_chicago","steam_id":76561198055626638,"connected_time":1169000000000,"state":"active","ping":102},{"user_id":320,"name":"the gerogerigegege","steam_id":76561198057116531,"connected_time":3216000000000,"state":"active","ping":57},{"user_id":321,"name":"EvilMrPotoo ｡◕‿◕｡","steam_id":76561198012566870,"connected_time":3174000000000,"state":"active","ping":74},{"user_id":344,"name":"CMahaff","steam_id":76561198017229519,"connected_time":1153000000000,"state":"active","ping":82},{"user_id":325,"name":"caca sniffer","steam_id":76561199099914725,"connected_time":3042000000000,"state":"active","ping":92},{"user_id":347,"name":"Shorts","steam_id":76561198025009692,"connected_time":905000000000,"state":"active","ping":87},{"user_id":290,"name":"Shagbark","steam_id":76561198173447342,"connected_time":5732000000000,"state":"active","ping":82},{"user_id":346,"name":"N00SE","steam_id":76561198211473307,"connected_time":952000000000,"state":"active","ping":68},{"user_id":352,"name":"MrStealYoSquirrel","steam_id":76561198027776872,"connected_time":769000000000,"state":"active","ping":69},{"user_id":354,"name":"V!CT!M","steam_id":76561198962721502,"connected_time":17000000000,"state":"active","ping":71},{"user_id":350,"name":"Reality Loser","steam_id":76561198001541433,"connected_time":817000000000,"state":"active","ping":60},{"user_id":302,"name":"ignoble","steam_id":76561198040084437,"connected_time":4611000000000,"state":"active","ping":46},{"user_id":341,"name":"Lain","steam_id":76561198029303534,"connected_time":1424000000000,"state":"active","ping":64},{"user_id":336,"name":"Ninjoth","steam_id":76561198038611753,"connected_time":1554000000000,"state":"active","ping":90},{"user_id":328,"name":"Fuzzy","steam_id":76561198113445043,"connected_time":2099000000000,"state":"active","ping":73},{"user_id":337,"name":"YellowJello","steam_id":76561198165626677,"connected_time":1551000000000,"state":"active","ping":58},{"user_id":351,"name":"aaron","steam_id":76561198113364714,"connected_time":817000000000,"state":"active","ping":61}]},{"server_id":37,"name":"Uncletopia | Chicago | 6 | All Maps","name_short":"chi-6","host":"chi-2.us.uncletopia.com","port":27025,"enabled":true,"region":"us-central","cc":"us","latitude":41.881832,"longitude":-87.62318,"reserved":0,"last_update":"0001-01-01T00:00:00Z","name_a2s":"Uncletopia | Chicago | 6 | All Maps","protocol":17,"map":"pl_borneo","folder":"tf","game":"Team Fortress","app_id":440,"player_count":24,"max_players":24,"Bots":0,"server_type":"Dedicated","server_os":"Linux","password":true,"vac":true,"version":"7961495","steam_id":85568392924866363,"keywords":["nocrits","nodmgspread","payload","uncletopia"],"game_id":440,"stv_port":27026,"stv_name":"Uncletopia | Chicago | 6 | All Maps | STV","players":[{"user_id":560,"name":"zeplinnn","steam_id":76561198301300987,"connected_time":1872000000000,"state":"active","ping":94},{"user_id":584,"name":"IronOat","steam_id":76561198326652249,"connected_time":340000000000,"state":"active","ping":68},{"user_id":574,"name":"gagobears","steam_id":76561198086008437,"connected_time":1236000000000,"state":"active","ping":76},{"user_id":591,"name":"Sir Arthur Wellesley","steam_id":76561198073344614,"connected_time":138000000000,"state":"active","ping":79},{"user_id":586,"name":"screaming internally","steam_id":76561198838223023,"connected_time":276000000000,"state":"active","ping":54},{"user_id":585,"name":"ElephantHydrogen4277882","steam_id":76561198175741741,"connected_time":292000000000,"state":"active","ping":74},{"user_id":564,"name":"Pontifex","steam_id":76561198013016489,"connected_time":1808000000000,"state":"active","ping":85},{"user_id":587,"name":"Mutants23","steam_id":76561199202458765,"connected_time":266000000000,"state":"active","ping":105},{"user_id":588,"name":"RexCreeper456","steam_id":76561199319578396,"connected_time":198000000000,"state":"active","ping":68},{"user_id":441,"name":"cheesebro","steam_id":76561198002072852,"connected_time":9989000000000,"state":"active","ping":101},{"user_id":511,"name":"kirbo","steam_id":76561199404157971,"connected_time":5537000000000,"state":"active","ping":91},{"user_id":589,"name":"mini","steam_id":76561198064214000,"connected_time":194000000000,"state":"active","ping":69},{"user_id":580,"name":"Mongoose88","steam_id":76561197961442445,"connected_time":558000000000,"state":"active","ping":68},{"user_id":590,"name":"count tokeula","steam_id":76561198305796131,"connected_time":189000000000,"state":"active","ping":47},{"user_id":579,"name":"gaming gerald","steam_id":76561198011707083,"connected_time":717000000000,"state":"active","ping":60},{"user_id":566,"name":"corntent","steam_id":76561198824847948,"connected_time":1791000000000,"state":"active","ping":61},{"user_id":559,"name":"SirEverything","steam_id":76561199152393848,"connected_time":2194000000000,"state":"active","ping":81},{"user_id":567,"name":"DigitalWizard","steam_id":76561198085936715,"connected_time":1788000000000,"state":"active","ping":72},{"user_id":593,"name":"Tohru","steam_id":76561198139393876,"connected_time":98000000000,"state":"active","ping":76},{"user_id":578,"name":"melun","steam_id":76561198006648124,"connected_time":994000000000,"state":"active","ping":87},{"user_id":569,"name":"G-MANN","steam_id":76561199479405537,"connected_time":1745000000000,"state":"active","ping":94},{"user_id":570,"name":"legendarypotatoe","steam_id":76561198264515423,"connected_time":1706000000000,"state":"active","ping":74},{"user_id":577,"name":"stick","steam_id":76561198049489094,"connected_time":1186000000000,"state":"active","ping":58},{"user_id":522,"name":"GreekGoat_Coffee","steam_id":76561198129331088,"connected_time":5298000000000,"state":"active","ping":49}]},{"server_id":38,"name":"Uncletopia | Chicago | 7 | Stopwatch","name_short":"chi-7","host":"chi-2.us.uncletopia.com","port":27035,"enabled":true,"region":"us-central","cc":"us","latitude":41.881832,"longitude":-87.62318,"reserved":0,"last_update":"0001-01-01T00:00:00Z","name_a2s":"Uncletopia | Chicago | 7 | Stopwatch","protocol":17,"map":"cp_metalworks","folder":"tf","game":"Team Fortress","app_id":440,"player_count":18,"max_players":24,"Bots":0,"server_type":"Dedicated","server_os":"Linux","password":true,"vac":true,"version":"7961495","steam_id":85568392924866364,"keywords":["cp","nocrits","nodmgspread","uncletopia"],"game_id":440,"stv_port":27036,"stv_name":"Uncletopia | Chicago | 7 | Stopwatch | STV","players":[{"user_id":228,"name":"Jinkus Johnson","steam_id":76561198181678541,"connected_time":2293000000000,"state":"active","ping":90},{"user_id":255,"name":"sonikro","steam_id":76561197989428692,"connected_time":294000000000,"state":"active","ping":50},{"user_id":184,"name":"nav","steam_id":76561198872608266,"connected_time":4914000000000,"state":"active","ping":83},{"user_id":253,"name":"ZackPlay3r","steam_id":76561198416075558,"connected_time":526000000000,"state":"active","ping":70},{"user_id":250,"name":"Zedifo","steam_id":76561198044032070,"connected_time":724000000000,"state":"active","ping":120},{"user_id":192,"name":"Colin102004","steam_id":76561198202384334,"connected_time":4557000000000,"state":"active","ping":47},{"user_id":239,"name":"Store Runner","steam_id":76561198156282541,"connected_time":1651000000000,"state":"active","ping":45},{"user_id":226,"name":"big kahoona","steam_id":76561198337072111,"connected_time":2555000000000,"state":"active","ping":84},{"user_id":254,"name":"Super Bullshit Man","steam_id":76561198102416507,"connected_time":472000000000,"state":"active","ping":77},{"user_id":236,"name":"Inevitable","steam_id":76561198210050169,"connected_time":1714000000000,"state":"active","ping":65},{"user_id":257,"name":"gravygravyjosh","steam_id":76561197999902920,"connected_time":128000000000,"state":"active","ping":147},{"user_id":222,"name":"195x195jpegofbaldman","steam_id":76561198178351279,"connected_time":2692000000000,"state":"active","ping":83},{"user_id":223,"name":"Acuzik","steam_id":76561198045453400,"connected_time":2686000000000,"state":"active","ping":44},{"user_id":224,"name":"Braingoo Hex","steam_id":76561198083094783,"connected_time":2677000000000,"state":"active","ping":96},{"user_id":245,"name":"Burks","steam_id":76561198134813531,"connected_time":1092000000000,"state":"active","ping":64},{"user_id":248,"name":"suco de boneco","steam_id":76561198379380768,"connected_time":860000000000,"state":"active","ping":175},{"user_id":241,"name":"Lord Scrubling","steam_id":76561198263744445,"connected_time":1559000000000,"state":"active","ping":76},{"user_id":251,"name":"LincolnShio_","steam_id":76561198831123552,"connected_time":707000000000,"state":"active","ping":61}]},{"server_id":39,"name":"Uncletopia | Chicago | 8 | Community","name_short":"chi-8","host":"chi-2.us.uncletopia.com","port":27045,"enabled":true,"region":"us-central","cc":"us","latitude":41.881832,"longitude":-87.62318,"reserved":0,"last_update":"0001-01-01T00:00:00Z","name_a2s":"Uncletopia | Chicago | 8 | Community","protocol":17,"map":"workshop/pl_badwater_pro_v12.ugc2142942074","folder":"tf","game":"Team Fortress","app_id":440,"player_count":24,"max_players":24,"Bots":0,"server_type":"Dedicated","server_os":"Linux","password":true,"vac":true,"version":"7961495","steam_id":85568392924866365,"keywords":["nocrits","nodmgspread","payload","uncletopia"],"game_id":440,"stv_port":27046,"stv_name":"Uncletopia | Chicago | 8 | Community | STV","players":[{"user_id":103,"name":"stoppit","steam_id":76561198353292787,"connected_time":1514000000000,"state":"active","ping":74},{"user_id":116,"name":"Carvhana","steam_id":76561198142629517,"connected_time":624000000000,"state":"active","ping":69},{"user_id":90,"name":"new york city pizza rat","steam_id":76561198202589758,"connected_time":2414000000000,"state":"active","ping":71},{"user_id":114,"name":"A Big Rat","steam_id":76561197990853987,"connected_time":883000000000,"state":"active","ping":61},{"user_id":43,"name":"Hamz","steam_id":76561199287459211,"connected_time":4988000000000,"state":"active","ping":76},{"user_id":105,"name":"name","steam_id":76561199218194540,"connected_time":1417000000000,"state":"active","ping":77},{"user_id":44,"name":"Plot Armor Blacksmith","steam_id":76561198083345384,"connected_time":4910000000000,"state":"active","ping":95},{"user_id":45,"name":"Bob the Minion","steam_id":76561197972389354,"connected_time":4906000000000,"state":"active","ping":75},{"user_id":106,"name":"Rodrick Knee","steam_id":76561198283021062,"connected_time":1415000000000,"state":"active","ping":92},{"user_id":47,"name":"Pug_9492","steam_id":76561199078217640,"connected_time":4881000000000,"state":"active","ping":140},{"user_id":93,"name":"he suckin on my rick til i mort","steam_id":76561198310711692,"connected_time":2290000000000,"state":"active","ping":178},{"user_id":111,"name":"Danmar33","steam_id":76561198056453091,"connected_time":951000000000,"state":"active","ping":52},{"user_id":68,"name":"Predicta","steam_id":76561198017630616,"connected_time":4295000000000,"state":"active","ping":46},{"user_id":102,"name":"Obama F. Kennedy","steam_id":76561198282499318,"connected_time":1767000000000,"state":"active","ping":79},{"user_id":115,"name":"Rein | Comms  Open","steam_id":76561198300340427,"connected_time":706000000000,"state":"active","ping":67},{"user_id":80,"name":"Xyverle","steam_id":76561198799726415,"connected_time":3632000000000,"state":"active","ping":62},{"user_id":56,"name":"Meh","steam_id":76561198078187920,"connected_time":4689000000000,"state":"active","ping":88},{"user_id":109,"name":"smuffy","steam_id":76561198091459506,"connected_time":1282000000000,"state":"active","ping":74},{"user_id":113,"name":"Mossy","steam_id":76561198156401277,"connected_time":914000000000,"state":"active","ping":83},{"user_id":97,"name":"yamme","steam_id":76561198117849124,"connected_time":2032000000000,"state":"active","ping":107},{"user_id":65,"name":"frank","steam_id":76561198137777483,"connected_time":4444000000000,"state":"active","ping":65},{"user_id":118,"name":"wise","steam_id":76561198030066204,"connected_time":567000000000,"state":"active","ping":53},{"user_id":119,"name":"Rez LeRoux","steam_id":76561198451503538,"connected_time":539000000000,"state":"active","ping":76},{"user_id":121,"name":"Fitts1099","steam_id":76561198044986906,"connected_time":318000000000,"state":"active","ping":49}]},{"server_id":8,"name":"Uncletopia | Dallas | 1 | All Maps","name_short":"dal-1","host":"dal-1.us.uncletopia.com","port":27015,"enabled":true,"region":"us-central","cc":"us","latitude":32.779167,"longitude":-96.80889,"reserved":0,"last_update":"0001-01-01T00:00:00Z","name_a2s":"Uncletopia | Dallas | 1 | All Maps","protocol":17,"map":"pl_barnblitz","folder":"tf","game":"Team Fortress","app_id":440,"player_count":24,"max_players":24,"Bots":0,"server_type":"Dedicated","server_os":"Linux","password":true,"vac":true,"version":"7961495","steam_id":85568392924469986,"keywords":["nocrits","nodmgspread","payload","uncletopia"],"game_id":440,"stv_port":27016,"stv_name":"Uncletopia | Dallas | 1 | All Maps | STV","players":[{"user_id":657,"name":"techdeck","steam_id":76561199022751661,"connected_time":5130000000000,"state":"active","ping":51},{"user_id":694,"name":"Phantom Thief","steam_id":76561198254482947,"connected_time":1734000000000,"state":"active","ping":86},{"user_id":700,"name":"HeroOfTime","steam_id":76561199096218001,"connected_time":997000000000,"state":"active","ping":84},{"user_id":678,"name":"NoLights!","steam_id":76561197981106761,"connected_time":3193000000000,"state":"active","ping":88},{"user_id":701,"name":"Kipados","steam_id":76561197997147319,"connected_time":984000000000,"state":"active","ping":91},{"user_id":697,"name":"KevilPo","steam_id":76561199244507267,"connected_time":1701000000000,"state":"active","ping":91},{"user_id":708,"name":"Ghostmeal","steam_id":76561198042380299,"connected_time":516000000000,"state":"active","ping":57},{"user_id":672,"name":"A Straw","steam_id":76561199367935846,"connected_time":4015000000000,"state":"active","ping":79},{"user_id":668,"name":"Siev","steam_id":76561198000518937,"connected_time":4292000000000,"state":"active","ping":68},{"user_id":676,"name":"Moonflower ✦","steam_id":76561198191782483,"connected_time":3571000000000,"state":"active","ping":55},{"user_id":693,"name":"Smittywerbenjager-manjenson","steam_id":76561198067060742,"connected_time":2040000000000,"state":"active","ping":61},{"user_id":702,"name":"men kissing","steam_id":76561199442299675,"connected_time":949000000000,"state":"active","ping":78},{"user_id":680,"name":"TOKENLIZARD","steam_id":76561198218765205,"connected_time":3094000000000,"state":"active","ping":64},{"user_id":710,"name":"KingSteve42","steam_id":76561198409455888,"connected_time":440000000000,"state":"active","ping":112},{"user_id":687,"name":"Bacon","steam_id":76561199078407152,"connected_time":2612000000000,"state":"active","ping":82},{"user_id":707,"name":"slurpee #にゃ","steam_id":76561197990257202,"connected_time":558000000000,"state":"active","ping":74},{"user_id":713,"name":"plutonium isotope","steam_id":76561198319442494,"connected_time":52000000000,"state":"active","ping":88},{"user_id":696,"name":"Charles","steam_id":76561199124935140,"connected_time":1726000000000,"state":"active","ping":64},{"user_id":669,"name":"i love men","steam_id":76561199026721822,"connected_time":4290000000000,"state":"active","ping":87},{"user_id":625,"name":"Big Yoshi","steam_id":76561199160576376,"connected_time":7201000000000,"state":"active","ping":104},{"user_id":692,"name":"Hobbes","steam_id":76561197967448497,"connected_time":2158000000000,"state":"active","ping":110},{"user_id":665,"name":"Motreir","steam_id":76561198151717946,"connected_time":4304000000000,"state":"active","ping":84},{"user_id":712,"name":"Manic","steam_id":76561198128149670,"connected_time":180000000000,"state":"active","ping":54},{"user_id":711,"name":"BamBam","steam_id":76561198063110026,"connected_time":418000000000,"state":"active","ping":76}]},{"server_id":108,"name":"Uncletopia | Dallas | 2 | All Maps","name_short":"dal-2","host":"dal-1.us.uncletopia.com","port":27025,"enabled":true,"region":"us-central","cc":"us","latitude":32.779167,"longitude":-96.80889,"reserved":0,"last_update":"0001-01-01T00:00:00Z","name_a2s":"Uncletopia | Dallas | 2 | All Maps","protocol":17,"map":"pl_upward","folder":"tf","game":"Team Fortress","app_id":440,"player_count":23,"max_players":24,"Bots":0,"server_type":"Dedicated","server_os":"Linux","password":true,"vac":true,"version":"7961495","steam_id":85568392924469988,"keywords":["nocrits","nodmgspread","payload","uncletopia"],"game_id":440,"stv_port":27026,"stv_name":"Uncletopia | Dallas | 2 | All Maps | STV","players":[{"user_id":472,"name":"Boingo","steam_id":76561199086931535,"connected_time":1167000000000,"state":"active","ping":58},{"user_id":486,"name":"sora","steam_id":76561198094256973,"connected_time":693000000000,"state":"active","ping":89},{"user_id":461,"name":"TrashPanda (she/her)","steam_id":76561198447864095,"connected_time":2821000000000,"state":"active","ping":68},{"user_id":430,"name":"Ember The Femboy","steam_id":76561198139630565,"connected_time":4371000000000,"state":"active","ping":167},{"user_id":493,"name":"Nah im fine","steam_id":76561199108830372,"connected_time":73000000000,"state":"active","ping":87},{"user_id":495,"name":"Pim","steam_id":76561198046050375,"connected_time":47000000000,"state":"active","ping":99},{"user_id":471,"name":"Fatal","steam_id":76561198061407587,"connected_time":1189000000000,"state":"active","ping":65},{"user_id":475,"name":"Panda Loser","steam_id":76561198828745176,"connected_time":1119000000000,"state":"active","ping":102},{"user_id":476,"name":"BigPimpin","steam_id":76561198119549348,"connected_time":1117000000000,"state":"active","ping":46},{"user_id":452,"name":"Sex","steam_id":76561198818620540,"connected_time":3351000000000,"state":"active","ping":61},{"user_id":477,"name":"Blade Racer","steam_id":76561198155896703,"connected_time":1108000000000,"state":"active","ping":78},{"user_id":478,"name":"CBreezyyyyBaby","steam_id":76561199093523987,"connected_time":1098000000000,"state":"active","ping":73},{"user_id":490,"name":"rf","steam_id":76561198195359229,"connected_time":469000000000,"state":"active","ping":99},{"user_id":488,"name":"Ralis","steam_id":76561198040398748,"connected_time":620000000000,"state":"active","ping":82},{"user_id":464,"name":"Karubi","steam_id":76561197984788751,"connected_time":2425000000000,"state":"active","ping":106},{"user_id":470,"name":"OwningTundra2","steam_id":76561198936893224,"connected_time":1223000000000,"state":"active","ping":66},{"user_id":463,"name":"Kenku","steam_id":76561199086762926,"connected_time":2490000000000,"state":"active","ping":75},{"user_id":491,"name":"AturnedFirotent","steam_id":76561198936865324,"connected_time":428000000000,"state":"active","ping":89},{"user_id":410,"name":"skegeton","steam_id":76561198095581099,"connected_time":6885000000000,"state":"active","ping":63},{"user_id":494,"name":"beckeon","steam_id":76561198056474975,"connected_time":63000000000,"state":"active","ping":88},{"user_id":466,"name":"Translucent૮₍ • ᴥ •","steam_id":76561199212057076,"connected_time":2370000000000,"state":"active","ping":79},{"user_id":489,"name":"Treelos","steam_id":76561198054796003,"connected_time":604000000000,"state":"active","ping":70},{"user_id":492,"name":"Stop Taking My Soup","steam_id":76561198411512788,"connected_time":212000000000,"state":"active","ping":159}]},{"server_id":404,"name":"Uncletopia | Dallas | 3 | All Maps","name_short":"dal-3","host":"dal-1.us.uncletopia.com","port":27035,"enabled":true,"region":"us-central","cc":"us","latitude":32.779167,"longitude":-96.80889,"reserved":0,"last_update":"0001-01-01T00:00:00Z","name_a2s":"Uncletopia | Dallas | 3 | All Maps","protocol":17,"map":"pl_borneo","folder":"tf","game":"Team Fortress","app_id":440,"player_count":24,"max_players":24,"Bots":0,"server_type":"Dedicated","server_os":"Linux","password":true,"vac":true,"version":"7961495","steam_id":85568392924515219,"keywords":["nocrits","nodmgspread","payload","uncletopia"],"game_id":440,"stv_port":27036,"stv_name":"Uncletopia | Dallas | 3 | All Maps | STV","players":[{"user_id":449,"name":"HiddenWenis","steam_id":76561198055459784,"connected_time":2678000000000,"state":"active","ping":115},{"user_id":404,"name":"Texas guy","steam_id":76561198082315370,"connected_time":5926000000000,"state":"active","ping":87},{"user_id":410,"name":"Pippermint","steam_id":76561198292091925,"connected_time":5592000000000,"state":"active","ping":71},{"user_id":482,"name":"Engideer","steam_id":76561198145733164,"connected_time":408000000000,"state":"active","ping":45},{"user_id":433,"name":"Nammu","steam_id":76561198067778161,"connected_time":3604000000000,"state":"active","ping":96},{"user_id":435,"name":"Omniash","steam_id":76561198091994987,"connected_time":3535000000000,"state":"active","ping":88},{"user_id":456,"name":"haisel","steam_id":76561199001918194,"connected_time":2530000000000,"state":"active","ping":89},{"user_id":483,"name":"zcqyqcz","steam_id":76561198358006442,"connected_time":205000000000,"state":"active","ping":194},{"user_id":465,"name":"Streetwise","steam_id":76561197971684268,"connected_time":2258000000000,"state":"active","ping":123},{"user_id":454,"name":"Lavender","steam_id":76561198142770666,"connected_time":2561000000000,"state":"active","ping":57},{"user_id":467,"name":"Rusty_Cheech","steam_id":76561198808236778,"connected_time":2134000000000,"state":"active","ping":104},{"user_id":457,"name":"intek","steam_id":76561198052705291,"connected_time":2525000000000,"state":"active","ping":86},{"user_id":429,"name":"SilverLife25","steam_id":76561198392015722,"connected_time":3733000000000,"state":"active","ping":61},{"user_id":471,"name":"Prof. Shittington","steam_id":76561198135137213,"connected_time":1933000000000,"state":"active","ping":54},{"user_id":481,"name":"uheggwhite","steam_id":76561199199795741,"connected_time":493000000000,"state":"active","ping":67},{"user_id":450,"name":"Dark Lord","steam_id":76561198044199150,"connected_time":2663000000000,"state":"active","ping":110},{"user_id":460,"name":"mrthugpug1732","steam_id":76561198881200768,"connected_time":2502000000000,"state":"active","ping":95},{"user_id":484,"name":"123","steam_id":76561198035655773,"connected_time":197000000000,"state":"active","ping":100},{"user_id":461,"name":"Shitty Pilot","steam_id":76561198042723469,"connected_time":2496000000000,"state":"active","ping":67},{"user_id":480,"name":"jxh300","steam_id":76561199196579894,"connected_time":526000000000,"state":"active","ping":96},{"user_id":431,"name":"JtsRes","steam_id":76561197994809241,"connected_time":3647000000000,"state":"active","ping":62},{"user_id":463,"name":"rAnch","steam_id":76561198024562587,"connected_time":2293000000000,"state":"active","ping":45},{"user_id":441,"name":"TheGirthquake","steam_id":76561198238895056,"connected_time":3321000000000,"state":"active","ping":134},{"user_id":479,"name":"Aurora_Ranger101","steam_id":76561198212436504,"connected_time":827000000000,"state":"active","ping":81}]},{"server_id":405,"name":"Uncletopia | Dallas | 4 | Community","name_short":"dal-4","host":"dal-1.us.uncletopia.com","port":27045,"enabled":true,"region":"us-central","cc":"us","latitude":32.779167,"longitude":-96.80889,"reserved":0,"last_update":"0001-01-01T00:00:00Z","name_a2s":"Uncletopia | Dallas | 4 | Community","protocol":17,"map":"workshop/pl_cactuscanyon_redux_final2.ugc2579644293","folder":"tf","game":"Team Fortress","app_id":440,"player_count":20,"max_players":24,"Bots":0,"server_type":"Dedicated","server_os":"Linux","password":true,"vac":true,"version":"7961495","steam_id":85568392924515220,"keywords":["nocrits","nodmgspread","payload","uncletopia"],"game_id":440,"stv_port":27046,"stv_name":"Uncletopia | Dallas | 4 | Community | STV","players":[{"user_id":379,"name":"Mayo Monkey","steam_id":76561198090023039,"connected_time":584000000000,"state":"active","ping":95},{"user_id":344,"name":"remanedur","steam_id":76561198059459507,"connected_time":3977000000000,"state":"active","ping":107},{"user_id":369,"name":"Goose","steam_id":76561198245716618,"connected_time":1975000000000,"state":"active","ping":99},{"user_id":342,"name":"atlas","steam_id":76561198116768948,"connected_time":4057000000000,"state":"active","ping":91},{"user_id":371,"name":"JsLo64V","steam_id":76561199076233876,"connected_time":1769000000000,"state":"active","ping":177},{"user_id":333,"name":"thai","steam_id":76561198052462287,"connected_time":4900000000000,"state":"active","ping":94},{"user_id":373,"name":"Bleat","steam_id":76561198138678917,"connected_time":1522000000000,"state":"active","ping":137},{"user_id":317,"name":"mattack374","steam_id":76561199497083665,"connected_time":5374000000000,"state":"active","ping":112},{"user_id":334,"name":"Toilet Slave Tournament","steam_id":76561197997915494,"connected_time":4885000000000,"state":"active","ping":83},{"user_id":381,"name":"doobie the hutt","steam_id":76561198088873640,"connected_time":494000000000,"state":"active","ping":103},{"user_id":383,"name":"mepes","steam_id":76561198080430008,"connected_time":399000000000,"state":"active","ping":52},{"user_id":385,"name":"Starkiller","steam_id":76561198101643120,"connected_time":259000000000,"state":"active","ping":101},{"user_id":291,"name":"cycoone","steam_id":76561198059745285,"connected_time":7653000000000,"state":"active","ping":83},{"user_id":359,"name":"MantisToboggan","steam_id":76561197969447887,"connected_time":2329000000000,"state":"active","ping":155},{"user_id":370,"name":"Pal","steam_id":76561198079657093,"connected_time":1952000000000,"state":"active","ping":41},{"user_id":343,"name":"fucking idiot","steam_id":76561198158152966,"connected_time":4050000000000,"state":"active","ping":187},{"user_id":377,"name":"TikoTF2","steam_id":76561199066864469,"connected_time":1184000000000,"state":"active","ping":68},{"user_id":335,"name":"Viennetta","steam_id":76561198044088335,"connected_time":4832000000000,"state":"active","ping":84},{"user_id":315,"name":"Stultus","steam_id":76561198115116367,"connected_time":5535000000000,"state":"active","ping":94},{"user_id":387,"name":"clippy","steam_id":76561199101412758,"connected_time":151000000000,"state":"active","ping":93}]},{"server_id":5,"name":"Uncletopia | Frankfurt | 1 | All Maps","name_short":"frk-1","host":"frk-1.de.uncletopia.com","port":27015,"enabled":true,"region":"eu","cc":"de","latitude":50.110924,"longitude":8.682127,"reserved":0,"last_update":"0001-01-01T00:00:00Z","name_a2s":"Uncletopia | Frankfurt | 1 | All Maps","protocol":17,"map":"koth_badlands","folder":"tf","game":"Team Fortress","app_id":440,"player_count":0,"max_players":24,"Bots":0,"server_type":"Dedicated","server_os":"Linux","password":true,"vac":true,"version":"7961495","steam_id":85568392924469989,"keywords":["cp","nocrits","nodmgspread","uncletopia"],"game_id":440,"stv_port":27016,"stv_name":"Uncletopia | Frankfurt | 1 | All Maps | STV","players":null},{"server_id":110,"name":"Uncletopia | Frankfurt | 2 | All Maps","name_short":"frk-2","host":"frk-1.de.uncletopia.com","port":27025,"enabled":true,"region":"eu","cc":"de","latitude":50.110924,"longitude":8.682127,"reserved":0,"last_update":"0001-01-01T00:00:00Z","name_a2s":"Uncletopia | Frankfurt | 2 | All Maps","protocol":17,"map":"pl_frontier_final","folder":"tf","game":"Team Fortress","app_id":440,"player_count":0,"max_players":24,"Bots":0,"server_type":"Dedicated","server_os":"Linux","password":true,"vac":true,"version":"7961495","steam_id":85568392924469990,"keywords":["nocrits","nodmgspread","payload","uncletopia"],"game_id":440,"stv_port":27026,"stv_name":"Uncletopia | Frankfurt | 2 | All Maps | STV","players":null},{"server_id":308,"name":"Uncletopia | Frankfurt | 3 | All Maps","name_short":"frk-3","host":"frk-1.de.uncletopia.com","port":27035,"enabled":true,"region":"eu","cc":"de","latitude":50.110924,"longitude":8.682127,"reserved":0,"last_update":"0001-01-01T00:00:00Z","name_a2s":"Uncletopia | Frankfurt | 3 | All Maps","protocol":17,"map":"cp_well","folder":"tf","game":"Team Fortress","app_id":440,"player_count":0,"max_players":24,"Bots":0,"server_type":"Dedicated","server_os":"Linux","password":true,"vac":true,"version":"7961495","steam_id":85568392924504274,"keywords":["cp","nocrits","nodmgspread","uncletopia"],"game_id":440,"stv_port":27036,"stv_name":"Uncletopia | Frankfurt | 3 | All Maps | STV","players":null},{"server_id":309,"name":"Uncletopia | Frankfurt | 4 | All Maps","name_short":"frk-4","host":"frk-1.de.uncletopia.com","port":27045,"enabled":true,"region":"eu","cc":"de","latitude":50.110924,"longitude":8.682127,"reserved":0,"last_update":"0001-01-01T00:00:00Z","name_a2s":"Uncletopia | Frankfurt | 4 | All Maps","protocol":17,"map":"pl_upward","folder":"tf","game":"Team Fortress","app_id":440,"player_count":0,"max_players":24,"Bots":0,"server_type":"Dedicated","server_os":"Linux","password":true,"vac":true,"version":"7961495","steam_id":85568392924504275,"keywords":["nocrits","nodmgspread","payload","uncletopia"],"game_id":440,"stv_port":27046,"stv_name":"Uncletopia | Frankfurt | 4 | All Maps | STV","players":null},{"server_id":310,"name":"Uncletopia | Frankfurt | 5 | All Maps","name_short":"frk-5","host":"frk-1.de.uncletopia.com","port":27055,"enabled":true,"region":"eu","cc":"de","latitude":50.110924,"longitude":8.682127,"reserved":0,"last_update":"0001-01-01T00:00:00Z","name_a2s":"Uncletopia | Frankfurt | 5 | All Maps","protocol":17,"map":"koth_cascade","folder":"tf","game":"Team Fortress","app_id":440,"player_count":0,"max_players":24,"Bots":0,"server_type":"Dedicated","server_os":"Linux","password":true,"vac":true,"version":"7961495","steam_id":85568392924504277,"keywords":["cp","nocrits","nodmgspread","uncletopia"],"game_id":440,"stv_port":27056,"stv_name":"Uncletopia | Frankfurt | 5 | All Maps | STV","players":null},{"server_id":311,"name":"Uncletopia | Frankfurt | 6 | All Maps","name_short":"frk-6","host":"frk-1.de.uncletopia.com","port":27065,"enabled":true,"region":"eu","cc":"de","latitude":50.110924,"longitude":8.682127,"reserved":0,"last_update":"0001-01-01T00:00:00Z","name_a2s":"Uncletopia | Frankfurt | 6 | All Maps","protocol":17,"map":"cp_snakewater_final1","folder":"tf","game":"Team Fortress","app_id":440,"player_count":0,"max_players":24,"Bots":0,"server_type":"Dedicated","server_os":"Linux","password":true,"vac":true,"version":"7961495","steam_id":85568392924504278,"keywords":["cp","nocrits","nodmgspread","uncletopia"],"game_id":440,"stv_port":27066,"stv_name":"Uncletopia | Frankfurt | 6 | All Maps | STV","players":null},{"server_id":23,"name":"Uncletopia | Frankfurt | 7 | Stopwatch","name_short":"frk-7","host":"frk-1.de.uncletopia.com","port":27075,"enabled":true,"region":"eu","cc":"de","latitude":50.110924,"longitude":8.682127,"reserved":0,"last_update":"0001-01-01T00:00:00Z","name_a2s":"Uncletopia | Frankfurt | 7 | Stopwatch","protocol":17,"map":"workshop/pl_summercoast_rc8e.ugc1761528829","folder":"tf","game":"Team Fortress","app_id":440,"player_count":0,"max_players":24,"Bots":0,"server_type":"Dedicated","server_os":"Linux","password":true,"vac":true,"version":"7961495","steam_id":85568392924742827,"keywords":["nocrits","nodmgspread","payload","uncletopia"],"game_id":440,"stv_port":27076,"stv_name":"Uncletopia | Frankfurt | 7 | Stopwatch | STV","players":null},{"server_id":24,"name":"Uncletopia | Frankfurt | 8 | Community","name_short":"frk-8","host":"frk-1.de.uncletopia.com","port":27085,"enabled":true,"region":"eu","cc":"de","latitude":50.110924,"longitude":8.682127,"reserved":0,"last_update":"0001-01-01T00:00:00Z","name_a2s":"Uncletopia | Frankfurt | 8 | Community","protocol":17,"map":"workshop/pl_emerge_rc2.ugc888027758","folder":"tf","game":"Team Fortress","app_id":440,"player_count":0,"max_players":24,"Bots":0,"server_type":"Dedicated","server_os":"Linux","password":true,"vac":true,"version":"7961495","steam_id":85568392924742828,"keywords":["nocrits","nodmgspread","payload","uncletopia"],"game_id":440,"stv_port":27086,"stv_name":"Uncletopia | Frankfurt | 8 | Community | STV","players":null},{"server_id":202,"name":"Uncletopia | Hong Kong | 1 | All Maps","name_short":"hgk-1","host":"hgk-1.hk.uncletopia.com","port":27015,"enabled":true,"region":"asia","cc":"hk","latitude":22.302711,"longitude":114.177216,"reserved":0,"last_update":"0001-01-01T00:00:00Z","name_a2s":"Uncletopia | Hong Kong | 1 | All Maps","protocol":17,"map":"pl_upward","folder":"tf","game":"Team Fortress","app_id":440,"player_count":0,"max_players":24,"Bots":0,"server_type":"Dedicated","server_os":"Linux","password":true,"vac":true,"version":"7961495","steam_id":85568392924494504,"keywords":["nocrits","nodmgspread","payload","uncletopia"],"game_id":440,"stv_port":27016,"stv_name":"Uncletopia | Hong Kong | 1 | All Maps | STV","players":null},{"server_id":1,"name":"Uncletopia | Los Angeles | 1 | All Maps","name_short":"lax-1","host":"lax-1.us.uncletopia.com","port":27015,"enabled":true,"region":"us-west","cc":"us","latitude":33.94279,"longitude":-118.41004,"reserved":0,"last_update":"0001-01-01T00:00:00Z","name_a2s":"Uncletopia | Los Angeles | 1 | All Maps","protocol":17,"map":"pl_upward","folder":"tf","game":"Team Fortress","app_id":440,"player_count":24,"max_players":24,"Bots":0,"server_type":"Dedicated","server_os":"Linux","password":true,"vac":true,"version":"7961495","steam_id":85568392924469991,"keywords":["nocrits","nodmgspread","payload","uncletopia"],"game_id":440,"stv_port":27016,"stv_name":"Uncletopia | Los Angeles | 1 | All Maps | STV","players":[{"user_id":500,"name":"Verult (doesn't)Trade","steam_id":76561199018000017,"connected_time":1709000000000,"state":"active","ping":50},{"user_id":518,"name":"plsplsplslol","steam_id":76561198868084626,"connected_time":190000000000,"state":"active","ping":54},{"user_id":506,"name":"azureglxy","steam_id":76561198861388315,"connected_time":1245000000000,"state":"active","ping":44},{"user_id":488,"name":"Jimmy","steam_id":76561198857959855,"connected_time":2703000000000,"state":"active","ping":45},{"user_id":512,"name":"Link_Starr","steam_id":76561198133884015,"connected_time":782000000000,"state":"active","ping":54},{"user_id":486,"name":"Wumpus Grumpus","steam_id":76561198045214707,"connected_time":2804000000000,"state":"active","ping":89},{"user_id":426,"name":"Frebresio","steam_id":76561198353493333,"connected_time":6639000000000,"state":"active","ping":47},{"user_id":515,"name":"jungus","steam_id":76561198129862008,"connected_time":286000000000,"state":"active","ping":45},{"user_id":519,"name":"Rerecrosz","steam_id":76561198043677171,"connected_time":155000000000,"state":"active","ping":89},{"user_id":522,"name":"snek","steam_id":76561198124848994,"connected_time":24000000000,"state":"active","ping":72},{"user_id":477,"name":"yeeeeety_boi","steam_id":76561199202351631,"connected_time":3713000000000,"state":"active","ping":103},{"user_id":496,"name":"Delta-Metto 01","steam_id":76561198971167660,"connected_time":2023000000000,"state":"active","ping":107},{"user_id":508,"name":"Dongus","steam_id":76561197979056451,"connected_time":1232000000000,"state":"active","ping":77},{"user_id":514,"name":"glip glep","steam_id":76561198999431215,"connected_time":435000000000,"state":"active","ping":111},{"user_id":513,"name":"DarkMewMew","steam_id":76561199471715552,"connected_time":774000000000,"state":"active","ping":80},{"user_id":510,"name":"Cactus™ ♥","steam_id":76561198036441270,"connected_time":1176000000000,"state":"active","ping":74},{"user_id":416,"name":"self sufficient kitten","steam_id":76561197960592612,"connected_time":6802000000000,"state":"active","ping":75},{"user_id":511,"name":"JACK BRUNO","steam_id":76561198027957690,"connected_time":1160000000000,"state":"active","ping":67},{"user_id":415,"name":"❤ Ashley ❤","steam_id":76561198056428303,"connected_time":6839000000000,"state":"active","ping":50},{"user_id":482,"name":"Medical Maiden","steam_id":76561199110836055,"connected_time":3348000000000,"state":"active","ping":71},{"user_id":521,"name":"coffee veins","steam_id":76561198044004639,"connected_time":89000000000,"state":"active","ping":184},{"user_id":480,"name":"can of Heinz Beans","steam_id":76561198806423231,"connected_time":3462000000000,"state":"active","ping":82},{"user_id":433,"name":"Spread Joy, Not Hate","steam_id":76561198053117503,"connected_time":6335000000000,"state":"active","ping":89},{"user_id":502,"name":"werolat","steam_id":76561197960544784,"connected_time":1614000000000,"state":"active","ping":71}]},{"server_id":112,"name":"Uncletopia | Los Angeles | 2 | All Maps","name_short":"lax-2","host":"lax-1.us.uncletopia.com","port":27025,"enabled":true,"region":"us-west","cc":"us","latitude":33.94279,"longitude":-118.41004,"reserved":0,"last_update":"0001-01-01T00:00:00Z","name_a2s":"Uncletopia | Los Angeles | 2 | All Maps","protocol":17,"map":"koth_lakeside_final","folder":"tf","game":"Team Fortress","app_id":440,"player_count":0,"max_players":24,"Bots":0,"server_type":"Dedicated","server_os":"Linux","password":true,"vac":true,"version":"7961495","steam_id":85568392924469992,"keywords":["cp","nocrits","nodmgspread","uncletopia"],"game_id":440,"stv_port":27026,"stv_name":"Uncletopia | Los Angeles | 2 | All Maps | STV","players":null},{"server_id":324,"name":"Uncletopia | Los Angeles | 3 | All Maps","name_short":"lax-3","host":"lax-1.us.uncletopia.com","port":27035,"enabled":true,"region":"us-west","cc":"us","latitude":33.94279,"longitude":-118.41004,"reserved":0,"last_update":"0001-01-01T00:00:00Z","name_a2s":"Uncletopia | Los Angeles | 3 | All Maps","protocol":17,"map":"pl_badwater","folder":"tf","game":"Team Fortress","app_id":440,"player_count":23,"max_players":24,"Bots":0,"server_type":"Dedicated","server_os":"Linux","password":true,"vac":true,"version":"7961495","steam_id":85568392924510198,"keywords":["nocrits","nodmgspread","payload","uncletopia"],"game_id":440,"stv_port":27036,"stv_name":"Uncletopia | Los Angeles | 3 | All Maps | STV","players":[{"user_id":362,"name":"schneiderkid8","steam_id":76561198374005899,"connected_time":4480000000000,"state":"active","ping":67},{"user_id":414,"name":"Simonator","steam_id":76561198242718444,"connected_time":1179000000000,"state":"active","ping":73},{"user_id":388,"name":"GLXy","steam_id":76561198207551544,"connected_time":3046000000000,"state":"active","ping":70},{"user_id":419,"name":"Windfall","steam_id":76561198046500859,"connected_time":529000000000,"state":"active","ping":46},{"user_id":376,"name":"Velgrauder","steam_id":76561198848526938,"connected_time":3602000000000,"state":"active","ping":84},{"user_id":430,"name":"Alchemist","steam_id":76561198094238189,"connected_time":137000000000,"state":"active","ping":54},{"user_id":397,"name":"manbearswineflu","steam_id":76561198083945137,"connected_time":2193000000000,"state":"active","ping":109},{"user_id":396,"name":"brotalium","steam_id":76561198055439054,"connected_time":2382000000000,"state":"active","ping":114},{"user_id":413,"name":"Jimbobmeboy","steam_id":76561198148317197,"connected_time":1218000000000,"state":"active","ping":84},{"user_id":393,"name":"BrickDiggity","steam_id":76561198297548684,"connected_time":2786000000000,"state":"active","ping":120},{"user_id":421,"name":"Pyrotek⁴","steam_id":76561198072747672,"connected_time":518000000000,"state":"active","ping":45},{"user_id":379,"name":"Ralph Kramden (Slim Charles)","steam_id":76561197981687895,"connected_time":3528000000000,"state":"active","ping":61},{"user_id":417,"name":"Pemalon","steam_id":76561198389661782,"connected_time":932000000000,"state":"active","ping":45},{"user_id":425,"name":"Mr. DeLarge","steam_id":76561198336820066,"connected_time":362000000000,"state":"active","ping":88},{"user_id":418,"name":"Boboblin","steam_id":76561199030131717,"connected_time":730000000000,"state":"active","ping":45},{"user_id":389,"name":"[☯] randomshagz*","steam_id":76561197968666646,"connected_time":2891000000000,"state":"active","ping":69},{"user_id":422,"name":"small meth pouch","steam_id":76561198130412963,"connected_time":486000000000,"state":"active","ping":84},{"user_id":423,"name":"Altruisticailuridae","steam_id":76561198335295596,"connected_time":469000000000,"state":"active","ping":53},{"user_id":424,"name":"cargo","steam_id":76561198965511236,"connected_time":463000000000,"state":"active","ping":32},{"user_id":429,"name":"tum","steam_id":76561198084712019,"connected_time":172000000000,"state":"active","ping":56},{"user_id":431,"name":"bmx bike","steam_id":76561198207881077,"connected_time":114000000000,"state":"active","ping":101},{"user_id":416,"name":"Owl_eyes","steam_id":76561198066199203,"connected_time":1063000000000,"state":"active","ping":60},{"user_id":415,"name":"gold","steam_id":76561199085827238,"connected_time":1086000000000,"state":"active","ping":80}]},{"server_id":25,"name":"Uncletopia | Los Angeles | 4 | Stopwatch","name_short":"lax-4","host":"lax-1.us.uncletopia.com","port":27045,"enabled":true,"region":"us-west","cc":"us","latitude":33.94279,"longitude":-118.41004,"reserved":0,"last_update":"0001-01-01T00:00:00Z","name_a2s":"Uncletopia | Los Angeles | 4 | Stopwatch","protocol":17,"map":"pl_barnblitz","folder":"tf","game":"Team Fortress","app_id":440,"player_count":0,"max_players":24,"Bots":0,"server_type":"Dedicated","server_os":"Linux","password":true,"vac":true,"version":"7961495","steam_id":85568392924510199,"keywords":["nocrits","nodmgspread","payload","uncletopia"],"game_id":440,"stv_port":27046,"stv_name":"Uncletopia | Los Angeles | 4 | Stopwatch | STV","players":null},{"server_id":11,"name":"Uncletopia | London | 1 | All Maps","name_short":"lon-1","host":"lon-1.uk.uncletopia.com","port":27015,"enabled":true,"region":"eu","cc":"gb","latitude":51.509865,"longitude":-0.118092,"reserved":0,"last_update":"0001-01-01T00:00:00Z","name_a2s":"Uncletopia | London | 1 | All Maps","protocol":17,"map":"koth_king","folder":"tf","game":"Team Fortress","app_id":440,"player_count":18,"max_players":24,"Bots":0,"server_type":"Dedicated","server_os":"Linux","password":true,"vac":true,"version":"7961495","steam_id":85568392924367362,"keywords":["cp","nocrits","nodmgspread","uncletopia"],"game_id":440,"stv_port":27016,"stv_name":"Uncletopia | London | 1 | All Maps | STV","players":[{"user_id":959,"name":"Ganasti","steam_id":76561198382925185,"connected_time":791000000000,"state":"active","ping":93},{"user_id":960,"name":"Arkainiel Silver","steam_id":76561198188302519,"connected_time":730000000000,"state":"active","ping":53},{"user_id":956,"name":"DDUUCCKK","steam_id":76561198141953050,"connected_time":1188000000000,"state":"active","ping":53},{"user_id":961,"name":"nug","steam_id":76561198055396568,"connected_time":700000000000,"state":"active","ping":46},{"user_id":966,"name":"hammertime","steam_id":76561199097714393,"connected_time":133000000000,"state":"active","ping":148},{"user_id":926,"name":"Tummy","steam_id":76561198045654910,"connected_time":2463000000000,"state":"active","ping":39},{"user_id":951,"name":"incoming","steam_id":76561199138214818,"connected_time":1751000000000,"state":"active","ping":95},{"user_id":964,"name":"TheDemoKnight","steam_id":76561198035168657,"connected_time":488000000000,"state":"active","ping":62},{"user_id":929,"name":"noseb","steam_id":76561199480942903,"connected_time":2463000000000,"state":"active","ping":64},{"user_id":970,"name":"alibi","steam_id":76561198079490000,"connected_time":58000000000,"state":"active","ping":53},{"user_id":957,"name":"t.tv/Hildreth","steam_id":76561197995254867,"connected_time":972000000000,"state":"active","ping":45},{"user_id":971,"name":"Worm","steam_id":76561198296497176,"connected_time":52000000000,"state":"active","ping":46},{"user_id":949,"name":"Cornmac","steam_id":76561198104780569,"connected_time":2166000000000,"state":"active","ping":66},{"user_id":972,"name":"Slessplee","steam_id":76561198315732431,"connected_time":18000000000,"state":"spawning","ping":166},{"user_id":938,"name":"heuji","steam_id":76561197971067828,"connected_time":2463000000000,"state":"active","ping":49},{"user_id":942,"name":"chools","steam_id":76561198030101579,"connected_time":2462000000000,"state":"active","ping":90},{"user_id":943,"name":"Aspartus","steam_id":76561198101385763,"connected_time":2460000000000,"state":"active","ping":45},{"user_id":955,"name":"SolidSalt","steam_id":76561198334789026,"connected_time":1361000000000,"state":"active","ping":36}]},{"server_id":114,"name":"Uncletopia | London | 2 | All Maps","name_short":"lon-2","host":"lon-1.uk.uncletopia.com","port":27025,"enabled":true,"region":"eu","cc":"gb","latitude":51.509865,"longitude":-0.118092,"reserved":0,"last_update":"0001-01-01T00:00:00Z","name_a2s":"Uncletopia | London | 2 | All Maps","protocol":17,"map":"cp_altitude","folder":"tf","game":"Team Fortress","app_id":440,"player_count":0,"max_players":24,"Bots":0,"server_type":"Dedicated","server_os":"Linux","password":true,"vac":true,"version":"7961495","steam_id":85568392924470941,"keywords":["cp","nocrits","nodmgspread","uncletopia"],"game_id":440,"stv_port":27026,"stv_name":"Uncletopia | London | 2 | All Maps | STV","players":null},{"server_id":320,"name":"Uncletopia | London | 3 | All Maps","name_short":"lon-3","host":"lon-1.uk.uncletopia.com","port":27035,"enabled":true,"region":"eu","cc":"gb","latitude":51.509865,"longitude":-0.118092,"reserved":0,"last_update":"0001-01-01T00:00:00Z","name_a2s":"Uncletopia | London | 3 | All Maps","protocol":17,"map":"pl_swiftwater_final1","folder":"tf","game":"Team Fortress","app_id":440,"player_count":0,"max_players":24,"Bots":0,"server_type":"Dedicated","server_os":"Linux","password":true,"vac":true,"version":"7961495","steam_id":85568392924510192,"keywords":["nocrits","nodmgspread","payload","uncletopia"],"game_id":440,"stv_port":27036,"stv_name":"Uncletopia | London | 3 | All Maps | STV","players":null},{"server_id":321,"name":"Uncletopia | London | 4 | All Maps","name_short":"lon-4","host":"lon-1.uk.uncletopia.com","port":27045,"enabled":true,"region":"eu","cc":"gb","latitude":51.509865,"longitude":-0.118092,"reserved":0,"last_update":"0001-01-01T00:00:00Z","name_a2s":"Uncletopia | London | 4 | All Maps","protocol":17,"map":"pl_pier","folder":"tf","game":"Team Fortress","app_id":440,"player_count":0,"max_players":24,"Bots":0,"server_type":"Dedicated","server_os":"Linux","password":true,"vac":true,"version":"7961495","steam_id":85568392924510193,"keywords":["nocrits","nodmgspread","payload","uncletopia"],"game_id":440,"stv_port":27046,"stv_name":"Uncletopia | London | 4 | All Maps | STV","players":null},{"server_id":21,"name":"Uncletopia | London | 5 | All Maps","name_short":"lon-5","host":"lon-1.uk.uncletopia.com","port":27055,"enabled":true,"region":"eu","cc":"gb","latitude":51.509865,"longitude":-0.118092,"reserved":0,"last_update":"0001-01-01T00:00:00Z","name_a2s":"Uncletopia | London | 5 | All Maps","protocol":17,"map":"pl_frontier_final","folder":"tf","game":"Team Fortress","app_id":440,"player_count":2,"max_players":24,"Bots":0,"server_type":"Dedicated","server_os":"Linux","password":true,"vac":true,"version":"7961495","steam_id":85568392924742829,"keywords":["nocrits","nodmgspread","payload","uncletopia"],"game_id":440,"stv_port":27056,"stv_name":"Uncletopia | London | 5 | All Maps | STV","players":[{"user_id":658,"name":"Zhe Spy","steam_id":76561198380309147,"connected_time":4683000000000,"state":"active","ping":166},{"user_id":589,"name":"Collisto","steam_id":76561198023609460,"connected_time":9415000000000,"state":"active","ping":80}]},{"server_id":22,"name":"Uncletopia | London | 6 | All Maps","name_short":"lon-6","host":"lon-1.uk.uncletopia.com","port":27065,"enabled":true,"region":"eu","cc":"gb","latitude":51.509865,"longitude":-0.118092,"reserved":0,"last_update":"0001-01-01T00:00:00Z","name_a2s":"Uncletopia | London | 6 | All Maps","protocol":17,"map":"cp_altitude","folder":"tf","game":"Team Fortress","app_id":440,"player_count":0,"max_players":24,"Bots":0,"server_type":"Dedicated","server_os":"Linux","password":true,"vac":true,"version":"7961495","steam_id":85568392924742830,"keywords":["cp","nocrits","nodmgspread","uncletopia"],"game_id":440,"stv_port":27066,"stv_name":"Uncletopia | London | 6 | All Maps | STV","players":null},{"server_id":40,"name":"Uncletopia | London | 7 | Stopwatch","name_short":"lon-7","host":"lon-1.uk.uncletopia.com","port":27075,"enabled":true,"region":"eu","cc":"gb","latitude":51.509865,"longitude":-0.118092,"reserved":0,"last_update":"0001-01-01T00:00:00Z","name_a2s":"Uncletopia | London | 7 | Stopwatch","protocol":17,"map":"workshop/pl_badwater_pro_v12.ugc2142942074","folder":"tf","game":"Team Fortress","app_id":440,"player_count":0,"max_players":24,"Bots":0,"server_type":"Dedicated","server_os":"Linux","password":true,"vac":true,"version":"7961495","steam_id":85568392924964314,"keywords":["nocrits","nodmgspread","payload","uncletopia"],"game_id":440,"stv_port":27076,"stv_name":"Uncletopia | London | 7 | Stopwatch | STV","players":null},{"server_id":41,"name":"Uncletopia | London | 8 | Community","name_short":"lon-8","host":"lon-1.uk.uncletopia.com","port":27085,"enabled":true,"region":"eu","cc":"gb","latitude":51.509865,"longitude":-0.118092,"reserved":0,"last_update":"0001-01-01T00:00:00Z","name_a2s":"Uncletopia | London | 8 | Community","protocol":17,"map":"workshop/koth_synthetic_rc6a.ugc1549817316","folder":"tf","game":"Team Fortress","app_id":440,"player_count":0,"max_players":24,"Bots":0,"server_type":"Dedicated","server_os":"Linux","password":true,"vac":true,"version":"7961495","steam_id":85568392924964315,"keywords":["cp","nocrits","nodmgspread","uncletopia"],"game_id":440,"stv_port":27086,"stv_name":"Uncletopia | London | 8 | Community | STV","players":null},{"server_id":300,"name":"Uncletopia | Montréal | 1 | All Maps","name_short":"mtl-1","host":"mtl-1.ca.uncletopia.com","port":27015,"enabled":true,"region":"us-east","cc":"ca","latitude":45.50889,"longitude":-73.56167,"reserved":0,"last_update":"0001-01-01T00:00:00Z","name_a2s":"","protocol":0,"map":"","folder":"","game":"","app_id":0,"player_count":22,"max_players":0,"Bots":0,"server_type":"","server_os":"","password":false,"vac":false,"version":"","steam_id":0,"keywords":null,"game_id":0,"stv_port":0,"stv_name":"","players":[{"user_id":456,"name":"cool beans (dang greg)","steam_id":76561198321591685,"connected_time":273000000000,"state":"active","ping":98},{"user_id":436,"name":"some tree","steam_id":76561198166093346,"connected_time":2535000000000,"state":"active","ping":35},{"user_id":403,"name":"Seek \u0026 Destroy","steam_id":76561199153776236,"connected_time":4665000000000,"state":"active","ping":73},{"user_id":426,"name":"Christophe","steam_id":76561198116640007,"connected_time":3901000000000,"state":"active","ping":142},{"user_id":376,"name":"vanta","steam_id":76561198084317504,"connected_time":7450000000000,"state":"active","ping":45},{"user_id":449,"name":"Tuff","steam_id":76561198038521103,"connected_time":1301000000000,"state":"active","ping":64},{"user_id":437,"name":"St. Bobson Q Dugnutt III Esq Sr","steam_id":76561197993459985,"connected_time":2407000000000,"state":"active","ping":49},{"user_id":450,"name":"eipi","steam_id":76561199084492097,"connected_time":1081000000000,"state":"active","ping":41},{"user_id":457,"name":"warp","steam_id":76561198190417719,"connected_time":273000000000,"state":"active","ping":53},{"user_id":451,"name":"SoundKitKiller","steam_id":76561198053535873,"connected_time":1049000000000,"state":"active","ping":60},{"user_id":443,"name":"Grundle Thunder","steam_id":76561197960790338,"connected_time":1853000000000,"state":"active","ping":62},{"user_id":458,"name":"Just washed","steam_id":76561199030160932,"connected_time":226000000000,"state":"active","ping":114},{"user_id":410,"name":"canakblasteran","steam_id":76561199472518822,"connected_time":4473000000000,"state":"active","ping":121},{"user_id":459,"name":"KBoneski ♡","steam_id":76561198307409065,"connected_time":210000000000,"state":"active","ping":95},{"user_id":448,"name":"Jdulton","steam_id":76561198116243617,"connected_time":1459000000000,"state":"active","ping":72},{"user_id":454,"name":"narcberry","steam_id":76561197969898759,"connected_time":683000000000,"state":"active","ping":89},{"user_id":447,"name":"luigi","steam_id":76561198056261066,"connected_time":1547000000000,"state":"active","ping":59},{"user_id":460,"name":"Dog Goggles","steam_id":76561197995233692,"connected_time":194000000000,"state":"active","ping":70},{"user_id":452,"name":"BeansFan1997","steam_id":76561198045754085,"connected_time":1017000000000,"state":"active","ping":60},{"user_id":389,"name":"Yep","steam_id":76561198041437251,"connected_time":6435000000000,"state":"active","ping":60},{"user_id":440,"name":"Dr. Professor PJ, Ph.D","steam_id":76561198004429398,"connected_time":2210000000000,"state":"active","ping":60},{"user_id":425,"name":"Dr. Pl0x","steam_id":76561198040785401,"connected_time":3943000000000,"state":"active","ping":108}]},{"server_id":301,"name":"Uncletopia | Montréal | 2 | ???","name_short":"mtl-2","host":"mtl-1.ca.uncletopia.com","port":27025,"enabled":true,"region":"us-east","cc":"ca","latitude":45.50889,"longitude":-73.56167,"reserved":0,"last_update":"0001-01-01T00:00:00Z","name_a2s":"","protocol":0,"map":"","folder":"","game":"","app_id":0,"player_count":0,"max_players":0,"Bots":0,"server_type":"","server_os":"","password":false,"vac":false,"version":"","steam_id":0,"keywords":null,"game_id":0,"stv_port":0,"stv_name":"","players":null},{"server_id":13,"name":"Uncletopia | New York City | 1 | All Maps","name_short":"nyc-1","host":"nyc-1.us.uncletopia.com","port":27015,"enabled":true,"region":"us-east","cc":"us","latitude":40.73061,"longitude":-73.93524,"reserved":0,"last_update":"0001-01-01T00:00:00Z","name_a2s":"Uncletopia | New York City | 1 | All Maps","protocol":17,"map":"pl_barnblitz","folder":"tf","game":"Team Fortress","app_id":440,"player_count":24,"max_players":24,"Bots":0,"server_type":"Dedicated","server_os":"Linux","password":true,"vac":true,"version":"7961495","steam_id":85568392924469993,"keywords":["nocrits","nodmgspread","payload","uncletopia"],"game_id":440,"stv_port":27016,"stv_name":"Uncletopia | New York City | 1 | All Maps | STV","players":[{"user_id":624,"name":"Dr. Feelgood (Ph.D, MD)","steam_id":76561198040611061,"connected_time":1013000000000,"state":"active","ping":50},{"user_id":623,"name":"ned #RustyPot","steam_id":76561198061593196,"connected_time":1435000000000,"state":"active","ping":47},{"user_id":620,"name":"Truffleoil","steam_id":76561198114689041,"connected_time":1618000000000,"state":"active","ping":60},{"user_id":625,"name":"Shanks","steam_id":76561199038321449,"connected_time":976000000000,"state":"active","ping":179},{"user_id":586,"name":"dad playing in between naps","steam_id":76561198009425458,"connected_time":4878000000000,"state":"active","ping":85},{"user_id":615,"name":"popfulmail","steam_id":76561198865971290,"connected_time":1983000000000,"state":"active","ping":88},{"user_id":618,"name":"retinz","steam_id":76561198135563495,"connected_time":1684000000000,"state":"active","ping":59},{"user_id":626,"name":"Herdez Hot Salsa","steam_id":76561197991740906,"connected_time":937000000000,"state":"active","ping":60},{"user_id":617,"name":"lfty","steam_id":76561198283841707,"connected_time":1814000000000,"state":"active","ping":57},{"user_id":622,"name":"guy","steam_id":76561198079925551,"connected_time":1561000000000,"state":"active","ping":49},{"user_id":601,"name":"PieSpie","steam_id":76561198054531169,"connected_time":3662000000000,"state":"active","ping":93},{"user_id":628,"name":"The Helpful Mute","steam_id":76561198078359985,"connected_time":16000000000,"state":"active","ping":111},{"user_id":619,"name":"Broadway Rose","steam_id":76561198046083342,"connected_time":1680000000000,"state":"active","ping":36},{"user_id":576,"name":"Berb","steam_id":76561198193911899,"connected_time":5178000000000,"state":"active","ping":89},{"user_id":621,"name":"bert","steam_id":76561198167927756,"connected_time":1617000000000,"state":"active","ping":70},{"user_id":574,"name":"Dankchicn","steam_id":76561199288196207,"connected_time":5207000000000,"state":"active","ping":100},{"user_id":567,"name":"Nepped Hazama","steam_id":76561198166822675,"connected_time":5775000000000,"state":"active","ping":65},{"user_id":604,"name":"ndvr","steam_id":76561199379200102,"connected_time":2749000000000,"state":"active","ping":46},{"user_id":575,"name":"Riltreks","steam_id":76561198800482183,"connected_time":5202000000000,"state":"active","ping":101},{"user_id":605,"name":"Yuzu","steam_id":76561198417913035,"connected_time":2264000000000,"state":"active","ping":73},{"user_id":525,"name":"Erebus","steam_id":76561199061956673,"connected_time":8580000000000,"state":"active","ping":69},{"user_id":603,"name":"Bee_Pirate","steam_id":76561199000599111,"connected_time":3620000000000,"state":"active","ping":62},{"user_id":613,"name":"Lt. Hindsight","steam_id":76561198197744967,"connected_time":2182000000000,"state":"active","ping":59},{"user_id":602,"name":"[NAME-REDACTED]","steam_id":76561198035682975,"connected_time":3645000000000,"state":"active","ping":55}]},{"server_id":14,"name":"Uncletopia | New York City | 2 | All Maps","name_short":"nyc-2","host":"nyc-1.us.uncletopia.com","port":27025,"enabled":true,"region":"us-east","cc":"us","latitude":40.73061,"longitude":-73.93524,"reserved":0,"last_update":"0001-01-01T00:00:00Z","name_a2s":"Uncletopia | New York City | 2 | All Maps","protocol":17,"map":"pl_badwater","folder":"tf","game":"Team Fortress","app_id":440,"player_count":24,"max_players":24,"Bots":0,"server_type":"Dedicated","server_os":"Linux","password":true,"vac":true,"version":"7961495","steam_id":85568392924469994,"keywords":["nocrits","nodmgspread","payload","uncletopia"],"game_id":440,"stv_port":27026,"stv_name":"Uncletopia | New York City | 2 | All Maps | STV","players":[{"user_id":568,"name":"Braamklauw","steam_id":76561198283287697,"connected_time":7054000000000,"state":"active","ping":150},{"user_id":659,"name":"hashmap","steam_id":76561198043794014,"connected_time":819000000000,"state":"active","ping":61},{"user_id":626,"name":"Peepster","steam_id":76561198297854733,"connected_time":3560000000000,"state":"active","ping":83},{"user_id":603,"name":"Pozyomka","steam_id":76561198086331015,"connected_time":4864000000000,"state":"active","ping":36},{"user_id":602,"name":"milk","steam_id":76561198813251405,"connected_time":4876000000000,"state":"active","ping":51},{"user_id":667,"name":"METAL FINGERS - Coltsfoot Leaf.","steam_id":76561198294013916,"connected_time":410000000000,"state":"active","ping":45},{"user_id":654,"name":"Dot.","steam_id":76561198149463984,"connected_time":1353000000000,"state":"active","ping":38},{"user_id":671,"name":"A Puppy","steam_id":76561198828184456,"connected_time":137000000000,"state":"active","ping":52},{"user_id":652,"name":"Lumi","steam_id":76561198089978036,"connected_time":1714000000000,"state":"active","ping":56},{"user_id":660,"name":"fazecumshot69","steam_id":76561199248475270,"connected_time":806000000000,"state":"active","ping":66},{"user_id":650,"name":"space man","steam_id":76561198066333670,"connected_time":2119000000000,"state":"active","ping":58},{"user_id":661,"name":"menonamed","steam_id":76561198199564382,"connected_time":788000000000,"state":"active","ping":55},{"user_id":672,"name":"v@$#","steam_id":76561198102681457,"connected_time":93000000000,"state":"active","ping":73},{"user_id":662,"name":"RuinLucky","steam_id":76561199481172481,"connected_time":727000000000,"state":"active","ping":87},{"user_id":663,"name":"reko","steam_id":76561198278020887,"connected_time":723000000000,"state":"active","ping":102},{"user_id":636,"name":"flappyflap2","steam_id":76561198285048973,"connected_time":3097000000000,"state":"active","ping":43},{"user_id":670,"name":"pat","steam_id":76561198327703300,"connected_time":228000000000,"state":"active","ping":56},{"user_id":644,"name":"she","steam_id":76561197994492154,"connected_time":2480000000000,"state":"active","ping":149},{"user_id":665,"name":"buppy (red panda)","steam_id":76561198354284591,"connected_time":713000000000,"state":"active","ping":67},{"user_id":666,"name":"Clavicle Man","steam_id":76561198035007057,"connected_time":645000000000,"state":"active","ping":129},{"user_id":657,"name":"saurhead","steam_id":76561198132937722,"connected_time":1284000000000,"state":"active","ping":47},{"user_id":640,"name":"Coop","steam_id":76561198042839356,"connected_time":2985000000000,"state":"active","ping":70},{"user_id":643,"name":"Sir Quacksalot","steam_id":76561198048942777,"connected_time":2522000000000,"state":"active","ping":100},{"user_id":637,"name":"Terry Bogard's beefin 12 inch","steam_id":76561198371133385,"connected_time":3059000000000,"state":"active","ping":99}]},{"server_id":15,"name":"Uncletopia | New York City | 3 | Stopwatch","name_short":"nyc-3","host":"nyc-1.us.uncletopia.com","port":27035,"enabled":true,"region":"us-east","cc":"us","latitude":40.73061,"longitude":-73.93524,"reserved":0,"last_update":"0001-01-01T00:00:00Z","name_a2s":"Uncletopia | New York City | 3 | Stopwatch","protocol":17,"map":"cp_snakewater_final1","folder":"tf","game":"Team Fortress","app_id":440,"player_count":13,"max_players":24,"Bots":0,"server_type":"Dedicated","server_os":"Linux","password":true,"vac":true,"version":"7961495","steam_id":85568392924742820,"keywords":["cp","nocrits","nodmgspread","uncletopia"],"game_id":440,"stv_port":27036,"stv_name":"Uncletopia | New York City | 3 | Stopwatch | STV","players":[{"user_id":692,"name":"Brian Family","steam_id":76561199129969202,"connected_time":165000000000,"state":"active","ping":82},{"user_id":670,"name":"♥ mastercoms ♥","steam_id":76561198046110893,"connected_time":1372000000000,"state":"active","ping":55},{"user_id":691,"name":"Spicey","steam_id":76561198039548756,"connected_time":202000000000,"state":"active","ping":61},{"user_id":671,"name":"♥ alixei! ♥","steam_id":76561198014557455,"connected_time":1368000000000,"state":"active","ping":85},{"user_id":628,"name":"Dwarfo","steam_id":76561198119220289,"connected_time":4266000000000,"state":"active","ping":60},{"user_id":683,"name":"AutisticMOFO","steam_id":76561198428723559,"connected_time":950000000000,"state":"active","ping":51},{"user_id":556,"name":"Bob Th","steam_id":76561198856284930,"connected_time":8948000000000,"state":"active","ping":60},{"user_id":678,"name":"400mg or more","steam_id":76561198083091076,"connected_time":1154000000000,"state":"active","ping":104},{"user_id":672,"name":"Tyranitar9999","steam_id":76561198071637331,"connected_time":1338000000000,"state":"active","ping":60},{"user_id":594,"name":"pnut","steam_id":76561198043862737,"connected_time":6285000000000,"state":"active","ping":30},{"user_id":689,"name":"Roz257","steam_id":76561198842844532,"connected_time":477000000000,"state":"active","ping":65},{"user_id":680,"name":"Vaude","steam_id":76561198369187511,"connected_time":1134000000000,"state":"active","ping":55},{"user_id":681,"name":"oyster221","steam_id":76561198057571414,"connected_time":1094000000000,"state":"active","ping":60}]},{"server_id":16,"name":"Uncletopia | New York City | 4 | Community","name_short":"nyc-4","host":"nyc-1.us.uncletopia.com","port":27045,"enabled":true,"region":"us-east","cc":"us","latitude":40.73061,"longitude":-73.93524,"reserved":0,"last_update":"0001-01-01T00:00:00Z","name_a2s":"Uncletopia | New York City | 4 | Community","protocol":17,"map":"workshop/koth_bagel_rc6.ugc2514036946","folder":"tf","game":"Team Fortress","app_id":440,"player_count":8,"max_players":24,"Bots":0,"server_type":"Dedicated","server_os":"Linux","password":true,"vac":true,"version":"7961495","steam_id":85568392924742821,"keywords":["cp","nocrits","nodmgspread","uncletopia"],"game_id":440,"stv_port":27046,"stv_name":"Uncletopia | New York City | 4 | Community | STV","players":[{"user_id":53,"name":"jyp","steam_id":76561198208382525,"connected_time":1066000000000,"state":"active","ping":67},{"user_id":54,"name":"doku","steam_id":76561199186072324,"connected_time":1029000000000,"state":"active","ping":86},{"user_id":55,"name":"Heroman","steam_id":76561199093371976,"connected_time":951000000000,"state":"active","ping":55},{"user_id":56,"name":"3nd1ess","steam_id":76561198201909950,"connected_time":776000000000,"state":"active","ping":71},{"user_id":63,"name":"backshots inc","steam_id":76561198839562402,"connected_time":333000000000,"state":"active","ping":73},{"user_id":60,"name":"hops_a_pops","steam_id":76561198210902109,"connected_time":446000000000,"state":"active","ping":77},{"user_id":61,"name":"Beacon Of Hope","steam_id":76561198990109475,"connected_time":417000000000,"state":"active","ping":110},{"user_id":62,"name":"pinkwkid","steam_id":76561198111761941,"connected_time":368000000000,"state":"active","ping":41}]},{"server_id":142,"name":"Uncletopia | São Paulo | 1 | All Maps","name_short":"sao-1","host":"sao-1.br.uncletopia.com","port":27015,"enabled":true,"region":"sa","cc":"br","latitude":-23.533773,"longitude":-46.62529,"reserved":0,"last_update":"0001-01-01T00:00:00Z","name_a2s":"Uncletopia | São Paulo | 1 | All Maps","protocol":17,"map":"pl_badwater","folder":"tf","game":"Team Fortress","app_id":440,"player_count":0,"max_players":24,"Bots":0,"server_type":"Dedicated","server_os":"Linux","password":true,"vac":true,"version":"7961495","steam_id":85568392924469996,"keywords":["nocrits","nodmgspread","payload","uncletopia"],"game_id":440,"stv_port":27016,"stv_name":"Uncletopia | São Paulo | 1 | All Maps | STV","players":null},{"server_id":143,"name":"Uncletopia | São Paulo | 2 | Community","name_short":"sao-2","host":"sao-2.br.uncletopia.com","port":27015,"enabled":true,"region":"sa","cc":"br","latitude":-23.533773,"longitude":-46.62529,"reserved":0,"last_update":"0001-01-01T00:00:00Z","name_a2s":"Uncletopia | São Paulo | 2 | Community","protocol":17,"map":"workshop/koth_product_final.ugc454272353","folder":"tf","game":"Team Fortress","app_id":440,"player_count":0,"max_players":24,"Bots":0,"server_type":"Dedicated","server_os":"Linux","password":true,"vac":true,"version":"7961495","steam_id":85568392924485349,"keywords":["cp","nocrits","nodmgspread","uncletopia"],"game_id":440,"stv_port":27016,"stv_name":"Uncletopia | São Paulo | 2 | Community | STV","players":null},{"server_id":7,"name":"Uncletopia | Seattle | 1 | All Maps","name_short":"sea-1","host":"sea-1.us.uncletopia.com","port":27015,"enabled":true,"region":"us-west","cc":"us","latitude":47.608013,"longitude":-122.33517,"reserved":0,"last_update":"0001-01-01T00:00:00Z","name_a2s":"Uncletopia | Seattle | 1 | All Maps","protocol":17,"map":"pl_badwater","folder":"tf","game":"Team Fortress","app_id":440,"player_count":24,"max_players":24,"Bots":0,"server_type":"Dedicated","server_os":"Linux","password":true,"vac":true,"version":"7961495","steam_id":85568392924469997,"keywords":["nocrits","nodmgspread","payload","uncletopia"],"game_id":440,"stv_port":27016,"stv_name":"Uncletopia | Seattle | 1 | All Maps | STV","players":[{"user_id":638,"name":"Gm_Trash","steam_id":76561199445091548,"connected_time":3369000000000,"state":"active","ping":57},{"user_id":663,"name":"DORK","steam_id":76561198037384555,"connected_time":980000000000,"state":"active","ping":70},{"user_id":666,"name":"Blanke","steam_id":76561198064100364,"connected_time":885000000000,"state":"active","ping":93},{"user_id":667,"name":"ms. anthrope","steam_id":76561198063533082,"connected_time":855000000000,"state":"active","ping":42},{"user_id":630,"name":"Ayayayayayahuasca","steam_id":76561199002906056,"connected_time":4472000000000,"state":"active","ping":51},{"user_id":658,"name":"pl_dustbowl","steam_id":76561198857237473,"connected_time":1406000000000,"state":"active","ping":51},{"user_id":646,"name":"Sacrificial Wormy","steam_id":76561198054539200,"connected_time":2709000000000,"state":"active","ping":53},{"user_id":648,"name":"Neophyte","steam_id":76561198027183394,"connected_time":2655000000000,"state":"active","ping":84},{"user_id":654,"name":"slushy :))","steam_id":76561198135281802,"connected_time":1884000000000,"state":"active","ping":32},{"user_id":675,"name":"Pathara44","steam_id":76561198048238620,"connected_time":28000000000,"state":"active","ping":94},{"user_id":676,"name":"grape","steam_id":76561199071151136,"connected_time":23000000000,"state":"active","ping":103},{"user_id":677,"name":"Sleuth","steam_id":76561198418288939,"connected_time":19000000000,"state":"spawning","ping":63},{"user_id":621,"name":"thunderous prophet","steam_id":76561198131166135,"connected_time":5078000000000,"state":"active","ping":39},{"user_id":669,"name":"Ben-Riley_","steam_id":76561198073169199,"connected_time":846000000000,"state":"active","ping":93},{"user_id":623,"name":"Peppy","steam_id":76561198866629645,"connected_time":4824000000000,"state":"active","ping":57},{"user_id":645,"name":"jole","steam_id":76561198037292232,"connected_time":2720000000000,"state":"active","ping":120},{"user_id":671,"name":"smokin that shit again","steam_id":76561198095480838,"connected_time":783000000000,"state":"active","ping":46},{"user_id":653,"name":"soup","steam_id":76561198043209046,"connected_time":2084000000000,"state":"active","ping":73},{"user_id":651,"name":"sillypilled","steam_id":76561198093883448,"connected_time":2398000000000,"state":"active","ping":46},{"user_id":674,"name":"Connick The Hedgehog","steam_id":76561198388471011,"connected_time":413000000000,"state":"active","ping":73},{"user_id":672,"name":"Sniff","steam_id":76561198010270922,"connected_time":667000000000,"state":"active","ping":63},{"user_id":673,"name":"rushy :))","steam_id":76561198065825165,"connected_time":581000000000,"state":"active","ping":127},{"user_id":642,"name":"Crake","steam_id":76561198001959071,"connected_time":2800000000000,"state":"active","ping":51},{"user_id":640,"name":"ed","steam_id":76561198080475712,"connected_time":3165000000000,"state":"active","ping":75}]},{"server_id":119,"name":"Uncletopia | Seattle | 2 | All Maps","name_short":"sea-2","host":"sea-1.us.uncletopia.com","port":27025,"enabled":true,"region":"us-west","cc":"us","latitude":47.608013,"longitude":-122.33517,"reserved":0,"last_update":"0001-01-01T00:00:00Z","name_a2s":"Uncletopia | Seattle | 2 | All Maps","protocol":17,"map":"pl_borneo","folder":"tf","game":"Team Fortress","app_id":440,"player_count":24,"max_players":24,"Bots":0,"server_type":"Dedicated","server_os":"Linux","password":true,"vac":true,"version":"7961495","steam_id":85568392924469998,"keywords":["nocrits","nodmgspread","payload","uncletopia"],"game_id":440,"stv_port":27026,"stv_name":"Uncletopia | Seattle | 2 | All Maps | STV","players":[{"user_id":358,"name":"Kenmei","steam_id":76561199221909016,"connected_time":2367000000000,"state":"active","ping":84},{"user_id":321,"name":"MonteJT","steam_id":76561198055409360,"connected_time":5019000000000,"state":"active","ping":36},{"user_id":387,"name":"Eurobeat too loud, can't hear :","steam_id":76561198330743199,"connected_time":356000000000,"state":"active","ping":61},{"user_id":390,"name":"choi","steam_id":76561198053669887,"connected_time":25000000000,"state":"active","ping":75},{"user_id":348,"name":"The Super Mario Bros. Movie","steam_id":76561198871692156,"connected_time":2696000000000,"state":"active","ping":57},{"user_id":371,"name":"Dog'ger","steam_id":76561198023659948,"connected_time":1581000000000,"state":"active","ping":45},{"user_id":350,"name":"vacachimuela","steam_id":76561198297332421,"connected_time":2681000000000,"state":"active","ping":72},{"user_id":383,"name":"Bargain Brand Cereal","steam_id":76561198440470058,"connected_time":1036000000000,"state":"active","ping":120},{"user_id":307,"name":"mine diam","steam_id":76561198119123981,"connected_time":5738000000000,"state":"active","ping":59},{"user_id":368,"name":"cyclops","steam_id":76561197970370198,"connected_time":1867000000000,"state":"active","ping":102},{"user_id":360,"name":"nucket","steam_id":76561198028658527,"connected_time":2314000000000,"state":"active","ping":74},{"user_id":376,"name":"Billy Mays","steam_id":76561197998876324,"connected_time":1248000000000,"state":"active","ping":122},{"user_id":388,"name":"bengineer","steam_id":76561198171912174,"connected_time":131000000000,"state":"active","ping":37},{"user_id":354,"name":"CheesyPoofs","steam_id":76561197998650617,"connected_time":2526000000000,"state":"active","ping":33},{"user_id":384,"name":"The local hobo","steam_id":76561198289650060,"connected_time":972000000000,"state":"active","ping":78},{"user_id":389,"name":"JuggMessiah95","steam_id":76561199068623664,"connected_time":128000000000,"state":"active","ping":51},{"user_id":327,"name":"Morse","steam_id":76561198039944542,"connected_time":4516000000000,"state":"active","ping":59},{"user_id":379,"name":"Urbanzpinapple","steam_id":76561198115426938,"connected_time":1166000000000,"state":"active","ping":121},{"user_id":385,"name":"a festive sooley","steam_id":76561198134500189,"connected_time":723000000000,"state":"active","ping":110},{"user_id":386,"name":"thebeast","steam_id":76561198255963049,"connected_time":698000000000,"state":"active","ping":52},{"user_id":366,"name":"rice white","steam_id":76561198320732910,"connected_time":1925000000000,"state":"active","ping":120},{"user_id":381,"name":"hoOmIN","steam_id":76561198334947079,"connected_time":1159000000000,"state":"active","ping":75},{"user_id":212,"name":"greens beans","steam_id":76561198153611491,"connected_time":12968000000000,"state":"active","ping":46},{"user_id":342,"name":"SkobeBeef","steam_id":76561198078638948,"connected_time":3439000000000,"state":"active","ping":60}]},{"server_id":406,"name":"Uncletopia | Seattle | 3 | Stopwatch","name_short":"sea-3","host":"sea-1.us.uncletopia.com","port":27035,"enabled":true,"region":"us-west","cc":"us","latitude":47.608013,"longitude":-122.33517,"reserved":0,"last_update":"0001-01-01T00:00:00Z","name_a2s":"Uncletopia | Seattle | 3 | Stopwatch","protocol":17,"map":"workshop/koth_product_final.ugc454272353","folder":"tf","game":"Team Fortress","app_id":440,"player_count":0,"max_players":24,"Bots":0,"server_type":"Dedicated","server_os":"Linux","password":true,"vac":true,"version":"7961495","steam_id":85568392924515217,"keywords":["cp","nocrits","nodmgspread","uncletopia"],"game_id":440,"stv_port":27036,"stv_name":"Uncletopia | Seattle | 3 | Stopwatch | STV","players":null},{"server_id":17,"name":"Uncletopia | San Francisco | 1 | All Maps","name_short":"sfo-1","host":"sfo-1.us.uncletopia.com","port":27015,"enabled":true,"region":"us-west","cc":"us","latitude":37.77397,"longitude":-122.4313,"reserved":0,"last_update":"0001-01-01T00:00:00Z","name_a2s":"Uncletopia | San Francisco | 1 | All Maps","protocol":17,"map":"cp_gullywash_final1","folder":"tf","game":"Team Fortress","app_id":440,"player_count":24,"max_players":24,"Bots":0,"server_type":"Dedicated","server_os":"Linux","password":true,"vac":true,"version":"7961495","steam_id":85568392924469999,"keywords":["cp","nocrits","nodmgspread","uncletopia"],"game_id":440,"stv_port":27016,"stv_name":"Uncletopia | San Francisco | 1 | All Maps | STV","players":[{"user_id":437,"name":"autistic marihuano","steam_id":76561199055488028,"connected_time":1557000000000,"state":"active","ping":111},{"user_id":456,"name":"Antzen","steam_id":76561198041343470,"connected_time":680000000000,"state":"active","ping":62},{"user_id":461,"name":"Drake from State Farm","steam_id":76561199069029812,"connected_time":248000000000,"state":"active","ping":59},{"user_id":439,"name":"StrayGuitarist","steam_id":76561198091315714,"connected_time":1449000000000,"state":"active","ping":44},{"user_id":392,"name":"Crudiety","steam_id":76561198880223365,"connected_time":4140000000000,"state":"active","ping":65},{"user_id":411,"name":"✫P∀nck∈✫","steam_id":76561198050163618,"connected_time":3459000000000,"state":"active","ping":52},{"user_id":331,"name":"Gerbias","steam_id":76561198001002427,"connected_time":9270000000000,"state":"active","ping":61},{"user_id":462,"name":"cran","steam_id":76561198178840075,"connected_time":63000000000,"state":"active","ping":85},{"user_id":381,"name":"second involate","steam_id":76561198041863231,"connected_time":5142000000000,"state":"active","ping":66},{"user_id":414,"name":"umongus","steam_id":76561199366064808,"connected_time":3109000000000,"state":"active","ping":121},{"user_id":463,"name":"Irritated Duck","steam_id":76561198247792076,"connected_time":63000000000,"state":"active","ping":87},{"user_id":449,"name":"don't get mad","steam_id":76561198064662875,"connected_time":1274000000000,"state":"active","ping":48},{"user_id":441,"name":"^^","steam_id":76561198149902575,"connected_time":1439000000000,"state":"active","ping":69},{"user_id":398,"name":"Sax","steam_id":76561198055425123,"connected_time":3982000000000,"state":"active","ping":78},{"user_id":459,"name":"Saddam","steam_id":76561197985725267,"connected_time":342000000000,"state":"active","ping":83},{"user_id":443,"name":"Oddly Flammable","steam_id":76561198347147904,"connected_time":1430000000000,"state":"active","ping":85},{"user_id":458,"name":"Blocknight","steam_id":76561198039700915,"connected_time":448000000000,"state":"active","ping":52},{"user_id":352,"name":"Soy King","steam_id":76561198263025614,"connected_time":7771000000000,"state":"active","ping":107},{"user_id":451,"name":"Blu","steam_id":76561198011675372,"connected_time":1030000000000,"state":"active","ping":72},{"user_id":445,"name":"Perfectly Generic Object","steam_id":76561198992039900,"connected_time":1406000000000,"state":"active","ping":84},{"user_id":446,"name":"shitass (Reaping and Sowing)","steam_id":76561198210572481,"connected_time":1405000000000,"state":"active","ping":59},{"user_id":455,"name":"Tinygeracl","steam_id":76561199031313437,"connected_time":793000000000,"state":"active","ping":65},{"user_id":454,"name":"Mr_SoulSlasher","steam_id":76561198936267613,"connected_time":905000000000,"state":"active","ping":68},{"user_id":366,"name":"[Industrial] A_HUMBLEBUMBLED","steam_id":76561198064771878,"connected_time":6482000000000,"state":"active","ping":58}]},{"server_id":18,"name":"Uncletopia | San Francisco | 2 | All Maps","name_short":"sfo-2","host":"sfo-1.us.uncletopia.com","port":27025,"enabled":true,"region":"us-west","cc":"us","latitude":37.77397,"longitude":-122.4313,"reserved":0,"last_update":"0001-01-01T00:00:00Z","name_a2s":"Uncletopia | San Francisco | 2 | All Maps","protocol":17,"map":"koth_cascade","folder":"tf","game":"Team Fortress","app_id":440,"player_count":0,"max_players":24,"Bots":0,"server_type":"Dedicated","server_os":"Linux","password":true,"vac":true,"version":"7961495","steam_id":85568392924470000,"keywords":["cp","nocrits","nodmgspread","uncletopia"],"game_id":440,"stv_port":27026,"stv_name":"Uncletopia | San Francisco | 2 | All Maps | STV","players":null},{"server_id":19,"name":"Uncletopia | San Francisco | 3 | Stopwatch","name_short":"sfo-3","host":"sfo-1.us.uncletopia.com","port":27035,"enabled":true,"region":"us-west","cc":"us","latitude":37.77397,"longitude":-122.4313,"reserved":0,"last_update":"0001-01-01T00:00:00Z","name_a2s":"Uncletopia | San Francisco | 3 | Stopwatch","protocol":17,"map":"workshop/koth_ramjam_rc1.ugc459778887","folder":"tf","game":"Team Fortress","app_id":440,"player_count":0,"max_players":24,"Bots":0,"server_type":"Dedicated","server_os":"Linux","password":true,"vac":true,"version":"7961495","steam_id":85568392924742824,"keywords":["cp","nocrits","nodmgspread","uncletopia"],"game_id":440,"stv_port":27036,"stv_name":"Uncletopia | San Francisco | 3 | Stopwatch | STV","players":null},{"server_id":20,"name":"Uncletopia | San Francisco | 4 | Community","name_short":"sfo-4","host":"sfo-1.us.uncletopia.com","port":27045,"enabled":true,"region":"us-west","cc":"us","latitude":37.77397,"longitude":-122.4313,"reserved":0,"last_update":"0001-01-01T00:00:00Z","name_a2s":"Uncletopia | San Francisco | 4 | Community","protocol":17,"map":"workshop/cp_caldera_rc2.ugc2834196889","folder":"tf","game":"Team Fortress","app_id":440,"player_count":0,"max_players":24,"Bots":0,"server_type":"Dedicated","server_os":"Linux","password":true,"vac":true,"version":"7961495","steam_id":85568392924742826,"keywords":["cp","nocrits","nodmgspread","uncletopia"],"game_id":440,"stv_port":27046,"stv_name":"Uncletopia | San Francisco | 4 | Community | STV","players":null},{"server_id":141,"name":"Uncletopia | Sydney | 1 | All Maps","name_short":"syd-1","host":"syd-1.au.uncletopia.com","port":27015,"enabled":true,"region":"au","cc":"au","latitude":-33.865143,"longitude":151.2099,"reserved":0,"last_update":"0001-01-01T00:00:00Z","name_a2s":"Uncletopia | Sydney | 1 | All Maps","protocol":17,"map":"koth_viaduct","folder":"tf","game":"Team Fortress","app_id":440,"player_count":0,"max_players":24,"Bots":0,"server_type":"Dedicated","server_os":"Linux","password":true,"vac":true,"version":"7961495","steam_id":85568392924470001,"keywords":["cp","nocrits","nodmgspread","uncletopia"],"game_id":440,"stv_port":27016,"stv_name":"Uncletopia | Sydney | 1 | All Maps | STV","players":null},{"server_id":123,"name":"Uncletopia | Sydney | 2 | All Maps","name_short":"syd-2","host":"syd-1.au.uncletopia.com","port":27025,"enabled":true,"region":"au","cc":"au","latitude":-33.865143,"longitude":151.2099,"reserved":0,"last_update":"0001-01-01T00:00:00Z","name_a2s":"Uncletopia | Sydney | 2 | All Maps","protocol":17,"map":"koth_lakeside_final","folder":"tf","game":"Team Fortress","app_id":440,"player_count":0,"max_players":24,"Bots":0,"server_type":"Dedicated","server_os":"Linux","password":true,"vac":true,"version":"7961495","steam_id":85568392924470002,"keywords":["cp","nocrits","nodmgspread","uncletopia"],"game_id":440,"stv_port":27026,"stv_name":"Uncletopia | Sydney | 2 | All Maps | STV","players":null},{"server_id":395,"name":"Uncletopia | Sydney | 3 | All Maps","name_short":"syd-3","host":"syd-1.au.uncletopia.com","port":27035,"enabled":true,"region":"au","cc":"au","latitude":-33.865143,"longitude":151.2099,"reserved":0,"last_update":"0001-01-01T00:00:00Z","name_a2s":"Uncletopia | Sydney | 3 | All Maps","protocol":17,"map":"koth_cascade","folder":"tf","game":"Team Fortress","app_id":440,"player_count":0,"max_players":24,"Bots":0,"server_type":"Dedicated","server_os":"Linux","password":true,"vac":true,"version":"7961495","steam_id":85568392925194467,"keywords":["cp","nocrits","nodmgspread","uncletopia"],"game_id":440,"stv_port":27036,"stv_name":"Uncletopia | Sydney | 3 | All Maps | STV","players":null},{"server_id":396,"name":"Uncletopia | Sydney | 4 | All Maps","name_short":"syd-4","host":"syd-1.au.uncletopia.com","port":27045,"enabled":true,"region":"au","cc":"au","latitude":-33.865143,"longitude":151.2099,"reserved":0,"last_update":"0001-01-01T00:00:00Z","name_a2s":"Uncletopia | Sydney | 4 | All Maps","protocol":17,"map":"koth_lakeside_final","folder":"tf","game":"Team Fortress","app_id":440,"player_count":0,"max_players":24,"Bots":0,"server_type":"Dedicated","server_os":"Linux","password":true,"vac":true,"version":"7961495","steam_id":85568392925397958,"keywords":["cp","nocrits","nodmgspread","uncletopia"],"game_id":440,"stv_port":27046,"stv_name":"Uncletopia | Sydney | 4 | All Maps | STV","players":null},{"server_id":58,"name":"Uncletopia | Sydney | 5 | Stopwatch","name_short":"syd-5","host":"syd-1.au.uncletopia.com","port":27055,"enabled":true,"region":"au","cc":"au","latitude":-33.865143,"longitude":151.2099,"reserved":0,"last_update":"0001-01-01T00:00:00Z","name_a2s":"Uncletopia | Sydney | 5 | Stopwatch","protocol":17,"map":"workshop/pl_badwater_pro_v12.ugc2142942074","folder":"tf","game":"Team Fortress","app_id":440,"player_count":0,"max_players":24,"Bots":0,"server_type":"Dedicated","server_os":"Linux","password":true,"vac":true,"version":"7961495","steam_id":85568392925397959,"keywords":["nocrits","nodmgspread","payload","uncletopia"],"game_id":440,"stv_port":27056,"stv_name":"Uncletopia | Sydney | 5 | Stopwatch | STV","players":null},{"server_id":59,"name":"Uncletopia | Sydney | 6 | Community","name_short":"syd-6","host":"syd-1.au.uncletopia.com","port":27065,"enabled":true,"region":"au","cc":"au","latitude":-33.865143,"longitude":151.2099,"reserved":0,"last_update":"0001-01-01T00:00:00Z","name_a2s":"Uncletopia | Sydney | 6 | Community","protocol":17,"map":"workshop/koth_kemptown_rc1.ugc767410655","folder":"tf","game":"Team Fortress","app_id":440,"player_count":0,"max_players":24,"Bots":0,"server_type":"Dedicated","server_os":"Linux","password":true,"vac":true,"version":"7961495","steam_id":85568392925397960,"keywords":["cp","nocrits","nodmgspread","uncletopia"],"game_id":440,"stv_port":27066,"stv_name":"Uncletopia | Sydney | 6 | Community | STV","players":null},{"server_id":49,"name":"Uncletopia | Warsaw | 1 | All Maps","name_short":"waw-1","host":"waw-1.pl.uncletopia.com","port":27015,"enabled":true,"region":"eu","cc":"pl","latitude":52.2297,"longitude":21.017532,"reserved":0,"last_update":"0001-01-01T00:00:00Z","name_a2s":"Uncletopia | Warsaw | 1 | All Maps","protocol":17,"map":"pl_badwater","folder":"tf","game":"Team Fortress","app_id":440,"player_count":0,"max_players":24,"Bots":0,"server_type":"Dedicated","server_os":"Linux","password":true,"vac":true,"version":"7961495","steam_id":85568392925397850,"keywords":["nocrits","nodmgspread","payload","uncletopia"],"game_id":440,"stv_port":27016,"stv_name":"Uncletopia | Warsaw | 1 | All Maps | STV","players":null},{"server_id":50,"name":"Uncletopia | Warsaw | 2 | All Maps","name_short":"waw-2","host":"waw-1.pl.uncletopia.com","port":27025,"enabled":true,"region":"eu","cc":"pl","latitude":52.2297,"longitude":21.017532,"reserved":0,"last_update":"0001-01-01T00:00:00Z","name_a2s":"Uncletopia | Warsaw | 2 | All Maps","protocol":17,"map":"cp_mountainlab","folder":"tf","game":"Team Fortress","app_id":440,"player_count":0,"max_players":24,"Bots":0,"server_type":"Dedicated","server_os":"Linux","password":true,"vac":true,"version":"7961495","steam_id":85568392925397851,"keywords":["cp","nocrits","nodmgspread","uncletopia"],"game_id":440,"stv_port":27026,"stv_name":"Uncletopia | Warsaw | 2 | All Maps | STV","players":null},{"server_id":51,"name":"Uncletopia | Warsaw | 3 | All Maps","name_short":"waw-3","host":"waw-1.pl.uncletopia.com","port":27035,"enabled":true,"region":"eu","cc":"pl","latitude":52.2297,"longitude":21.017532,"reserved":0,"last_update":"0001-01-01T00:00:00Z","name_a2s":"Uncletopia | Warsaw | 3 | All Maps","protocol":17,"map":"cp_mountainlab","folder":"tf","game":"Team Fortress","app_id":440,"player_count":0,"max_players":24,"Bots":0,"server_type":"Dedicated","server_os":"Linux","password":true,"vac":true,"version":"7961495","steam_id":85568392925397852,"keywords":["cp","nocrits","nodmgspread","uncletopia"],"game_id":440,"stv_port":27036,"stv_name":"Uncletopia | Warsaw | 3 | All Maps | STV","players":null},{"server_id":52,"name":"Uncletopia | Warsaw | 4 | All Maps","name_short":"waw-4","host":"waw-1.pl.uncletopia.com","port":27045,"enabled":true,"region":"eu","cc":"pl","latitude":52.2297,"longitude":21.017532,"reserved":0,"last_update":"0001-01-01T00:00:00Z","name_a2s":"Uncletopia | Warsaw | 4 | All Maps","protocol":17,"map":"pl_barnblitz","folder":"tf","game":"Team Fortress","app_id":440,"player_count":0,"max_players":24,"Bots":0,"server_type":"Dedicated","server_os":"Linux","password":true,"vac":true,"version":"7961495","steam_id":85568392925397853,"keywords":["nocrits","nodmgspread","payload","uncletopia"],"game_id":440,"stv_port":27046,"stv_name":"Uncletopia | Warsaw | 4 | All Maps | STV","players":null},{"server_id":53,"name":"Uncletopia | Warsaw | 5 | Stopwatch","name_short":"waw-5","host":"waw-1.pl.uncletopia.com","port":27055,"enabled":true,"region":"eu","cc":"pl","latitude":52.2297,"longitude":21.017532,"reserved":0,"last_update":"0001-01-01T00:00:00Z","name_a2s":"Uncletopia | Warsaw | 5 | Stopwatch","protocol":17,"map":"workshop/cp_reckoner_rc6.ugc674719999","folder":"tf","game":"Team Fortress","app_id":440,"player_count":0,"max_players":24,"Bots":0,"server_type":"Dedicated","server_os":"Linux","password":true,"vac":true,"version":"7961495","steam_id":85568392925397854,"keywords":["cp","nocrits","nodmgspread","uncletopia"],"game_id":440,"stv_port":27056,"stv_name":"Uncletopia | Warsaw | 5 | Stopwatch | STV","players":null},{"server_id":54,"name":"Uncletopia | Warsaw | 6 | Community","name_short":"waw-6","host":"waw-1.pl.uncletopia.com","port":27065,"enabled":true,"region":"eu","cc":"pl","latitude":52.2297,"longitude":21.017532,"reserved":0,"last_update":"0001-01-01T00:00:00Z","name_a2s":"Uncletopia | Warsaw | 6 | Community","protocol":17,"map":"workshop/cp_hazyfort_rc6.ugc1365963729","folder":"tf","game":"Team Fortress","app_id":440,"player_count":0,"max_players":24,"Bots":0,"server_type":"Dedicated","server_os":"Linux","password":true,"vac":true,"version":"7961495","steam_id":85568392925397856,"keywords":["cp","nocrits","nodmgspread","uncletopia"],"game_id":440,"stv_port":27066,"stv_name":"Uncletopia | Warsaw | 6 | Community | STV","players":null}]}