{"status":true,"message":"","result":[{"server_id":9,"name":"Uncletopia | Atlanta | 1 | All Maps","name_short":"atl-1","host":"atl-1.us.uncletopia.com","port":27015,"enabled":true,"region":"us-east","cc":"us","latitude":33.753746,"longitude":-84.38633,"reserved":0,"last_update":"0001-01-01T00:00:00Z","name_a2s":"Uncletopia | Atlanta | 1 | All Maps","protocol":17,"map":"pl_barnblitz","folder":"tf","game":"Team Fortress","app_id":440,"player_count":24,"max_players":24,"Bots":0,"server_type":"Dedicated","server_os":"Linux","password":true,"vac":true,"version":"7757534","steam_id":85568392924469982,"keywords":["nocrits","nodmgspread","payload","uncletopia"],"game_id":440,"stv_port":27016,"stv_name":"Uncletopia | Atlanta | 1 | All Maps | STV","players":[{"user_id":208,"name":"GabetIV femboy","steam_id":76561198145700338,"connected_time":380000000000,"state":"active","ping":75},{"user_id":196,"name":"ThatOneDude","steam_id":76561198269184641,"connected_time":1448000000000,"state":"active","ping":90},{"user_id":207,"name":"p4ka","steam_id":76561198315291317,"connected_time":387000000000,"state":"active","ping":70},{"user_id":210,"name":"mann","steam_id":76561199406261605,"connected_time":133000000000,"state":"active","ping":82},{"user_id":195,"name":"Karma","steam_id":76561198030565234,"connected_time":1470000000000,"state":"active","ping":71},{"user_id":211,"name":"Mister","steam_id":76561198097164652,"connected_time":52000000000,"state":"active","ping":60},{"user_id":153,"name":"Shylo","steam_id":76561199276858045,"connected_time":4934000000000,"state":"active","ping":72},{"user_id":202,"name":"The Pestilence","steam_id":76561199081252282,"connected_time":853000000000,"state":"active","ping":86},{"user_id":168,"name":"Brown_Dream","steam_id":76561198975766145,"connected_time":3358000000000,"state":"active","ping":68},{"user_id":185,"name":"winton! hows it hanging?","steam_id":76561198982810452,"connected_time":1678000000000,"state":"active","ping":81},{"user_id":186,"name":"porfer","steam_id":76561199118049168,"connected_time":1658000000000,"state":"active","ping":105},{"user_id":187,"name":"Monkery Man","steam_id":76561199083374021,"connected_time":1645000000000,"state":"active","ping":46},{"user_id":165,"name":"Tyler\u0026Fingers","steam_id":76561198085154485,"connected_time":3779000000000,"state":"active","ping":87},{"user_id":108,"name":"moe5x","steam_id":76561198316877833,"connected_time":8391000000000,"state":"active","ping":141},{"user_id":189,"name":"Winter the Witchie","steam_id":76561198151971178,"connected_time":1534000000000,"state":"active","ping":88},{"user_id":204,"name":"Uganda Knuckles lll","steam_id":76561199121276474,"connected_time":731000000000,"state":"active","ping":82},{"user_id":199,"name":"Fluid.Pilot","steam_id":76561199013673082,"connected_time":1059000000000,"state":"active","ping":56},{"user_id":191,"name":"Kick Down Door 6:00AM TUCK‚òÉRO","steam_id":76561197976146738,"connected_time":1515000000000,"state":"active","ping":79},{"user_id":124,"name":"Korshal","steam_id":76561198819036121,"connected_time":6913000000000,"state":"active","ping":68},{"user_id":209,"name":"Pixler544","steam_id":76561198240575132,"connected_time":361000000000,"state":"active","ping":69},{"user_id":92,"name":"Ashes!","steam_id":76561197998475441,"connected_time":9728000000000,"state":"active","ping":77},{"user_id":176,"name":"ATL1 | Lancer Fan Club","steam_id":76561198355495948,"connected_time":2599000000000,"state":"active","ping":69},{"user_id":193,"name":"Gunspy Gaming","steam_id":76561198975909393,"connected_time":1507000000000,"state":"active","ping":99},{"user_id":194,"name":"Scum F*ck Flower Boi","steam_id":76561198397009880,"connected_time":1504000000000,"state":"active","ping":51}]},{"server_id":104,"name":"Uncletopia | Atlanta | 2 | All Maps","name_short":"atl-2","host":"atl-1.us.uncletopia.com","port":27025,"enabled":true,"region":"us-east","cc":"us","latitude":33.753746,"longitude":-84.38633,"reserved":0,"last_update":"0001-01-01T00:00:00Z","name_a2s":"Uncletopia | Atlanta | 2 | All Maps","protocol":17,"map":"pl_pier","folder":"tf","game":"Team Fortress","app_id":440,"player_count":24,"max_players":24,"Bots":0,"server_type":"Dedicated","server_os":"Linux","password":true,"vac":true,"version":"7757534","steam_id":85568392924469983,"keywords":["nocrits","nodmgspread","payload","uncletopia"],"game_id":440,"stv_port":27026,"stv_name":"Uncletopia | Atlanta | 2 | All Maps | STV","players":[{"user_id":19,"name":"blue drink","steam_id":76561199260739414,"connected_time":4080000000000,"state":"active","ping":77},{"user_id":20,"name":"ChozoChorizo","steam_id":76561198272609196,"connected_time":3903000000000,"state":"active","ping":55},{"user_id":73,"name":"Larry from Pokemon SV","steam_id":76561198095245223,"connected_time":1221000000000,"state":"active","ping":73},{"user_id":56,"name":"Ghastomight","steam_id":76561198421102483,"connected_time":2527000000000,"state":"active","ping":55},{"user_id":86,"name":"Irons","steam_id":76561198200653267,"connected_time":751000000000,"state":"active","ping":85},{"user_id":74,"name":"cactus eater","steam_id":76561199107499844,"connected_time":1134000000000,"state":"active","ping":114},{"user_id":58,"name":"Waffle Wannabe","steam_id":76561198064510650,"connected_time":2356000000000,"state":"active","ping":55},{"user_id":87,"name":"Friedrich Nietzsche","steam_id":76561199087961952,"connected_time":751000000000,"state":"active","ping":62},{"user_id":90,"name":"Someone_stole_my_fucking_toast","steam_id":76561198996788906,"connected_time":700000000000,"state":"active","ping":70},{"user_id":94,"name":"Scooter O'Boyl","steam_id":76561197971687069,"connected_time":537000000000,"state":"active","ping":69},{"user_id":77,"name":"Doctor Bear  ï ‚Ä¢·¥•‚Ä¢ î","steam_id":76561197968103161,"connected_time":1051000000000,"state":"active","ping":80},{"user_id":61,"name":"Handle On The Fridge","steam_id":76561198881228117,"connected_time":1818000000000,"state":"active","ping":95},{"user_id":64,"name":"Blitz3k","steam_id":76561198055758741,"connected_time":1719000000000,"state":"active","ping":63},{"user_id":79,"name":"EpicGamer48484","steam_id":76561199230935031,"connected_time":1023000000000,"state":"active","ping":86},{"user_id":80,"name":"hsjdg0","steam_id":76561199186180034,"connected_time":1009000000000,"state":"active","ping":132},{"user_id":37,"name":"emerge","steam_id":76561198186882891,"connected_time":2939000000000,"state":"active","ping":74},{"user_id":89,"name":"Violet42","steam_id":76561198072927887,"connected_time":740000000000,"state":"active","ping":67},{"user_id":40,"name":"the doo doo man","steam_id":76561198057076267,"connected_time":2884000000000,"state":"active","ping":63},{"user_id":48,"name":"Griffinsteed","steam_id":76561198042847912,"connected_time":2742000000000,"state":"active","ping":66},{"user_id":91,"name":"evan_is_sauce","steam_id":76561199086802383,"connected_time":673000000000,"state":"active","ping":110},{"user_id":83,"name":"avantime","steam_id":76561199203175541,"connected_time":893000000000,"state":"active","ping":108},{"user_id":88,"name":"Dylan","steam_id":76561198265522923,"connected_time":750000000000,"state":"active","ping":77},{"user_id":92,"name":"bobbymcbobington","steam_id":76561199089411172,"connected_time":644000000000,"state":"active","ping":103},{"user_id":95,"name":"Rain","steam_id":76561198074827140,"connected_time":33000000000,"state":"spawning","ping":75}]},{"server_id":400,"name":"Uncletopia | Atlanta | 3 | Community","name_short":"atl-3","host":"atl-1.us.uncletopia.com","port":27035,"enabled":true,"region":"us-east","cc":"us","latitude":33.753746,"longitude":-84.38633,"reserved":0,"last_update":"0001-01-01T00:00:00Z","name_a2s":"Uncletopia | Atlanta | 3 | Community","protocol":17,"map":"workshop/koth_bagel_rc6.ugc2514036946","folder":"tf","game":"Team Fortress","app_id":440,"player_count":24,"max_players":24,"Bots":0,"server_type":"Dedicated","server_os":"Linux","password":true,"vac":true,"version":"7757534","steam_id":85568392924515187,"keywords":["cp","nocrits","nodmgspread","uncletopia"],"game_id":440,"stv_port":27036,"stv_name":"Uncletopia | Atlanta | 3 | Community | STV","players":[{"user_id":159,"name":"Scot","steam_id":76561199114753519,"connected_time":2294000000000,"state":"active","ping":50},{"user_id":180,"name":"catrinaisahuman","steam_id":76561198281355729,"connected_time":790000000000,"state":"active","ping":76},{"user_id":193,"name":"your local forecast","steam_id":76561198042243083,"connected_time":302000000000,"state":"active","ping":53},{"user_id":194,"name":"128gb sd card","steam_id":76561198043636749,"connected_time":90000000000,"state":"active","ping":103},{"user_id":189,"name":"Rari","steam_id":76561198128537564,"connected_time":442000000000,"state":"active","ping":71},{"user_id":181,"name":"breadroll","steam_id":76561198039506482,"connected_time":747000000000,"state":"active","ping":60},{"user_id":156,"name":"Kebibble","steam_id":76561198800039751,"connected_time":2373000000000,"state":"active","ping":76},{"user_id":109,"name":"Xan Hathaway","steam_id":76561198069816677,"connected_time":5633000000000,"state":"active","ping":79},{"user_id":162,"name":"bob","steam_id":76561199006992531,"connected_time":2216000000000,"state":"active","ping":85},{"user_id":176,"name":"unsubtract","steam_id":76561198865158742,"connected_time":1435000000000,"state":"active","ping":77},{"user_id":177,"name":"bojack from the show bojack hor","steam_id":76561198053006712,"connected_time":1406000000000,"state":"active","ping":60},{"user_id":182,"name":"DamerDoozle","steam_id":76561199121686201,"connected_time":615000000000,"state":"active","ping":79},{"user_id":164,"name":"[DEEP]able","steam_id":76561198292552182,"connected_time":2114000000000,"state":"active","ping":98},{"user_id":190,"name":"rivera","steam_id":76561198051058706,"connected_time":418000000000,"state":"active","ping":58},{"user_id":183,"name":"scocs","steam_id":76561198983694250,"connected_time":607000000000,"state":"active","ping":105},{"user_id":184,"name":"Shattered Glass","steam_id":76561198116835391,"connected_time":579000000000,"state":"active","ping":85},{"user_id":191,"name":"Baron of Fleas","steam_id":76561199120656064,"connected_time":360000000000,"state":"active","ping":78},{"user_id":166,"name":"peeps flavored pepsi","steam_id":76561198814647884,"connected_time":1998000000000,"state":"active","ping":61},{"user_id":60,"name":"Kosmonot","steam_id":76561198225342992,"connected_time":8267000000000,"state":"active","ping":78},{"user_id":126,"name":"GaMeRbOi","steam_id":76561199094353617,"connected_time":4618000000000,"state":"active","ping":124},{"user_id":186,"name":"legalizme223","steam_id":76561198051698391,"connected_time":550000000000,"state":"active","ping":91},{"user_id":192,"name":"Mcfighter2","steam_id":76561198168073956,"connected_time":328000000000,"state":"active","ping":71},{"user_id":188,"name":"Pathara44","steam_id":76561198048238620,"connected_time":519000000000,"state":"active","ping":83},{"user_id":171,"name":"Ectomonkey","steam_id":76561198125417062,"connected_time":1830000000000,"state":"active","ping":116}]},{"server_id":401,"name":"Uncletopia | Atlanta | 4 | No Payload","name_short":"atl-4","host":"atl-1.us.uncletopia.com","port":27045,"enabled":true,"region":"us-east","cc":"us","latitude":33.753746,"longitude":-84.38633,"reserved":0,"last_update":"0001-01-01T00:00:00Z","name_a2s":"","protocol":0,"map":"","folder":"","game":"","app_id":0,"player_count":0,"max_players":0,"Bots":0,"server_type":"","server_os":"","password":false,"vac":false,"version":"","steam_id":0,"keywords":null,"game_id":0,"stv_port":0,"stv_name":"","players":null},{"server_id":2,"name":"Uncletopia | Chicago | 1 | All Maps","name_short":"chi-1","host":"chi-1.us.uncletopia.com","port":27015,"enabled":true,"region":"us-central","cc":"us","latitude":41.881832,"longitude":-87.62318,"reserved":0,"last_update":"0001-01-01T00:00:00Z","name_a2s":"Uncletopia | Chicago | 1 | All Maps","protocol":17,"map":"pl_badwater","folder":"tf","game":"Team Fortress","app_id":440,"player_count":25,"max_players":24,"Bots":0,"server_type":"Dedicated","server_os":"Linux","password":true,"vac":true,"version":"7757534","steam_id":85568392924469984,"keywords":["nocrits","nodmgspread","payload","uncletopia"],"game_id":440,"stv_port":27016,"stv_name":"Uncletopia | Chicago | 1 | All Maps | STV","players":[{"user_id":178,"name":"mrselfdestruct13","steam_id":76561197992054553,"connected_time":3632000000000,"state":"active","ping":77},{"user_id":252,"name":"sugmaballs","steam_id":76561199088074927,"connected_time":51000000000,"state":"active","ping":198},{"user_id":200,"name":"Lavalace","steam_id":76561198073757592,"connected_time":2326000000000,"state":"active","ping":128},{"user_id":209,"name":"Bozanimal","steam_id":76561198044096897,"connected_time":1658000000000,"state":"active","ping":50},{"user_id":225,"name":"MajorGeneral","steam_id":76561198096725670,"connected_time":680000000000,"state":"active","ping":60},{"user_id":163,"name":"WrongKeyo360","steam_id":76561198346752693,"connected_time":5917000000000,"state":"active","ping":94},{"user_id":249,"name":"The Fiend","steam_id":76561199229771413,"connected_time":149000000000,"state":"active","ping":72},{"user_id":244,"name":"threethree","steam_id":76561198177354155,"connected_time":246000000000,"state":"active","ping":72},{"user_id":206,"name":"Hylic","steam_id":76561199051314589,"connected_time":1691000000000,"state":"active","ping":60},{"user_id":210,"name":"Milo","steam_id":76561198870491380,"connected_time":1543000000000,"state":"active","ping":75},{"user_id":253,"name":"Meringue","steam_id":76561198067899943,"connected_time":42000000000,"state":"active","ping":127},{"user_id":223,"name":"bruiseraaron","steam_id":76561198020092380,"connected_time":881000000000,"state":"active","ping":57},{"user_id":207,"name":"‚ô•Katie‚ô•","steam_id":76561199480766839,"connected_time":1676000000000,"state":"active","ping":70},{"user_id":184,"name":"Rornir","steam_id":76561198081829615,"connected_time":3508000000000,"state":"active","ping":42},{"user_id":254,"name":"Nickel (28)","steam_id":76561199082683456,"connected_time":5000000000,"state":"spawning","ping":181},{"user_id":217,"name":"Beast_727","steam_id":76561198390289197,"connected_time":1315000000000,"state":"active","ping":57},{"user_id":250,"name":"Camfour","steam_id":76561198083090140,"connected_time":94000000000,"state":"active","ping":114},{"user_id":139,"name":"Darling","steam_id":76561198127525888,"connected_time":7439000000000,"state":"active","ping":76},{"user_id":245,"name":"Sunflower","steam_id":76561198081223793,"connected_time":241000000000,"state":"active","ping":58},{"user_id":194,"name":"slop","steam_id":76561198199803242,"connected_time":2789000000000,"state":"active","ping":77},{"user_id":214,"name":"Babyface","steam_id":76561199240579044,"connected_time":1467000000000,"state":"active","ping":79},{"user_id":229,"name":"tropis","steam_id":76561198067365603,"connected_time":608000000000,"state":"active","ping":60},{"user_id":246,"name":"kogundy","steam_id":76561198449012128,"connected_time":215000000000,"state":"active","ping":119},{"user_id":179,"name":"Thy.Roid","steam_id":76561198122291992,"connected_time":3632000000000,"state":"active","ping":59},{"user_id":221,"name":"Talented","steam_id":76561198800259660,"connected_time":981000000000,"state":"active","ping":75}]},{"server_id":106,"name":"Uncletopia | Chicago | 2 | All Maps","name_short":"chi-2","host":"chi-1.us.uncletopia.com","port":27025,"enabled":true,"region":"us-central","cc":"us","latitude":41.881832,"longitude":-87.62318,"reserved":0,"last_update":"0001-01-01T00:00:00Z","name_a2s":"Uncletopia | Chicago | 2 | All Maps","protocol":17,"map":"pl_badwater","folder":"tf","game":"Team Fortress","app_id":440,"player_count":24,"max_players":24,"Bots":0,"server_type":"Dedicated","server_os":"Linux","password":true,"vac":true,"version":"7757534","steam_id":85568392924469985,"keywords":["nocrits","nodmgspread","payload","uncletopia"],"game_id":440,"stv_port":27026,"stv_name":"Uncletopia | Chicago | 2 | All Maps | STV","players":[{"user_id":297,"name":"Immo","steam_id":76561197992286600,"connected_time":606000000000,"state":"active","ping":70},{"user_id":288,"name":"Asanez3","steam_id":76561198037381436,"connected_time":1185000000000,"state":"active","ping":77},{"user_id":270,"name":"indigo drakon","steam_id":76561198076364296,"connected_time":2157000000000,"state":"active","ping":74},{"user_id":299,"name":"Doppelpunkt","steam_id":76561198102137730,"connected_time":467000000000,"state":"active","ping":54},{"user_id":293,"name":"COKEISBAD","steam_id":76561198443746507,"connected_time":1001000000000,"state":"active","ping":70},{"user_id":263,"name":"RyInc","steam_id":76561198874261643,"connected_time":2469000000000,"state":"active","ping":44},{"user_id":264,"name":"Ac√≥manas","steam_id":76561199031977210,"connected_time":2440000000000,"state":"active","ping":70},{"user_id":256,"name":"CreativeUsername","steam_id":76561198186045503,"connected_time":3409000000000,"state":"active","ping":52},{"user_id":285,"name":"TurkeyJuice","steam_id":76561198193109422,"connected_time":1374000000000,"state":"active","ping":71},{"user_id":275,"name":"Jho-oh","steam_id":76561198062473436,"connected_time":1935000000000,"state":"active","ping":74},{"user_id":298,"name":"Demoman With One Joke","steam_id":76561197993467034,"connected_time":600000000000,"state":"active","ping":52},{"user_id":276,"name":"ultralisk52","steam_id":76561198051666604,"connected_time":1890000000000,"state":"active","ping":64},{"user_id":295,"name":"Ninjaflam567","steam_id":76561198860095816,"connected_time":670000000000,"state":"active","ping":119},{"user_id":296,"name":"girlthing","steam_id":76561198799922000,"connected_time":641000000000,"state":"active","ping":105},{"user_id":290,"name":"Peepster","steam_id":76561198297854733,"connected_time":1164000000000,"state":"active","ping":74},{"user_id":284,"name":"kablong","steam_id":76561199094392047,"connected_time":1553000000000,"state":"active","ping":85},{"user_id":279,"name":"Bingo Oklahoma","steam_id":76561198991982630,"connected_time":1844000000000,"state":"active","ping":59},{"user_id":280,"name":"Ros","steam_id":76561199055963822,"connected_time":1840000000000,"state":"active","ping":72},{"user_id":249,"name":"Schizo, Second Elden Lord","steam_id":76561198397662124,"connected_time":3954000000000,"state":"active","ping":90},{"user_id":283,"name":"Rukks","steam_id":76561197993918954,"connected_time":1597000000000,"state":"active","ping":87},{"user_id":260,"name":"SmokeyGalaxy","steam_id":76561198118780516,"connected_time":2749000000000,"state":"active","ping":81},{"user_id":250,"name":"UrFavFemboy","steam_id":76561199140460467,"connected_time":3950000000000,"state":"active","ping":161},{"user_id":232,"name":"Garfield","steam_id":76561198037803087,"connected_time":4812000000000,"state":"active","ping":80},{"user_id":282,"name":"Lonely Friendless Gamer","steam_id":76561198046728155,"connected_time":1660000000000,"state":"active","ping":46}]},{"server_id":402,"name":"Uncletopia | Chicago | 3 | All Maps","name_short":"chi-3","host":"chi-1.us.uncletopia.com","port":27035,"enabled":true,"region":"us-central","cc":"us","latitude":41.881832,"longitude":-87.62318,"reserved":0,"last_update":"0001-01-01T00:00:00Z","name_a2s":"Uncletopia | Chicago | 3 | All Maps","protocol":17,"map":"pl_badwater","folder":"tf","game":"Team Fortress","app_id":440,"player_count":24,"max_players":24,"Bots":0,"server_type":"Dedicated","server_os":"Linux","password":true,"vac":true,"version":"7757534","steam_id":85568392924515191,"keywords":["nocrits","nodmgspread","payload","uncletopia"],"game_id":440,"stv_port":27036,"stv_name":"Uncletopia | Chicago | 3 | All Maps | STV","players":[{"user_id":17,"name":"The Unbread","steam_id":76561198859615088,"connected_time":3072000000000,"state":"active","ping":64},{"user_id":18,"name":"Lightatex","steam_id":76561199068097196,"connected_time":3018000000000,"state":"active","ping":56},{"user_id":19,"name":"volta","steam_id":76561199214283884,"connected_time":2866000000000,"state":"active","ping":102},{"user_id":55,"name":"Im totally a hacker","steam_id":76561198888005736,"connected_time":544000000000,"state":"active","ping":65},{"user_id":47,"name":"Holdie","steam_id":76561198070378200,"connected_time":1580000000000,"state":"active","ping":58},{"user_id":35,"name":"Rhutebeer","steam_id":76561198018302761,"connected_time":2205000000000,"state":"active","ping":101},{"user_id":42,"name":"Evolution","steam_id":76561198144767370,"connected_time":1899000000000,"state":"active","ping":46},{"user_id":60,"name":"cass","steam_id":76561198074502046,"connected_time":427000000000,"state":"active","ping":73},{"user_id":54,"name":"Cassius","steam_id":76561198146163328,"connected_time":668000000000,"state":"active","ping":74},{"user_id":27,"name":"nnobi","steam_id":76561198878729277,"connected_time":2569000000000,"state":"active","ping":77},{"user_id":28,"name":"scrotal recall","steam_id":76561198135945598,"connected_time":2506000000000,"state":"active","ping":68},{"user_id":44,"name":"VixianUwU „ÉÉ ‚ù§","steam_id":76561198948815060,"connected_time":1878000000000,"state":"active","ping":81},{"user_id":52,"name":"Dr. Hax","steam_id":76561198007445986,"connected_time":1284000000000,"state":"active","ping":93},{"user_id":31,"name":"silly little guy","steam_id":76561198300349976,"connected_time":2394000000000,"state":"active","ping":86},{"user_id":32,"name":"can you hear it","steam_id":76561198379808804,"connected_time":2389000000000,"state":"active","ping":98},{"user_id":56,"name":"tinkercrab11","steam_id":76561198881792140,"connected_time":534000000000,"state":"active","ping":79},{"user_id":53,"name":"cheetaz","steam_id":76561198224614084,"connected_time":1283000000000,"state":"active","ping":74},{"user_id":36,"name":"Stew Eater","steam_id":76561198978307159,"connected_time":2179000000000,"state":"active","ping":71},{"user_id":49,"name":"LocaKola","steam_id":76561198173435430,"connected_time":1486000000000,"state":"active","ping":76},{"user_id":61,"name":"Daddy Topps","steam_id":76561198203594332,"connected_time":427000000000,"state":"active","ping":80},{"user_id":40,"name":"BattleWriter","steam_id":76561198059618706,"connected_time":2016000000000,"state":"active","ping":59},{"user_id":41,"name":"Hot Milk + Sweet Delight","steam_id":76561197988989149,"connected_time":1983000000000,"state":"active","ping":80},{"user_id":43,"name":"StraySheep","steam_id":76561198256003811,"connected_time":1895000000000,"state":"active","ping":70},{"user_id":58,"name":"Grumpy","steam_id":76561198039465859,"connected_time":529000000000,"state":"active","ping":72}]},{"server_id":403,"name":"Uncletopia | Chicago | 4 | All Maps","name_short":"chi-4","host":"chi-1.us.uncletopia.com","port":27045,"enabled":true,"region":"us-central","cc":"us","latitude":41.881832,"longitude":-87.62318,"reserved":0,"last_update":"0001-01-01T00:00:00Z","name_a2s":"Uncletopia | Chicago | 4 | All Maps","protocol":17,"map":"pl_swiftwater_final1","folder":"tf","game":"Team Fortress","app_id":440,"player_count":24,"max_players":24,"Bots":0,"server_type":"Dedicated","server_os":"Linux","password":true,"vac":true,"version":"7757534","steam_id":85568392924515193,"keywords":["nocrits","nodmgspread","payload","uncletopia"],"game_id":440,"stv_port":27046,"stv_name":"Uncletopia | Chicago | 4 | All Maps | STV","players":[{"user_id":250,"name":"Slurpsie","steam_id":76561199059342667,"connected_time":1296000000000,"state":"active","ping":49},{"user_id":237,"name":"Stale Molly Water","steam_id":76561198115305531,"connected_time":1746000000000,"state":"active","ping":75},{"user_id":258,"name":"ÔºîÔºê Ôº¶Ôº∞Ôº≥","steam_id":76561198272394965,"connected_time":552000000000,"state":"active","ping":126},{"user_id":214,"name":"scottish resistance enjoyer","steam_id":76561198053164901,"connected_time":2895000000000,"state":"active","ping":59},{"user_id":263,"name":"derz","steam_id":76561198010742216,"connected_time":152000000000,"state":"active","ping":59},{"user_id":236,"name":"Pep Seeman","steam_id":76561198038393007,"connected_time":1792000000000,"state":"active","ping":50},{"user_id":252,"name":"kazoo2","steam_id":76561198260473504,"connected_time":1272000000000,"state":"active","ping":122},{"user_id":225,"name":"Tlaloc","steam_id":76561198375215983,"connected_time":2533000000000,"state":"active","ping":124},{"user_id":238,"name":"ClickityShiba","steam_id":76561199381626991,"connected_time":1744000000000,"state":"active","ping":75},{"user_id":239,"name":"Vacc Onetrick","steam_id":76561198207987376,"connected_time":1735000000000,"state":"active","ping":64},{"user_id":260,"name":"pingus","steam_id":76561198268995867,"connected_time":261000000000,"state":"active","ping":112},{"user_id":69,"name":"Corpe","steam_id":76561198054490549,"connected_time":13630000000000,"state":"active","ping":104},{"user_id":249,"name":"R3N3G4D3_","steam_id":76561197996877881,"connected_time":1319000000000,"state":"active","ping":82},{"user_id":266,"name":"rumidog","steam_id":76561198046896005,"connected_time":64000000000,"state":"active","ping":88},{"user_id":220,"name":"Metapod","steam_id":76561198008725465,"connected_time":2787000000000,"state":"active","ping":77},{"user_id":244,"name":"Aeris","steam_id":76561198287271028,"connected_time":1584000000000,"state":"active","ping":56},{"user_id":264,"name":"God's Drunkest Driver","steam_id":76561198165175875,"connected_time":139000000000,"state":"active","ping":51},{"user_id":265,"name":"Goober","steam_id":76561198988863807,"connected_time":85000000000,"state":"active","ping":79},{"user_id":144,"name":"liftin'","steam_id":76561199089515791,"connected_time":7775000000000,"state":"active","ping":100},{"user_id":29,"name":"YUMMY MED PICK","steam_id":76561199445629071,"connected_time":16856000000000,"state":"active","ping":61},{"user_id":261,"name":"„Ç¥?!Jon Chainsaw!?„Ç¥","steam_id":76561198400240040,"connected_time":259000000000,"state":"active","ping":74},{"user_id":212,"name":"proud_asian","steam_id":76561198977973083,"connected_time":3663000000000,"state":"active","ping":50},{"user_id":246,"name":"duck=life","steam_id":76561198122020886,"connected_time":1521000000000,"state":"active","ping":67},{"user_id":262,"name":"cobainradiohead","steam_id":76561198347619890,"connected_time":254000000000,"state":"active","ping":112}]},{"server_id":36,"name":"Uncletopia | Chicago | 5 | All Maps","name_short":"chi-5","host":"chi-2.us.uncletopia.com","port":27015,"enabled":true,"region":"us-central","cc":"us","latitude":41.881832,"longitude":-87.62318,"reserved":0,"last_update":"0001-01-01T00:00:00Z","name_a2s":"Uncletopia | Chicago | 5 | All Maps","protocol":17,"map":"koth_cascade","folder":"tf","game":"Team Fortress","app_id":440,"player_count":0,"max_players":24,"Bots":0,"server_type":"Dedicated","server_os":"Linux","password":true,"vac":true,"version":"7757534","steam_id":85568392924866362,"keywords":["cp","nocrits","nodmgspread","uncletopia"],"game_id":440,"stv_port":27016,"stv_name":"Uncletopia | Chicago | 5 | All Maps | STV","players":null},{"server_id":37,"name":"Uncletopia | Chicago | 6 | All Maps","name_short":"chi-6","host":"chi-2.us.uncletopia.com","port":27025,"enabled":true,"region":"us-central","cc":"us","latitude":41.881832,"longitude":-87.62318,"reserved":0,"last_update":"0001-01-01T00:00:00Z","name_a2s":"Uncletopia | Chicago | 6 | All Maps","protocol":17,"map":"koth_lakeside_final","folder":"tf","game":"Team Fortress","app_id":440,"player_count":0,"max_players":24,"Bots":0,"server_type":"Dedicated","server_os":"Linux","password":true,"vac":true,"version":"7757534","steam_id":85568392924866363,"keywords":["cp","nocrits","nodmgspread","uncletopia"],"game_id":440,"stv_port":27026,"stv_name":"Uncletopia | Chicago | 6 | All Maps | STV","players":null},{"server_id":38,"name":"Uncletopia | Chicago | 7 | Stopwatch Beta","name_short":"chi-7","host":"chi-2.us.uncletopia.com","port":27035,"enabled":true,"region":"us-central","cc":"us","latitude":41.881832,"longitude":-87.62318,"reserved":0,"last_update":"0001-01-01T00:00:00Z","name_a2s":"Uncletopia | Chicago | 7 | Stopwatch Beta","protocol":17,"map":"pl_swiftwater_final1","folder":"tf","game":"Team Fortress","app_id":440,"player_count":0,"max_players":24,"Bots":0,"server_type":"Dedicated","server_os":"Linux","password":true,"vac":true,"version":"7757534","steam_id":85568392924866364,"keywords":["nocrits","nodmgspread","payload","uncletopia"],"game_id":440,"stv_port":27036,"stv_name":"Uncletopia | Chicago | 7 | Stopwatch Beta | STV","players":null},{"server_id":39,"name":"Uncletopia | Chicago | 8 | Community","name_short":"chi-8","host":"chi-2.us.uncletopia.com","port":27045,"enabled":true,"region":"us-central","cc":"us","latitude":41.881832,"longitude":-87.62318,"reserved":0,"last_update":"0001-01-01T00:00:00Z","name_a2s":"Uncletopia | Chicago | 8 | Community","protocol":17,"map":"koth_cascade","folder":"tf","game":"Team Fortress","app_id":440,"player_count":0,"max_players":24,"Bots":0,"server_type":"Dedicated","server_os":"Linux","password":true,"vac":true,"version":"7757534","steam_id":85568392924866365,"keywords":["cp","nocrits","nodmgspread","uncletopia"],"game_id":440,"stv_port":27046,"stv_name":"Uncletopia | Chicago | 8 | Community | STV","players":null},{"server_id":8,"name":"Uncletopia | Dallas | 1 | All Maps","name_short":"dal-1","host":"dal-1.us.uncletopia.com","port":27015,"enabled":true,"region":"us-central","cc":"us","latitude":32.779167,"longitude":-96.80889,"reserved":0,"last_update":"0001-01-01T00:00:00Z","name_a2s":"Uncletopia | Dallas | 1 | All Maps","protocol":17,"map":"koth_highpass","folder":"tf","game":"Team Fortress","app_id":440,"player_count":3,"max_players":24,"Bots":0,"server_type":"Dedicated","server_os":"Linux","password":true,"vac":true,"version":"7757534","steam_id":85568392924469986,"keywords":["cp","nocrits","nodmgspread","uncletopia"],"game_id":440,"stv_port":27016,"stv_name":"Uncletopia | Dallas | 1 | All Maps | STV","players":[{"user_id":23,"name":"fish lover woman fearer","steam_id":76561198241061928,"connected_time":570000000000,"state":"active","ping":57},{"user_id":24,"name":"WhoWee","steam_id":76561198269471732,"connected_time":140000000000,"state":"active","ping":49},{"user_id":25,"name":"NatePlayz97(Twitch)","steam_id":76561198184494979,"connected_time":2000000000,"state":"spawning","ping":82}]},{"server_id":108,"name":"Uncletopia | Dallas | 2 | All Maps","name_short":"dal-2","host":"dal-1.us.uncletopia.com","port":27025,"enabled":true,"region":"us-central","cc":"us","latitude":32.779167,"longitude":-96.80889,"reserved":0,"last_update":"0001-01-01T00:00:00Z","name_a2s":"Uncletopia | Dallas | 2 | All Maps","protocol":17,"map":"koth_lakeside_final","folder":"tf","game":"Team Fortress","app_id":440,"player_count":1,"max_players":24,"Bots":0,"server_type":"Dedicated","server_os":"Linux","password":true,"vac":true,"version":"7757534","steam_id":85568392924469988,"keywords":["cp","nocrits","nodmgspread","uncletopia"],"game_id":440,"stv_port":27026,"stv_name":"Uncletopia | Dallas | 2 | All Maps | STV","players":[{"user_id":28,"name":"zanealcannon","steam_id":76561198409950668,"connected_time":1936000000000,"state":"active","ping":81}]},{"server_id":5,"name":"Uncletopia | Frankfurt | 1 | All Maps","name_short":"frk-1","host":"frk-1.de.uncletopia.com","port":27015,"enabled":true,"region":"eu","cc":"de","latitude":50.110924,"longitude":8.682127,"reserved":0,"last_update":"0001-01-01T00:00:00Z","name_a2s":"Uncletopia | Frankfurt | 1 | All Maps","protocol":17,"map":"pl_swiftwater_final1","folder":"tf","game":"Team Fortress","app_id":440,"player_count":24,"max_players":24,"Bots":0,"server_type":"Dedicated","server_os":"Linux","password":true,"vac":true,"version":"7757534","steam_id":85568392924469989,"keywords":["nocrits","nodmgspread","payload","uncletopia"],"game_id":440,"stv_port":27016,"stv_name":"Uncletopia | Frankfurt | 1 | All Maps | STV","players":[{"user_id":212,"name":"dollar foot long","steam_id":76561199250808808,"connected_time":3586000000000,"state":"active","ping":74},{"user_id":258,"name":"Rigby","steam_id":76561198021552128,"connected_time":1291000000000,"state":"active","ping":97},{"user_id":262,"name":"The Unreal Slim Shady","steam_id":76561198110470565,"connected_time":903000000000,"state":"active","ping":99},{"user_id":252,"name":"a straight white male","steam_id":76561198381120660,"connected_time":1430000000000,"state":"active","ping":85},{"user_id":220,"name":"Wiseguy","steam_id":76561198183175539,"connected_time":3263000000000,"state":"active","ping":81},{"user_id":264,"name":"Von.K","steam_id":76561199226726501,"connected_time":240000000000,"state":"active","ping":73},{"user_id":265,"name":"Beardface31","steam_id":76561198009000764,"connected_time":149000000000,"state":"active","ping":188},{"user_id":240,"name":"Nunez Enjoyer","steam_id":76561198138558005,"connected_time":2488000000000,"state":"active","ping":65},{"user_id":201,"name":"RussianPingLord","steam_id":76561199055517485,"connected_time":3958000000000,"state":"active","ping":97},{"user_id":205,"name":"TimRam","steam_id":76561199026689004,"connected_time":3873000000000,"state":"active","ping":110},{"user_id":266,"name":"Somesadkid","steam_id":76561198432663499,"connected_time":139000000000,"state":"active","ping":61},{"user_id":267,"name":"commetteri","steam_id":76561198334136396,"connected_time":132000000000,"state":"active","ping":52},{"user_id":246,"name":"Soerlssoelss√∂en","steam_id":76561197993060585,"connected_time":2113000000000,"state":"active","ping":75},{"user_id":245,"name":"SocialistBacon","steam_id":76561198055872267,"connected_time":2180000000000,"state":"active","ping":65},{"user_id":194,"name":"Mega virgin","steam_id":76561198868365196,"connected_time":4468000000000,"state":"active","ping":112},{"user_id":268,"name":"Dr. Chapsticky","steam_id":76561198148185178,"connected_time":122000000000,"state":"active","ping":70},{"user_id":269,"name":"ric_dances_mambo","steam_id":76561198010084548,"connected_time":108000000000,"state":"active","ping":87},{"user_id":254,"name":"Seal","steam_id":76561198093461170,"connected_time":1423000000000,"state":"active","ping":57},{"user_id":225,"name":"finbar","steam_id":76561198056812396,"connected_time":3129000000000,"state":"active","ping":78},{"user_id":242,"name":"Old Beavis","steam_id":76561198065951617,"connected_time":2471000000000,"state":"active","ping":65},{"user_id":244,"name":"Magirby","steam_id":76561198818777390,"connected_time":2320000000000,"state":"active","ping":107},{"user_id":253,"name":"mmlock","steam_id":76561198069516191,"connected_time":1425000000000,"state":"active","ping":48},{"user_id":270,"name":"TJ1212","steam_id":76561199013575313,"connected_time":50000000000,"state":"active","ping":63},{"user_id":260,"name":"Penis Contortionist","steam_id":76561198073663784,"connected_time":1191000000000,"state":"active","ping":57}]},{"server_id":110,"name":"Uncletopia | Frankfurt | 2 | All Maps","name_short":"frk-2","host":"frk-1.de.uncletopia.com","port":27025,"enabled":true,"region":"eu","cc":"de","latitude":50.110924,"longitude":8.682127,"reserved":0,"last_update":"0001-01-01T00:00:00Z","name_a2s":"Uncletopia | Frankfurt | 2 | All Maps","protocol":17,"map":"cp_mountainlab","folder":"tf","game":"Team Fortress","app_id":440,"player_count":24,"max_players":24,"Bots":0,"server_type":"Dedicated","server_os":"Linux","password":true,"vac":true,"version":"7757534","steam_id":85568392924469990,"keywords":["cp","nocrits","nodmgspread","uncletopia"],"game_id":440,"stv_port":27026,"stv_name":"Uncletopia | Frankfurt | 2 | All Maps | STV","players":[{"user_id":288,"name":"rkgk","steam_id":76561198043129213,"connected_time":1470000000000,"state":"active","ping":55},{"user_id":297,"name":"Counter Plexus","steam_id":76561198081479942,"connected_time":649000000000,"state":"active","ping":88},{"user_id":308,"name":"Biggest Boss [Knockout]","steam_id":76561198044387120,"connected_time":329000000000,"state":"active","ping":81},{"user_id":292,"name":"Dex","steam_id":76561197972438196,"connected_time":1188000000000,"state":"active","ping":61},{"user_id":298,"name":"Drix","steam_id":76561198056810212,"connected_time":634000000000,"state":"active","ping":68},{"user_id":301,"name":"invaliden stra·∫ûe","steam_id":76561198048250715,"connected_time":592000000000,"state":"active","ping":45},{"user_id":309,"name":"IIIIIIIIII","steam_id":76561198882591193,"connected_time":198000000000,"state":"active","ping":158},{"user_id":275,"name":"JohkupohkuXD","steam_id":76561198391108762,"connected_time":1919000000000,"state":"active","ping":82},{"user_id":295,"name":"Lassmottag","steam_id":76561198033845455,"connected_time":765000000000,"state":"active","ping":85},{"user_id":305,"name":"gedrmtyo4p5ijyekdmrg","steam_id":76561198006254783,"connected_time":443000000000,"state":"active","ping":80},{"user_id":282,"name":"P√¶b√¶s","steam_id":76561198088369219,"connected_time":1760000000000,"state":"active","ping":78},{"user_id":306,"name":"tralalaOuiOui","steam_id":76561197963471507,"connected_time":371000000000,"state":"active","ping":59},{"user_id":257,"name":"Virgineer","steam_id":76561199140814522,"connected_time":2858000000000,"state":"active","ping":90},{"user_id":299,"name":"matak","steam_id":76561198155597551,"connected_time":622000000000,"state":"active","ping":51},{"user_id":307,"name":"Draku","steam_id":76561198129801642,"connected_time":370000000000,"state":"active","ping":85},{"user_id":302,"name":"cinny","steam_id":76561198832112629,"connected_time":570000000000,"state":"active","ping":82},{"user_id":310,"name":"Frager #pizdaaim","steam_id":76561198323411853,"connected_time":162000000000,"state":"active","ping":75},{"user_id":303,"name":"Adrenaline","steam_id":76561197970852048,"connected_time":569000000000,"state":"active","ping":63},{"user_id":279,"name":"Spaenny","steam_id":76561198035850165,"connected_time":1811000000000,"state":"active","ping":61},{"user_id":223,"name":"Moe Jama","steam_id":76561198021676997,"connected_time":5642000000000,"state":"active","ping":79},{"user_id":286,"name":"The Wolf Leader","steam_id":76561198038007462,"connected_time":1499000000000,"state":"active","ping":66},{"user_id":300,"name":"mimi","steam_id":76561198060648946,"connected_time":620000000000,"state":"active","ping":60},{"user_id":311,"name":"Purdue Peter","steam_id":76561198071525492,"connected_time":151000000000,"state":"active","ping":45},{"user_id":304,"name":"Practice","steam_id":76561198104765420,"connected_time":547000000000,"state":"active","ping":57}]},{"server_id":308,"name":"Uncletopia | Frankfurt | 3 | All Maps","name_short":"frk-3","host":"frk-1.de.uncletopia.com","port":27035,"enabled":true,"region":"eu","cc":"de","latitude":50.110924,"longitude":8.682127,"reserved":0,"last_update":"0001-01-01T00:00:00Z","name_a2s":"Uncletopia | Frankfurt | 3 | All Maps","protocol":17,"map":"cp_process_final","folder":"tf","game":"Team Fortress","app_id":440,"player_count":0,"max_players":24,"Bots":0,"server_type":"Dedicated","server_os":"Linux","password":true,"vac":true,"version":"7757534","steam_id":85568392924504274,"keywords":["cp","nocrits","nodmgspread","uncletopia"],"game_id":440,"stv_port":27036,"stv_name":"Uncletopia | Frankfurt | 3 | All Maps | STV","players":null},{"server_id":309,"name":"Uncletopia | Frankfurt | 4 | All Maps","name_short":"frk-4","host":"frk-1.de.uncletopia.com","port":27045,"enabled":true,"region":"eu","cc":"de","latitude":50.110924,"longitude":8.682127,"reserved":0,"last_update":"0001-01-01T00:00:00Z","name_a2s":"Uncletopia | Frankfurt | 4 | All Maps","protocol":17,"map":"pl_snowycoast","folder":"tf","game":"Team Fortress","app_id":440,"player_count":24,"max_players":24,"Bots":0,"server_type":"Dedicated","server_os":"Linux","password":true,"vac":true,"version":"7757534","steam_id":85568392924504275,"keywords":["nocrits","nodmgspread","payload","uncletopia"],"game_id":440,"stv_port":27046,"stv_name":"Uncletopia | Frankfurt | 4 | All Maps | STV","players":[{"user_id":129,"name":"Big Tits","steam_id":76561198071226377,"connected_time":1126000000000,"state":"active","ping":68},{"user_id":122,"name":"Ankle Dane","steam_id":76561198134378108,"connected_time":1938000000000,"state":"active","ping":80},{"user_id":146,"name":"Cak3","steam_id":76561198012633295,"connected_time":204000000000,"state":"active","ping":75},{"user_id":123,"name":"[O\u0026O]YaboiDucki","steam_id":76561198195976589,"connected_time":1884000000000,"state":"active","ping":71},{"user_id":130,"name":"ttk","steam_id":76561198094684065,"connected_time":1117000000000,"state":"active","ping":66},{"user_id":115,"name":"SaltyCupcakes","steam_id":76561198256386417,"connected_time":2434000000000,"state":"active","ping":55},{"user_id":141,"name":"Hegyi tah√≥ F2P","steam_id":76561199219150356,"connected_time":561000000000,"state":"active","ping":66},{"user_id":91,"name":"After8","steam_id":76561198090750865,"connected_time":3967000000000,"state":"active","ping":73},{"user_id":132,"name":"Mashins","steam_id":76561198080580511,"connected_time":1106000000000,"state":"active","ping":67},{"user_id":31,"name":"Quuri_","steam_id":76561198155780752,"connected_time":8723000000000,"state":"active","ping":65},{"user_id":133,"name":"emptysoul","steam_id":76561198037810091,"connected_time":1090000000000,"state":"active","ping":169},{"user_id":37,"name":"Carrot Arc","steam_id":76561198164957006,"connected_time":8334000000000,"state":"active","ping":97},{"user_id":59,"name":"KFD","steam_id":76561198157183003,"connected_time":6967000000000,"state":"active","ping":79},{"user_id":126,"name":"dunduu","steam_id":76561198875240717,"connected_time":1734000000000,"state":"active","ping":61},{"user_id":127,"name":"Eyencia","steam_id":76561198834995822,"connected_time":1367000000000,"state":"active","ping":90},{"user_id":62,"name":"Raymus","steam_id":76561198021330407,"connected_time":6479000000000,"state":"active","ping":45},{"user_id":116,"name":"Lyell","steam_id":76561198350329389,"connected_time":2419000000000,"state":"active","ping":88},{"user_id":143,"name":"DeanAdamFry","steam_id":76561198054153160,"connected_time":459000000000,"state":"active","ping":70},{"user_id":117,"name":"noodlehairronaldoprime","steam_id":76561199471954402,"connected_time":2395000000000,"state":"active","ping":61},{"user_id":139,"name":"Alexei","steam_id":76561197987169026,"connected_time":876000000000,"state":"active","ping":69},{"user_id":136,"name":"Chad","steam_id":76561198037309490,"connected_time":1017000000000,"state":"active","ping":73},{"user_id":140,"name":"bread","steam_id":76561198111097313,"connected_time":874000000000,"state":"active","ping":56},{"user_id":125,"name":"Pachakamakk","steam_id":76561197989010401,"connected_time":1753000000000,"state":"active","ping":65},{"user_id":144,"name":"Nibbenji2077","steam_id":76561199219663655,"connected_time":438000000000,"state":"active","ping":118}]},{"server_id":310,"name":"Uncletopia | Frankfurt | 5 | All Maps","name_short":"frk-5","host":"frk-1.de.uncletopia.com","port":27055,"enabled":true,"region":"eu","cc":"de","latitude":50.110924,"longitude":8.682127,"reserved":0,"last_update":"0001-01-01T00:00:00Z","name_a2s":"Uncletopia | Frankfurt | 5 | All Maps","protocol":17,"map":"koth_lakeside_final","folder":"tf","game":"Team Fortress","app_id":440,"player_count":0,"max_players":24,"Bots":0,"server_type":"Dedicated","server_os":"Linux","password":true,"vac":true,"version":"7757534","steam_id":85568392924504277,"keywords":["cp","nocrits","nodmgspread","uncletopia"],"game_id":440,"stv_port":27056,"stv_name":"Uncletopia | Frankfurt | 5 | All Maps | STV","players":null},{"server_id":311,"name":"Uncletopia | Frankfurt | 6 | All Maps","name_short":"frk-6","host":"frk-1.de.uncletopia.com","port":27065,"enabled":true,"region":"eu","cc":"de","latitude":50.110924,"longitude":8.682127,"reserved":0,"last_update":"0001-01-01T00:00:00Z","name_a2s":"Uncletopia | Frankfurt | 6 | All Maps","protocol":17,"map":"pl_snowycoast","folder":"tf","game":"Team Fortress","app_id":440,"player_count":24,"max_players":24,"Bots":0,"server_type":"Dedicated","server_os":"Linux","password":true,"vac":true,"version":"7757534","steam_id":85568392924504278,"keywords":["nocrits","nodmgspread","payload","uncletopia"],"game_id":440,"stv_port":27066,"stv_name":"Uncletopia | Frankfurt | 6 | All Maps | STV","players":[{"user_id":349,"name":"no1-","steam_id":76561198067524060,"connected_time":630000000000,"state":"active","ping":99},{"user_id":322,"name":"hud_saytext_time 0","steam_id":76561198010327228,"connected_time":2597000000000,"state":"active","ping":55},{"user_id":345,"name":"Penguinmark","steam_id":76561199057089501,"connected_time":1055000000000,"state":"active","ping":129},{"user_id":351,"name":"mud","steam_id":76561198141497461,"connected_time":483000000000,"state":"active","ping":63},{"user_id":354,"name":"il","steam_id":76561198122662610,"connected_time":463000000000,"state":"active","ping":79},{"user_id":352,"name":"Misa","steam_id":76561199480659241,"connected_time":471000000000,"state":"active","ping":66},{"user_id":328,"name":"Solar Lamp","steam_id":76561198004722162,"connected_time":2201000000000,"state":"active","ping":72},{"user_id":343,"name":"Donki Wonki","steam_id":76561198327761273,"connected_time":1589000000000,"state":"active","ping":71},{"user_id":350,"name":"„ÉÜ„Ç§„É´„Çπ","steam_id":76561198022403271,"connected_time":613000000000,"state":"active","ping":45},{"user_id":333,"name":"Avast AntiPony 9445","steam_id":76561197992046533,"connected_time":2071000000000,"state":"active","ping":45},{"user_id":347,"name":"Maru","steam_id":76561198030931030,"connected_time":828000000000,"state":"active","ping":70},{"user_id":310,"name":"Small NULL-terminated humifier","steam_id":76561199441603388,"connected_time":3407000000000,"state":"active","ping":84},{"user_id":360,"name":"üòà COCKDESTROYER üòà","steam_id":76561198042846999,"connected_time":122000000000,"state":"active","ping":62},{"user_id":357,"name":"sareena","steam_id":76561198810194062,"connected_time":296000000000,"state":"active","ping":77},{"user_id":335,"name":"David \"Crash\" Murphy","steam_id":76561198292845505,"connected_time":2035000000000,"state":"active","ping":86},{"user_id":342,"name":"Hoff","steam_id":76561198138540938,"connected_time":1631000000000,"state":"active","ping":80},{"user_id":336,"name":"[P-roc] Cmm Bert","steam_id":76561198016658674,"connected_time":2035000000000,"state":"active","ping":80},{"user_id":314,"name":"edzio rapper gaming","steam_id":76561198963841479,"connected_time":3241000000000,"state":"active","ping":92},{"user_id":362,"name":"Pipp Petals2014","steam_id":76561198147668373,"connected_time":74000000000,"state":"active","ping":57},{"user_id":358,"name":"Stabbyratbag","steam_id":76561198119531916,"connected_time":277000000000,"state":"active","ping":57},{"user_id":361,"name":"Der Herr Doktor","steam_id":76561198119476089,"connected_time":120000000000,"state":"active","ping":55},{"user_id":338,"name":"jelly donut","steam_id":76561198102947221,"connected_time":1953000000000,"state":"active","ping":75},{"user_id":318,"name":"Elemant","steam_id":76561198112990658,"connected_time":2919000000000,"state":"active","ping":60},{"user_id":344,"name":"Dr.Livesey","steam_id":76561198423099559,"connected_time":1136000000000,"state":"active","ping":73}]},{"server_id":23,"name":"Uncletopia | Frankfurt | 7 | Stopwatch Beta","name_short":"frk-7","host":"frk-1.de.uncletopia.com","port":27075,"enabled":true,"region":"eu","cc":"de","latitude":50.110924,"longitude":8.682127,"reserved":0,"last_update":"0001-01-01T00:00:00Z","name_a2s":"Uncletopia | Frankfurt | 7 | Stopwatch Beta","protocol":17,"map":"workshop/koth_bagel_rc6.ugc2514036946","folder":"tf","game":"Team Fortress","app_id":440,"player_count":0,"max_players":24,"Bots":0,"server_type":"Dedicated","server_os":"Linux","password":true,"vac":true,"version":"7757534","steam_id":85568392924742827,"keywords":["cp","nocrits","nodmgspread","uncletopia"],"game_id":440,"stv_port":27076,"stv_name":"Uncletopia | Frankfurt | 7 | Stopwatch Beta | STV","players":null},{"server_id":24,"name":"Uncletopia | Frankfurt | 8 | Community","name_short":"frk-8","host":"frk-1.de.uncletopia.com","port":27085,"enabled":true,"region":"eu","cc":"de","latitude":50.110924,"longitude":8.682127,"reserved":0,"last_update":"0001-01-01T00:00:00Z","name_a2s":"Uncletopia | Frankfurt | 8 | Community","protocol":17,"map":"workshop/cp_snowbase_b18.ugc2081770490","folder":"tf","game":"Team Fortress","app_id":440,"player_count":2,"max_players":24,"Bots":0,"server_type":"Dedicated","server_os":"Linux","password":true,"vac":true,"version":"7757534","steam_id":85568392924742828,"keywords":["cp","nocrits","nodmgspread","uncletopia"],"game_id":440,"stv_port":27086,"stv_name":"Uncletopia | Frankfurt | 8 | Community | STV","players":[{"user_id":12,"name":"Nummi","steam_id":76561198980901935,"connected_time":391000000000,"state":"active","ping":79},{"user_id":13,"name":"milk and fish gaming \u003e:)","steam_id":76561199203870510,"connected_time":357000000000,"state":"active","ping":70}]},{"server_id":202,"name":"Uncletopia | Hong Kong | 1 | All Maps","name_short":"hgk-1","host":"hgk-1.hk.uncletopia.com","port":27015,"enabled":true,"region":"asia","cc":"hk","latitude":22.302711,"longitude":114.177216,"reserved":0,"last_update":"0001-01-01T00:00:00Z","name_a2s":"Uncletopia | Hong Kong | 1 | All Maps","protocol":17,"map":"koth_cascade","folder":"tf","game":"Team Fortress","app_id":440,"player_count":0,"max_players":24,"Bots":0,"server_type":"Dedicated","server_os":"Linux","password":true,"vac":true,"version":"7757534","steam_id":85568392924494504,"keywords":["cp","nocrits","nodmgspread","uncletopia"],"game_id":440,"stv_port":27016,"stv_name":"Uncletopia | Hong Kong | 1 | All Maps | STV","players":null},{"server_id":1,"name":"Uncletopia | Los Angeles | 1 | All Maps","name_short":"lax-1","host":"lax-1.us.uncletopia.com","port":27015,"enabled":true,"region":"us-west","cc":"us","latitude":33.94279,"longitude":-118.41004,"reserved":0,"last_update":"0001-01-01T00:00:00Z","name_a2s":"Uncletopia | Los Angeles | 1 | All Maps","protocol":17,"map":"koth_lakeside_final","folder":"tf","game":"Team Fortress","app_id":440,"player_count":2,"max_players":24,"Bots":0,"server_type":"Dedicated","server_os":"Linux","password":true,"vac":true,"version":"7757534","steam_id":85568392924469991,"keywords":["cp","nocrits","nodmgspread","uncletopia"],"game_id":440,"stv_port":27016,"stv_name":"Uncletopia | Los Angeles | 1 | All Maps | STV","players":[{"user_id":6,"name":"Chilly","steam_id":76561199028019237,"connected_time":305000000000,"state":"active","ping":62},{"user_id":7,"name":"Green_GarBear","steam_id":76561199468912415,"connected_time":288000000000,"state":"active","ping":55}]},{"server_id":112,"name":"Uncletopia | Los Angeles | 2 | All Maps","name_short":"lax-2","host":"lax-1.us.uncletopia.com","port":27025,"enabled":true,"region":"us-west","cc":"us","latitude":33.94279,"longitude":-118.41004,"reserved":0,"last_update":"0001-01-01T00:00:00Z","name_a2s":"Uncletopia | Los Angeles | 2 | All Maps","protocol":17,"map":"koth_cascade","folder":"tf","game":"Team Fortress","app_id":440,"player_count":0,"max_players":24,"Bots":0,"server_type":"Dedicated","server_os":"Linux","password":true,"vac":true,"version":"7757534","steam_id":85568392924469992,"keywords":["cp","nocrits","nodmgspread","uncletopia"],"game_id":440,"stv_port":27026,"stv_name":"Uncletopia | Los Angeles | 2 | All Maps | STV","players":null},{"server_id":324,"name":"Uncletopia | Los Angeles | 3 | All Maps","name_short":"lax-3","host":"lax-1.us.uncletopia.com","port":27035,"enabled":true,"region":"us-west","cc":"us","latitude":33.94279,"longitude":-118.41004,"reserved":0,"last_update":"0001-01-01T00:00:00Z","name_a2s":"Uncletopia | Los Angeles | 3 | All Maps","protocol":17,"map":"koth_viaduct","folder":"tf","game":"Team Fortress","app_id":440,"player_count":0,"max_players":24,"Bots":0,"server_type":"Dedicated","server_os":"Linux","password":true,"vac":true,"version":"7757534","steam_id":85568392924510198,"keywords":["cp","nocrits","nodmgspread","uncletopia"],"game_id":440,"stv_port":27036,"stv_name":"Uncletopia | Los Angeles | 3 | All Maps | STV","players":null},{"server_id":25,"name":"Uncletopia | Los Angeles | 4 | Stopwatch Beta","name_short":"lax-4","host":"lax-1.us.uncletopia.com","port":27045,"enabled":true,"region":"us-west","cc":"us","latitude":33.94279,"longitude":-118.41004,"reserved":0,"last_update":"0001-01-01T00:00:00Z","name_a2s":"Uncletopia | Los Angeles | 4 | Stopwatch Beta","protocol":17,"map":"pl_swiftwater_final1","folder":"tf","game":"Team Fortress","app_id":440,"player_count":0,"max_players":24,"Bots":0,"server_type":"Dedicated","server_os":"Linux","password":true,"vac":true,"version":"7757534","steam_id":85568392924510199,"keywords":["nocrits","nodmgspread","payload","uncletopia"],"game_id":440,"stv_port":27046,"stv_name":"Uncletopia | Los Angeles | 4 | Stopwatch Beta | STV","players":null},{"server_id":11,"name":"Uncletopia | London | 1 | All Maps","name_short":"lon-1","host":"lon-1.uk.uncletopia.com","port":27015,"enabled":true,"region":"eu","cc":"gb","latitude":51.509865,"longitude":-0.118092,"reserved":0,"last_update":"0001-01-01T00:00:00Z","name_a2s":"Uncletopia | London | 1 | All Maps","protocol":17,"map":"cp_steel","folder":"tf","game":"Team Fortress","app_id":440,"player_count":24,"max_players":24,"Bots":0,"server_type":"Dedicated","server_os":"Linux","password":true,"vac":true,"version":"7757534","steam_id":85568392924367362,"keywords":["cp","nocrits","nodmgspread","uncletopia"],"game_id":440,"stv_port":27016,"stv_name":"Uncletopia | London | 1 | All Maps | STV","players":[{"user_id":575,"name":"Blitzy","steam_id":76561198059253518,"connected_time":810000000000,"state":"active","ping":69},{"user_id":513,"name":"aibohpsnart","steam_id":76561198168207306,"connected_time":6400000000000,"state":"active","ping":102},{"user_id":399,"name":"frionel cuckitini","steam_id":76561198106049954,"connected_time":15307000000000,"state":"active","ping":82},{"user_id":535,"name":"prof. Hellfire","steam_id":76561198254030118,"connected_time":5034000000000,"state":"active","ping":59},{"user_id":527,"name":"‚ô• aura ‚ô•","steam_id":76561198066258544,"connected_time":5465000000000,"state":"active","ping":72},{"user_id":560,"name":"Ron_tom","steam_id":76561198392108888,"connected_time":3050000000000,"state":"active","ping":68},{"user_id":398,"name":"Rose","steam_id":76561198043601838,"connected_time":15339000000000,"state":"active","ping":60},{"user_id":551,"name":"BBBobby","steam_id":76561198172863973,"connected_time":3807000000000,"state":"active","ping":146},{"user_id":562,"name":"Healix","steam_id":76561198130270161,"connected_time":2832000000000,"state":"active","ping":58},{"user_id":572,"name":"katana666","steam_id":76561198074917015,"connected_time":1179000000000,"state":"active","ping":75},{"user_id":578,"name":"Minus273C","steam_id":76561197967510404,"connected_time":579000000000,"state":"active","ping":157},{"user_id":559,"name":"Dark ^^","steam_id":76561198036241064,"connected_time":3150000000000,"state":"active","ping":71},{"user_id":576,"name":"PizzaPete123","steam_id":76561198089478290,"connected_time":621000000000,"state":"active","ping":39},{"user_id":429,"name":"i am not schizophrenic","steam_id":76561198079277466,"connected_time":13345000000000,"state":"active","ping":60},{"user_id":569,"name":"SirToast","steam_id":76561199229729107,"connected_time":1366000000000,"state":"active","ping":78},{"user_id":565,"name":"genuine chocolateface","steam_id":76561198081559669,"connected_time":2047000000000,"state":"active","ping":81},{"user_id":515,"name":"sinologist","steam_id":76561198080912087,"connected_time":6201000000000,"state":"active","ping":74},{"user_id":567,"name":"NotFionn","steam_id":76561198890525176,"connected_time":1930000000000,"state":"active","ping":72},{"user_id":553,"name":"PieceOfPork","steam_id":76561198061895450,"connected_time":3794000000000,"state":"active","ping":58},{"user_id":579,"name":"disposablesuperbread","steam_id":76561199074703607,"connected_time":498000000000,"state":"active","ping":74},{"user_id":502,"name":"killer of noob, winner of game","steam_id":76561198190583242,"connected_time":7899000000000,"state":"active","ping":76},{"user_id":558,"name":"Fat Pigeon","steam_id":76561198817940142,"connected_time":3284000000000,"state":"active","ping":46},{"user_id":550,"name":"Teamtrevien","steam_id":76561198085513932,"connected_time":3820000000000,"state":"active","ping":56},{"user_id":571,"name":"Alexandre","steam_id":76561198121784446,"connected_time":1272000000000,"state":"active","ping":43}]},{"server_id":114,"name":"Uncletopia | London | 2 | All Maps","name_short":"lon-2","host":"lon-1.uk.uncletopia.com","port":27025,"enabled":true,"region":"eu","cc":"gb","latitude":51.509865,"longitude":-0.118092,"reserved":0,"last_update":"0001-01-01T00:00:00Z","name_a2s":"Uncletopia | London | 2 | All Maps","protocol":17,"map":"pl_upward","folder":"tf","game":"Team Fortress","app_id":440,"player_count":24,"max_players":24,"Bots":0,"server_type":"Dedicated","server_os":"Linux","password":true,"vac":true,"version":"7757534","steam_id":85568392924470941,"keywords":["nocrits","nodmgspread","payload","uncletopia"],"game_id":440,"stv_port":27026,"stv_name":"Uncletopia | London | 2 | All Maps | STV","players":[{"user_id":288,"name":"buttfiend","steam_id":76561198136239861,"connected_time":640000000000,"state":"active","ping":48},{"user_id":222,"name":"UltimateSlayer","steam_id":76561198384109309,"connected_time":4181000000000,"state":"active","ping":58},{"user_id":245,"name":"Xydran","steam_id":76561198042397402,"connected_time":2894000000000,"state":"active","ping":68},{"user_id":265,"name":"clean carp","steam_id":76561198127053294,"connected_time":1956000000000,"state":"active","ping":75},{"user_id":273,"name":"Eismaker","steam_id":76561198320871767,"connected_time":1688000000000,"state":"active","ping":46},{"user_id":281,"name":"Clovis","steam_id":76561198076881381,"connected_time":1071000000000,"state":"active","ping":75},{"user_id":257,"name":"Puck :))","steam_id":76561198378295653,"connected_time":2154000000000,"state":"active","ping":52},{"user_id":286,"name":"C0d3s","steam_id":76561198093907544,"connected_time":909000000000,"state":"active","ping":98},{"user_id":280,"name":"yush","steam_id":76561198121688934,"connected_time":1178000000000,"state":"active","ping":64},{"user_id":277,"name":"Homosapien","steam_id":76561197972035953,"connected_time":1504000000000,"state":"active","ping":60},{"user_id":279,"name":"bachphong760","steam_id":76561199433780443,"connected_time":1239000000000,"state":"active","ping":138},{"user_id":287,"name":"Rad","steam_id":76561198001101843,"connected_time":796000000000,"state":"active","ping":59},{"user_id":289,"name":"Gnarville","steam_id":76561198006373329,"connected_time":638000000000,"state":"active","ping":49},{"user_id":271,"name":"ruined","steam_id":76561198048741472,"connected_time":1735000000000,"state":"active","ping":50},{"user_id":282,"name":"goblinninja110","steam_id":76561198269159354,"connected_time":1024000000000,"state":"active","ping":67},{"user_id":256,"name":"Krakb","steam_id":76561198126760706,"connected_time":2228000000000,"state":"active","ping":118},{"user_id":251,"name":"milof","steam_id":76561198809199604,"connected_time":2584000000000,"state":"active","ping":86},{"user_id":278,"name":"Jack","steam_id":76561198325505238,"connected_time":1475000000000,"state":"active","ping":85},{"user_id":255,"name":"Mammut","steam_id":76561198056773933,"connected_time":2265000000000,"state":"active","ping":59},{"user_id":248,"name":"CiVillain","steam_id":76561198059617732,"connected_time":2803000000000,"state":"active","ping":68},{"user_id":290,"name":"Cypher","steam_id":76561197996967254,"connected_time":473000000000,"state":"active","ping":71},{"user_id":283,"name":"L√∂ss√∂","steam_id":76561197994254413,"connected_time":1011000000000,"state":"active","ping":85},{"user_id":272,"name":"beheading video from 2009","steam_id":76561198834897089,"connected_time":1707000000000,"state":"active","ping":72},{"user_id":284,"name":"skylanderrobbe","steam_id":76561198243378010,"connected_time":1011000000000,"state":"active","ping":70}]},{"server_id":320,"name":"Uncletopia | London | 3 | All Maps","name_short":"lon-3","host":"lon-1.uk.uncletopia.com","port":27035,"enabled":true,"region":"eu","cc":"gb","latitude":51.509865,"longitude":-0.118092,"reserved":0,"last_update":"0001-01-01T00:00:00Z","name_a2s":"Uncletopia | London | 3 | All Maps","protocol":17,"map":"pl_upward","folder":"tf","game":"Team Fortress","app_id":440,"player_count":24,"max_players":24,"Bots":0,"server_type":"Dedicated","server_os":"Linux","password":true,"vac":true,"version":"7757534","steam_id":85568392924510192,"keywords":["nocrits","nodmgspread","payload","uncletopia"],"game_id":440,"stv_port":27036,"stv_name":"Uncletopia | London | 3 | All Maps | STV","players":[{"user_id":42,"name":"Uncle Terry","steam_id":76561198396415736,"connected_time":820000000000,"state":"active","ping":49},{"user_id":46,"name":"Do Anything Now","steam_id":76561198055389492,"connected_time":694000000000,"state":"active","ping":40},{"user_id":69,"name":"MoltaExlips","steam_id":76561199053945658,"connected_time":193000000000,"state":"active","ping":158},{"user_id":44,"name":"Talkkari","steam_id":76561198025327723,"connected_time":769000000000,"state":"active","ping":61},{"user_id":47,"name":"Cotton Eye Joe","steam_id":76561198080594207,"connected_time":680000000000,"state":"active","ping":47},{"user_id":52,"name":"Wardruna96","steam_id":76561199057083828,"connected_time":450000000000,"state":"active","ping":75},{"user_id":75,"name":"puckimari","steam_id":76561198121260981,"connected_time":49000000000,"state":"active","ping":32},{"user_id":70,"name":"Bilbo Ballbaggins","steam_id":76561198070593514,"connected_time":187000000000,"state":"active","ping":54},{"user_id":72,"name":"daddyonpc","steam_id":76561198972388081,"connected_time":151000000000,"state":"active","ping":65},{"user_id":59,"name":"STONER08","steam_id":76561199478378377,"connected_time":341000000000,"state":"active","ping":55},{"user_id":53,"name":"Karkkipiispa","steam_id":76561198068745148,"connected_time":428000000000,"state":"active","ping":94},{"user_id":32,"name":"Glitch","steam_id":76561198309789756,"connected_time":1634000000000,"state":"active","ping":68},{"user_id":58,"name":"REDZED","steam_id":76561198419203843,"connected_time":356000000000,"state":"active","ping":112},{"user_id":34,"name":"s a i","steam_id":76561197970379754,"connected_time":1479000000000,"state":"active","ping":60},{"user_id":60,"name":"CuteButDeadInside(f2p)","steam_id":76561199170424238,"connected_time":339000000000,"state":"active","ping":68},{"user_id":61,"name":"Caruzon - Obismal","steam_id":76561198036211170,"connected_time":318000000000,"state":"active","ping":77},{"user_id":62,"name":"Jack O'Lantern","steam_id":76561199122368370,"connected_time":315000000000,"state":"active","ping":50},{"user_id":63,"name":"Ablativus","steam_id":76561198025698470,"connected_time":301000000000,"state":"active","ping":75},{"user_id":73,"name":"DrExplosive","steam_id":76561198063678579,"connected_time":76000000000,"state":"active","ping":53},{"user_id":66,"name":"Doge Vandire","steam_id":76561198067508276,"connected_time":231000000000,"state":"active","ping":126},{"user_id":67,"name":"Floppa-z","steam_id":76561199385382550,"connected_time":219000000000,"state":"active","ping":120},{"user_id":68,"name":"kairos.","steam_id":76561198073893018,"connected_time":216000000000,"state":"active","ping":50},{"user_id":71,"name":"4ngle_grinder","steam_id":76561199196369031,"connected_time":186000000000,"state":"active","ping":44},{"user_id":74,"name":"CAR DOOR","steam_id":76561198055283295,"connected_time":76000000000,"state":"active","ping":58}]},{"server_id":321,"name":"Uncletopia | London | 4 | All Maps","name_short":"lon-4","host":"lon-1.uk.uncletopia.com","port":27045,"enabled":true,"region":"eu","cc":"gb","latitude":51.509865,"longitude":-0.118092,"reserved":0,"last_update":"0001-01-01T00:00:00Z","name_a2s":"Uncletopia | London | 4 | All Maps","protocol":17,"map":"koth_viaduct","folder":"tf","game":"Team Fortress","app_id":440,"player_count":24,"max_players":24,"Bots":0,"server_type":"Dedicated","server_os":"Linux","password":true,"vac":true,"version":"7757534","steam_id":85568392924510193,"keywords":["cp","nocrits","nodmgspread","uncletopia"],"game_id":440,"stv_port":27046,"stv_name":"Uncletopia | London | 4 | All Maps | STV","players":[{"user_id":94,"name":"Garden Freeman","steam_id":76561199073314677,"connected_time":1287000000000,"state":"active","ping":76},{"user_id":71,"name":"for his neutral special...","steam_id":76561198206177349,"connected_time":2764000000000,"state":"active","ping":51},{"user_id":107,"name":"Walter Griffin","steam_id":76561199415989636,"connected_time":746000000000,"state":"active","ping":100},{"user_id":108,"name":"gajo","steam_id":76561199172260370,"connected_time":740000000000,"state":"active","ping":81},{"user_id":93,"name":"SKFBoge","steam_id":76561198269038278,"connected_time":1410000000000,"state":"active","ping":79},{"user_id":111,"name":"john trevolta","steam_id":76561197998867160,"connected_time":659000000000,"state":"active","ping":133},{"user_id":74,"name":"TheEmeraldStar","steam_id":76561198072942529,"connected_time":2725000000000,"state":"active","ping":74},{"user_id":96,"name":"TSx* Osa__PL","steam_id":76561198027016799,"connected_time":1073000000000,"state":"active","ping":75},{"user_id":75,"name":"F0RGTPR0X","steam_id":76561198037119829,"connected_time":2719000000000,"state":"active","ping":89},{"user_id":97,"name":"TSx* {Demon-Angel}","steam_id":76561198151486463,"connected_time":1060000000000,"state":"active","ping":89},{"user_id":114,"name":"„Åà„Å™„Å™„Çì","steam_id":76561199427679148,"connected_time":571000000000,"state":"active","ping":74},{"user_id":104,"name":"kotamine","steam_id":76561198068907991,"connected_time":783000000000,"state":"active","ping":77},{"user_id":99,"name":"Vader","steam_id":76561198297377278,"connected_time":1014000000000,"state":"active","ping":73},{"user_id":100,"name":"cislastar","steam_id":76561198027202375,"connected_time":1013000000000,"state":"active","ping":57},{"user_id":101,"name":"TSx* Bargal","steam_id":76561198040266872,"connected_time":967000000000,"state":"active","ping":81},{"user_id":102,"name":"skitarii enjoyer","steam_id":76561198220245604,"connected_time":835000000000,"state":"active","ping":63},{"user_id":103,"name":"He could be any one of us","steam_id":76561198320506848,"connected_time":809000000000,"state":"active","ping":44},{"user_id":106,"name":"Spy Gaming","steam_id":76561198257225296,"connected_time":758000000000,"state":"active","ping":74},{"user_id":109,"name":"Wyodu","steam_id":76561198406237593,"connected_time":733000000000,"state":"active","ping":74},{"user_id":113,"name":"row lft","steam_id":76561198053400769,"connected_time":631000000000,"state":"active","ping":49},{"user_id":116,"name":"Burden Goreksson","steam_id":76561198112774009,"connected_time":446000000000,"state":"active","ping":64},{"user_id":115,"name":"GINKU","steam_id":76561199013317359,"connected_time":495000000000,"state":"active","ping":60},{"user_id":117,"name":"pljuga","steam_id":76561198001174470,"connected_time":377000000000,"state":"active","ping":74},{"user_id":118,"name":"P√§√§ryn√§","steam_id":76561197997831922,"connected_time":376000000000,"state":"active","ping":81}]},{"server_id":21,"name":"Uncletopia | London | 5 | All Maps","name_short":"lon-5","host":"lon-1.uk.uncletopia.com","port":27055,"enabled":true,"region":"eu","cc":"gb","latitude":51.509865,"longitude":-0.118092,"reserved":0,"last_update":"0001-01-01T00:00:00Z","name_a2s":"Uncletopia | London | 5 | All Maps","protocol":17,"map":"pl_pier","folder":"tf","game":"Team Fortress","app_id":440,"player_count":0,"max_players":24,"Bots":0,"server_type":"Dedicated","server_os":"Linux","password":true,"vac":true,"version":"7757534","steam_id":85568392924742829,"keywords":["nocrits","nodmgspread","payload","uncletopia"],"game_id":440,"stv_port":27056,"stv_name":"Uncletopia | London | 5 | All Maps | STV","players":null},{"server_id":22,"name":"Uncletopia | London | 6 | All Maps","name_short":"lon-6","host":"lon-1.uk.uncletopia.com","port":27065,"enabled":true,"region":"eu","cc":"gb","latitude":51.509865,"longitude":-0.118092,"reserved":0,"last_update":"0001-01-01T00:00:00Z","name_a2s":"Uncletopia | London | 6 | All Maps","protocol":17,"map":"pl_upward","folder":"tf","game":"Team Fortress","app_id":440,"player_count":24,"max_players":24,"Bots":0,"server_type":"Dedicated","server_os":"Linux","password":true,"vac":true,"version":"7757534","steam_id":85568392924742830,"keywords":["nocrits","nodmgspread","payload","uncletopia"],"game_id":440,"stv_port":27066,"stv_name":"Uncletopia | London | 6 | All Maps | STV","players":[{"user_id":412,"name":"doopsuiker","steam_id":76561198025916703,"connected_time":1871000000000,"state":"active","ping":65},{"user_id":441,"name":"Vytuzas","steam_id":76561198012868436,"connected_time":337000000000,"state":"active","ping":68},{"user_id":429,"name":"Axord","steam_id":76561199289652176,"connected_time":792000000000,"state":"active","ping":61},{"user_id":442,"name":"Dave The Sloth","steam_id":76561199135831355,"connected_time":120000000000,"state":"active","ping":64},{"user_id":436,"name":"I I(f2p)","steam_id":76561199101935057,"connected_time":596000000000,"state":"active","ping":89},{"user_id":353,"name":"Spy","steam_id":76561198809697283,"connected_time":5399000000000,"state":"active","ping":49},{"user_id":363,"name":"Average Machina Enjoyer","steam_id":76561198410598772,"connected_time":4918000000000,"state":"active","ping":55},{"user_id":269,"name":"AleXandriX","steam_id":76561198035203950,"connected_time":11068000000000,"state":"active","ping":71},{"user_id":408,"name":"Thing","steam_id":76561197997904403,"connected_time":2493000000000,"state":"active","ping":108},{"user_id":423,"name":"AJ Skye","steam_id":76561198061289475,"connected_time":1063000000000,"state":"active","ping":64},{"user_id":445,"name":"a","steam_id":76561198416527370,"connected_time":66000000000,"state":"active","ping":76},{"user_id":438,"name":"Signor_UpB #SaveTF2","steam_id":76561199145637231,"connected_time":435000000000,"state":"active","ping":91},{"user_id":419,"name":"maybe","steam_id":76561199028670732,"connected_time":1408000000000,"state":"active","ping":62},{"user_id":411,"name":"Vectillion","steam_id":76561198074292454,"connected_time":2140000000000,"state":"active","ping":74},{"user_id":426,"name":"true","steam_id":76561198031145243,"connected_time":924000000000,"state":"active","ping":75},{"user_id":427,"name":"Sparky","steam_id":76561198036754195,"connected_time":865000000000,"state":"active","ping":50},{"user_id":444,"name":"Mads","steam_id":76561198045511379,"connected_time":87000000000,"state":"active","ping":69},{"user_id":395,"name":"Mr. Gobling","steam_id":76561199096778623,"connected_time":3070000000000,"state":"active","ping":74},{"user_id":433,"name":"SlonkyDonky","steam_id":76561198425787528,"connected_time":681000000000,"state":"active","ping":60},{"user_id":396,"name":"tzino","steam_id":76561199076883472,"connected_time":3069000000000,"state":"active","ping":80},{"user_id":397,"name":"Owlet","steam_id":76561198065613974,"connected_time":3066000000000,"state":"active","ping":64},{"user_id":435,"name":"EZPK","steam_id":76561197987474355,"connected_time":631000000000,"state":"active","ping":67},{"user_id":439,"name":"Fist","steam_id":76561199141290973,"connected_time":434000000000,"state":"active","ping":89},{"user_id":440,"name":"s .-word","steam_id":76561198060849026,"connected_time":392000000000,"state":"active","ping":76}]},{"server_id":40,"name":"Uncletopia | London | 7 | No Payload","name_short":"lon-7","host":"lon-1.uk.uncletopia.com","port":27075,"enabled":true,"region":"eu","cc":"gb","latitude":51.509865,"longitude":-0.118092,"reserved":0,"last_update":"0001-01-01T00:00:00Z","name_a2s":"Uncletopia | London | 7 | No Payload","protocol":17,"map":"cp_egypt_final","folder":"tf","game":"Team Fortress","app_id":440,"player_count":0,"max_players":24,"Bots":0,"server_type":"Dedicated","server_os":"Linux","password":true,"vac":true,"version":"7757534","steam_id":85568392924964314,"keywords":["cp","nocrits","nodmgspread","uncletopia"],"game_id":440,"stv_port":27076,"stv_name":"Uncletopia | London | 7 | No Payload | STV","players":null},{"server_id":41,"name":"Uncletopia | London | 8 | Community","name_short":"lon-8","host":"lon-1.uk.uncletopia.com","port":27085,"enabled":true,"region":"eu","cc":"gb","latitude":51.509865,"longitude":-0.118092,"reserved":0,"last_update":"0001-01-01T00:00:00Z","name_a2s":"Uncletopia | London | 8 | Community","protocol":17,"map":"pl_barnblitz","folder":"tf","game":"Team Fortress","app_id":440,"player_count":0,"max_players":24,"Bots":0,"server_type":"Dedicated","server_os":"Linux","password":true,"vac":true,"version":"7757534","steam_id":85568392924964315,"keywords":["nocrits","nodmgspread","payload","uncletopia"],"game_id":440,"stv_port":27086,"stv_name":"Uncletopia | London | 8 | Community | STV","players":null},{"server_id":300,"name":"Uncletopia | Montr√©al | 1 | All Maps","name_short":"mtl-1","host":"mtl-1.ca.uncletopia.com","port":27015,"enabled":true,"region":"us-east","cc":"ca","latitude":45.50889,"longitude":-73.56167,"reserved":0,"last_update":"0001-01-01T00:00:00Z","name_a2s":"Uncletopia | Montr√©al | 1 | All Maps","protocol":17,"map":"pl_upward","folder":"tf","game":"Team Fortress","app_id":440,"player_count":0,"max_players":24,"Bots":0,"server_type":"Dedicated","server_os":"Linux","password":true,"vac":true,"version":"7757534","steam_id":85568392924500087,"keywords":["nocrits","nodmgspread","payload","uncletopia"],"game_id":440,"stv_port":27016,"stv_name":"Uncletopia | Montr√©al | 1 | All Maps | STV","players":null},{"server_id":301,"name":"Uncletopia | Montr√©al | 2 | All Maps","name_short":"mtl-2","host":"mtl-1.ca.uncletopia.com","port":27025,"enabled":true,"region":"us-east","cc":"ca","latitude":45.50889,"longitude":-73.56167,"reserved":0,"last_update":"0001-01-01T00:00:00Z","name_a2s":"Uncletopia | Montr√©al | 2 | All Maps","protocol":17,"map":"pl_snowycoast","folder":"tf","game":"Team Fortress","app_id":440,"player_count":0,"max_players":24,"Bots":0,"server_type":"Dedicated","server_os":"Linux","password":true,"vac":true,"version":"7757534","steam_id":85568392924500088,"keywords":["nocrits","nodmgspread","payload","uncletopia"],"game_id":440,"stv_port":27026,"stv_name":"Uncletopia | Montr√©al | 2 | All Maps | STV","players":null},{"server_id":302,"name":"Uncletopia | Montr√©al | 3 | All Maps","name_short":"mtl-3","host":"mtl-1.ca.uncletopia.com","port":27035,"enabled":true,"region":"us-east","cc":"ca","latitude":45.50889,"longitude":-73.56167,"reserved":0,"last_update":"0001-01-01T00:00:00Z","name_a2s":"Uncletopia | Montr√©al | 3 | All Maps","protocol":17,"map":"pl_upward","folder":"tf","game":"Team Fortress","app_id":440,"player_count":0,"max_players":24,"Bots":0,"server_type":"Dedicated","server_os":"Linux","password":true,"vac":true,"version":"7757534","steam_id":85568392924500089,"keywords":["nocrits","nodmgspread","payload","uncletopia"],"game_id":440,"stv_port":27036,"stv_name":"Uncletopia | Montr√©al | 3 | All Maps | STV","players":null},{"server_id":303,"name":"Uncletopia | Montr√©al | 4 | No Payload","name_short":"mtl-4","host":"mtl-1.ca.uncletopia.com","port":27045,"enabled":true,"region":"us-east","cc":"ca","latitude":45.50889,"longitude":-73.56167,"reserved":0,"last_update":"0001-01-01T00:00:00Z","name_a2s":"Uncletopia | Montr√©al | 4 | No Payload","protocol":17,"map":"pl_pier","folder":"tf","game":"Team Fortress","app_id":440,"player_count":0,"max_players":24,"Bots":0,"server_type":"Dedicated","server_os":"Linux","password":true,"vac":true,"version":"7757534","steam_id":85568392924500090,"keywords":["nocrits","nodmgspread","payload","uncletopia"],"game_id":440,"stv_port":27046,"stv_name":"Uncletopia | Montr√©al | 4 | No Payload | STV","players":null},{"server_id":13,"name":"Uncletopia | New York City | 1 | All Maps","name_short":"nyc-1","host":"nyc-1.us.uncletopia.com","port":27015,"enabled":true,"region":"us-east","cc":"us","latitude":40.73061,"longitude":-73.93524,"reserved":0,"last_update":"0001-01-01T00:00:00Z","name_a2s":"Uncletopia | New York City | 1 | All Maps","protocol":17,"map":"pl_badwater","folder":"tf","game":"Team Fortress","app_id":440,"player_count":23,"max_players":24,"Bots":0,"server_type":"Dedicated","server_os":"Linux","password":true,"vac":true,"version":"7757534","steam_id":85568392924469993,"keywords":["nocrits","nodmgspread","payload","uncletopia"],"game_id":440,"stv_port":27016,"stv_name":"Uncletopia | New York City | 1 | All Maps | STV","players":[{"user_id":88,"name":"goose flower","steam_id":76561198164306336,"connected_time":4787000000000,"state":"active","ping":57},{"user_id":134,"name":"supersam2315","steam_id":76561198273479999,"connected_time":1176000000000,"state":"active","ping":69},{"user_id":150,"name":"ashly burch simp","steam_id":76561198074584362,"connected_time":19000000000,"state":"active","ping":107},{"user_id":80,"name":"ThatGamingKiwi","steam_id":76561199170522237,"connected_time":5248000000000,"state":"active","ping":77},{"user_id":114,"name":"ObsessedNerd505","steam_id":76561199045531456,"connected_time":2736000000000,"state":"active","ping":52},{"user_id":87,"name":"Lochanside","steam_id":76561198137080309,"connected_time":4877000000000,"state":"active","ping":106},{"user_id":93,"name":"airballer \u003e:3","steam_id":76561198165899125,"connected_time":4217000000000,"state":"active","ping":48},{"user_id":141,"name":"Eraserhead Baby","steam_id":76561198010968514,"connected_time":355000000000,"state":"active","ping":105},{"user_id":116,"name":"HE‚ÄôS IN THE GODDAMN WALLS","steam_id":76561198363267009,"connected_time":2586000000000,"state":"active","ping":83},{"user_id":138,"name":"navis","steam_id":76561198996230924,"connected_time":751000000000,"state":"active","ping":60},{"user_id":124,"name":"Yoyo","steam_id":76561199122577289,"connected_time":2146000000000,"state":"active","ping":52},{"user_id":146,"name":"Swagmaster696969|tf2easy.com","steam_id":76561199422588175,"connected_time":192000000000,"state":"active","ping":59},{"user_id":109,"name":"Nassu","steam_id":76561198147367577,"connected_time":2963000000000,"state":"active","ping":84},{"user_id":151,"name":"FHC | Nyle","steam_id":76561198045652639,"connected_time":17000000000,"state":"spawning","ping":132},{"user_id":144,"name":"Dark Lord","steam_id":76561198044199150,"connected_time":264000000000,"state":"active","ping":55},{"user_id":131,"name":"Pwnedbyfatty - PMKBB","steam_id":76561197995037409,"connected_time":1718000000000,"state":"active","ping":59},{"user_id":133,"name":"Cosmic Torgue","steam_id":76561198828724945,"connected_time":1414000000000,"state":"active","ping":82},{"user_id":92,"name":"H0wlr","steam_id":76561198012332824,"connected_time":4240000000000,"state":"active","ping":45},{"user_id":140,"name":"highmechs","steam_id":76561198013650292,"connected_time":481000000000,"state":"active","ping":107},{"user_id":148,"name":"The Box Guy","steam_id":76561198176143711,"connected_time":67000000000,"state":"active","ping":56},{"user_id":145,"name":"D3kuSkrub","steam_id":76561198028308369,"connected_time":251000000000,"state":"active","ping":100},{"user_id":82,"name":"BarrowBaron","steam_id":76561198013633236,"connected_time":5201000000000,"state":"active","ping":73},{"user_id":142,"name":"arch_knight321","steam_id":76561198436797625,"connected_time":322000000000,"state":"active","ping":68}]},{"server_id":14,"name":"Uncletopia | New York City | 2 | All Maps","name_short":"nyc-2","host":"nyc-1.us.uncletopia.com","port":27025,"enabled":true,"region":"us-east","cc":"us","latitude":40.73061,"longitude":-73.93524,"reserved":0,"last_update":"0001-01-01T00:00:00Z","name_a2s":"Uncletopia | New York City | 2 | All Maps","protocol":17,"map":"koth_suijin","folder":"tf","game":"Team Fortress","app_id":440,"player_count":24,"max_players":24,"Bots":0,"server_type":"Dedicated","server_os":"Linux","password":true,"vac":true,"version":"7757534","steam_id":85568392924469994,"keywords":["cp","nocrits","nodmgspread","uncletopia"],"game_id":440,"stv_port":27026,"stv_name":"Uncletopia | New York City | 2 | All Maps | STV","players":[{"user_id":380,"name":"Nansral26","steam_id":76561198886650496,"connected_time":2556000000000,"state":"active","ping":58},{"user_id":409,"name":"abed","steam_id":76561198072856511,"connected_time":1012000000000,"state":"active","ping":62},{"user_id":405,"name":"The Rizzard of Oz","steam_id":76561198844759286,"connected_time":1055000000000,"state":"active","ping":74},{"user_id":397,"name":"BerzerktCPU","steam_id":76561198212792340,"connected_time":1251000000000,"state":"active","ping":76},{"user_id":362,"name":"Nemcat.Jr","steam_id":76561198079821706,"connected_time":3601000000000,"state":"active","ping":41},{"user_id":422,"name":"AntiAnimus_real","steam_id":76561198799740059,"connected_time":507000000000,"state":"active","ping":55},{"user_id":398,"name":"Dispenser (Maple!)","steam_id":76561198993581426,"connected_time":1243000000000,"state":"active","ping":57},{"user_id":382,"name":"A strange old man","steam_id":76561198035529717,"connected_time":2367000000000,"state":"active","ping":77},{"user_id":427,"name":"Erwin","steam_id":76561198149011751,"connected_time":39000000000,"state":"active","ping":94},{"user_id":388,"name":"RugLrd","steam_id":76561198137251406,"connected_time":2025000000000,"state":"active","ping":60},{"user_id":423,"name":"lego star wars on the psp","steam_id":76561198148014773,"connected_time":354000000000,"state":"active","ping":58},{"user_id":392,"name":"Lobotomized By Cyanide","steam_id":76561199102542822,"connected_time":1849000000000,"state":"active","ping":86},{"user_id":424,"name":"Atomic Canadian Mountie","steam_id":76561198081572713,"connected_time":236000000000,"state":"active","ping":115},{"user_id":426,"name":"Reno Gato","steam_id":76561198048417246,"connected_time":47000000000,"state":"active","ping":85},{"user_id":404,"name":"uncle 'ardboss","steam_id":76561198055490732,"connected_time":1066000000000,"state":"active","ping":161},{"user_id":408,"name":"yer_nerd","steam_id":76561199435454093,"connected_time":1017000000000,"state":"active","ping":59},{"user_id":428,"name":"SuperSonix","steam_id":76561199089594481,"connected_time":36000000000,"state":"active","ping":210},{"user_id":175,"name":"Ian","steam_id":76561199078852180,"connected_time":11548000000000,"state":"active","ping":58},{"user_id":407,"name":"canid","steam_id":76561198103496593,"connected_time":1027000000000,"state":"active","ping":67},{"user_id":418,"name":"Gay Fart Sex","steam_id":76561198965079927,"connected_time":582000000000,"state":"active","ping":131},{"user_id":412,"name":"Joey Wheelchair„ÉÉ","steam_id":76561198378921790,"connected_time":938000000000,"state":"active","ping":76},{"user_id":419,"name":"madturtle3","steam_id":76561198146953474,"connected_time":578000000000,"state":"active","ping":107},{"user_id":415,"name":"Draco6257","steam_id":76561199147322448,"connected_time":711000000000,"state":"active","ping":36},{"user_id":420,"name":"Fiendish Frog","steam_id":76561198029478821,"connected_time":577000000000,"state":"active","ping":50}]},{"server_id":15,"name":"Uncletopia | New York City | 3 | Stopwatch Beta","name_short":"nyc-3","host":"nyc-1.us.uncletopia.com","port":27035,"enabled":true,"region":"us-east","cc":"us","latitude":40.73061,"longitude":-73.93524,"reserved":0,"last_update":"0001-01-01T00:00:00Z","name_a2s":"Uncletopia | New York City | 3 | Stopwatch Beta","protocol":17,"map":"workshop/pl_badwater_pro_v12.ugc2142942074","folder":"tf","game":"Team Fortress","app_id":440,"player_count":0,"max_players":24,"Bots":0,"server_type":"Dedicated","server_os":"Linux","password":true,"vac":true,"version":"7757534","steam_id":85568392924742820,"keywords":["nocrits","nodmgspread","payload","uncletopia"],"game_id":440,"stv_port":27036,"stv_name":"Uncletopia | New York City | 3 | Stopwatch Beta | STV","players":null},{"server_id":16,"name":"Uncletopia | New York City | 4 | Community","name_short":"nyc-4","host":"nyc-1.us.uncletopia.com","port":27045,"enabled":true,"region":"us-east","cc":"us","latitude":40.73061,"longitude":-73.93524,"reserved":0,"last_update":"0001-01-01T00:00:00Z","name_a2s":"Uncletopia | New York City | 4 | Community","protocol":17,"map":"workshop/cp_logjam_rc12.ugc454812035","folder":"tf","game":"Team Fortress","app_id":440,"player_count":0,"max_players":24,"Bots":0,"server_type":"Dedicated","server_os":"Linux","password":true,"vac":true,"version":"7757534","steam_id":85568392924742821,"keywords":["cp","nocrits","nodmgspread","uncletopia"],"game_id":440,"stv_port":27046,"stv_name":"Uncletopia | New York City | 4 | Community | STV","players":null},{"server_id":142,"name":"Uncletopia | S√£o Paulo | 1 | All Maps","name_short":"sao-1","host":"sao-1.br.uncletopia.com","port":27015,"enabled":true,"region":"sa","cc":"br","latitude":-23.533773,"longitude":-46.62529,"reserved":0,"last_update":"0001-01-01T00:00:00Z","name_a2s":"Uncletopia | S√£o Paulo | 1 | All Maps","protocol":17,"map":"koth_lakeside_final","folder":"tf","game":"Team Fortress","app_id":440,"player_count":0,"max_players":24,"Bots":0,"server_type":"Dedicated","server_os":"Linux","password":true,"vac":true,"version":"7757534","steam_id":85568392924469996,"keywords":["cp","nocrits","nodmgspread","uncletopia"],"game_id":440,"stv_port":27016,"stv_name":"Uncletopia | S√£o Paulo | 1 | All Maps | STV","players":null},{"server_id":143,"name":"Uncletopia | S√£o Paulo | 2 | All Maps","name_short":"sao-2","host":"sao-2.br.uncletopia.com","port":27015,"enabled":true,"region":"sa","cc":"br","latitude":-23.533773,"longitude":-46.62529,"reserved":0,"last_update":"0001-01-01T00:00:00Z","name_a2s":"Uncletopia | S√£o Paulo | 2 | All Maps","protocol":17,"map":"koth_viaduct","folder":"tf","game":"Team Fortress","app_id":440,"player_count":0,"max_players":24,"Bots":0,"server_type":"Dedicated","server_os":"Linux","password":true,"vac":true,"version":"7757534","steam_id":85568392924485349,"keywords":["cp","nocrits","nodmgspread","uncletopia"],"game_id":440,"stv_port":27016,"stv_name":"Uncletopia | S√£o Paulo | 2 | All Maps | STV","players":null},{"server_id":7,"name":"Uncletopia | Seattle | 1 | All Maps","name_short":"sea-1","host":"sea-1.us.uncletopia.com","port":27015,"enabled":true,"region":"us-west","cc":"us","latitude":47.608013,"longitude":-122.33517,"reserved":0,"last_update":"0001-01-01T00:00:00Z","name_a2s":"Uncletopia | Seattle | 1 | All Maps","protocol":17,"map":"cp_steel","folder":"tf","game":"Team Fortress","app_id":440,"player_count":24,"max_players":24,"Bots":0,"server_type":"Dedicated","server_os":"Linux","password":true,"vac":true,"version":"7757534","steam_id":85568392924469997,"keywords":["cp","nocrits","nodmgspread","uncletopia"],"game_id":440,"stv_port":27016,"stv_name":"Uncletopia | Seattle | 1 | All Maps | STV","players":[{"user_id":6,"name":"Themasterman75","steam_id":76561199385573293,"connected_time":6858000000000,"state":"active","ping":70},{"user_id":7,"name":"Ultra Pinstinct","steam_id":76561198336604599,"connected_time":6627000000000,"state":"active","ping":66},{"user_id":58,"name":"Frank (#ripJimmyCarter)","steam_id":76561198126681511,"connected_time":3107000000000,"state":"active","ping":79},{"user_id":86,"name":"Walmus","steam_id":76561198111416393,"connected_time":1433000000000,"state":"active","ping":94},{"user_id":100,"name":"Veritox","steam_id":76561198075778026,"connected_time":51000000000,"state":"active","ping":73},{"user_id":99,"name":"yup (muted)","steam_id":76561199190800520,"connected_time":238000000000,"state":"active","ping":40},{"user_id":90,"name":"MoonDoggy","steam_id":76561197995495949,"connected_time":1256000000000,"state":"active","ping":98},{"user_id":91,"name":"Trash Man","steam_id":76561198870155636,"connected_time":1238000000000,"state":"active","ping":84},{"user_id":20,"name":"Buzz Buzz","steam_id":76561198294101501,"connected_time":5268000000000,"state":"active","ping":73},{"user_id":61,"name":"Grassman (Cc)","steam_id":76561198026488532,"connected_time":3055000000000,"state":"active","ping":64},{"user_id":76,"name":"Viole","steam_id":76561198150210065,"connected_time":2445000000000,"state":"active","ping":86},{"user_id":95,"name":"mingo","steam_id":76561198308290211,"connected_time":249000000000,"state":"active","ping":93},{"user_id":77,"name":"stinkmaster666demon","steam_id":76561198073914311,"connected_time":2380000000000,"state":"active","ping":72},{"user_id":65,"name":"no vc no c","steam_id":76561197989503095,"connected_time":3016000000000,"state":"active","ping":150},{"user_id":89,"name":"THE_DARK_TRICKSTER","steam_id":76561198870649125,"connected_time":1321000000000,"state":"active","ping":87},{"user_id":55,"name":"HiFivr","steam_id":76561198285190162,"connected_time":3815000000000,"state":"active","ping":62},{"user_id":35,"name":"goongremlin","steam_id":76561198278196215,"connected_time":4911000000000,"state":"active","ping":67},{"user_id":87,"name":"garry","steam_id":76561199091007559,"connected_time":1429000000000,"state":"active","ping":85},{"user_id":88,"name":"Enpitsu70","steam_id":76561198152029104,"connected_time":1421000000000,"state":"active","ping":94},{"user_id":94,"name":"Mitchacho74","steam_id":76561198087986935,"connected_time":250000000000,"state":"active","ping":95},{"user_id":83,"name":"2j psych ward boiwife","steam_id":76561198206752128,"connected_time":1870000000000,"state":"active","ping":150},{"user_id":96,"name":"o o o o o o o o o","steam_id":76561197993757506,"connected_time":248000000000,"state":"active","ping":70},{"user_id":93,"name":"WAKEUP!","steam_id":76561198254479725,"connected_time":978000000000,"state":"active","ping":94},{"user_id":97,"name":"blakejack226","steam_id":76561199128917566,"connected_time":248000000000,"state":"active","ping":119}]},{"server_id":119,"name":"Uncletopia | Seattle | 2 | All Maps","name_short":"sea-2","host":"sea-1.us.uncletopia.com","port":27025,"enabled":true,"region":"us-west","cc":"us","latitude":47.608013,"longitude":-122.33517,"reserved":0,"last_update":"0001-01-01T00:00:00Z","name_a2s":"Uncletopia | Seattle | 2 | All Maps","protocol":17,"map":"pl_pier","folder":"tf","game":"Team Fortress","app_id":440,"player_count":22,"max_players":24,"Bots":0,"server_type":"Dedicated","server_os":"Linux","password":true,"vac":true,"version":"7757534","steam_id":85568392924469998,"keywords":["nocrits","nodmgspread","payload","uncletopia"],"game_id":440,"stv_port":27026,"stv_name":"Uncletopia | Seattle | 2 | All Maps | STV","players":[{"user_id":174,"name":"Dilo","steam_id":76561198799078414,"connected_time":1662000000000,"state":"active","ping":81},{"user_id":175,"name":"big fish","steam_id":76561198186479818,"connected_time":1609000000000,"state":"active","ping":87},{"user_id":200,"name":"Legnarius","steam_id":76561198090842475,"connected_time":130000000000,"state":"active","ping":200},{"user_id":199,"name":"reverie","steam_id":76561198168158637,"connected_time":154000000000,"state":"active","ping":86},{"user_id":202,"name":"Tele Co","steam_id":76561198041909269,"connected_time":117000000000,"state":"active","ping":87},{"user_id":195,"name":"Morse","steam_id":76561198039944542,"connected_time":508000000000,"state":"active","ping":46},{"user_id":183,"name":"The Moon","steam_id":76561198082926682,"connected_time":1393000000000,"state":"active","ping":46},{"user_id":165,"name":"Mugen","steam_id":76561198411174773,"connected_time":3236000000000,"state":"active","ping":70},{"user_id":201,"name":"Wormhole","steam_id":76561199008302939,"connected_time":127000000000,"state":"active","ping":50},{"user_id":43,"name":"mumbles(muted)","steam_id":76561197994528974,"connected_time":12736000000000,"state":"active","ping":78},{"user_id":150,"name":"Maho","steam_id":76561199076491805,"connected_time":4172000000000,"state":"active","ping":143},{"user_id":188,"name":"KingKata","steam_id":76561198289610011,"connected_time":1288000000000,"state":"active","ping":65},{"user_id":197,"name":"Danny Fentanyl","steam_id":76561197970791798,"connected_time":426000000000,"state":"active","ping":44},{"user_id":182,"name":"GeekyLK","steam_id":76561198330077347,"connected_time":1429000000000,"state":"active","ping":129},{"user_id":18,"name":"Rain","steam_id":76561198065612273,"connected_time":15174000000000,"state":"active","ping":46},{"user_id":196,"name":"Dealer","steam_id":76561198801450794,"connected_time":501000000000,"state":"spawning","ping":111},{"user_id":186,"name":"Gost","steam_id":76561198065131336,"connected_time":1381000000000,"state":"active","ping":96},{"user_id":170,"name":"Smoky","steam_id":76561198041551259,"connected_time":2644000000000,"state":"active","ping":70},{"user_id":32,"name":"Treekincko","steam_id":76561198047995911,"connected_time":14260000000000,"state":"active","ping":44},{"user_id":192,"name":"GeorgeSwampAssMichaels","steam_id":76561198109120576,"connected_time":934000000000,"state":"active","ping":121},{"user_id":162,"name":"spider_murphy","steam_id":76561198079057101,"connected_time":3631000000000,"state":"active","ping":48},{"user_id":191,"name":"JonBoy","steam_id":76561198082052480,"connected_time":1046000000000,"state":"active","ping":83}]},{"server_id":406,"name":"Uncletopia | Seattle | 3 | Stopwatch Beta","name_short":"sea-3","host":"sea-1.us.uncletopia.com","port":27035,"enabled":true,"region":"us-west","cc":"us","latitude":47.608013,"longitude":-122.33517,"reserved":0,"last_update":"0001-01-01T00:00:00Z","name_a2s":"Uncletopia | Seattle | 3 | Stopwatch Beta","protocol":17,"map":"cp_dustbowl","folder":"tf","game":"Team Fortress","app_id":440,"player_count":0,"max_players":24,"Bots":0,"server_type":"Dedicated","server_os":"Linux","password":true,"vac":true,"version":"7757534","steam_id":85568392924515217,"keywords":["cp","nocrits","nodmgspread","uncletopia"],"game_id":440,"stv_port":27036,"stv_name":"Uncletopia | Seattle | 3 | Stopwatch Beta | STV","players":null},{"server_id":17,"name":"Uncletopia | San Francisco | 1 | All Maps","name_short":"sfo-1","host":"sfo-1.us.uncletopia.com","port":27015,"enabled":true,"region":"us-west","cc":"us","latitude":37.77397,"longitude":-122.4313,"reserved":0,"last_update":"0001-01-01T00:00:00Z","name_a2s":"Uncletopia | San Francisco | 1 | All Maps","protocol":17,"map":"koth_highpass","folder":"tf","game":"Team Fortress","app_id":440,"player_count":0,"max_players":24,"Bots":0,"server_type":"Dedicated","server_os":"Linux","password":true,"vac":true,"version":"7757534","steam_id":85568392924469999,"keywords":["cp","nocrits","nodmgspread","uncletopia"],"game_id":440,"stv_port":27016,"stv_name":"Uncletopia | San Francisco | 1 | All Maps | STV","players":null},{"server_id":18,"name":"Uncletopia | San Francisco | 2 | All Maps","name_short":"sfo-2","host":"sfo-1.us.uncletopia.com","port":27025,"enabled":true,"region":"us-west","cc":"us","latitude":37.77397,"longitude":-122.4313,"reserved":0,"last_update":"0001-01-01T00:00:00Z","name_a2s":"Uncletopia | San Francisco | 2 | All Maps","protocol":17,"map":"koth_highpass","folder":"tf","game":"Team Fortress","app_id":440,"player_count":0,"max_players":24,"Bots":0,"server_type":"Dedicated","server_os":"Linux","password":true,"vac":true,"version":"7757534","steam_id":85568392924470000,"keywords":["cp","nocrits","nodmgspread","uncletopia"],"game_id":440,"stv_port":27026,"stv_name":"Uncletopia | San Francisco | 2 | All Maps | STV","players":null},{"server_id":19,"name":"Uncletopia | San Francisco | 3 | Stopwatch Beta","name_short":"sfo-3","host":"sfo-1.us.uncletopia.com","port":27035,"enabled":true,"region":"us-west","cc":"us","latitude":37.77397,"longitude":-122.4313,"reserved":0,"last_update":"0001-01-01T00:00:00Z","name_a2s":"Uncletopia | San Francisco | 3 | Stopwatch Beta","protocol":17,"map":"koth_lakeside_final","folder":"tf","game":"Team Fortress","app_id":440,"player_count":0,"max_players":24,"Bots":0,"server_type":"Dedicated","server_os":"Linux","password":true,"vac":true,"version":"7757534","steam_id":85568392924742824,"keywords":["cp","nocrits","nodmgspread","uncletopia"],"game_id":440,"stv_port":27036,"stv_name":"Uncletopia | San Francisco | 3 | Stopwatch Beta | STV","players":null},{"server_id":20,"name":"Uncletopia | San Francisco | 4 | Community","name_short":"sfo-4","host":"sfo-1.us.uncletopia.com","port":27045,"enabled":true,"region":"us-west","cc":"us","latitude":37.77397,"longitude":-122.4313,"reserved":0,"last_update":"0001-01-01T00:00:00Z","name_a2s":"Uncletopia | San Francisco | 4 | Community","protocol":17,"map":"cp_altitude","folder":"tf","game":"Team Fortress","app_id":440,"player_count":0,"max_players":24,"Bots":0,"server_type":"Dedicated","server_os":"Linux","password":true,"vac":true,"version":"7757534","steam_id":85568392924742826,"keywords":["cp","nocrits","nodmgspread","uncletopia"],"game_id":440,"stv_port":27046,"stv_name":"Uncletopia | San Francisco | 4 | Community | STV","players":null},{"server_id":141,"name":"Uncletopia | Sydney | 1 | All Maps","name_short":"syd-1","host":"syd-1.au.uncletopia.com","port":27015,"enabled":true,"region":"au","cc":"au","latitude":-33.865143,"longitude":151.2099,"reserved":0,"last_update":"0001-01-01T00:00:00Z","name_a2s":"Uncletopia | Sydney | 1 | All Maps","protocol":17,"map":"pl_barnblitz","folder":"tf","game":"Team Fortress","app_id":440,"player_count":0,"max_players":24,"Bots":0,"server_type":"Dedicated","server_os":"Linux","password":true,"vac":true,"version":"7757534","steam_id":85568392924470001,"keywords":["nocrits","nodmgspread","payload","uncletopia"],"game_id":440,"stv_port":27016,"stv_name":"Uncletopia | Sydney | 1 | All Maps | STV","players":null},{"server_id":123,"name":"Uncletopia | Sydney | 2 | All Maps","name_short":"syd-2","host":"syd-1.au.uncletopia.com","port":27025,"enabled":true,"region":"au","cc":"au","latitude":-33.865143,"longitude":151.2099,"reserved":0,"last_update":"0001-01-01T00:00:00Z","name_a2s":"Uncletopia | Sydney | 2 | All Maps","protocol":17,"map":"cp_dustbowl","folder":"tf","game":"Team Fortress","app_id":440,"player_count":0,"max_players":24,"Bots":0,"server_type":"Dedicated","server_os":"Linux","password":true,"vac":true,"version":"7757534","steam_id":85568392924470002,"keywords":["cp","nocrits","nodmgspread","uncletopia"],"game_id":440,"stv_port":27026,"stv_name":"Uncletopia | Sydney | 2 | All Maps | STV","players":null},{"server_id":395,"name":"Uncletopia | Sydney | 3 | All Maps","name_short":"syd-3","host":"syd-1.au.uncletopia.com","port":27035,"enabled":true,"region":"au","cc":"au","latitude":-33.865143,"longitude":151.2099,"reserved":0,"last_update":"0001-01-01T00:00:00Z","name_a2s":"Uncletopia | Sydney | 3 | All Maps","protocol":17,"map":"pl_pier","folder":"tf","game":"Team Fortress","app_id":440,"player_count":0,"max_players":24,"Bots":0,"server_type":"Dedicated","server_os":"Linux","password":true,"vac":true,"version":"7757534","steam_id":85568392925194467,"keywords":["nocrits","nodmgspread","payload","uncletopia"],"game_id":440,"stv_port":27036,"stv_name":"Uncletopia | Sydney | 3 | All Maps | STV","players":null},{"server_id":396,"name":"Uncletopia | Sydney | 4 | All Maps","name_short":"syd-4","host":"syd-1.au.uncletopia.com","port":27045,"enabled":true,"region":"au","cc":"au","latitude":-33.865143,"longitude":151.2099,"reserved":0,"last_update":"0001-01-01T00:00:00Z","name_a2s":"Uncletopia | Sydney | 4 | All Maps","protocol":17,"map":"koth_highpass","folder":"tf","game":"Team Fortress","app_id":440,"player_count":0,"max_players":24,"Bots":0,"server_type":"Dedicated","server_os":"Linux","password":true,"vac":true,"version":"7757534","steam_id":85568392925397958,"keywords":["cp","nocrits","nodmgspread","uncletopia"],"game_id":440,"stv_port":27046,"stv_name":"Uncletopia | Sydney | 4 | All Maps | STV","players":null},{"server_id":58,"name":"Uncletopia | Sydney | 5 | Stopwatch Beta","name_short":"syd-5","host":"syd-1.au.uncletopia.com","port":27055,"enabled":true,"region":"au","cc":"au","latitude":-33.865143,"longitude":151.2099,"reserved":0,"last_update":"0001-01-01T00:00:00Z","name_a2s":"Uncletopia | Sydney | 5 | Stopwatch Beta","protocol":17,"map":"pl_upward","folder":"tf","game":"Team Fortress","app_id":440,"player_count":0,"max_players":24,"Bots":0,"server_type":"Dedicated","server_os":"Linux","password":true,"vac":true,"version":"7757534","steam_id":85568392925397959,"keywords":["nocrits","nodmgspread","payload","uncletopia"],"game_id":440,"stv_port":27056,"stv_name":"Uncletopia | Sydney | 5 | Stopwatch Beta | STV","players":null},{"server_id":59,"name":"Uncletopia | Sydney | 6 | Community","name_short":"syd-6","host":"syd-1.au.uncletopia.com","port":27065,"enabled":true,"region":"au","cc":"au","latitude":-33.865143,"longitude":151.2099,"reserved":0,"last_update":"0001-01-01T00:00:00Z","name_a2s":"Uncletopia | Sydney | 6 | Community","protocol":17,"map":"workshop/koth_ashville_final.ugc2130459942","folder":"tf","game":"Team Fortress","app_id":440,"player_count":0,"max_players":24,"Bots":0,"server_type":"Dedicated","server_os":"Linux","password":true,"vac":true,"version":"7757534","steam_id":85568392925397960,"keywords":["cp","nocrits","nodmgspread","uncletopia"],"game_id":440,"stv_port":27066,"stv_name":"Uncletopia | Sydney | 6 | Community | STV","players":null},{"server_id":49,"name":"Uncletopia | Warsaw | 1 | All Maps","name_short":"waw-1","host":"waw-1.pl.uncletopia.com","port":27015,"enabled":true,"region":"eu","cc":"pl","latitude":52.2297,"longitude":21.017532,"reserved":0,"last_update":"0001-01-01T00:00:00Z","name_a2s":"","protocol":0,"map":"","folder":"","game":"","app_id":0,"player_count":0,"max_players":0,"Bots":0,"server_type":"","server_os":"","password":false,"vac":false,"version":"","steam_id":0,"keywords":null,"game_id":0,"stv_port":0,"stv_name":"","players":null},{"server_id":50,"name":"Uncletopia | Warsaw | 2 | All Maps","name_short":"waw-2","host":"waw-1.pl.uncletopia.com","port":27025,"enabled":true,"region":"eu","cc":"pl","latitude":52.2297,"longitude":21.017532,"reserved":0,"last_update":"0001-01-01T00:00:00Z","name_a2s":"Uncletopia | Warsaw | 2 | All Maps","protocol":17,"map":"koth_viaduct","folder":"tf","game":"Team Fortress","app_id":440,"player_count":0,"max_players":24,"Bots":0,"server_type":"Dedicated","server_os":"Linux","password":true,"vac":true,"version":"7757534","steam_id":85568392925397851,"keywords":["cp","nocrits","nodmgspread","uncletopia"],"game_id":440,"stv_port":27026,"stv_name":"Uncletopia | Warsaw | 2 | All Maps | STV","players":null},{"server_id":51,"name":"Uncletopia | Warsaw | 3 | All Maps","name_short":"waw-3","host":"waw-1.pl.uncletopia.com","port":27035,"enabled":true,"region":"eu","cc":"pl","latitude":52.2297,"longitude":21.017532,"reserved":0,"last_update":"0001-01-01T00:00:00Z","name_a2s":"Uncletopia | Warsaw | 3 | All Maps","protocol":17,"map":"pl_barnblitz","folder":"tf","game":"Team Fortress","app_id":440,"player_count":0,"max_players":24,"Bots":0,"server_type":"Dedicated","server_os":"Linux","password":true,"vac":true,"version":"7757534","steam_id":85568392925397852,"keywords":["nocrits","nodmgspread","payload","uncletopia"],"game_id":440,"stv_port":27036,"stv_name":"Uncletopia | Warsaw | 3 | All Maps | STV","players":null},{"server_id":52,"name":"Uncletopia | Warsaw | 4 | All Maps","name_short":"waw-4","host":"waw-1.pl.uncletopia.com","port":27045,"enabled":true,"region":"eu","cc":"pl","latitude":52.2297,"longitude":21.017532,"reserved":0,"last_update":"0001-01-01T00:00:00Z","name_a2s":"Uncletopia | Warsaw | 4 | All Maps","protocol":17,"map":"koth_lakeside_final","folder":"tf","game":"Team Fortress","app_id":440,"player_count":0,"max_players":24,"Bots":0,"server_type":"Dedicated","server_os":"Linux","password":true,"vac":true,"version":"7757534","steam_id":85568392925397853,"keywords":["cp","nocrits","nodmgspread","uncletopia"],"game_id":440,"stv_port":27046,"stv_name":"Uncletopia | Warsaw | 4 | All Maps | STV","players":null},{"server_id":53,"name":"Uncletopia | Warsaw | 5 | Stopwatch Beta","name_short":"waw-5","host":"waw-1.pl.uncletopia.com","port":27055,"enabled":true,"region":"eu","cc":"pl","latitude":52.2297,"longitude":21.017532,"reserved":0,"last_update":"0001-01-01T00:00:00Z","name_a2s":"Uncletopia | Warsaw | 5 | Stopwatch Beta","protocol":17,"map":"pl_borneo","folder":"tf","game":"Team Fortress","app_id":440,"player_count":0,"max_players":24,"Bots":0,"server_type":"Dedicated","server_os":"Linux","password":true,"vac":true,"version":"7757534","steam_id":85568392925397854,"keywords":["nocrits","nodmgspread","payload","uncletopia"],"game_id":440,"stv_port":27056,"stv_name":"Uncletopia | Warsaw | 5 | Stopwatch Beta | STV","players":null},{"server_id":54,"name":"Uncletopia | Warsaw | 6 | Community","name_short":"waw-6","host":"waw-1.pl.uncletopia.com","port":27065,"enabled":true,"region":"eu","cc":"pl","latitude":52.2297,"longitude":21.017532,"reserved":0,"last_update":"0001-01-01T00:00:00Z","name_a2s":"Uncletopia | Warsaw | 6 | Community","protocol":17,"map":"koth_lakeside_final","folder":"tf","game":"Team Fortress","app_id":440,"player_count":0,"max_players":24,"Bots":0,"server_type":"Dedicated","server_os":"Linux","password":true,"vac":true,"version":"7757534","steam_id":85568392925397856,"keywords":["cp","nocrits","nodmgspread","uncletopia"],"game_id":440,"stv_port":27066,"stv_name":"Uncletopia | Warsaw | 6 | Community | STV","players":null}]}