{"status":true,"message":"","result":[{"server_id":9,"name":"Uncletopia | Atlanta | 1 | All Maps","name_short":"atl-1","host":"atl-1.us.uncletopia.com","port":27015,"enabled":true,"region":"us-east","cc":"us","latitude":33.753746,"longitude":-84.38633,"reserved":0,"last_update":"0001-01-01T00:00:00Z","name_a2s":"Uncletopia | Atlanta | 1 | All Maps","protocol":17,"map":"pl_hoodoo_final","folder":"tf","game":"Team Fortress","app_id":440,"player_count":24,"max_players":24,"Bots":0,"server_type":"Dedicated","server_os":"Linux","password":true,"vac":true,"version":"7757534","steam_id":85568392924469982,"keywords":["nocrits","nodmgspread","payload","uncletopia"],"game_id":440,"stv_port":27016,"stv_name":"Uncletopia | Atlanta | 1 | All Maps | STV","players":[{"user_id":55,"name":"he drove a series ten cadillac","steam_id":76561198142756572,"connected_time":352000000000,"state":"active","ping":53},{"user_id":45,"name":"panopticon","steam_id":76561199131016163,"connected_time":1284000000000,"state":"active","ping":83},{"user_id":58,"name":"You Know What You Did","steam_id":76561198218558897,"connected_time":253000000000,"state":"active","ping":121},{"user_id":51,"name":"Mead","steam_id":76561198067192579,"connected_time":686000000000,"state":"active","ping":86},{"user_id":18,"name":"dysesthesia","steam_id":76561198027159018,"connected_time":2467000000000,"state":"active","ping":74},{"user_id":25,"name":"Leo","steam_id":76561198309760791,"connected_time":1842000000000,"state":"active","ping":133},{"user_id":50,"name":"LoGrove","steam_id":76561197969305602,"connected_time":691000000000,"state":"active","ping":69},{"user_id":38,"name":"Insect Abdomen Appreciator","steam_id":76561198980062131,"connected_time":1461000000000,"state":"active","ping":66},{"user_id":27,"name":"manbearswineflu","steam_id":76561198083945137,"connected_time":1765000000000,"state":"active","ping":81},{"user_id":52,"name":"creeeeeee","steam_id":76561198392539722,"connected_time":681000000000,"state":"active","ping":79},{"user_id":29,"name":"Quaker Oats","steam_id":76561197992800293,"connected_time":1727000000000,"state":"active","ping":63},{"user_id":54,"name":"cyro","steam_id":76561198146241989,"connected_time":407000000000,"state":"active","ping":62},{"user_id":31,"name":"Talos","steam_id":76561198022362861,"connected_time":1645000000000,"state":"active","ping":63},{"user_id":32,"name":"Der Munchkin[2098]","steam_id":76561197998833309,"connected_time":1642000000000,"state":"active","ping":58},{"user_id":53,"name":"CheesySpectre","steam_id":76561198332606276,"connected_time":631000000000,"state":"active","ping":78},{"user_id":49,"name":"whisper","steam_id":76561198116741891,"connected_time":749000000000,"state":"active","ping":58},{"user_id":46,"name":"Jon_595","steam_id":76561198846843547,"connected_time":1249000000000,"state":"active","ping":87},{"user_id":36,"name":"Briatho","steam_id":76561198032187923,"connected_time":1530000000000,"state":"active","ping":97},{"user_id":37,"name":"simonjohna646","steam_id":76561199403481880,"connected_time":1498000000000,"state":"active","ping":78},{"user_id":39,"name":"Sous-Chef","steam_id":76561198075705827,"connected_time":1459000000000,"state":"active","ping":66},{"user_id":40,"name":"Lynxdeer","steam_id":76561198928938065,"connected_time":1456000000000,"state":"active","ping":56},{"user_id":44,"name":"Gay Dog Rampage","steam_id":76561198085815757,"connected_time":1369000000000,"state":"active","ping":77},{"user_id":43,"name":"Nexo Fighter","steam_id":76561199187418090,"connected_time":1416000000000,"state":"active","ping":113},{"user_id":48,"name":"butterbutt!","steam_id":76561198038160740,"connected_time":1143000000000,"state":"active","ping":53}]},{"server_id":400,"name":"Uncletopia | Atlanta | 3 | Community","name_short":"atl-3","host":"atl-1.us.uncletopia.com","port":27035,"enabled":true,"region":"us-east","cc":"us","latitude":33.753746,"longitude":-84.38633,"reserved":0,"last_update":"0001-01-01T00:00:00Z","name_a2s":"Uncletopia | Atlanta | 3 | Community","protocol":17,"map":"cp_mountainlab","folder":"tf","game":"Team Fortress","app_id":440,"player_count":0,"max_players":24,"Bots":0,"server_type":"Dedicated","server_os":"Linux","password":true,"vac":true,"version":"7757534","steam_id":85568392924515187,"keywords":["cp","nocrits","nodmgspread","uncletopia"],"game_id":440,"stv_port":27036,"stv_name":"Uncletopia | Atlanta | 3 | Community | STV","players":null},{"server_id":401,"name":"Uncletopia | Atlanta | 4 | No Payload","name_short":"atl-4","host":"atl-1.us.uncletopia.com","port":27045,"enabled":true,"region":"us-east","cc":"us","latitude":33.753746,"longitude":-84.38633,"reserved":0,"last_update":"0001-01-01T00:00:00Z","name_a2s":"","protocol":0,"map":"","folder":"","game":"","app_id":0,"player_count":0,"max_players":0,"Bots":0,"server_type":"","server_os":"","password":false,"vac":false,"version":"","steam_id":0,"keywords":null,"game_id":0,"stv_port":0,"stv_name":"","players":null},{"server_id":2,"name":"Uncletopia | Chicago | 1 | All Maps","name_short":"chi-1","host":"chi-1.us.uncletopia.com","port":27015,"enabled":true,"region":"us-central","cc":"us","latitude":41.881832,"longitude":-87.62318,"reserved":0,"last_update":"0001-01-01T00:00:00Z","name_a2s":"Uncletopia | Chicago | 1 | All Maps","protocol":17,"map":"pl_barnblitz","folder":"tf","game":"Team Fortress","app_id":440,"player_count":24,"max_players":24,"Bots":0,"server_type":"Dedicated","server_os":"Linux","password":true,"vac":true,"version":"7757534","steam_id":85568392924469984,"keywords":["nocrits","nodmgspread","payload","uncletopia"],"game_id":440,"stv_port":27016,"stv_name":"Uncletopia | Chicago | 1 | All Maps | STV","players":[{"user_id":139,"name":"Quiet","steam_id":76561198119175817,"connected_time":3496000000000,"state":"active","ping":86},{"user_id":170,"name":"JacripspyVulcano","steam_id":76561198966980576,"connected_time":270000000000,"state":"active","ping":64},{"user_id":165,"name":"radiohead enjoyer","steam_id":76561198397662124,"connected_time":793000000000,"state":"active","ping":87},{"user_id":171,"name":"Huey","steam_id":76561198972816386,"connected_time":151000000000,"state":"active","ping":77},{"user_id":152,"name":"Kami","steam_id":76561199039249396,"connected_time":1683000000000,"state":"active","ping":74},{"user_id":148,"name":"Winter the Witchie","steam_id":76561198151971178,"connected_time":2967000000000,"state":"active","ping":55},{"user_id":126,"name":"upside down cat","steam_id":76561198028288349,"connected_time":4728000000000,"state":"active","ping":85},{"user_id":177,"name":"Poppet","steam_id":76561198012301951,"connected_time":113000000000,"state":"active","ping":56},{"user_id":156,"name":"Pixler544","steam_id":76561198240575132,"connected_time":1626000000000,"state":"active","ping":73},{"user_id":153,"name":"ck_rene","steam_id":76561199079260488,"connected_time":1675000000000,"state":"active","ping":63},{"user_id":172,"name":"jimbo","steam_id":76561198046059770,"connected_time":148000000000,"state":"active","ping":66},{"user_id":106,"name":"hi","steam_id":76561198809577048,"connected_time":5455000000000,"state":"active","ping":107},{"user_id":157,"name":"mau","steam_id":76561198354473513,"connected_time":1617000000000,"state":"active","ping":45},{"user_id":117,"name":"MyamE","steam_id":76561198133278462,"connected_time":5257000000000,"state":"active","ping":88},{"user_id":134,"name":"Monster","steam_id":76561198189429665,"connected_time":3906000000000,"state":"active","ping":74},{"user_id":161,"name":"tacofever","steam_id":76561198010966507,"connected_time":1400000000000,"state":"active","ping":106},{"user_id":176,"name":"DannyM","steam_id":76561198351165570,"connected_time":131000000000,"state":"active","ping":65},{"user_id":169,"name":"woosh","steam_id":76561198173020438,"connected_time":377000000000,"state":"active","ping":77},{"user_id":178,"name":"Carson","steam_id":76561198076771071,"connected_time":104000000000,"state":"active","ping":49},{"user_id":158,"name":"mio","steam_id":76561198239286750,"connected_time":1500000000000,"state":"active","ping":69},{"user_id":150,"name":"üé£ I'd Rather Be Gooning","steam_id":76561198062410522,"connected_time":2507000000000,"state":"active","ping":55},{"user_id":179,"name":"RyInc","steam_id":76561198874261643,"connected_time":100000000000,"state":"active","ping":40},{"user_id":138,"name":"shaderoses","steam_id":76561198070800500,"connected_time":3611000000000,"state":"active","ping":70},{"user_id":127,"name":"One Chill Daddio","steam_id":76561198074026282,"connected_time":4715000000000,"state":"active","ping":84}]},{"server_id":106,"name":"Uncletopia | Chicago | 2 | All Maps","name_short":"chi-2","host":"chi-1.us.uncletopia.com","port":27025,"enabled":true,"region":"us-central","cc":"us","latitude":41.881832,"longitude":-87.62318,"reserved":0,"last_update":"0001-01-01T00:00:00Z","name_a2s":"Uncletopia | Chicago | 2 | All Maps","protocol":17,"map":"pl_pier","folder":"tf","game":"Team Fortress","app_id":440,"player_count":23,"max_players":24,"Bots":0,"server_type":"Dedicated","server_os":"Linux","password":true,"vac":true,"version":"7757534","steam_id":85568392924469985,"keywords":["nocrits","nodmgspread","payload","uncletopia"],"game_id":440,"stv_port":27026,"stv_name":"Uncletopia | Chicago | 2 | All Maps | STV","players":[{"user_id":65,"name":"Apex60","steam_id":76561198041898090,"connected_time":1396000000000,"state":"active","ping":58},{"user_id":78,"name":"Fred","steam_id":76561197983870604,"connected_time":953000000000,"state":"active","ping":87},{"user_id":6,"name":"Jester","steam_id":76561198153102922,"connected_time":5041000000000,"state":"active","ping":73},{"user_id":84,"name":"Vl@iM@","steam_id":76561198044762641,"connected_time":251000000000,"state":"active","ping":85},{"user_id":72,"name":"that one","steam_id":76561199088969462,"connected_time":1209000000000,"state":"active","ping":69},{"user_id":86,"name":"Huntpk","steam_id":76561198340591674,"connected_time":238000000000,"state":"active","ping":34},{"user_id":85,"name":"Vanilla","steam_id":76561199106847859,"connected_time":251000000000,"state":"active","ping":66},{"user_id":81,"name":"A Shiny Meat Bicycle","steam_id":76561198358757709,"connected_time":733000000000,"state":"active","ping":99},{"user_id":55,"name":"Esteban Delsin","steam_id":76561198433519639,"connected_time":2171000000000,"state":"active","ping":101},{"user_id":79,"name":"Giddy","steam_id":76561198129732108,"connected_time":779000000000,"state":"active","ping":87},{"user_id":56,"name":"Vespen","steam_id":76561198259984019,"connected_time":2170000000000,"state":"active","ping":101},{"user_id":71,"name":"gmagnum","steam_id":76561199034260371,"connected_time":1263000000000,"state":"active","ping":107},{"user_id":41,"name":"Futureguy33","steam_id":76561198101336564,"connected_time":3361000000000,"state":"active","ping":65},{"user_id":87,"name":"Bratty Ditto","steam_id":76561198062513419,"connected_time":230000000000,"state":"active","ping":66},{"user_id":73,"name":"The Rat ‚öï","steam_id":76561198006571338,"connected_time":1059000000000,"state":"active","ping":45},{"user_id":57,"name":"Noodle","steam_id":76561199156137868,"connected_time":2162000000000,"state":"active","ping":147},{"user_id":48,"name":"whitneyscience1","steam_id":76561199405650048,"connected_time":2533000000000,"state":"active","ping":139},{"user_id":75,"name":"caption cool","steam_id":76561197990612056,"connected_time":1032000000000,"state":"active","ping":46},{"user_id":77,"name":"d u k k i","steam_id":76561198071807437,"connected_time":1008000000000,"state":"active","ping":181},{"user_id":70,"name":"eredyn lft","steam_id":76561198868116439,"connected_time":1308000000000,"state":"active","ping":46},{"user_id":88,"name":"[LINUX] Purple Penguin Pybro","steam_id":76561198093538786,"connected_time":138000000000,"state":"active","ping":66},{"user_id":89,"name":"Glory","steam_id":76561198013975080,"connected_time":61000000000,"state":"active","ping":229},{"user_id":33,"name":"HollowMan","steam_id":76561198967266827,"connected_time":3604000000000,"state":"active","ping":84}]},{"server_id":402,"name":"Uncletopia | Chicago | 3 | All Maps","name_short":"chi-3","host":"chi-1.us.uncletopia.com","port":27035,"enabled":true,"region":"us-central","cc":"us","latitude":41.881832,"longitude":-87.62318,"reserved":0,"last_update":"0001-01-01T00:00:00Z","name_a2s":"Uncletopia | Chicago | 3 | All Maps","protocol":17,"map":"koth_cascade","folder":"tf","game":"Team Fortress","app_id":440,"player_count":0,"max_players":24,"Bots":0,"server_type":"Dedicated","server_os":"Linux","password":true,"vac":true,"version":"7757534","steam_id":85568392924515191,"keywords":["cp","nocrits","nodmgspread","uncletopia"],"game_id":440,"stv_port":27036,"stv_name":"Uncletopia | Chicago | 3 | All Maps | STV","players":null},{"server_id":403,"name":"Uncletopia | Chicago | 4 | All Maps","name_short":"chi-4","host":"chi-1.us.uncletopia.com","port":27045,"enabled":true,"region":"us-central","cc":"us","latitude":41.881832,"longitude":-87.62318,"reserved":0,"last_update":"0001-01-01T00:00:00Z","name_a2s":"Uncletopia | Chicago | 4 | All Maps","protocol":17,"map":"koth_cascade","folder":"tf","game":"Team Fortress","app_id":440,"player_count":0,"max_players":24,"Bots":0,"server_type":"Dedicated","server_os":"Linux","password":true,"vac":true,"version":"7757534","steam_id":85568392924515193,"keywords":["cp","nocrits","nodmgspread","uncletopia"],"game_id":440,"stv_port":27046,"stv_name":"Uncletopia | Chicago | 4 | All Maps | STV","players":null},{"server_id":36,"name":"Uncletopia | Chicago | 5 | All Maps","name_short":"chi-5","host":"chi-2.us.uncletopia.com","port":27015,"enabled":true,"region":"us-central","cc":"us","latitude":41.881832,"longitude":-87.62318,"reserved":0,"last_update":"0001-01-01T00:00:00Z","name_a2s":"Uncletopia | Chicago | 5 | All Maps","protocol":17,"map":"koth_lakeside_final","folder":"tf","game":"Team Fortress","app_id":440,"player_count":0,"max_players":24,"Bots":0,"server_type":"Dedicated","server_os":"Linux","password":true,"vac":true,"version":"7757534","steam_id":85568392924866362,"keywords":["cp","nocrits","nodmgspread","uncletopia"],"game_id":440,"stv_port":27016,"stv_name":"Uncletopia | Chicago | 5 | All Maps | STV","players":null},{"server_id":37,"name":"Uncletopia | Chicago | 6 | All Maps","name_short":"chi-6","host":"chi-2.us.uncletopia.com","port":27025,"enabled":true,"region":"us-central","cc":"us","latitude":41.881832,"longitude":-87.62318,"reserved":0,"last_update":"0001-01-01T00:00:00Z","name_a2s":"Uncletopia | Chicago | 6 | All Maps","protocol":17,"map":"cp_dustbowl","folder":"tf","game":"Team Fortress","app_id":440,"player_count":3,"max_players":24,"Bots":0,"server_type":"Dedicated","server_os":"Linux","password":true,"vac":true,"version":"7757534","steam_id":85568392924866363,"keywords":["cp","nocrits","nodmgspread","uncletopia"],"game_id":440,"stv_port":27026,"stv_name":"Uncletopia | Chicago | 6 | All Maps | STV","players":[{"user_id":6,"name":"Pigcakees","steam_id":76561198797820937,"connected_time":339000000000,"state":"active","ping":84},{"user_id":7,"name":"1TheExterminator","steam_id":76561198972879727,"connected_time":335000000000,"state":"active","ping":74},{"user_id":8,"name":"grimp gromp","steam_id":76561199267535506,"connected_time":310000000000,"state":"active","ping":94}]},{"server_id":38,"name":"Uncletopia | Chicago | 7 | Stopwatch Beta","name_short":"chi-7","host":"chi-2.us.uncletopia.com","port":27035,"enabled":true,"region":"us-central","cc":"us","latitude":41.881832,"longitude":-87.62318,"reserved":0,"last_update":"0001-01-01T00:00:00Z","name_a2s":"Uncletopia | Chicago | 7 | Stopwatch Beta","protocol":17,"map":"koth_viaduct","folder":"tf","game":"Team Fortress","app_id":440,"player_count":0,"max_players":24,"Bots":0,"server_type":"Dedicated","server_os":"Linux","password":true,"vac":true,"version":"7757534","steam_id":85568392924866364,"keywords":["cp","nocrits","nodmgspread","uncletopia"],"game_id":440,"stv_port":27036,"stv_name":"Uncletopia | Chicago | 7 | Stopwatch Beta | STV","players":null},{"server_id":39,"name":"Uncletopia | Chicago | 8 | Community","name_short":"chi-8","host":"chi-2.us.uncletopia.com","port":27045,"enabled":true,"region":"us-central","cc":"us","latitude":41.881832,"longitude":-87.62318,"reserved":0,"last_update":"0001-01-01T00:00:00Z","name_a2s":"Uncletopia | Chicago | 8 | Community","protocol":17,"map":"koth_lakeside_final","folder":"tf","game":"Team Fortress","app_id":440,"player_count":0,"max_players":24,"Bots":0,"server_type":"Dedicated","server_os":"Linux","password":true,"vac":true,"version":"7757534","steam_id":85568392924866365,"keywords":["cp","nocrits","nodmgspread","uncletopia"],"game_id":440,"stv_port":27046,"stv_name":"Uncletopia | Chicago | 8 | Community | STV","players":null},{"server_id":8,"name":"Uncletopia | Dallas | 1 | All Maps","name_short":"dal-1","host":"dal-1.us.uncletopia.com","port":27015,"enabled":true,"region":"us-central","cc":"us","latitude":32.779167,"longitude":-96.80889,"reserved":0,"last_update":"0001-01-01T00:00:00Z","name_a2s":"Uncletopia | Dallas | 1 | All Maps","protocol":17,"map":"cp_altitude","folder":"tf","game":"Team Fortress","app_id":440,"player_count":0,"max_players":24,"Bots":0,"server_type":"Dedicated","server_os":"Linux","password":true,"vac":true,"version":"7757534","steam_id":85568392924469986,"keywords":["cp","nocrits","nodmgspread","uncletopia"],"game_id":440,"stv_port":27016,"stv_name":"Uncletopia | Dallas | 1 | All Maps | STV","players":null},{"server_id":108,"name":"Uncletopia | Dallas | 2 | All Maps","name_short":"dal-2","host":"dal-1.us.uncletopia.com","port":27025,"enabled":true,"region":"us-central","cc":"us","latitude":32.779167,"longitude":-96.80889,"reserved":0,"last_update":"0001-01-01T00:00:00Z","name_a2s":"Uncletopia | Dallas | 2 | All Maps","protocol":17,"map":"cp_altitude","folder":"tf","game":"Team Fortress","app_id":440,"player_count":0,"max_players":24,"Bots":0,"server_type":"Dedicated","server_os":"Linux","password":true,"vac":true,"version":"7757534","steam_id":85568392924469988,"keywords":["cp","nocrits","nodmgspread","uncletopia"],"game_id":440,"stv_port":27026,"stv_name":"Uncletopia | Dallas | 2 | All Maps | STV","players":null},{"server_id":5,"name":"Uncletopia | Frankfurt | 1 | All Maps","name_short":"frk-1","host":"frk-1.de.uncletopia.com","port":27015,"enabled":true,"region":"eu","cc":"de","latitude":50.110924,"longitude":8.682127,"reserved":0,"last_update":"0001-01-01T00:00:00Z","name_a2s":"Uncletopia | Frankfurt | 1 | All Maps","protocol":17,"map":"cp_egypt_final","folder":"tf","game":"Team Fortress","app_id":440,"player_count":24,"max_players":24,"Bots":0,"server_type":"Dedicated","server_os":"Linux","password":true,"vac":true,"version":"7757534","steam_id":85568392924469989,"keywords":["cp","nocrits","nodmgspread","uncletopia"],"game_id":440,"stv_port":27016,"stv_name":"Uncletopia | Frankfurt | 1 | All Maps | STV","players":[{"user_id":389,"name":"Negurescu","steam_id":76561198128777349,"connected_time":614000000000,"state":"active","ping":82},{"user_id":367,"name":"trans takeover 2024","steam_id":76561198262910410,"connected_time":2149000000000,"state":"active","ping":100},{"user_id":394,"name":"gaming for jesus","steam_id":76561199236428794,"connected_time":306000000000,"state":"active","ping":91},{"user_id":393,"name":"Whitwolf Luckyclaws","steam_id":76561198350140807,"connected_time":363000000000,"state":"active","ping":82},{"user_id":331,"name":"john fortress","steam_id":76561198013237629,"connected_time":5087000000000,"state":"active","ping":94},{"user_id":395,"name":"Shrimpeee","steam_id":76561199012689768,"connected_time":304000000000,"state":"active","ping":75},{"user_id":399,"name":"Brick Top","steam_id":76561198035586064,"connected_time":43000000000,"state":"active","ping":62},{"user_id":382,"name":"Scutchy","steam_id":76561198104431220,"connected_time":1242000000000,"state":"active","ping":63},{"user_id":391,"name":"Syde","steam_id":76561198071725346,"connected_time":409000000000,"state":"active","ping":57},{"user_id":357,"name":"Grumtsior","steam_id":76561198043563111,"connected_time":3076000000000,"state":"active","ping":75},{"user_id":397,"name":"W√ºstenfuchs","steam_id":76561198453885708,"connected_time":133000000000,"state":"active","ping":63},{"user_id":377,"name":"Pootis penser","steam_id":76561198944032480,"connected_time":1768000000000,"state":"active","ping":93},{"user_id":374,"name":"Bob Sacamano","steam_id":76561198085610701,"connected_time":1802000000000,"state":"active","ping":103},{"user_id":380,"name":"nedilya","steam_id":76561198039692077,"connected_time":1574000000000,"state":"active","ping":47},{"user_id":340,"name":"big hoops","steam_id":76561198004703799,"connected_time":4121000000000,"state":"active","ping":55},{"user_id":381,"name":"painting4","steam_id":76561198067554256,"connected_time":1560000000000,"state":"active","ping":63},{"user_id":378,"name":"kloada","steam_id":76561198082113271,"connected_time":1761000000000,"state":"active","ping":71},{"user_id":356,"name":"Rainych","steam_id":76561199475745176,"connected_time":3366000000000,"state":"active","ping":62},{"user_id":385,"name":"elliboi","steam_id":76561199178500991,"connected_time":915000000000,"state":"active","ping":99},{"user_id":386,"name":"Dispenser (Lopata)","steam_id":76561198820264239,"connected_time":871000000000,"state":"active","ping":82},{"user_id":375,"name":"Potat Master |Potato Industries","steam_id":76561199112380553,"connected_time":1799000000000,"state":"active","ping":90},{"user_id":390,"name":"TheFallenFox","steam_id":76561199074190919,"connected_time":575000000000,"state":"active","ping":61},{"user_id":329,"name":"Mr.Fosty","steam_id":76561198045212783,"connected_time":5159000000000,"state":"active","ping":84},{"user_id":398,"name":"Animatic","steam_id":76561198186421601,"connected_time":71000000000,"state":"active","ping":185}]},{"server_id":110,"name":"Uncletopia | Frankfurt | 2 | All Maps","name_short":"frk-2","host":"frk-1.de.uncletopia.com","port":27025,"enabled":true,"region":"eu","cc":"de","latitude":50.110924,"longitude":8.682127,"reserved":0,"last_update":"0001-01-01T00:00:00Z","name_a2s":"Uncletopia | Frankfurt | 2 | All Maps","protocol":17,"map":"plr_bananabay","folder":"tf","game":"Team Fortress","app_id":440,"player_count":2,"max_players":24,"Bots":0,"server_type":"Dedicated","server_os":"Linux","password":true,"vac":true,"version":"7757534","steam_id":85568392924469990,"keywords":["nocrits","nodmgspread","payload","uncletopia"],"game_id":440,"stv_port":27026,"stv_name":"Uncletopia | Frankfurt | 2 | All Maps | STV","players":[{"user_id":22,"name":"Davii","steam_id":76561199172609547,"connected_time":560000000000,"state":"active","ping":89},{"user_id":23,"name":"Corrolot","steam_id":76561199341998565,"connected_time":436000000000,"state":"active","ping":218}]},{"server_id":308,"name":"Uncletopia | Frankfurt | 3 | All Maps","name_short":"frk-3","host":"frk-1.de.uncletopia.com","port":27035,"enabled":true,"region":"eu","cc":"de","latitude":50.110924,"longitude":8.682127,"reserved":0,"last_update":"0001-01-01T00:00:00Z","name_a2s":"Uncletopia | Frankfurt | 3 | All Maps","protocol":17,"map":"koth_viaduct","folder":"tf","game":"Team Fortress","app_id":440,"player_count":0,"max_players":24,"Bots":0,"server_type":"Dedicated","server_os":"Linux","password":true,"vac":true,"version":"7757534","steam_id":85568392924504274,"keywords":["cp","nocrits","nodmgspread","uncletopia"],"game_id":440,"stv_port":27036,"stv_name":"Uncletopia | Frankfurt | 3 | All Maps | STV","players":null},{"server_id":309,"name":"Uncletopia | Frankfurt | 4 | All Maps","name_short":"frk-4","host":"frk-1.de.uncletopia.com","port":27045,"enabled":true,"region":"eu","cc":"de","latitude":50.110924,"longitude":8.682127,"reserved":0,"last_update":"0001-01-01T00:00:00Z","name_a2s":"Uncletopia | Frankfurt | 4 | All Maps","protocol":17,"map":"pl_pier","folder":"tf","game":"Team Fortress","app_id":440,"player_count":24,"max_players":24,"Bots":0,"server_type":"Dedicated","server_os":"Linux","password":true,"vac":true,"version":"7757534","steam_id":85568392924504275,"keywords":["nocrits","nodmgspread","payload","uncletopia"],"game_id":440,"stv_port":27046,"stv_name":"Uncletopia | Frankfurt | 4 | All Maps | STV","players":[{"user_id":321,"name":"Monke","steam_id":76561198066994468,"connected_time":1541000000000,"state":"active","ping":72},{"user_id":271,"name":"LordTrap.exe","steam_id":76561198318089716,"connected_time":5560000000000,"state":"active","ping":51},{"user_id":324,"name":"Pachakamakk","steam_id":76561197989010401,"connected_time":1047000000000,"state":"active","ping":55},{"user_id":338,"name":"MAKENTAKEN","steam_id":76561199127359587,"connected_time":254000000000,"state":"active","ping":89},{"user_id":325,"name":"veteran29","steam_id":76561197993041837,"connected_time":1044000000000,"state":"active","ping":58},{"user_id":307,"name":"Dolcelatte","steam_id":76561198038501770,"connected_time":3476000000000,"state":"active","ping":48},{"user_id":327,"name":"Kumquat","steam_id":76561198200490386,"connected_time":1035000000000,"state":"active","ping":77},{"user_id":323,"name":"Mr.4kb","steam_id":76561198027916127,"connected_time":1518000000000,"state":"active","ping":59},{"user_id":313,"name":"Optimist 50","steam_id":76561198039631442,"connected_time":2556000000000,"state":"active","ping":80},{"user_id":173,"name":"Pipper","steam_id":76561197970326616,"connected_time":13164000000000,"state":"active","ping":53},{"user_id":328,"name":"John Pea Rambo","steam_id":76561198416582919,"connected_time":1027000000000,"state":"active","ping":100},{"user_id":329,"name":"panakid","steam_id":76561198364121077,"connected_time":1026000000000,"state":"active","ping":105},{"user_id":318,"name":"Snortman","steam_id":76561199012566222,"connected_time":2280000000000,"state":"active","ping":51},{"user_id":312,"name":"YuraGreek","steam_id":76561198050182252,"connected_time":2667000000000,"state":"active","ping":75},{"user_id":305,"name":"LivEssense","steam_id":76561198052476979,"connected_time":3593000000000,"state":"active","ping":75},{"user_id":320,"name":"LOBZIK","steam_id":76561198114830120,"connected_time":1586000000000,"state":"active","ping":80},{"user_id":331,"name":"Mingo","steam_id":76561199191245650,"connected_time":1013000000000,"state":"active","ping":89},{"user_id":301,"name":"Soerlssoelss√∂en","steam_id":76561197993060585,"connected_time":3873000000000,"state":"active","ping":72},{"user_id":253,"name":"Fran","steam_id":76561199070516960,"connected_time":6860000000000,"state":"active","ping":63},{"user_id":303,"name":"The Jar","steam_id":76561199171080156,"connected_time":3794000000000,"state":"active","ping":89},{"user_id":333,"name":"Pingu","steam_id":76561198267921881,"connected_time":968000000000,"state":"active","ping":90},{"user_id":322,"name":"RADIOACTIVE JEW","steam_id":76561198059635136,"connected_time":1534000000000,"state":"active","ping":69},{"user_id":337,"name":"Mike","steam_id":76561198273183085,"connected_time":828000000000,"state":"active","ping":60},{"user_id":308,"name":"Udinese Dion","steam_id":76561198067931573,"connected_time":3475000000000,"state":"active","ping":47}]},{"server_id":310,"name":"Uncletopia | Frankfurt | 5 | All Maps","name_short":"frk-5","host":"frk-1.de.uncletopia.com","port":27055,"enabled":true,"region":"eu","cc":"de","latitude":50.110924,"longitude":8.682127,"reserved":0,"last_update":"0001-01-01T00:00:00Z","name_a2s":"Uncletopia | Frankfurt | 5 | All Maps","protocol":17,"map":"pl_borneo","folder":"tf","game":"Team Fortress","app_id":440,"player_count":24,"max_players":24,"Bots":0,"server_type":"Dedicated","server_os":"Linux","password":true,"vac":true,"version":"7757534","steam_id":85568392924504277,"keywords":["nocrits","nodmgspread","payload","uncletopia"],"game_id":440,"stv_port":27056,"stv_name":"Uncletopia | Frankfurt | 5 | All Maps | STV","players":[{"user_id":160,"name":"FlawlessAlias #SaveTF2","steam_id":76561198159703164,"connected_time":288000000000,"state":"active","ping":87},{"user_id":145,"name":"Wardruna96","steam_id":76561199057083828,"connected_time":1037000000000,"state":"active","ping":66},{"user_id":162,"name":"blurst of times","steam_id":76561197972325640,"connected_time":230000000000,"state":"active","ping":48},{"user_id":132,"name":"pepper","steam_id":76561198059782462,"connected_time":1824000000000,"state":"active","ping":52},{"user_id":161,"name":"pijacka","steam_id":76561198103899658,"connected_time":286000000000,"state":"active","ping":52},{"user_id":128,"name":"Largo","steam_id":76561198844368927,"connected_time":1922000000000,"state":"active","ping":74},{"user_id":154,"name":"B1nd S B1nd","steam_id":76561198057607142,"connected_time":469000000000,"state":"active","ping":95},{"user_id":67,"name":"‚ô£–ë—Ä–µ–¥–æ–≤—ã–π –ú–µ—Å—è—Ü","steam_id":76561198796404149,"connected_time":5402000000000,"state":"active","ping":101},{"user_id":153,"name":"skibidi bop yes yes yes","steam_id":76561198306177608,"connected_time":575000000000,"state":"active","ping":103},{"user_id":150,"name":"TOG II*","steam_id":76561197993906091,"connected_time":600000000000,"state":"active","ping":55},{"user_id":163,"name":"kgf","steam_id":76561198181442259,"connected_time":214000000000,"state":"active","ping":65},{"user_id":164,"name":"Magic","steam_id":76561198401602586,"connected_time":192000000000,"state":"active","ping":87},{"user_id":156,"name":"chgivan","steam_id":76561198060010064,"connected_time":381000000000,"state":"active","ping":167},{"user_id":146,"name":"gGABEsz","steam_id":76561198117199068,"connected_time":902000000000,"state":"active","ping":70},{"user_id":165,"name":"Spajro","steam_id":76561198257383813,"connected_time":171000000000,"state":"active","ping":55},{"user_id":137,"name":"meow","steam_id":76561199216923710,"connected_time":1697000000000,"state":"active","ping":127},{"user_id":118,"name":"Guru","steam_id":76561198093853069,"connected_time":3050000000000,"state":"active","ping":60},{"user_id":166,"name":"EGirlGang","steam_id":76561198257435792,"connected_time":167000000000,"state":"active","ping":72},{"user_id":167,"name":"he's not even good xd","steam_id":76561198148115584,"connected_time":166000000000,"state":"active","ping":68},{"user_id":127,"name":"I was good before.","steam_id":76561198187045217,"connected_time":1976000000000,"state":"active","ping":75},{"user_id":151,"name":"Tywhip","steam_id":76561199207545191,"connected_time":591000000000,"state":"active","ping":60},{"user_id":168,"name":"MixailSend","steam_id":76561198992531145,"connected_time":160000000000,"state":"active","ping":94},{"user_id":159,"name":"Koekoek","steam_id":76561198057092865,"connected_time":360000000000,"state":"active","ping":62},{"user_id":139,"name":"Pyrolander","steam_id":76561198050785450,"connected_time":1649000000000,"state":"active","ping":57}]},{"server_id":311,"name":"Uncletopia | Frankfurt | 6 | All Maps","name_short":"frk-6","host":"frk-1.de.uncletopia.com","port":27065,"enabled":true,"region":"eu","cc":"de","latitude":50.110924,"longitude":8.682127,"reserved":0,"last_update":"0001-01-01T00:00:00Z","name_a2s":"Uncletopia | Frankfurt | 6 | All Maps","protocol":17,"map":"pl_badwater","folder":"tf","game":"Team Fortress","app_id":440,"player_count":24,"max_players":24,"Bots":0,"server_type":"Dedicated","server_os":"Linux","password":true,"vac":true,"version":"7757534","steam_id":85568392924504278,"keywords":["nocrits","nodmgspread","payload","uncletopia"],"game_id":440,"stv_port":27066,"stv_name":"Uncletopia | Frankfurt | 6 | All Maps | STV","players":[{"user_id":95,"name":"Flopphalla","steam_id":76561198160705564,"connected_time":367000000000,"state":"active","ping":74},{"user_id":17,"name":"1sec no za","steam_id":76561198798657045,"connected_time":3254000000000,"state":"active","ping":78},{"user_id":99,"name":"spencer_knight","steam_id":76561198002925804,"connected_time":262000000000,"state":"active","ping":72},{"user_id":81,"name":"doopsuiker","steam_id":76561198025916703,"connected_time":812000000000,"state":"active","ping":93},{"user_id":92,"name":"2ka","steam_id":76561198343747394,"connected_time":454000000000,"state":"active","ping":57},{"user_id":31,"name":"glow","steam_id":76561198086654069,"connected_time":2583000000000,"state":"active","ping":72},{"user_id":68,"name":"–ì–∞–≥—ã–≥","steam_id":76561198412349590,"connected_time":1565000000000,"state":"active","ping":86},{"user_id":26,"name":"KillerQueen (he/they/she)","steam_id":76561199019399725,"connected_time":2686000000000,"state":"active","ping":65},{"user_id":88,"name":"Goonz","steam_id":76561198161546490,"connected_time":583000000000,"state":"active","ping":60},{"user_id":72,"name":"Ane≈•√°k","steam_id":76561198159294906,"connected_time":1443000000000,"state":"active","ping":59},{"user_id":29,"name":"X45Y","steam_id":76561198112534025,"connected_time":2630000000000,"state":"active","ping":45},{"user_id":97,"name":"Art","steam_id":76561198823514629,"connected_time":320000000000,"state":"active","ping":114},{"user_id":78,"name":"Lemon","steam_id":76561198188535947,"connected_time":1086000000000,"state":"active","ping":79},{"user_id":67,"name":"–ú—É–∂–∏–∫","steam_id":76561198373472649,"connected_time":1577000000000,"state":"active","ping":89},{"user_id":75,"name":"Condigium","steam_id":76561198838929185,"connected_time":1416000000000,"state":"active","ping":57},{"user_id":76,"name":"hipster_doofus","steam_id":76561197970902697,"connected_time":1351000000000,"state":"active","ping":73},{"user_id":77,"name":"akakez","steam_id":76561198095432821,"connected_time":1300000000000,"state":"active","ping":139},{"user_id":83,"name":"Rednbloo","steam_id":76561199001504941,"connected_time":718000000000,"state":"active","ping":83},{"user_id":52,"name":"√ÉNVS DR√ÉNVS","steam_id":76561198138733015,"connected_time":2199000000000,"state":"active","ping":113},{"user_id":41,"name":"Numbe","steam_id":76561198269614930,"connected_time":2516000000000,"state":"active","ping":95},{"user_id":96,"name":"Bodeine Brazy","steam_id":76561198122181176,"connected_time":338000000000,"state":"active","ping":94},{"user_id":101,"name":"I am piss man","steam_id":76561198039209685,"connected_time":16000000000,"state":"spawning","ping":57},{"user_id":100,"name":"noobdog","steam_id":76561198036486671,"connected_time":246000000000,"state":"active","ping":66},{"user_id":57,"name":"hedon/","steam_id":76561198249832770,"connected_time":2092000000000,"state":"active","ping":59}]},{"server_id":23,"name":"Uncletopia | Frankfurt | 7 | Stopwatch Beta","name_short":"frk-7","host":"frk-1.de.uncletopia.com","port":27075,"enabled":true,"region":"eu","cc":"de","latitude":50.110924,"longitude":8.682127,"reserved":0,"last_update":"0001-01-01T00:00:00Z","name_a2s":"Uncletopia | Frankfurt | 7 | Stopwatch Beta","protocol":17,"map":"workshop/pl_summercoast_rc8e.ugc1761528829","folder":"tf","game":"Team Fortress","app_id":440,"player_count":0,"max_players":24,"Bots":0,"server_type":"Dedicated","server_os":"Linux","password":true,"vac":true,"version":"7757534","steam_id":85568392924742827,"keywords":["nocrits","nodmgspread","payload","uncletopia"],"game_id":440,"stv_port":27076,"stv_name":"Uncletopia | Frankfurt | 7 | Stopwatch Beta | STV","players":null},{"server_id":24,"name":"Uncletopia | Frankfurt | 8 | Community","name_short":"frk-8","host":"frk-1.de.uncletopia.com","port":27085,"enabled":true,"region":"eu","cc":"de","latitude":50.110924,"longitude":8.682127,"reserved":0,"last_update":"0001-01-01T00:00:00Z","name_a2s":"Uncletopia | Frankfurt | 8 | Community","protocol":17,"map":"workshop/cp_hazyfort_rc6.ugc1365963729","folder":"tf","game":"Team Fortress","app_id":440,"player_count":0,"max_players":24,"Bots":0,"server_type":"Dedicated","server_os":"Linux","password":true,"vac":true,"version":"7757534","steam_id":85568392924742828,"keywords":["cp","nocrits","nodmgspread","uncletopia"],"game_id":440,"stv_port":27086,"stv_name":"Uncletopia | Frankfurt | 8 | Community | STV","players":null},{"server_id":202,"name":"Uncletopia | Hong Kong | 1 | All Maps","name_short":"hgk-1","host":"hgk-1.hk.uncletopia.com","port":27015,"enabled":true,"region":"asia","cc":"hk","latitude":22.302711,"longitude":114.177216,"reserved":0,"last_update":"0001-01-01T00:00:00Z","name_a2s":"Uncletopia | Hong Kong | 1 | All Maps","protocol":17,"map":"cp_well","folder":"tf","game":"Team Fortress","app_id":440,"player_count":21,"max_players":24,"Bots":0,"server_type":"Dedicated","server_os":"Linux","password":true,"vac":true,"version":"7757534","steam_id":85568392924494504,"keywords":["cp","nocrits","nodmgspread","uncletopia"],"game_id":440,"stv_port":27016,"stv_name":"Uncletopia | Hong Kong | 1 | All Maps | STV","players":[{"user_id":458,"name":"Turbo.RF4","steam_id":76561199061012484,"connected_time":1489000000000,"state":"active","ping":69},{"user_id":448,"name":"Murdise","steam_id":76561198344599705,"connected_time":2488000000000,"state":"active","ping":102},{"user_id":472,"name":"Corn wood","steam_id":76561199083620100,"connected_time":140000000000,"state":"active","ping":101},{"user_id":473,"name":"Miles Per'Hour","steam_id":76561199000630075,"connected_time":135000000000,"state":"active","ping":117},{"user_id":357,"name":"cucumber","steam_id":76561198157549908,"connected_time":8835000000000,"state":"active","ping":105},{"user_id":446,"name":"Grunade","steam_id":76561198115390545,"connected_time":2507000000000,"state":"active","ping":88},{"user_id":359,"name":"AmaiToxic","steam_id":76561199122491157,"connected_time":8688000000000,"state":"active","ping":128},{"user_id":403,"name":"ÊØç„ÅÆËÇâÂõ£Â≠ê@hao123.com","steam_id":76561198069561896,"connected_time":6668000000000,"state":"active","ping":34},{"user_id":433,"name":"uptriste","steam_id":76561198158666692,"connected_time":3211000000000,"state":"active","ping":36},{"user_id":470,"name":"Noyour","steam_id":76561198323259830,"connected_time":535000000000,"state":"active","ping":106},{"user_id":474,"name":"Tropic","steam_id":76561199195455047,"connected_time":78000000000,"state":"active","ping":103},{"user_id":460,"name":"Cloud","steam_id":76561198272454184,"connected_time":1321000000000,"state":"active","ping":93},{"user_id":459,"name":"Ïñ¥Ìù•!","steam_id":76561197966297840,"connected_time":1403000000000,"state":"active","ping":91},{"user_id":431,"name":"silverhouse7","steam_id":76561198349634906,"connected_time":3553000000000,"state":"active","ping":62},{"user_id":475,"name":"TomProPlayer","steam_id":76561199223292521,"connected_time":53000000000,"state":"active","ping":74},{"user_id":476,"name":"Mergen","steam_id":76561199183016759,"connected_time":35000000000,"state":"active","ping":91},{"user_id":479,"name":"MsD IV","steam_id":76561198059707655,"connected_time":19000000000,"state":"spawning","ping":136},{"user_id":461,"name":"Goldy","steam_id":76561199008543001,"connected_time":1199000000000,"state":"active","ping":54},{"user_id":462,"name":"Your Daily Dose of Caffeine","steam_id":76561198148007513,"connected_time":1182000000000,"state":"active","ping":52},{"user_id":467,"name":"Waltuh (CEO of Chicanery)","steam_id":76561199257300024,"connected_time":941000000000,"state":"active","ping":77},{"user_id":464,"name":"Mario in unreal engine 5","steam_id":76561198070486186,"connected_time":1071000000000,"state":"active","ping":64}]},{"server_id":1,"name":"Uncletopia | Los Angeles | 1 | All Maps","name_short":"lax-1","host":"lax-1.us.uncletopia.com","port":27015,"enabled":true,"region":"us-west","cc":"us","latitude":33.94279,"longitude":-118.41004,"reserved":0,"last_update":"0001-01-01T00:00:00Z","name_a2s":"Uncletopia | Los Angeles | 1 | All Maps","protocol":17,"map":"cp_process_final","folder":"tf","game":"Team Fortress","app_id":440,"player_count":0,"max_players":24,"Bots":0,"server_type":"Dedicated","server_os":"Linux","password":true,"vac":true,"version":"7757534","steam_id":85568392924469991,"keywords":["cp","nocrits","nodmgspread","uncletopia"],"game_id":440,"stv_port":27016,"stv_name":"Uncletopia | Los Angeles | 1 | All Maps | STV","players":null},{"server_id":112,"name":"Uncletopia | Los Angeles | 2 | All Maps","name_short":"lax-2","host":"lax-1.us.uncletopia.com","port":27025,"enabled":true,"region":"us-west","cc":"us","latitude":33.94279,"longitude":-118.41004,"reserved":0,"last_update":"0001-01-01T00:00:00Z","name_a2s":"Uncletopia | Los Angeles | 2 | All Maps","protocol":17,"map":"koth_viaduct","folder":"tf","game":"Team Fortress","app_id":440,"player_count":0,"max_players":24,"Bots":0,"server_type":"Dedicated","server_os":"Linux","password":true,"vac":true,"version":"7757534","steam_id":85568392924469992,"keywords":["cp","nocrits","nodmgspread","uncletopia"],"game_id":440,"stv_port":27026,"stv_name":"Uncletopia | Los Angeles | 2 | All Maps | STV","players":null},{"server_id":324,"name":"Uncletopia | Los Angeles | 3 | All Maps","name_short":"lax-3","host":"lax-1.us.uncletopia.com","port":27035,"enabled":true,"region":"us-west","cc":"us","latitude":33.94279,"longitude":-118.41004,"reserved":0,"last_update":"0001-01-01T00:00:00Z","name_a2s":"Uncletopia | Los Angeles | 3 | All Maps","protocol":17,"map":"cp_altitude","folder":"tf","game":"Team Fortress","app_id":440,"player_count":0,"max_players":24,"Bots":0,"server_type":"Dedicated","server_os":"Linux","password":true,"vac":true,"version":"7757534","steam_id":85568392924510198,"keywords":["cp","nocrits","nodmgspread","uncletopia"],"game_id":440,"stv_port":27036,"stv_name":"Uncletopia | Los Angeles | 3 | All Maps | STV","players":null},{"server_id":25,"name":"Uncletopia | Los Angeles | 4 | Stopwatch Beta","name_short":"lax-4","host":"lax-1.us.uncletopia.com","port":27045,"enabled":true,"region":"us-west","cc":"us","latitude":33.94279,"longitude":-118.41004,"reserved":0,"last_update":"0001-01-01T00:00:00Z","name_a2s":"Uncletopia | Los Angeles | 4 | Stopwatch Beta","protocol":17,"map":"cp_dustbowl","folder":"tf","game":"Team Fortress","app_id":440,"player_count":0,"max_players":24,"Bots":0,"server_type":"Dedicated","server_os":"Linux","password":true,"vac":true,"version":"7757534","steam_id":85568392924510199,"keywords":["cp","nocrits","nodmgspread","uncletopia"],"game_id":440,"stv_port":27046,"stv_name":"Uncletopia | Los Angeles | 4 | Stopwatch Beta | STV","players":null},{"server_id":11,"name":"Uncletopia | London | 1 | All Maps","name_short":"lon-1","host":"lon-1.uk.uncletopia.com","port":27015,"enabled":true,"region":"eu","cc":"gb","latitude":51.509865,"longitude":-0.118092,"reserved":0,"last_update":"0001-01-01T00:00:00Z","name_a2s":"Uncletopia | London | 1 | All Maps","protocol":17,"map":"pl_badwater","folder":"tf","game":"Team Fortress","app_id":440,"player_count":24,"max_players":24,"Bots":0,"server_type":"Dedicated","server_os":"Linux","password":true,"vac":true,"version":"7757534","steam_id":85568392924367362,"keywords":["nocrits","nodmgspread","payload","uncletopia"],"game_id":440,"stv_port":27016,"stv_name":"Uncletopia | London | 1 | All Maps | STV","players":[{"user_id":208,"name":"Bob D","steam_id":76561198026375630,"connected_time":2377000000000,"state":"active","ping":47},{"user_id":241,"name":"Spoonman","steam_id":76561198120588715,"connected_time":197000000000,"state":"active","ping":54},{"user_id":220,"name":"alphawarrior999","steam_id":76561199001580062,"connected_time":985000000000,"state":"active","ping":176},{"user_id":240,"name":"vyyn","steam_id":76561198845393663,"connected_time":320000000000,"state":"active","ping":98},{"user_id":157,"name":"Circular","steam_id":76561198001536710,"connected_time":3701000000000,"state":"active","ping":45},{"user_id":226,"name":"Oak","steam_id":76561198067315672,"connected_time":628000000000,"state":"active","ping":48},{"user_id":227,"name":"Max Andrew","steam_id":76561198158955194,"connected_time":627000000000,"state":"active","ping":137},{"user_id":203,"name":"BONK-TEC!","steam_id":76561198272667029,"connected_time":2441000000000,"state":"active","ping":50},{"user_id":192,"name":"Nomad994","steam_id":76561198051908201,"connected_time":3055000000000,"state":"active","ping":85},{"user_id":224,"name":"Thales gaming","steam_id":76561198154569703,"connected_time":664000000000,"state":"active","ping":91},{"user_id":234,"name":"Hetmanych","steam_id":76561198870926865,"connected_time":528000000000,"state":"active","ping":41},{"user_id":206,"name":"Lessoz","steam_id":76561199211572036,"connected_time":2406000000000,"state":"active","ping":91},{"user_id":160,"name":"Plop_","steam_id":76561198112567921,"connected_time":3653000000000,"state":"active","ping":42},{"user_id":233,"name":"Schwarzschild radius(Rg=2GM/c^2","steam_id":76561198179463343,"connected_time":532000000000,"state":"active","ping":42},{"user_id":231,"name":"Takitataki","steam_id":76561198090146457,"connected_time":579000000000,"state":"active","ping":35},{"user_id":197,"name":"Jag √§r ett anka","steam_id":76561198059978438,"connected_time":2609000000000,"state":"active","ping":75},{"user_id":222,"name":"Jughead","steam_id":76561198000355410,"connected_time":822000000000,"state":"active","ping":43},{"user_id":232,"name":"Lavi","steam_id":76561198000911853,"connected_time":575000000000,"state":"active","ping":59},{"user_id":225,"name":"Laam","steam_id":76561198050031998,"connected_time":630000000000,"state":"active","ping":44},{"user_id":235,"name":"schlogy","steam_id":76561198129157178,"connected_time":525000000000,"state":"active","ping":100},{"user_id":236,"name":"Kotlet schabowy","steam_id":76561198048983509,"connected_time":523000000000,"state":"active","ping":87},{"user_id":219,"name":"nudjura","steam_id":76561198281986139,"connected_time":1018000000000,"state":"active","ping":33},{"user_id":238,"name":"Wattseyy","steam_id":76561198248567360,"connected_time":488000000000,"state":"active","ping":37},{"user_id":216,"name":"bigfutacock56","steam_id":76561198835619904,"connected_time":1547000000000,"state":"active","ping":111}]},{"server_id":114,"name":"Uncletopia | London | 2 | All Maps","name_short":"lon-2","host":"lon-1.uk.uncletopia.com","port":27025,"enabled":true,"region":"eu","cc":"gb","latitude":51.509865,"longitude":-0.118092,"reserved":0,"last_update":"0001-01-01T00:00:00Z","name_a2s":"Uncletopia | London | 2 | All Maps","protocol":17,"map":"cp_process_final","folder":"tf","game":"Team Fortress","app_id":440,"player_count":0,"max_players":24,"Bots":0,"server_type":"Dedicated","server_os":"Linux","password":true,"vac":true,"version":"7757534","steam_id":85568392924470941,"keywords":["cp","nocrits","nodmgspread","uncletopia"],"game_id":440,"stv_port":27026,"stv_name":"Uncletopia | London | 2 | All Maps | STV","players":null},{"server_id":320,"name":"Uncletopia | London | 3 | All Maps","name_short":"lon-3","host":"lon-1.uk.uncletopia.com","port":27035,"enabled":true,"region":"eu","cc":"gb","latitude":51.509865,"longitude":-0.118092,"reserved":0,"last_update":"0001-01-01T00:00:00Z","name_a2s":"Uncletopia | London | 3 | All Maps","protocol":17,"map":"cp_steel","folder":"tf","game":"Team Fortress","app_id":440,"player_count":21,"max_players":24,"Bots":0,"server_type":"Dedicated","server_os":"Linux","password":true,"vac":true,"version":"7757534","steam_id":85568392924510192,"keywords":["cp","nocrits","nodmgspread","uncletopia"],"game_id":440,"stv_port":27036,"stv_name":"Uncletopia | London | 3 | All Maps | STV","players":[{"user_id":523,"name":"disposablesuperbread","steam_id":76561199074703607,"connected_time":1630000000000,"state":"active","ping":74},{"user_id":467,"name":"Zonts","steam_id":76561198850176432,"connected_time":5241000000000,"state":"active","ping":89},{"user_id":546,"name":"GuSkand","steam_id":76561198043775605,"connected_time":151000000000,"state":"active","ping":87},{"user_id":469,"name":"Zogg","steam_id":76561198352683491,"connected_time":5058000000000,"state":"active","ping":39},{"user_id":520,"name":"I-I","steam_id":76561198267969436,"connected_time":1694000000000,"state":"active","ping":70},{"user_id":545,"name":"Prox","steam_id":76561198351490981,"connected_time":186000000000,"state":"active","ping":36},{"user_id":547,"name":"Pootis Radio","steam_id":76561199013270629,"connected_time":102000000000,"state":"active","ping":59},{"user_id":551,"name":"deekay","steam_id":76561199065122101,"connected_time":27000000000,"state":"active","ping":81},{"user_id":540,"name":"Gimli","steam_id":76561198004149706,"connected_time":878000000000,"state":"active","ping":69},{"user_id":507,"name":"Space","steam_id":76561198021572167,"connected_time":2389000000000,"state":"active","ping":44},{"user_id":496,"name":"Fat Pigeon","steam_id":76561198817940142,"connected_time":3127000000000,"state":"active","ping":45},{"user_id":544,"name":"Krauserik7","steam_id":76561198263204577,"connected_time":340000000000,"state":"active","ping":96},{"user_id":506,"name":"Egor Pomidor","steam_id":76561199175688390,"connected_time":2395000000000,"state":"active","ping":75},{"user_id":476,"name":"godmodule","steam_id":76561198165995444,"connected_time":4749000000000,"state":"active","ping":77},{"user_id":527,"name":"Joy","steam_id":76561198155314925,"connected_time":1569000000000,"state":"active","ping":57},{"user_id":541,"name":"NuGs","steam_id":76561198305550934,"connected_time":692000000000,"state":"active","ping":46},{"user_id":549,"name":"Ron_tom","steam_id":76561198392108888,"connected_time":91000000000,"state":"active","ping":56},{"user_id":508,"name":"Kitfist","steam_id":76561198048559338,"connected_time":2316000000000,"state":"active","ping":54},{"user_id":529,"name":"Blacksheep","steam_id":76561198019621063,"connected_time":1536000000000,"state":"active","ping":53},{"user_id":550,"name":"valak","steam_id":76561199196329719,"connected_time":85000000000,"state":"active","ping":68},{"user_id":531,"name":"Michael","steam_id":76561198003146906,"connected_time":1492000000000,"state":"active","ping":43}]},{"server_id":321,"name":"Uncletopia | London | 4 | All Maps","name_short":"lon-4","host":"lon-1.uk.uncletopia.com","port":27045,"enabled":true,"region":"eu","cc":"gb","latitude":51.509865,"longitude":-0.118092,"reserved":0,"last_update":"0001-01-01T00:00:00Z","name_a2s":"Uncletopia | London | 4 | All Maps","protocol":17,"map":"koth_viaduct","folder":"tf","game":"Team Fortress","app_id":440,"player_count":15,"max_players":24,"Bots":0,"server_type":"Dedicated","server_os":"Linux","password":true,"vac":true,"version":"7757534","steam_id":85568392924510193,"keywords":["cp","nocrits","nodmgspread","uncletopia"],"game_id":440,"stv_port":27046,"stv_name":"Uncletopia | London | 4 | All Maps | STV","players":[{"user_id":4,"name":"Certified Hood pybro (ua)","steam_id":76561198970562699,"connected_time":2509000000000,"state":"active","ping":65},{"user_id":34,"name":"Miedzan","steam_id":76561198405250516,"connected_time":320000000000,"state":"active","ping":70},{"user_id":7,"name":"Bowl","steam_id":76561199066957022,"connected_time":1711000000000,"state":"active","ping":46},{"user_id":9,"name":"Kafe","steam_id":76561198083673594,"connected_time":1189000000000,"state":"active","ping":55},{"user_id":26,"name":"Hypno_Flower","steam_id":76561199225893185,"connected_time":634000000000,"state":"active","ping":49},{"user_id":29,"name":"Cum. Now available at wendys","steam_id":76561199240709445,"connected_time":495000000000,"state":"active","ping":72},{"user_id":30,"name":"Feathernaut","steam_id":76561199108180200,"connected_time":428000000000,"state":"active","ping":80},{"user_id":19,"name":"Kahvi","steam_id":76561198723244199,"connected_time":875000000000,"state":"active","ping":85},{"user_id":31,"name":"LionKing","steam_id":76561198023399545,"connected_time":415000000000,"state":"active","ping":60},{"user_id":32,"name":"beckler","steam_id":76561198029266963,"connected_time":397000000000,"state":"active","ping":50},{"user_id":33,"name":"TallestPerson","steam_id":76561198097923550,"connected_time":380000000000,"state":"active","ping":63},{"user_id":39,"name":"Sonnakai","steam_id":76561198051688749,"connected_time":133000000000,"state":"active","ping":42},{"user_id":36,"name":"Don't Fuckle with Shuckle","steam_id":76561199020102367,"connected_time":290000000000,"state":"active","ping":167},{"user_id":40,"name":"DrExplosive","steam_id":76561198063678579,"connected_time":51000000000,"state":"active","ping":69},{"user_id":38,"name":"fire","steam_id":76561198063674613,"connected_time":274000000000,"state":"active","ping":60}]},{"server_id":21,"name":"Uncletopia | London | 5 | All Maps","name_short":"lon-5","host":"lon-1.uk.uncletopia.com","port":27055,"enabled":true,"region":"eu","cc":"gb","latitude":51.509865,"longitude":-0.118092,"reserved":0,"last_update":"0001-01-01T00:00:00Z","name_a2s":"Uncletopia | London | 5 | All Maps","protocol":17,"map":"pl_pier","folder":"tf","game":"Team Fortress","app_id":440,"player_count":0,"max_players":24,"Bots":0,"server_type":"Dedicated","server_os":"Linux","password":true,"vac":true,"version":"7757534","steam_id":85568392924742829,"keywords":["nocrits","nodmgspread","payload","uncletopia"],"game_id":440,"stv_port":27056,"stv_name":"Uncletopia | London | 5 | All Maps | STV","players":null},{"server_id":22,"name":"Uncletopia | London | 6 | All Maps","name_short":"lon-6","host":"lon-1.uk.uncletopia.com","port":27065,"enabled":true,"region":"eu","cc":"gb","latitude":51.509865,"longitude":-0.118092,"reserved":0,"last_update":"0001-01-01T00:00:00Z","name_a2s":"Uncletopia | London | 6 | All Maps","protocol":17,"map":"pl_pier","folder":"tf","game":"Team Fortress","app_id":440,"player_count":0,"max_players":24,"Bots":0,"server_type":"Dedicated","server_os":"Linux","password":true,"vac":true,"version":"7757534","steam_id":85568392924742830,"keywords":["nocrits","nodmgspread","payload","uncletopia"],"game_id":440,"stv_port":27066,"stv_name":"Uncletopia | London | 6 | All Maps | STV","players":null},{"server_id":40,"name":"Uncletopia | London | 7 | No Payload","name_short":"lon-7","host":"lon-1.uk.uncletopia.com","port":27075,"enabled":true,"region":"eu","cc":"gb","latitude":51.509865,"longitude":-0.118092,"reserved":0,"last_update":"0001-01-01T00:00:00Z","name_a2s":"Uncletopia | London | 7 | No Payload","protocol":17,"map":"cp_steel","folder":"tf","game":"Team Fortress","app_id":440,"player_count":19,"max_players":24,"Bots":0,"server_type":"Dedicated","server_os":"Linux","password":true,"vac":true,"version":"7757534","steam_id":85568392924964314,"keywords":["cp","nocrits","nodmgspread","uncletopia"],"game_id":440,"stv_port":27076,"stv_name":"Uncletopia | London | 7 | No Payload | STV","players":[{"user_id":347,"name":"gus","steam_id":76561198876303958,"connected_time":1362000000000,"state":"active","ping":103},{"user_id":310,"name":"Andebil","steam_id":76561198131829815,"connected_time":4124000000000,"state":"active","ping":78},{"user_id":366,"name":"jerf","steam_id":76561199213901239,"connected_time":44000000000,"state":"active","ping":44},{"user_id":362,"name":"Getrkod","steam_id":76561198986560793,"connected_time":242000000000,"state":"active","ping":67},{"user_id":336,"name":"Depeirak.cz","steam_id":76561198099335212,"connected_time":2522000000000,"state":"active","ping":82},{"user_id":317,"name":"‚ò≠ybercat","steam_id":76561198014070417,"connected_time":3861000000000,"state":"active","ping":56},{"user_id":354,"name":"Bombilla","steam_id":76561198084281798,"connected_time":865000000000,"state":"active","ping":74},{"user_id":351,"name":"0Phill","steam_id":76561198399587139,"connected_time":1037000000000,"state":"active","ping":55},{"user_id":355,"name":"rob","steam_id":76561198122211848,"connected_time":832000000000,"state":"active","ping":89},{"user_id":364,"name":"ducks","steam_id":76561198148378654,"connected_time":165000000000,"state":"active","ping":93},{"user_id":303,"name":"George","steam_id":76561198020046873,"connected_time":4497000000000,"state":"active","ping":152},{"user_id":348,"name":"leonardini.w","steam_id":76561199097963071,"connected_time":1260000000000,"state":"active","ping":93},{"user_id":331,"name":"gmele1","steam_id":76561199219013004,"connected_time":2872000000000,"state":"active","ping":156},{"user_id":357,"name":"BELADIT","steam_id":76561198011911501,"connected_time":824000000000,"state":"active","ping":80},{"user_id":358,"name":"Morseerman","steam_id":76561198040169391,"connected_time":812000000000,"state":"active","ping":56},{"user_id":342,"name":"ViktorYoshi","steam_id":76561199157555246,"connected_time":2095000000000,"state":"active","ping":60},{"user_id":359,"name":"Dictatorial Karelian","steam_id":76561198196736457,"connected_time":762000000000,"state":"active","ping":78},{"user_id":360,"name":"LawrenceFishdom","steam_id":76561199190918059,"connected_time":732000000000,"state":"active","ping":52},{"user_id":361,"name":"SuperBob103","steam_id":76561199175360012,"connected_time":715000000000,"state":"active","ping":45}]},{"server_id":41,"name":"Uncletopia | London | 8 | Community","name_short":"lon-8","host":"lon-1.uk.uncletopia.com","port":27085,"enabled":true,"region":"eu","cc":"gb","latitude":51.509865,"longitude":-0.118092,"reserved":0,"last_update":"0001-01-01T00:00:00Z","name_a2s":"Uncletopia | London | 8 | Community","protocol":17,"map":"workshop/koth_ramjam_rc1.ugc459778887","folder":"tf","game":"Team Fortress","app_id":440,"player_count":0,"max_players":24,"Bots":0,"server_type":"Dedicated","server_os":"Linux","password":true,"vac":true,"version":"7757534","steam_id":85568392924964315,"keywords":["cp","nocrits","nodmgspread","uncletopia"],"game_id":440,"stv_port":27086,"stv_name":"Uncletopia | London | 8 | Community | STV","players":null},{"server_id":300,"name":"Uncletopia | Montr√©al | 1 | All Maps","name_short":"mtl-1","host":"mtl-1.ca.uncletopia.com","port":27015,"enabled":true,"region":"us-east","cc":"ca","latitude":45.50889,"longitude":-73.56167,"reserved":0,"last_update":"0001-01-01T00:00:00Z","name_a2s":"Uncletopia | Montr√©al | 1 | All Maps","protocol":17,"map":"pl_pier","folder":"tf","game":"Team Fortress","app_id":440,"player_count":0,"max_players":24,"Bots":0,"server_type":"Dedicated","server_os":"Linux","password":true,"vac":true,"version":"7757534","steam_id":85568392924500087,"keywords":["nocrits","nodmgspread","payload","uncletopia"],"game_id":440,"stv_port":27016,"stv_name":"Uncletopia | Montr√©al | 1 | All Maps | STV","players":null},{"server_id":301,"name":"Uncletopia | Montr√©al | 2 | All Maps","name_short":"mtl-2","host":"mtl-1.ca.uncletopia.com","port":27025,"enabled":true,"region":"us-east","cc":"ca","latitude":45.50889,"longitude":-73.56167,"reserved":0,"last_update":"0001-01-01T00:00:00Z","name_a2s":"Uncletopia | Montr√©al | 2 | All Maps","protocol":17,"map":"koth_lakeside_final","folder":"tf","game":"Team Fortress","app_id":440,"player_count":0,"max_players":24,"Bots":0,"server_type":"Dedicated","server_os":"Linux","password":true,"vac":true,"version":"7757534","steam_id":85568392924500088,"keywords":["cp","nocrits","nodmgspread","uncletopia"],"game_id":440,"stv_port":27026,"stv_name":"Uncletopia | Montr√©al | 2 | All Maps | STV","players":null},{"server_id":302,"name":"Uncletopia | Montr√©al | 3 | All Maps","name_short":"mtl-3","host":"mtl-1.ca.uncletopia.com","port":27035,"enabled":true,"region":"us-east","cc":"ca","latitude":45.50889,"longitude":-73.56167,"reserved":0,"last_update":"0001-01-01T00:00:00Z","name_a2s":"Uncletopia | Montr√©al | 3 | All Maps","protocol":17,"map":"pl_frontier_final","folder":"tf","game":"Team Fortress","app_id":440,"player_count":0,"max_players":24,"Bots":0,"server_type":"Dedicated","server_os":"Linux","password":true,"vac":true,"version":"7757534","steam_id":85568392924500089,"keywords":["nocrits","nodmgspread","payload","uncletopia"],"game_id":440,"stv_port":27036,"stv_name":"Uncletopia | Montr√©al | 3 | All Maps | STV","players":null},{"server_id":303,"name":"Uncletopia | Montr√©al | 4 | No Payload","name_short":"mtl-4","host":"mtl-1.ca.uncletopia.com","port":27045,"enabled":true,"region":"us-east","cc":"ca","latitude":45.50889,"longitude":-73.56167,"reserved":0,"last_update":"0001-01-01T00:00:00Z","name_a2s":"Uncletopia | Montr√©al | 4 | No Payload","protocol":17,"map":"pl_pier","folder":"tf","game":"Team Fortress","app_id":440,"player_count":0,"max_players":24,"Bots":0,"server_type":"Dedicated","server_os":"Linux","password":true,"vac":true,"version":"7757534","steam_id":85568392924500090,"keywords":["nocrits","nodmgspread","payload","uncletopia"],"game_id":440,"stv_port":27046,"stv_name":"Uncletopia | Montr√©al | 4 | No Payload | STV","players":null},{"server_id":13,"name":"Uncletopia | New York City | 1 | All Maps","name_short":"nyc-1","host":"nyc-1.us.uncletopia.com","port":27015,"enabled":true,"region":"us-east","cc":"us","latitude":40.73061,"longitude":-73.93524,"reserved":0,"last_update":"0001-01-01T00:00:00Z","name_a2s":"Uncletopia | New York City | 1 | All Maps","protocol":17,"map":"pl_snowycoast","folder":"tf","game":"Team Fortress","app_id":440,"player_count":23,"max_players":24,"Bots":0,"server_type":"Dedicated","server_os":"Linux","password":true,"vac":true,"version":"7757534","steam_id":85568392924469993,"keywords":["nocrits","nodmgspread","payload","uncletopia"],"game_id":440,"stv_port":27016,"stv_name":"Uncletopia | New York City | 1 | All Maps | STV","players":[{"user_id":70,"name":"Ligmus Sigmus","steam_id":76561198168946002,"connected_time":1365000000000,"state":"active","ping":45},{"user_id":93,"name":"Hydnhof","steam_id":76561198120989805,"connected_time":216000000000,"state":"active","ping":131},{"user_id":66,"name":"you forgot the sauce","steam_id":76561198387016713,"connected_time":1872000000000,"state":"active","ping":51},{"user_id":90,"name":"speed wagon","steam_id":76561199257514998,"connected_time":264000000000,"state":"active","ping":104},{"user_id":89,"name":"Stu_Strib","steam_id":76561197970588300,"connected_time":277000000000,"state":"active","ping":80},{"user_id":75,"name":"nefarious criminal","steam_id":76561198077506415,"connected_time":1104000000000,"state":"active","ping":44},{"user_id":68,"name":"LunarrD","steam_id":76561198811220107,"connected_time":1621000000000,"state":"active","ping":87},{"user_id":91,"name":"VixianUwU","steam_id":76561198948815060,"connected_time":248000000000,"state":"active","ping":88},{"user_id":80,"name":"SippinTeaInYoHood","steam_id":76561198310944756,"connected_time":900000000000,"state":"active","ping":50},{"user_id":69,"name":"Disney Junior","steam_id":76561198271881560,"connected_time":1444000000000,"state":"active","ping":86},{"user_id":74,"name":"brea?","steam_id":76561198025130409,"connected_time":1204000000000,"state":"active","ping":84},{"user_id":61,"name":"Dr. Nobotnik","steam_id":76561198357339092,"connected_time":2380000000000,"state":"active","ping":94},{"user_id":21,"name":"Redninka","steam_id":76561198426721366,"connected_time":4565000000000,"state":"active","ping":60},{"user_id":71,"name":"0","steam_id":76561199112110225,"connected_time":1364000000000,"state":"active","ping":171},{"user_id":92,"name":"MontellWilliams","steam_id":76561198172143015,"connected_time":239000000000,"state":"active","ping":55},{"user_id":57,"name":"Dill","steam_id":76561197995325198,"connected_time":2725000000000,"state":"active","ping":86},{"user_id":64,"name":"ECCO","steam_id":76561198002821513,"connected_time":1996000000000,"state":"active","ping":72},{"user_id":86,"name":"Quakedad","steam_id":76561198055811307,"connected_time":610000000000,"state":"active","ping":131},{"user_id":94,"name":"zogs (she/her)","steam_id":76561198323491654,"connected_time":45000000000,"state":"active","ping":75},{"user_id":81,"name":"Seal","steam_id":76561198040969743,"connected_time":887000000000,"state":"active","ping":67},{"user_id":65,"name":"Ashman0116","steam_id":76561198367986558,"connected_time":1949000000000,"state":"active","ping":85},{"user_id":87,"name":"Riandox","steam_id":76561198130577326,"connected_time":606000000000,"state":"active","ping":76},{"user_id":85,"name":"Koko","steam_id":76561199227724794,"connected_time":761000000000,"state":"active","ping":99}]},{"server_id":14,"name":"Uncletopia | New York City | 2 | All Maps","name_short":"nyc-2","host":"nyc-1.us.uncletopia.com","port":27025,"enabled":true,"region":"us-east","cc":"us","latitude":40.73061,"longitude":-73.93524,"reserved":0,"last_update":"0001-01-01T00:00:00Z","name_a2s":"Uncletopia | New York City | 2 | All Maps","protocol":17,"map":"cp_dustbowl","folder":"tf","game":"Team Fortress","app_id":440,"player_count":6,"max_players":24,"Bots":0,"server_type":"Dedicated","server_os":"Linux","password":true,"vac":true,"version":"7757534","steam_id":85568392924469994,"keywords":["cp","nocrits","nodmgspread","uncletopia"],"game_id":440,"stv_port":27026,"stv_name":"Uncletopia | New York City | 2 | All Maps | STV","players":[{"user_id":4,"name":"Nepp0","steam_id":76561198086966948,"connected_time":592000000000,"state":"active","ping":55},{"user_id":5,"name":"crabapples","steam_id":76561198075818655,"connected_time":499000000000,"state":"active","ping":60},{"user_id":6,"name":"Kohbold","steam_id":76561198996480140,"connected_time":443000000000,"state":"active","ping":117},{"user_id":7,"name":"comically large spoon","steam_id":76561198350216657,"connected_time":302000000000,"state":"active","ping":130},{"user_id":8,"name":"crunchy and spicy wasp snack","steam_id":76561199322728703,"connected_time":278000000000,"state":"active","ping":60},{"user_id":10,"name":"Athoth","steam_id":76561199003843824,"connected_time":34000000000,"state":"active","ping":43}]},{"server_id":15,"name":"Uncletopia | New York City | 3 | Stopwatch Beta","name_short":"nyc-3","host":"nyc-1.us.uncletopia.com","port":27035,"enabled":true,"region":"us-east","cc":"us","latitude":40.73061,"longitude":-73.93524,"reserved":0,"last_update":"0001-01-01T00:00:00Z","name_a2s":"Uncletopia | New York City | 3 | Stopwatch Beta","protocol":17,"map":"koth_cascade","folder":"tf","game":"Team Fortress","app_id":440,"player_count":0,"max_players":24,"Bots":0,"server_type":"Dedicated","server_os":"Linux","password":true,"vac":true,"version":"7757534","steam_id":85568392924742820,"keywords":["cp","nocrits","nodmgspread","uncletopia"],"game_id":440,"stv_port":27036,"stv_name":"Uncletopia | New York City | 3 | Stopwatch Beta | STV","players":null},{"server_id":16,"name":"Uncletopia | New York City | 4 | Community","name_short":"nyc-4","host":"nyc-1.us.uncletopia.com","port":27045,"enabled":true,"region":"us-east","cc":"us","latitude":40.73061,"longitude":-73.93524,"reserved":0,"last_update":"0001-01-01T00:00:00Z","name_a2s":"Uncletopia | New York City | 4 | Community","protocol":17,"map":"workshop/cp_villa_b19.ugc2113052569","folder":"tf","game":"Team Fortress","app_id":440,"player_count":0,"max_players":24,"Bots":0,"server_type":"Dedicated","server_os":"Linux","password":true,"vac":true,"version":"7757534","steam_id":85568392924742821,"keywords":["cp","nocrits","nodmgspread","uncletopia"],"game_id":440,"stv_port":27046,"stv_name":"Uncletopia | New York City | 4 | Community | STV","players":null},{"server_id":142,"name":"Uncletopia | S√£o Paulo | 1 | All Maps","name_short":"sao-1","host":"sao-1.br.uncletopia.com","port":27015,"enabled":true,"region":"sa","cc":"br","latitude":-23.533773,"longitude":-46.62529,"reserved":0,"last_update":"0001-01-01T00:00:00Z","name_a2s":"Uncletopia | S√£o Paulo | 1 | All Maps","protocol":17,"map":"koth_highpass","folder":"tf","game":"Team Fortress","app_id":440,"player_count":0,"max_players":24,"Bots":0,"server_type":"Dedicated","server_os":"Linux","password":true,"vac":true,"version":"7757534","steam_id":85568392924469996,"keywords":["cp","nocrits","nodmgspread","uncletopia"],"game_id":440,"stv_port":27016,"stv_name":"Uncletopia | S√£o Paulo | 1 | All Maps | STV","players":null},{"server_id":143,"name":"Uncletopia | S√£o Paulo | 2 | All Maps","name_short":"sao-2","host":"sao-2.br.uncletopia.com","port":27015,"enabled":true,"region":"sa","cc":"br","latitude":-23.533773,"longitude":-46.62529,"reserved":0,"last_update":"0001-01-01T00:00:00Z","name_a2s":"Uncletopia | S√£o Paulo | 2 | All Maps","protocol":17,"map":"koth_viaduct","folder":"tf","game":"Team Fortress","app_id":440,"player_count":0,"max_players":24,"Bots":0,"server_type":"Dedicated","server_os":"Linux","password":true,"vac":true,"version":"7757534","steam_id":85568392924485349,"keywords":["cp","nocrits","nodmgspread","uncletopia"],"game_id":440,"stv_port":27016,"stv_name":"Uncletopia | S√£o Paulo | 2 | All Maps | STV","players":null},{"server_id":7,"name":"Uncletopia | Seattle | 1 | All Maps","name_short":"sea-1","host":"sea-1.us.uncletopia.com","port":27015,"enabled":true,"region":"us-west","cc":"us","latitude":47.608013,"longitude":-122.33517,"reserved":0,"last_update":"0001-01-01T00:00:00Z","name_a2s":"Uncletopia | Seattle | 1 | All Maps","protocol":17,"map":"cp_process_final","folder":"tf","game":"Team Fortress","app_id":440,"player_count":9,"max_players":24,"Bots":0,"server_type":"Dedicated","server_os":"Linux","password":true,"vac":true,"version":"7757534","steam_id":85568392924469997,"keywords":["cp","nocrits","nodmgspread","uncletopia"],"game_id":440,"stv_port":27016,"stv_name":"Uncletopia | Seattle | 1 | All Maps | STV","players":[{"user_id":59,"name":"bobletoob","steam_id":76561199184464900,"connected_time":1283000000000,"state":"active","ping":80},{"user_id":60,"name":"Alex","steam_id":76561199216869476,"connected_time":896000000000,"state":"active","ping":228},{"user_id":67,"name":"Furious George","steam_id":76561198405111646,"connected_time":223000000000,"state":"active","ping":56},{"user_id":64,"name":"Navigatxr","steam_id":76561199185153789,"connected_time":515000000000,"state":"active","ping":58},{"user_id":58,"name":"Little Linguine","steam_id":76561198816986370,"connected_time":1627000000000,"state":"active","ping":50},{"user_id":65,"name":"Angstrom Boli","steam_id":76561198025670585,"connected_time":329000000000,"state":"active","ping":105},{"user_id":70,"name":"Better","steam_id":76561198320786565,"connected_time":36000000000,"state":"active","ping":82},{"user_id":68,"name":"Lord Scrubling","steam_id":76561198263744445,"connected_time":165000000000,"state":"active","ping":90},{"user_id":69,"name":"Viokik","steam_id":76561198408846602,"connected_time":133000000000,"state":"active","ping":121}]},{"server_id":119,"name":"Uncletopia | Seattle | 2 | All Maps","name_short":"sea-2","host":"sea-1.us.uncletopia.com","port":27025,"enabled":true,"region":"us-west","cc":"us","latitude":47.608013,"longitude":-122.33517,"reserved":0,"last_update":"0001-01-01T00:00:00Z","name_a2s":"Uncletopia | Seattle | 2 | All Maps","protocol":17,"map":"pl_barnblitz","folder":"tf","game":"Team Fortress","app_id":440,"player_count":0,"max_players":24,"Bots":0,"server_type":"Dedicated","server_os":"Linux","password":true,"vac":true,"version":"7757534","steam_id":85568392924469998,"keywords":["nocrits","nodmgspread","payload","uncletopia"],"game_id":440,"stv_port":27026,"stv_name":"Uncletopia | Seattle | 2 | All Maps | STV","players":null},{"server_id":406,"name":"Uncletopia | Seattle | 3 | Stopwatch Beta","name_short":"sea-3","host":"sea-1.us.uncletopia.com","port":27035,"enabled":true,"region":"us-west","cc":"us","latitude":47.608013,"longitude":-122.33517,"reserved":0,"last_update":"0001-01-01T00:00:00Z","name_a2s":"Uncletopia | Seattle | 3 | Stopwatch Beta","protocol":17,"map":"workshop/koth_ashville_final.ugc2130459942","folder":"tf","game":"Team Fortress","app_id":440,"player_count":0,"max_players":24,"Bots":0,"server_type":"Dedicated","server_os":"Linux","password":true,"vac":true,"version":"7757534","steam_id":85568392924515217,"keywords":["cp","nocrits","nodmgspread","uncletopia"],"game_id":440,"stv_port":27036,"stv_name":"Uncletopia | Seattle | 3 | Stopwatch Beta | STV","players":null},{"server_id":17,"name":"Uncletopia | San Francisco | 1 | All Maps","name_short":"sfo-1","host":"sfo-1.us.uncletopia.com","port":27015,"enabled":true,"region":"us-west","cc":"us","latitude":37.77397,"longitude":-122.4313,"reserved":0,"last_update":"0001-01-01T00:00:00Z","name_a2s":"Uncletopia | San Francisco | 1 | All Maps","protocol":17,"map":"pl_badwater","folder":"tf","game":"Team Fortress","app_id":440,"player_count":1,"max_players":24,"Bots":0,"server_type":"Dedicated","server_os":"Linux","password":true,"vac":true,"version":"7757534","steam_id":85568392924469999,"keywords":["nocrits","nodmgspread","payload","uncletopia"],"game_id":440,"stv_port":27016,"stv_name":"Uncletopia | San Francisco | 1 | All Maps | STV","players":[{"user_id":3,"name":"Gollum","steam_id":76561199243208497,"connected_time":63000000000,"state":"active","ping":205}]},{"server_id":18,"name":"Uncletopia | San Francisco | 2 | All Maps","name_short":"sfo-2","host":"sfo-1.us.uncletopia.com","port":27025,"enabled":true,"region":"us-west","cc":"us","latitude":37.77397,"longitude":-122.4313,"reserved":0,"last_update":"0001-01-01T00:00:00Z","name_a2s":"Uncletopia | San Francisco | 2 | All Maps","protocol":17,"map":"koth_viaduct","folder":"tf","game":"Team Fortress","app_id":440,"player_count":0,"max_players":24,"Bots":0,"server_type":"Dedicated","server_os":"Linux","password":true,"vac":true,"version":"7757534","steam_id":85568392924470000,"keywords":["cp","nocrits","nodmgspread","uncletopia"],"game_id":440,"stv_port":27026,"stv_name":"Uncletopia | San Francisco | 2 | All Maps | STV","players":null},{"server_id":19,"name":"Uncletopia | San Francisco | 3 | Stopwatch Beta","name_short":"sfo-3","host":"sfo-1.us.uncletopia.com","port":27035,"enabled":true,"region":"us-west","cc":"us","latitude":37.77397,"longitude":-122.4313,"reserved":0,"last_update":"0001-01-01T00:00:00Z","name_a2s":"Uncletopia | San Francisco | 3 | Stopwatch Beta","protocol":17,"map":"cp_snakewater_final1","folder":"tf","game":"Team Fortress","app_id":440,"player_count":0,"max_players":24,"Bots":0,"server_type":"Dedicated","server_os":"Linux","password":true,"vac":true,"version":"7757534","steam_id":85568392924742824,"keywords":["cp","nocrits","nodmgspread","uncletopia"],"game_id":440,"stv_port":27036,"stv_name":"Uncletopia | San Francisco | 3 | Stopwatch Beta | STV","players":null},{"server_id":20,"name":"Uncletopia | San Francisco | 4 | Community","name_short":"sfo-4","host":"sfo-1.us.uncletopia.com","port":27045,"enabled":true,"region":"us-west","cc":"us","latitude":37.77397,"longitude":-122.4313,"reserved":0,"last_update":"0001-01-01T00:00:00Z","name_a2s":"Uncletopia | San Francisco | 4 | Community","protocol":17,"map":"pl_frontier_final","folder":"tf","game":"Team Fortress","app_id":440,"player_count":0,"max_players":24,"Bots":0,"server_type":"Dedicated","server_os":"Linux","password":true,"vac":true,"version":"7757534","steam_id":85568392924742826,"keywords":["nocrits","nodmgspread","payload","uncletopia"],"game_id":440,"stv_port":27046,"stv_name":"Uncletopia | San Francisco | 4 | Community | STV","players":null},{"server_id":141,"name":"Uncletopia | Sydney | 1 | All Maps","name_short":"syd-1","host":"syd-1.au.uncletopia.com","port":27015,"enabled":true,"region":"au","cc":"au","latitude":-33.865143,"longitude":151.2099,"reserved":0,"last_update":"0001-01-01T00:00:00Z","name_a2s":"Uncletopia | Sydney | 1 | All Maps","protocol":17,"map":"koth_viaduct","folder":"tf","game":"Team Fortress","app_id":440,"player_count":0,"max_players":24,"Bots":0,"server_type":"Dedicated","server_os":"Linux","password":true,"vac":true,"version":"7757534","steam_id":85568392924470001,"keywords":["cp","nocrits","nodmgspread","uncletopia"],"game_id":440,"stv_port":27016,"stv_name":"Uncletopia | Sydney | 1 | All Maps | STV","players":null},{"server_id":123,"name":"Uncletopia | Sydney | 2 | All Maps","name_short":"syd-2","host":"syd-1.au.uncletopia.com","port":27025,"enabled":true,"region":"au","cc":"au","latitude":-33.865143,"longitude":151.2099,"reserved":0,"last_update":"0001-01-01T00:00:00Z","name_a2s":"Uncletopia | Sydney | 2 | All Maps","protocol":17,"map":"koth_nucleus","folder":"tf","game":"Team Fortress","app_id":440,"player_count":0,"max_players":24,"Bots":0,"server_type":"Dedicated","server_os":"Linux","password":true,"vac":true,"version":"7757534","steam_id":85568392924470002,"keywords":["cp","nocrits","nodmgspread","uncletopia"],"game_id":440,"stv_port":27026,"stv_name":"Uncletopia | Sydney | 2 | All Maps | STV","players":null},{"server_id":395,"name":"Uncletopia | Sydney | 3 | All Maps","name_short":"syd-3","host":"syd-1.au.uncletopia.com","port":27035,"enabled":true,"region":"au","cc":"au","latitude":-33.865143,"longitude":151.2099,"reserved":0,"last_update":"0001-01-01T00:00:00Z","name_a2s":"Uncletopia | Sydney | 3 | All Maps","protocol":17,"map":"koth_lakeside_final","folder":"tf","game":"Team Fortress","app_id":440,"player_count":0,"max_players":24,"Bots":0,"server_type":"Dedicated","server_os":"Linux","password":true,"vac":true,"version":"7757534","steam_id":85568392925194467,"keywords":["cp","nocrits","nodmgspread","uncletopia"],"game_id":440,"stv_port":27036,"stv_name":"Uncletopia | Sydney | 3 | All Maps | STV","players":null},{"server_id":396,"name":"Uncletopia | Sydney | 4 | All Maps","name_short":"syd-4","host":"syd-1.au.uncletopia.com","port":27045,"enabled":true,"region":"au","cc":"au","latitude":-33.865143,"longitude":151.2099,"reserved":0,"last_update":"0001-01-01T00:00:00Z","name_a2s":"Uncletopia | Sydney | 4 | All Maps","protocol":17,"map":"koth_lakeside_final","folder":"tf","game":"Team Fortress","app_id":440,"player_count":0,"max_players":24,"Bots":0,"server_type":"Dedicated","server_os":"Linux","password":true,"vac":true,"version":"7757534","steam_id":85568392925397958,"keywords":["cp","nocrits","nodmgspread","uncletopia"],"game_id":440,"stv_port":27046,"stv_name":"Uncletopia | Sydney | 4 | All Maps | STV","players":null},{"server_id":58,"name":"Uncletopia | Sydney | 5 | Stopwatch Beta","name_short":"syd-5","host":"syd-1.au.uncletopia.com","port":27055,"enabled":true,"region":"au","cc":"au","latitude":-33.865143,"longitude":151.2099,"reserved":0,"last_update":"0001-01-01T00:00:00Z","name_a2s":"Uncletopia | Sydney | 5 | Stopwatch Beta","protocol":17,"map":"workshop/pl_badwater_pro_v12.ugc2142942074","folder":"tf","game":"Team Fortress","app_id":440,"player_count":0,"max_players":24,"Bots":0,"server_type":"Dedicated","server_os":"Linux","password":true,"vac":true,"version":"7757534","steam_id":85568392925397959,"keywords":["nocrits","nodmgspread","payload","uncletopia"],"game_id":440,"stv_port":27056,"stv_name":"Uncletopia | Sydney | 5 | Stopwatch Beta | STV","players":null},{"server_id":59,"name":"Uncletopia | Sydney | 6 | Community","name_short":"syd-6","host":"syd-1.au.uncletopia.com","port":27065,"enabled":true,"region":"au","cc":"au","latitude":-33.865143,"longitude":151.2099,"reserved":0,"last_update":"0001-01-01T00:00:00Z","name_a2s":"Uncletopia | Sydney | 6 | Community","protocol":17,"map":"workshop/koth_kemptown_rc1.ugc767410655","folder":"tf","game":"Team Fortress","app_id":440,"player_count":0,"max_players":24,"Bots":0,"server_type":"Dedicated","server_os":"Linux","password":true,"vac":true,"version":"7757534","steam_id":85568392925397960,"keywords":["cp","nocrits","nodmgspread","uncletopia"],"game_id":440,"stv_port":27066,"stv_name":"Uncletopia | Sydney | 6 | Community | STV","players":null},{"server_id":49,"name":"Uncletopia | Warsaw | 1 | All Maps","name_short":"waw-1","host":"waw-1.pl.uncletopia.com","port":27015,"enabled":true,"region":"eu","cc":"pl","latitude":52.2297,"longitude":21.017532,"reserved":0,"last_update":"0001-01-01T00:00:00Z","name_a2s":"","protocol":0,"map":"","folder":"","game":"","app_id":0,"player_count":0,"max_players":0,"Bots":0,"server_type":"","server_os":"","password":false,"vac":false,"version":"","steam_id":0,"keywords":null,"game_id":0,"stv_port":0,"stv_name":"","players":null},{"server_id":50,"name":"Uncletopia | Warsaw | 2 | All Maps","name_short":"waw-2","host":"waw-1.pl.uncletopia.com","port":27025,"enabled":true,"region":"eu","cc":"pl","latitude":52.2297,"longitude":21.017532,"reserved":0,"last_update":"0001-01-01T00:00:00Z","name_a2s":"Uncletopia | Warsaw | 2 | All Maps","protocol":17,"map":"pl_frontier_final","folder":"tf","game":"Team Fortress","app_id":440,"player_count":0,"max_players":24,"Bots":0,"server_type":"Dedicated","server_os":"Linux","password":true,"vac":true,"version":"7757534","steam_id":85568392925397851,"keywords":["nocrits","nodmgspread","payload","uncletopia"],"game_id":440,"stv_port":27026,"stv_name":"Uncletopia | Warsaw | 2 | All Maps | STV","players":null},{"server_id":51,"name":"Uncletopia | Warsaw | 3 | All Maps","name_short":"waw-3","host":"waw-1.pl.uncletopia.com","port":27035,"enabled":true,"region":"eu","cc":"pl","latitude":52.2297,"longitude":21.017532,"reserved":0,"last_update":"0001-01-01T00:00:00Z","name_a2s":"Uncletopia | Warsaw | 3 | All Maps","protocol":17,"map":"pl_frontier_final","folder":"tf","game":"Team Fortress","app_id":440,"player_count":0,"max_players":24,"Bots":0,"server_type":"Dedicated","server_os":"Linux","password":true,"vac":true,"version":"7757534","steam_id":85568392925397852,"keywords":["nocrits","nodmgspread","payload","uncletopia"],"game_id":440,"stv_port":27036,"stv_name":"Uncletopia | Warsaw | 3 | All Maps | STV","players":null},{"server_id":52,"name":"Uncletopia | Warsaw | 4 | All Maps","name_short":"waw-4","host":"waw-1.pl.uncletopia.com","port":27045,"enabled":true,"region":"eu","cc":"pl","latitude":52.2297,"longitude":21.017532,"reserved":0,"last_update":"0001-01-01T00:00:00Z","name_a2s":"Uncletopia | Warsaw | 4 | All Maps","protocol":17,"map":"cp_altitude","folder":"tf","game":"Team Fortress","app_id":440,"player_count":0,"max_players":24,"Bots":0,"server_type":"Dedicated","server_os":"Linux","password":true,"vac":true,"version":"7757534","steam_id":85568392925397853,"keywords":["cp","nocrits","nodmgspread","uncletopia"],"game_id":440,"stv_port":27046,"stv_name":"Uncletopia | Warsaw | 4 | All Maps | STV","players":null},{"server_id":53,"name":"Uncletopia | Warsaw | 5 | Stopwatch Beta","name_short":"waw-5","host":"waw-1.pl.uncletopia.com","port":27055,"enabled":true,"region":"eu","cc":"pl","latitude":52.2297,"longitude":21.017532,"reserved":0,"last_update":"0001-01-01T00:00:00Z","name_a2s":"Uncletopia | Warsaw | 5 | Stopwatch Beta","protocol":17,"map":"pl_pier","folder":"tf","game":"Team Fortress","app_id":440,"player_count":0,"max_players":24,"Bots":0,"server_type":"Dedicated","server_os":"Linux","password":true,"vac":true,"version":"7757534","steam_id":85568392925397854,"keywords":["nocrits","nodmgspread","payload","uncletopia"],"game_id":440,"stv_port":27056,"stv_name":"Uncletopia | Warsaw | 5 | Stopwatch Beta | STV","players":null},{"server_id":54,"name":"Uncletopia | Warsaw | 6 | Community","name_short":"waw-6","host":"waw-1.pl.uncletopia.com","port":27065,"enabled":true,"region":"eu","cc":"pl","latitude":52.2297,"longitude":21.017532,"reserved":0,"last_update":"0001-01-01T00:00:00Z","name_a2s":"Uncletopia | Warsaw | 6 | Community","protocol":17,"map":"koth_highpass","folder":"tf","game":"Team Fortress","app_id":440,"player_count":0,"max_players":24,"Bots":0,"server_type":"Dedicated","server_os":"Linux","password":true,"vac":true,"version":"7757534","steam_id":85568392925397856,"keywords":["cp","nocrits","nodmgspread","uncletopia"],"game_id":440,"stv_port":27066,"stv_name":"Uncletopia | Warsaw | 6 | Community | STV","players":null}]}