{"status":true,"message":"","result":[{"server_id":9,"name":"Uncletopia | Atlanta | 1 | All Maps","name_short":"atl-1","host":"atl-1.us.uncletopia.com","port":27015,"enabled":true,"region":"us-east","cc":"us","latitude":33.753746,"longitude":-84.38633,"reserved":0,"last_update":"0001-01-01T00:00:00Z","name_a2s":"Uncletopia | Atlanta | 1 | All Maps","protocol":17,"map":"pl_frontier_final","folder":"tf","game":"Team Fortress","app_id":440,"player_count":24,"max_players":24,"Bots":0,"server_type":"Dedicated","server_os":"Linux","password":true,"vac":true,"version":"7882260","steam_id":85568392924469982,"keywords":["nocrits","nodmgspread","payload","uncletopia"],"game_id":440,"stv_port":27016,"stv_name":"Uncletopia | Atlanta | 1 | All Maps | STV","players":[{"user_id":557,"name":"Intro Bonito","steam_id":76561198119478838,"connected_time":6267000000000,"state":"active","ping":49},{"user_id":599,"name":"StarManMatt","steam_id":76561198125513574,"connected_time":251000000000,"state":"active","ping":92},{"user_id":600,"name":"SparkStorm","steam_id":76561198095817025,"connected_time":81000000000,"state":"active","ping":43},{"user_id":581,"name":"Crystron","steam_id":76561198880437428,"connected_time":1707000000000,"state":"active","ping":84},{"user_id":569,"name":"Conniving Charlatan","steam_id":76561198393228572,"connected_time":3995000000000,"state":"active","ping":69},{"user_id":585,"name":"ClearAster","steam_id":76561198113615374,"connected_time":1681000000000,"state":"active","ping":122},{"user_id":574,"name":"chubbbo","steam_id":76561198943598378,"connected_time":2182000000000,"state":"active","ping":40},{"user_id":593,"name":"5ShellHung","steam_id":76561198046011621,"connected_time":479000000000,"state":"active","ping":52},{"user_id":470,"name":"eish","steam_id":76561198089463603,"connected_time":11538000000000,"state":"active","ping":121},{"user_id":362,"name":"hi","steam_id":76561198809577048,"connected_time":20973000000000,"state":"active","ping":97},{"user_id":582,"name":"lynt","steam_id":76561198988333976,"connected_time":1707000000000,"state":"active","ping":40},{"user_id":590,"name":"J O V A","steam_id":76561198090333536,"connected_time":1256000000000,"state":"active","ping":75},{"user_id":583,"name":"jin","steam_id":76561198119873148,"connected_time":1707000000000,"state":"active","ping":67},{"user_id":576,"name":"Toonice","steam_id":76561198402994885,"connected_time":1941000000000,"state":"active","ping":87},{"user_id":542,"name":"TheRealMud","steam_id":76561198138312993,"connected_time":8248000000000,"state":"active","ping":86},{"user_id":584,"name":"nomad","steam_id":76561197998740399,"connected_time":1705000000000,"state":"active","ping":68},{"user_id":591,"name":"freddo.","steam_id":76561198203171349,"connected_time":1210000000000,"state":"active","ping":59},{"user_id":541,"name":"morphine","steam_id":76561198072124799,"connected_time":8265000000000,"state":"active","ping":94},{"user_id":596,"name":"im the beef","steam_id":76561198069506128,"connected_time":390000000000,"state":"active","ping":80},{"user_id":559,"name":"Sophie","steam_id":76561198170408057,"connected_time":6225000000000,"state":"active","ping":46},{"user_id":580,"name":"Doromaina","steam_id":76561198118428095,"connected_time":1804000000000,"state":"active","ping":79},{"user_id":598,"name":"fa√ßade","steam_id":76561199157009256,"connected_time":266000000000,"state":"active","ping":99},{"user_id":573,"name":"Am da Best","steam_id":76561198163825955,"connected_time":3368000000000,"state":"active","ping":108},{"user_id":597,"name":"VOICES IN MY HEAD","steam_id":76561198357238486,"connected_time":282000000000,"state":"active","ping":73}]},{"server_id":104,"name":"Uncletopia | Atlanta | 2 | All Maps","name_short":"atl-2","host":"atl-1.us.uncletopia.com","port":27025,"enabled":true,"region":"us-east","cc":"us","latitude":33.753746,"longitude":-84.38633,"reserved":0,"last_update":"0001-01-01T00:00:00Z","name_a2s":"Uncletopia | Atlanta | 2 | All Maps","protocol":17,"map":"pl_pier","folder":"tf","game":"Team Fortress","app_id":440,"player_count":24,"max_players":24,"Bots":0,"server_type":"Dedicated","server_os":"Linux","password":true,"vac":true,"version":"7882260","steam_id":85568392924469983,"keywords":["nocrits","nodmgspread","payload","uncletopia"],"game_id":440,"stv_port":27026,"stv_name":"Uncletopia | Atlanta | 2 | All Maps | STV","players":[{"user_id":698,"name":"trove","steam_id":76561198110970476,"connected_time":6215000000000,"state":"active","ping":44},{"user_id":810,"name":"Justy","steam_id":76561198044014069,"connected_time":494000000000,"state":"active","ping":76},{"user_id":824,"name":"Inkling","steam_id":76561199229630238,"connected_time":248000000000,"state":"active","ping":98},{"user_id":815,"name":"OscarTheInkling","steam_id":76561199201451933,"connected_time":477000000000,"state":"active","ping":97},{"user_id":820,"name":"UnkownGamerLOL","steam_id":76561198225902368,"connected_time":416000000000,"state":"active","ping":81},{"user_id":801,"name":"Uganda Knuckles lll","steam_id":76561199121276474,"connected_time":1894000000000,"state":"active","ping":80},{"user_id":812,"name":"Gigazelle","steam_id":76561197997652337,"connected_time":490000000000,"state":"active","ping":91},{"user_id":813,"name":"GEORGEOFTHEJUNGLE99","steam_id":76561198070923665,"connected_time":487000000000,"state":"active","ping":83},{"user_id":712,"name":"thebuttergod","steam_id":76561198143454433,"connected_time":5549000000000,"state":"active","ping":60},{"user_id":797,"name":"LilDreamer","steam_id":76561198804054102,"connected_time":2169000000000,"state":"active","ping":73},{"user_id":816,"name":"LouTheVII","steam_id":76561197993625664,"connected_time":477000000000,"state":"active","ping":95},{"user_id":778,"name":"Cheesi","steam_id":76561199417190840,"connected_time":3064000000000,"state":"active","ping":88},{"user_id":798,"name":"king dedede","steam_id":76561198965562679,"connected_time":2156000000000,"state":"active","ping":82},{"user_id":807,"name":"minecraft","steam_id":76561198104345201,"connected_time":1250000000000,"state":"active","ping":68},{"user_id":761,"name":"thebob16","steam_id":76561199005310059,"connected_time":3751000000000,"state":"active","ping":77},{"user_id":814,"name":"PGReddd","steam_id":76561198196771733,"connected_time":487000000000,"state":"active","ping":79},{"user_id":817,"name":"reallyfriendly","steam_id":76561197996819313,"connected_time":443000000000,"state":"active","ping":69},{"user_id":818,"name":"Klip","steam_id":76561198316254429,"connected_time":438000000000,"state":"active","ping":75},{"user_id":803,"name":"OHGODBEES!","steam_id":76561198000653374,"connected_time":1596000000000,"state":"active","ping":123},{"user_id":819,"name":"Hifumi Togo","steam_id":76561198074930636,"connected_time":434000000000,"state":"active","ping":57},{"user_id":821,"name":"porz","steam_id":76561198195711453,"connected_time":381000000000,"state":"active","ping":74},{"user_id":826,"name":"sophia","steam_id":76561197971448104,"connected_time":25000000000,"state":"active","ping":47},{"user_id":823,"name":"Narwhal","steam_id":76561198132448838,"connected_time":371000000000,"state":"active","ping":75},{"user_id":719,"name":"Broken Cereal‚àö","steam_id":76561198087489795,"connected_time":4811000000000,"state":"active","ping":69}]},{"server_id":400,"name":"Uncletopia | Atlanta | 3 | Community","name_short":"atl-3","host":"atl-1.us.uncletopia.com","port":27035,"enabled":true,"region":"us-east","cc":"us","latitude":33.753746,"longitude":-84.38633,"reserved":0,"last_update":"0001-01-01T00:00:00Z","name_a2s":"Uncletopia | Atlanta | 3 | Community","protocol":17,"map":"workshop/pl_fifthcurve_rc1.ugc648227046","folder":"tf","game":"Team Fortress","app_id":440,"player_count":24,"max_players":24,"Bots":0,"server_type":"Dedicated","server_os":"Linux","password":true,"vac":true,"version":"7882260","steam_id":85568392924515187,"keywords":["nocrits","nodmgspread","payload","uncletopia"],"game_id":440,"stv_port":27036,"stv_name":"Uncletopia | Atlanta | 3 | Community | STV","players":[{"user_id":581,"name":"how do i girl???","steam_id":76561198050290565,"connected_time":1333000000000,"state":"active","ping":64},{"user_id":582,"name":"Silverkeys","steam_id":76561197986012496,"connected_time":1327000000000,"state":"active","ping":68},{"user_id":553,"name":"PEPSI POWERED MAN","steam_id":76561198362668431,"connected_time":3091000000000,"state":"active","ping":102},{"user_id":592,"name":"Deadeye","steam_id":76561198095300533,"connected_time":90000000000,"state":"active","ping":62},{"user_id":589,"name":"Pascal","steam_id":76561198902657591,"connected_time":559000000000,"state":"active","ping":53},{"user_id":591,"name":"MistGlow","steam_id":76561198964375610,"connected_time":113000000000,"state":"active","ping":82},{"user_id":505,"name":"‚òô Corrupt ‚ùß","steam_id":76561197977631915,"connected_time":5153000000000,"state":"active","ping":53},{"user_id":590,"name":"Shystie","steam_id":76561198025371440,"connected_time":364000000000,"state":"active","ping":86},{"user_id":593,"name":"Boingo","steam_id":76561199086931535,"connected_time":85000000000,"state":"active","ping":86},{"user_id":538,"name":"Notsocreative","steam_id":76561198236372202,"connected_time":3779000000000,"state":"active","ping":75},{"user_id":578,"name":"Suck Her Dick Sunday","steam_id":76561198029274581,"connected_time":1829000000000,"state":"active","ping":79},{"user_id":568,"name":"bill","steam_id":76561199142779872,"connected_time":2553000000000,"state":"active","ping":82},{"user_id":579,"name":"Scrux","steam_id":76561198129763115,"connected_time":1796000000000,"state":"active","ping":114},{"user_id":575,"name":"Grunt420","steam_id":76561199407313140,"connected_time":2166000000000,"state":"active","ping":162},{"user_id":586,"name":"Snork Porklet","steam_id":76561198022556859,"connected_time":800000000000,"state":"active","ping":151},{"user_id":577,"name":"matlock","steam_id":76561199084019706,"connected_time":1901000000000,"state":"active","ping":60},{"user_id":494,"name":"jaydn","steam_id":76561198086615208,"connected_time":5696000000000,"state":"active","ping":46},{"user_id":570,"name":"troll","steam_id":76561198040890252,"connected_time":2543000000000,"state":"active","ping":57},{"user_id":559,"name":"Voids","steam_id":76561198128386726,"connected_time":2811000000000,"state":"active","ping":60},{"user_id":571,"name":"NoExit","steam_id":76561198065725996,"connected_time":2505000000000,"state":"active","ping":84},{"user_id":536,"name":"Rivi","steam_id":76561198086635699,"connected_time":3936000000000,"state":"active","ping":74},{"user_id":594,"name":"Cool Cool Mountain","steam_id":76561199004839490,"connected_time":80000000000,"state":"active","ping":86},{"user_id":573,"name":"Dr. Pleasant","steam_id":76561198111945101,"connected_time":2450000000000,"state":"active","ping":86},{"user_id":584,"name":"Remy the rat","steam_id":76561198080519558,"connected_time":1171000000000,"state":"active","ping":65}]},{"server_id":401,"name":"Uncletopia | Atlanta | 4 | No Payload","name_short":"atl-4","host":"atl-1.us.uncletopia.com","port":27045,"enabled":true,"region":"us-east","cc":"us","latitude":33.753746,"longitude":-84.38633,"reserved":0,"last_update":"0001-01-01T00:00:00Z","name_a2s":"","protocol":0,"map":"","folder":"","game":"","app_id":0,"player_count":0,"max_players":0,"Bots":0,"server_type":"","server_os":"","password":false,"vac":false,"version":"","steam_id":0,"keywords":null,"game_id":0,"stv_port":0,"stv_name":"","players":null},{"server_id":2,"name":"Uncletopia | Chicago | 1 | All Maps","name_short":"chi-1","host":"chi-1.us.uncletopia.com","port":27015,"enabled":true,"region":"us-central","cc":"us","latitude":41.881832,"longitude":-87.62318,"reserved":0,"last_update":"0001-01-01T00:00:00Z","name_a2s":"Uncletopia | Chicago | 1 | All Maps","protocol":17,"map":"pl_barnblitz","folder":"tf","game":"Team Fortress","app_id":440,"player_count":24,"max_players":24,"Bots":0,"server_type":"Dedicated","server_os":"Linux","password":true,"vac":true,"version":"7882260","steam_id":85568392924469984,"keywords":["nocrits","nodmgspread","payload","uncletopia"],"game_id":440,"stv_port":27016,"stv_name":"Uncletopia | Chicago | 1 | All Maps | STV","players":[{"user_id":688,"name":"I cum when tazed","steam_id":76561198085813708,"connected_time":7904000000000,"state":"active","ping":69},{"user_id":769,"name":"seldom","steam_id":76561198166193756,"connected_time":2140000000000,"state":"active","ping":56},{"user_id":748,"name":"Your Local Queer Librarian","steam_id":76561198013077080,"connected_time":4091000000000,"state":"active","ping":60},{"user_id":768,"name":"Pants Shitter (with rizz)","steam_id":76561198276385778,"connected_time":2157000000000,"state":"active","ping":88},{"user_id":770,"name":"Csquared","steam_id":76561198169038599,"connected_time":2131000000000,"state":"active","ping":110},{"user_id":749,"name":"top 10 rap battles gone sexual","steam_id":76561198081220016,"connected_time":4090000000000,"state":"active","ping":54},{"user_id":767,"name":"Sahbi","steam_id":76561199196292242,"connected_time":2255000000000,"state":"active","ping":68},{"user_id":782,"name":"Thy.Roid","steam_id":76561198122291992,"connected_time":930000000000,"state":"active","ping":53},{"user_id":772,"name":"CreativeUsername","steam_id":76561198186045503,"connected_time":2045000000000,"state":"active","ping":117},{"user_id":738,"name":"Lancer Fan Club","steam_id":76561198355495948,"connected_time":4590000000000,"state":"active","ping":68},{"user_id":762,"name":"eat Pant","steam_id":76561197974965536,"connected_time":3001000000000,"state":"active","ping":63},{"user_id":745,"name":"Linkis","steam_id":76561198018192643,"connected_time":4177000000000,"state":"active","ping":71},{"user_id":739,"name":"kermitcreeper(ZAZA)","steam_id":76561199222829972,"connected_time":4511000000000,"state":"active","ping":57},{"user_id":773,"name":"Lavender","steam_id":76561198142770666,"connected_time":2036000000000,"state":"active","ping":52},{"user_id":717,"name":"Pingle","steam_id":76561198096221632,"connected_time":5910000000000,"state":"active","ping":63},{"user_id":775,"name":"Yakul","steam_id":76561198100040013,"connected_time":1928000000000,"state":"active","ping":107},{"user_id":754,"name":"üíõMercyüíõ","steam_id":76561198147095572,"connected_time":4003000000000,"state":"active","ping":61},{"user_id":757,"name":"Ademar","steam_id":76561199391802581,"connected_time":3318000000000,"state":"active","ping":102},{"user_id":779,"name":"Captain S. Forrest","steam_id":76561198062463029,"connected_time":1729000000000,"state":"active","ping":83},{"user_id":778,"name":"zeredis","steam_id":76561198076596689,"connected_time":1836000000000,"state":"active","ping":69},{"user_id":784,"name":"Drapph","steam_id":76561199384213314,"connected_time":867000000000,"state":"active","ping":63},{"user_id":756,"name":"Olga Chestycough","steam_id":76561198119483989,"connected_time":3764000000000,"state":"active","ping":89},{"user_id":760,"name":"stupid ape","steam_id":76561198350027075,"connected_time":3172000000000,"state":"active","ping":55},{"user_id":737,"name":"c00kie","steam_id":76561198418178297,"connected_time":4622000000000,"state":"active","ping":47}]},{"server_id":106,"name":"Uncletopia | Chicago | 2 | All Maps","name_short":"chi-2","host":"chi-1.us.uncletopia.com","port":27025,"enabled":true,"region":"us-central","cc":"us","latitude":41.881832,"longitude":-87.62318,"reserved":0,"last_update":"0001-01-01T00:00:00Z","name_a2s":"Uncletopia | Chicago | 2 | All Maps","protocol":17,"map":"pl_snowycoast","folder":"tf","game":"Team Fortress","app_id":440,"player_count":24,"max_players":24,"Bots":0,"server_type":"Dedicated","server_os":"Linux","password":true,"vac":true,"version":"7882260","steam_id":85568392924469985,"keywords":["nocrits","nodmgspread","payload","uncletopia"],"game_id":440,"stv_port":27026,"stv_name":"Uncletopia | Chicago | 2 | All Maps | STV","players":[{"user_id":636,"name":"DonoC","steam_id":76561198274473338,"connected_time":6919000000000,"state":"active","ping":73},{"user_id":721,"name":"Zeebop","steam_id":76561198148332988,"connected_time":1564000000000,"state":"active","ping":47},{"user_id":714,"name":"eater of bee hives","steam_id":76561199030261869,"connected_time":1735000000000,"state":"active","ping":100},{"user_id":730,"name":"totally not a pile of beans","steam_id":76561198119851931,"connected_time":1267000000000,"state":"active","ping":82},{"user_id":707,"name":"CroutonCriminal","steam_id":76561198252145166,"connected_time":1913000000000,"state":"active","ping":76},{"user_id":723,"name":"Duckles","steam_id":76561198049203455,"connected_time":1414000000000,"state":"active","ping":66},{"user_id":717,"name":"DANGER","steam_id":76561198372253588,"connected_time":1701000000000,"state":"active","ping":80},{"user_id":724,"name":"Bheem","steam_id":76561198170453459,"connected_time":1413000000000,"state":"active","ping":86},{"user_id":720,"name":"SSBM Pelican","steam_id":76561198040697907,"connected_time":1567000000000,"state":"active","ping":75},{"user_id":733,"name":"StonedGiant","steam_id":76561197984386932,"connected_time":823000000000,"state":"active","ping":61},{"user_id":725,"name":"AceDeuce","steam_id":76561198049904924,"connected_time":1347000000000,"state":"active","ping":54},{"user_id":686,"name":"postgres","steam_id":76561198011204750,"connected_time":4050000000000,"state":"active","ping":86},{"user_id":738,"name":"Society","steam_id":76561198084167611,"connected_time":110000000000,"state":"active","ping":66},{"user_id":710,"name":"Maid 'n' China","steam_id":76561198423392976,"connected_time":1850000000000,"state":"active","ping":1113},{"user_id":706,"name":"evil","steam_id":76561198126358045,"connected_time":2026000000000,"state":"active","ping":76},{"user_id":701,"name":"NeoN","steam_id":76561198117608366,"connected_time":2454000000000,"state":"active","ping":50},{"user_id":702,"name":"Prophet","steam_id":76561198134948582,"connected_time":2445000000000,"state":"active","ping":92},{"user_id":727,"name":"Snale","steam_id":76561198039517965,"connected_time":1310000000000,"state":"active","ping":117},{"user_id":719,"name":" ï‚Ä¢·¥•‚Ä¢ î the bear","steam_id":76561197989591976,"connected_time":1675000000000,"state":"active","ping":80},{"user_id":728,"name":"SomeFuckingGuy #SAVETF2","steam_id":76561199239165015,"connected_time":1302000000000,"state":"active","ping":81},{"user_id":705,"name":"ZofoJackson","steam_id":76561197998366861,"connected_time":2198000000000,"state":"active","ping":58},{"user_id":732,"name":"FloatingOnAar","steam_id":76561198201931515,"connected_time":894000000000,"state":"active","ping":87},{"user_id":729,"name":"glocklin","steam_id":76561198046386778,"connected_time":1280000000000,"state":"active","ping":144}]},{"server_id":402,"name":"Uncletopia | Chicago | 3 | All Maps","name_short":"chi-3","host":"chi-1.us.uncletopia.com","port":27035,"enabled":true,"region":"us-central","cc":"us","latitude":41.881832,"longitude":-87.62318,"reserved":0,"last_update":"0001-01-01T00:00:00Z","name_a2s":"Uncletopia | Chicago | 3 | All Maps","protocol":17,"map":"pl_pier","folder":"tf","game":"Team Fortress","app_id":440,"player_count":24,"max_players":24,"Bots":0,"server_type":"Dedicated","server_os":"Linux","password":true,"vac":true,"version":"7882260","steam_id":85568392924515191,"keywords":["nocrits","nodmgspread","payload","uncletopia"],"game_id":440,"stv_port":27036,"stv_name":"Uncletopia | Chicago | 3 | All Maps | STV","players":[{"user_id":637,"name":"steven","steam_id":76561198173047169,"connected_time":3806000000000,"state":"active","ping":60},{"user_id":674,"name":"Zomwashroomz","steam_id":76561198131316167,"connected_time":21000000000,"state":"active","ping":83},{"user_id":631,"name":"RainbowHeavy","steam_id":76561198070800159,"connected_time":4611000000000,"state":"active","ping":103},{"user_id":654,"name":"DrD","steam_id":76561198067266383,"connected_time":2256000000000,"state":"active","ping":75},{"user_id":620,"name":"Buddybudman","steam_id":76561198144316911,"connected_time":4734000000000,"state":"active","ping":64},{"user_id":655,"name":"Psychosis","steam_id":76561198078659070,"connected_time":2246000000000,"state":"active","ping":76},{"user_id":648,"name":"Krome","steam_id":76561198087317232,"connected_time":2679000000000,"state":"active","ping":64},{"user_id":649,"name":"minerkid2004","steam_id":76561198044262827,"connected_time":2570000000000,"state":"active","ping":100},{"user_id":653,"name":"Mr. Tickle","steam_id":76561198126684647,"connected_time":2281000000000,"state":"active","ping":60},{"user_id":622,"name":"Hammerhead","steam_id":76561198897122890,"connected_time":4720000000000,"state":"active","ping":58},{"user_id":576,"name":"LACTAID","steam_id":76561198276585202,"connected_time":7361000000000,"state":"active","ping":100},{"user_id":591,"name":"CyberZord","steam_id":76561198388195527,"connected_time":6446000000000,"state":"active","ping":69},{"user_id":614,"name":"Rukh","steam_id":76561197999361315,"connected_time":4788000000000,"state":"active","ping":95},{"user_id":673,"name":"Kelpy G","steam_id":76561198105330587,"connected_time":138000000000,"state":"active","ping":89},{"user_id":663,"name":"dirty30","steam_id":76561198021226566,"connected_time":1130000000000,"state":"active","ping":93},{"user_id":634,"name":"Lil' King Trashmouth","steam_id":76561198073442946,"connected_time":4097000000000,"state":"active","ping":78},{"user_id":669,"name":"blockchain culture","steam_id":76561198040996386,"connected_time":952000000000,"state":"active","ping":87},{"user_id":658,"name":"robbed","steam_id":76561198856183212,"connected_time":1914000000000,"state":"active","ping":56},{"user_id":667,"name":"Butters495","steam_id":76561197998689042,"connected_time":1048000000000,"state":"active","ping":78},{"user_id":665,"name":"JMan","steam_id":76561198367705381,"connected_time":1094000000000,"state":"active","ping":168},{"user_id":666,"name":"Space Lizard","steam_id":76561198056798193,"connected_time":1082000000000,"state":"active","ping":73},{"user_id":626,"name":"A Flying Kidney","steam_id":76561198046208175,"connected_time":4699000000000,"state":"active","ping":121},{"user_id":671,"name":"Grand","steam_id":76561198290143399,"connected_time":892000000000,"state":"active","ping":73},{"user_id":670,"name":"WhoIsDst","steam_id":76561199065021451,"connected_time":924000000000,"state":"active","ping":65}]},{"server_id":403,"name":"Uncletopia | Chicago | 4 | All Maps","name_short":"chi-4","host":"chi-1.us.uncletopia.com","port":27045,"enabled":true,"region":"us-central","cc":"us","latitude":41.881832,"longitude":-87.62318,"reserved":0,"last_update":"0001-01-01T00:00:00Z","name_a2s":"Uncletopia | Chicago | 4 | All Maps","protocol":17,"map":"pl_borneo","folder":"tf","game":"Team Fortress","app_id":440,"player_count":24,"max_players":24,"Bots":0,"server_type":"Dedicated","server_os":"Linux","password":true,"vac":true,"version":"7882260","steam_id":85568392924515193,"keywords":["nocrits","nodmgspread","payload","uncletopia"],"game_id":440,"stv_port":27046,"stv_name":"Uncletopia | Chicago | 4 | All Maps | STV","players":[{"user_id":502,"name":"gonk","steam_id":76561198061206732,"connected_time":3712000000000,"state":"active","ping":78},{"user_id":561,"name":"Engineer Gaming","steam_id":76561198098264892,"connected_time":273000000000,"state":"active","ping":87},{"user_id":570,"name":"Firedrakecheerful","steam_id":76561198141166902,"connected_time":195000000000,"state":"active","ping":77},{"user_id":562,"name":"Bongwater Basin","steam_id":76561198059868632,"connected_time":267000000000,"state":"active","ping":84},{"user_id":515,"name":"liftin'","steam_id":76561199089515791,"connected_time":2556000000000,"state":"active","ping":108},{"user_id":469,"name":"Makina","steam_id":76561198057475567,"connected_time":6873000000000,"state":"active","ping":70},{"user_id":563,"name":"wwhg","steam_id":76561198140658919,"connected_time":264000000000,"state":"active","ping":67},{"user_id":564,"name":"Project_Counter","steam_id":76561198152786076,"connected_time":261000000000,"state":"active","ping":77},{"user_id":565,"name":"lcy13vv","steam_id":76561197995997446,"connected_time":261000000000,"state":"active","ping":56},{"user_id":567,"name":"lytewerk","steam_id":76561198002819791,"connected_time":239000000000,"state":"active","ping":83},{"user_id":555,"name":"hud_saytext_time 0","steam_id":76561198010327228,"connected_time":700000000000,"state":"active","ping":178},{"user_id":545,"name":"bare","steam_id":76561198046624654,"connected_time":1490000000000,"state":"active","ping":72},{"user_id":552,"name":"Wang of Wall St","steam_id":76561198047460598,"connected_time":1186000000000,"state":"active","ping":77},{"user_id":537,"name":"laddie","steam_id":76561198063029230,"connected_time":1995000000000,"state":"active","ping":73},{"user_id":547,"name":"thixon","steam_id":76561198046655575,"connected_time":1489000000000,"state":"active","ping":64},{"user_id":568,"name":"Zephyr","steam_id":76561198129785553,"connected_time":236000000000,"state":"active","ping":88},{"user_id":557,"name":"HOLDME crow","steam_id":76561198046802071,"connected_time":671000000000,"state":"active","ping":66},{"user_id":472,"name":"Marshall","steam_id":76561198042570322,"connected_time":6270000000000,"state":"active","ping":89},{"user_id":551,"name":"Paper Clipp","steam_id":76561199065796296,"connected_time":1245000000000,"state":"active","ping":126},{"user_id":532,"name":"Bzamo","steam_id":76561198039883392,"connected_time":2153000000000,"state":"active","ping":59},{"user_id":534,"name":"Bert","steam_id":76561198073902241,"connected_time":2130000000000,"state":"active","ping":73},{"user_id":569,"name":"Just A Potato","steam_id":76561198056360867,"connected_time":233000000000,"state":"active","ping":79},{"user_id":558,"name":"Surfing Garchomp","steam_id":76561199107236884,"connected_time":658000000000,"state":"active","ping":99},{"user_id":467,"name":"Pizza","steam_id":76561198118748364,"connected_time":7472000000000,"state":"active","ping":85}]},{"server_id":36,"name":"Uncletopia | Chicago | 5 | All Maps","name_short":"chi-5","host":"chi-2.us.uncletopia.com","port":27015,"enabled":true,"region":"us-central","cc":"us","latitude":41.881832,"longitude":-87.62318,"reserved":0,"last_update":"0001-01-01T00:00:00Z","name_a2s":"Uncletopia | Chicago | 5 | All Maps","protocol":17,"map":"pl_upward","folder":"tf","game":"Team Fortress","app_id":440,"player_count":24,"max_players":24,"Bots":0,"server_type":"Dedicated","server_os":"Linux","password":true,"vac":true,"version":"7882260","steam_id":85568392924866362,"keywords":["nocrits","nodmgspread","payload","uncletopia"],"game_id":440,"stv_port":27016,"stv_name":"Uncletopia | Chicago | 5 | All Maps | STV","players":[{"user_id":792,"name":"my partner methuselah chickadee","steam_id":76561198075758026,"connected_time":2362000000000,"state":"active","ping":85},{"user_id":731,"name":"The Horny","steam_id":76561198863639459,"connected_time":7603000000000,"state":"active","ping":110},{"user_id":809,"name":"Jiffy","steam_id":76561198043338415,"connected_time":591000000000,"state":"active","ping":75},{"user_id":819,"name":"silly little tapeworm","steam_id":76561198803798068,"connected_time":106000000000,"state":"active","ping":68},{"user_id":767,"name":"Spinch","steam_id":76561198296224166,"connected_time":5020000000000,"state":"active","ping":90},{"user_id":803,"name":"DinkleBerg","steam_id":76561198891626233,"connected_time":1270000000000,"state":"active","ping":65},{"user_id":816,"name":"CrazyDave","steam_id":76561198282269514,"connected_time":518000000000,"state":"active","ping":97},{"user_id":795,"name":"briggs","steam_id":76561198045655893,"connected_time":1962000000000,"state":"active","ping":62},{"user_id":800,"name":"Frontier Psychiatrist","steam_id":76561198038689088,"connected_time":1684000000000,"state":"active","ping":89},{"user_id":742,"name":"Jill","steam_id":76561198097398193,"connected_time":6965000000000,"state":"active","ping":91},{"user_id":793,"name":"Jar Jar Kinks","steam_id":76561199087748803,"connected_time":2247000000000,"state":"active","ping":89},{"user_id":771,"name":"blitzkriiegi","steam_id":76561198200944766,"connected_time":4136000000000,"state":"active","ping":47},{"user_id":772,"name":"Antifa Supersoldier","steam_id":76561198141816516,"connected_time":4135000000000,"state":"active","ping":71},{"user_id":765,"name":"nalezinik","steam_id":76561198030026119,"connected_time":5326000000000,"state":"active","ping":63},{"user_id":807,"name":"Female Gamer","steam_id":76561199366482682,"connected_time":702000000000,"state":"active","ping":151},{"user_id":805,"name":"OneLess","steam_id":76561198150870338,"connected_time":1137000000000,"state":"active","ping":75},{"user_id":745,"name":"CreativeName","steam_id":76561198853344895,"connected_time":6924000000000,"state":"active","ping":101},{"user_id":797,"name":"trashbro","steam_id":76561199417993197,"connected_time":1928000000000,"state":"active","ping":108},{"user_id":794,"name":"Wet Deer","steam_id":76561198145045927,"connected_time":2045000000000,"state":"active","ping":84},{"user_id":817,"name":"Also Known As Assteeth","steam_id":76561198049837377,"connected_time":517000000000,"state":"active","ping":52},{"user_id":815,"name":"Unregistered Hypercam 2","steam_id":76561198046895822,"connected_time":521000000000,"state":"active","ping":83},{"user_id":741,"name":"Am I Good At The Video Game?","steam_id":76561198046053281,"connected_time":7054000000000,"state":"active","ping":73},{"user_id":811,"name":"Atlas (Skylar)","steam_id":76561198041531774,"connected_time":562000000000,"state":"active","ping":56},{"user_id":818,"name":"Publo","steam_id":76561198161777140,"connected_time":512000000000,"state":"active","ping":79}]},{"server_id":37,"name":"Uncletopia | Chicago | 6 | All Maps","name_short":"chi-6","host":"chi-2.us.uncletopia.com","port":27025,"enabled":true,"region":"us-central","cc":"us","latitude":41.881832,"longitude":-87.62318,"reserved":0,"last_update":"0001-01-01T00:00:00Z","name_a2s":"Uncletopia | Chicago | 6 | All Maps","protocol":17,"map":"koth_sawmill","folder":"tf","game":"Team Fortress","app_id":440,"player_count":24,"max_players":24,"Bots":0,"server_type":"Dedicated","server_os":"Linux","password":true,"vac":true,"version":"7882260","steam_id":85568392924866363,"keywords":["cp","nocrits","nodmgspread","uncletopia"],"game_id":440,"stv_port":27026,"stv_name":"Uncletopia | Chicago | 6 | All Maps | STV","players":[{"user_id":552,"name":"AveraGeo","steam_id":76561198216949631,"connected_time":3282000000000,"state":"active","ping":64},{"user_id":584,"name":"plsplsplslol","steam_id":76561198868084626,"connected_time":486000000000,"state":"active","ping":100},{"user_id":558,"name":"Real (real)","steam_id":76561199059653595,"connected_time":2499000000000,"state":"active","ping":101},{"user_id":548,"name":"Horse","steam_id":76561198004583631,"connected_time":3503000000000,"state":"active","ping":75},{"user_id":586,"name":"Henry Ota-Clay","steam_id":76561198053232470,"connected_time":421000000000,"state":"active","ping":56},{"user_id":559,"name":"crashymicsplody","steam_id":76561198213916765,"connected_time":2424000000000,"state":"active","ping":68},{"user_id":566,"name":"SpecialForce19","steam_id":76561198120974644,"connected_time":1924000000000,"state":"active","ping":73},{"user_id":567,"name":"Biggles","steam_id":76561198126576389,"connected_time":1897000000000,"state":"active","ping":65},{"user_id":522,"name":"Whoops!","steam_id":76561198151315898,"connected_time":4883000000000,"state":"active","ping":58},{"user_id":587,"name":"Gorgon Freeman","steam_id":76561198000367036,"connected_time":410000000000,"state":"active","ping":55},{"user_id":541,"name":"Michaelpc1","steam_id":76561198088365519,"connected_time":3803000000000,"state":"active","ping":83},{"user_id":459,"name":"thecal","steam_id":76561198307893384,"connected_time":9994000000000,"state":"active","ping":89},{"user_id":579,"name":"Alfonso Molestro","steam_id":76561197998677099,"connected_time":961000000000,"state":"active","ping":76},{"user_id":581,"name":"DetectiveHorse","steam_id":76561198278726152,"connected_time":762000000000,"state":"active","ping":67},{"user_id":582,"name":"pHsHy","steam_id":76561198013195018,"connected_time":683000000000,"state":"active","ping":77},{"user_id":583,"name":"flwrstems (Scope) \u003c3","steam_id":76561198164813564,"connected_time":672000000000,"state":"active","ping":59},{"user_id":568,"name":"Whos Mans Is Dis","steam_id":76561198370978056,"connected_time":1786000000000,"state":"active","ping":90},{"user_id":565,"name":"morsetime","steam_id":76561199116362348,"connected_time":1983000000000,"state":"active","ping":143},{"user_id":528,"name":"BurritoCat","steam_id":76561198059822805,"connected_time":4479000000000,"state":"active","ping":113},{"user_id":578,"name":"Achtan","steam_id":76561198078189844,"connected_time":978000000000,"state":"active","ping":60},{"user_id":529,"name":"REspecWizard","steam_id":76561198097950624,"connected_time":4467000000000,"state":"active","ping":115},{"user_id":561,"name":"Herr M√ºller","steam_id":76561198064876829,"connected_time":2395000000000,"state":"active","ping":93},{"user_id":543,"name":"honked off the bobo","steam_id":76561198123287268,"connected_time":3802000000000,"state":"active","ping":45},{"user_id":557,"name":"Neophyte","steam_id":76561198027183394,"connected_time":2612000000000,"state":"active","ping":90}]},{"server_id":38,"name":"Uncletopia | Chicago | 7 | Stopwatch Beta","name_short":"chi-7","host":"chi-2.us.uncletopia.com","port":27035,"enabled":true,"region":"us-central","cc":"us","latitude":41.881832,"longitude":-87.62318,"reserved":0,"last_update":"0001-01-01T00:00:00Z","name_a2s":"Uncletopia | Chicago | 7 | Stopwatch Beta","protocol":17,"map":"cp_gullywash_final1","folder":"tf","game":"Team Fortress","app_id":440,"player_count":23,"max_players":24,"Bots":0,"server_type":"Dedicated","server_os":"Linux","password":true,"vac":true,"version":"7882260","steam_id":85568392924866364,"keywords":["cp","nocrits","nodmgspread","uncletopia"],"game_id":440,"stv_port":27036,"stv_name":"Uncletopia | Chicago | 7 | Stopwatch Beta | STV","players":[{"user_id":501,"name":"gyozaking","steam_id":76561197972312696,"connected_time":777000000000,"state":"active","ping":47},{"user_id":507,"name":"nox","steam_id":76561198054390505,"connected_time":609000000000,"state":"active","ping":45},{"user_id":492,"name":"Whapper","steam_id":76561198044029606,"connected_time":1776000000000,"state":"active","ping":102},{"user_id":518,"name":"Zen Skye","steam_id":76561198114452552,"connected_time":407000000000,"state":"active","ping":60},{"user_id":526,"name":"Jesus Kush","steam_id":76561199099329667,"connected_time":273000000000,"state":"active","ping":101},{"user_id":519,"name":"carp","steam_id":76561198042865147,"connected_time":394000000000,"state":"active","ping":45},{"user_id":510,"name":"Multi","steam_id":76561199021571010,"connected_time":586000000000,"state":"active","ping":55},{"user_id":521,"name":"GRAAAH!","steam_id":76561198093439770,"connected_time":317000000000,"state":"active","ping":60},{"user_id":503,"name":"bogus","steam_id":76561198377555279,"connected_time":718000000000,"state":"active","ping":83},{"user_id":511,"name":"bumpyman","steam_id":76561198296275752,"connected_time":585000000000,"state":"active","ping":95},{"user_id":522,"name":"Jattiti","steam_id":76561199214217870,"connected_time":303000000000,"state":"active","ping":59},{"user_id":481,"name":"Elias","steam_id":76561198031295139,"connected_time":2892000000000,"state":"active","ping":92},{"user_id":464,"name":"chloe when she","steam_id":76561198128537564,"connected_time":3468000000000,"state":"active","ping":47},{"user_id":523,"name":"Kidzbopsicle","steam_id":76561198047660691,"connected_time":300000000000,"state":"active","ping":59},{"user_id":528,"name":"comet","steam_id":76561198077022846,"connected_time":133000000000,"state":"active","ping":89},{"user_id":500,"name":"VexT","steam_id":76561199471734115,"connected_time":1340000000000,"state":"active","ping":91},{"user_id":505,"name":"Murdoll","steam_id":76561198347654596,"connected_time":703000000000,"state":"active","ping":83},{"user_id":482,"name":"Roomsky","steam_id":76561198012827494,"connected_time":2890000000000,"state":"active","ping":86},{"user_id":483,"name":"NASA PEEPO","steam_id":76561198024982267,"connected_time":2890000000000,"state":"active","ping":107},{"user_id":514,"name":"Professor Shaggy","steam_id":76561198276926724,"connected_time":556000000000,"state":"active","ping":54},{"user_id":525,"name":"TheGreatBeep","steam_id":76561198185301837,"connected_time":298000000000,"state":"active","ping":76},{"user_id":516,"name":"HELLOITSME","steam_id":76561198848631807,"connected_time":515000000000,"state":"active","ping":62},{"user_id":491,"name":"Glazed","steam_id":76561198043020404,"connected_time":2303000000000,"state":"active","ping":77}]},{"server_id":39,"name":"Uncletopia | Chicago | 8 | Community","name_short":"chi-8","host":"chi-2.us.uncletopia.com","port":27045,"enabled":true,"region":"us-central","cc":"us","latitude":41.881832,"longitude":-87.62318,"reserved":0,"last_update":"0001-01-01T00:00:00Z","name_a2s":"Uncletopia | Chicago | 8 | Community","protocol":17,"map":"workshop/pl_eruption_b9a.ugc2807898013","folder":"tf","game":"Team Fortress","app_id":440,"player_count":24,"max_players":24,"Bots":0,"server_type":"Dedicated","server_os":"Linux","password":true,"vac":true,"version":"7882260","steam_id":85568392924866365,"keywords":["nocrits","nodmgspread","payload","uncletopia"],"game_id":440,"stv_port":27046,"stv_name":"Uncletopia | Chicago | 8 | Community | STV","players":[{"user_id":398,"name":"White Boy Freestyle #337","steam_id":76561198880396651,"connected_time":5473000000000,"state":"active","ping":85},{"user_id":448,"name":"Glacier","steam_id":76561198966817492,"connected_time":1044000000000,"state":"active","ping":100},{"user_id":420,"name":"Zelith","steam_id":76561198234980480,"connected_time":3556000000000,"state":"active","ping":52},{"user_id":441,"name":"fuckinreece","steam_id":76561198365490421,"connected_time":1324000000000,"state":"active","ping":63},{"user_id":336,"name":"Spillproff","steam_id":76561198082337619,"connected_time":10441000000000,"state":"active","ping":72},{"user_id":445,"name":"amberenix","steam_id":76561198805110908,"connected_time":1102000000000,"state":"active","ping":83},{"user_id":427,"name":"watchfull","steam_id":76561198433266742,"connected_time":2364000000000,"state":"active","ping":95},{"user_id":461,"name":"Gugomo","steam_id":76561198121428316,"connected_time":431000000000,"state":"active","ping":96},{"user_id":465,"name":"the.land.of.avalon","steam_id":76561198245431668,"connected_time":24000000000,"state":"active","ping":61},{"user_id":434,"name":"Mr. Crispy Lips","steam_id":76561198028157625,"connected_time":1967000000000,"state":"active","ping":85},{"user_id":405,"name":"ttv/Rocatex (HalloweenEnjoyer)","steam_id":76561199095053897,"connected_time":5182000000000,"state":"active","ping":69},{"user_id":400,"name":"Red Ball","steam_id":76561199054205242,"connected_time":5401000000000,"state":"active","ping":119},{"user_id":446,"name":"GuyGoom","steam_id":76561198254522178,"connected_time":1101000000000,"state":"active","ping":55},{"user_id":450,"name":"1-800-GHOST-DANCE","steam_id":76561198835430429,"connected_time":962000000000,"state":"active","ping":86},{"user_id":463,"name":"jel","steam_id":76561199088154374,"connected_time":209000000000,"state":"active","ping":55},{"user_id":382,"name":"misterspud","steam_id":76561198195306218,"connected_time":7206000000000,"state":"active","ping":48},{"user_id":438,"name":"Emder","steam_id":76561198260747931,"connected_time":1569000000000,"state":"active","ping":63},{"user_id":459,"name":"Dr. Cactus","steam_id":76561198034861398,"connected_time":523000000000,"state":"active","ping":75},{"user_id":424,"name":"S.N.A.F.U.","steam_id":76561197980128424,"connected_time":2742000000000,"state":"active","ping":71},{"user_id":464,"name":"creep and weirdo","steam_id":76561198439073466,"connected_time":178000000000,"state":"active","ping":101},{"user_id":453,"name":"Gene","steam_id":76561197989409721,"connected_time":906000000000,"state":"active","ping":100},{"user_id":454,"name":"Drippin Jimmy","steam_id":76561198161241865,"connected_time":891000000000,"state":"active","ping":81},{"user_id":439,"name":"Gram Tokers Count Doinkula","steam_id":76561198112811565,"connected_time":1376000000000,"state":"active","ping":76},{"user_id":455,"name":"cheesespread","steam_id":76561198104912220,"connected_time":857000000000,"state":"active","ping":61}]},{"server_id":8,"name":"Uncletopia | Dallas | 1 | All Maps","name_short":"dal-1","host":"dal-1.us.uncletopia.com","port":27015,"enabled":true,"region":"us-central","cc":"us","latitude":32.779167,"longitude":-96.80889,"reserved":0,"last_update":"0001-01-01T00:00:00Z","name_a2s":"Uncletopia | Dallas | 1 | All Maps","protocol":17,"map":"pl_thundermountain","folder":"tf","game":"Team Fortress","app_id":440,"player_count":24,"max_players":24,"Bots":0,"server_type":"Dedicated","server_os":"Linux","password":true,"vac":true,"version":"7882260","steam_id":85568392924469986,"keywords":["nocrits","nodmgspread","payload","uncletopia"],"game_id":440,"stv_port":27016,"stv_name":"Uncletopia | Dallas | 1 | All Maps | STV","players":[{"user_id":659,"name":"EvilPigglet","steam_id":76561197987243470,"connected_time":9243000000000,"state":"active","ping":75},{"user_id":769,"name":"Metbol","steam_id":76561198001362410,"connected_time":2367000000000,"state":"active","ping":65},{"user_id":706,"name":"iluvtoust","steam_id":76561198869269207,"connected_time":6060000000000,"state":"active","ping":52},{"user_id":755,"name":"think before you believe","steam_id":76561198857358730,"connected_time":2987000000000,"state":"active","ping":51},{"user_id":762,"name":"Ko - „Åì - ÏΩî","steam_id":76561198035726982,"connected_time":2654000000000,"state":"active","ping":77},{"user_id":767,"name":"kentuckyfriedsocks","steam_id":76561198311122883,"connected_time":2394000000000,"state":"active","ping":89},{"user_id":774,"name":"boof","steam_id":76561198053901968,"connected_time":1045000000000,"state":"active","ping":66},{"user_id":756,"name":"Moshi Man","steam_id":76561198038249762,"connected_time":2899000000000,"state":"active","ping":89},{"user_id":699,"name":"plink","steam_id":76561198057829889,"connected_time":6558000000000,"state":"active","ping":53},{"user_id":761,"name":"Flubdy_","steam_id":76561198073338521,"connected_time":2770000000000,"state":"active","ping":63},{"user_id":722,"name":"The White Banded Red Tophat","steam_id":76561198821328722,"connected_time":4796000000000,"state":"active","ping":56},{"user_id":772,"name":"Mr. Everett","steam_id":76561198401204033,"connected_time":1667000000000,"state":"active","ping":78},{"user_id":770,"name":"Korota","steam_id":76561198095891641,"connected_time":2356000000000,"state":"active","ping":60},{"user_id":731,"name":"Argon","steam_id":76561199254804349,"connected_time":4435000000000,"state":"active","ping":83},{"user_id":768,"name":"Logic is a Good Rapper","steam_id":76561198976821898,"connected_time":2391000000000,"state":"active","ping":82},{"user_id":733,"name":"Grumby","steam_id":76561198149175262,"connected_time":4102000000000,"state":"active","ping":58},{"user_id":771,"name":"lycoris","steam_id":76561199113965768,"connected_time":1774000000000,"state":"active","ping":86},{"user_id":763,"name":"‚ú©BONGO‚ú©","steam_id":76561198018040930,"connected_time":2589000000000,"state":"active","ping":44},{"user_id":773,"name":"Buckethead","steam_id":76561198210181296,"connected_time":1372000000000,"state":"active","ping":108},{"user_id":759,"name":"SneekiCheekiQbone","steam_id":76561198045077980,"connected_time":2864000000000,"state":"active","ping":75},{"user_id":715,"name":"A Straw","steam_id":76561199367935846,"connected_time":5235000000000,"state":"active","ping":74},{"user_id":742,"name":"iaPK","steam_id":76561198056618642,"connected_time":3742000000000,"state":"active","ping":63},{"user_id":766,"name":"TheEmeraldLiker","steam_id":76561198323926464,"connected_time":2564000000000,"state":"active","ping":104},{"user_id":748,"name":"Mando","steam_id":76561198139662905,"connected_time":3302000000000,"state":"active","ping":68}]},{"server_id":108,"name":"Uncletopia | Dallas | 2 | All Maps","name_short":"dal-2","host":"dal-1.us.uncletopia.com","port":27025,"enabled":true,"region":"us-central","cc":"us","latitude":32.779167,"longitude":-96.80889,"reserved":0,"last_update":"0001-01-01T00:00:00Z","name_a2s":"Uncletopia | Dallas | 2 | All Maps","protocol":17,"map":"cp_dustbowl","folder":"tf","game":"Team Fortress","app_id":440,"player_count":24,"max_players":24,"Bots":0,"server_type":"Dedicated","server_os":"Linux","password":true,"vac":true,"version":"7882260","steam_id":85568392924469988,"keywords":["cp","nocrits","nodmgspread","uncletopia"],"game_id":440,"stv_port":27026,"stv_name":"Uncletopia | Dallas | 2 | All Maps | STV","players":[{"user_id":527,"name":"Satan-2","steam_id":76561199231742764,"connected_time":3805000000000,"state":"active","ping":84},{"user_id":542,"name":"Thaatsovietguy","steam_id":76561199262265522,"connected_time":2262000000000,"state":"active","ping":123},{"user_id":562,"name":"Scrambledeggs","steam_id":76561198988504962,"connected_time":884000000000,"state":"active","ping":76},{"user_id":533,"name":"GLG MUTT","steam_id":76561198147785541,"connected_time":3301000000000,"state":"active","ping":60},{"user_id":563,"name":"Durendal","steam_id":76561199194331619,"connected_time":832000000000,"state":"active","ping":66},{"user_id":548,"name":"Lucky","steam_id":76561198053792899,"connected_time":1957000000000,"state":"active","ping":78},{"user_id":566,"name":"jaelyn","steam_id":76561199239926014,"connected_time":706000000000,"state":"active","ping":72},{"user_id":546,"name":"MINI CRIT!999","steam_id":76561198027649268,"connected_time":1999000000000,"state":"active","ping":82},{"user_id":559,"name":"GOLDIE","steam_id":76561199375258674,"connected_time":1003000000000,"state":"active","ping":75},{"user_id":536,"name":"GLG.Liz","steam_id":76561198021957956,"connected_time":3260000000000,"state":"active","ping":50},{"user_id":561,"name":"ChottoAMinute","steam_id":76561198873157775,"connected_time":911000000000,"state":"active","ping":42},{"user_id":553,"name":"DragonHeart","steam_id":76561198013245625,"connected_time":1502000000000,"state":"active","ping":71},{"user_id":554,"name":"white woman","steam_id":76561199116679777,"connected_time":1500000000000,"state":"active","ping":70},{"user_id":523,"name":"Pleiades, the Sorceror","steam_id":76561198079590693,"connected_time":4685000000000,"state":"active","ping":61},{"user_id":564,"name":"JVNicolini","steam_id":76561199069610431,"connected_time":825000000000,"state":"active","ping":150},{"user_id":531,"name":"Miss Pauling Gaming","steam_id":76561198078479083,"connected_time":3329000000000,"state":"active","ping":59},{"user_id":565,"name":"TothBrush","steam_id":76561198028254471,"connected_time":819000000000,"state":"active","ping":68},{"user_id":560,"name":"Law","steam_id":76561198169960915,"connected_time":985000000000,"state":"active","ping":55},{"user_id":556,"name":"CamWtheDestroyer","steam_id":76561198950777742,"connected_time":1383000000000,"state":"active","ping":126},{"user_id":518,"name":"reptar","steam_id":76561198070164185,"connected_time":5055000000000,"state":"active","ping":71},{"user_id":540,"name":"StarPlayz","steam_id":76561199017220262,"connected_time":2660000000000,"state":"active","ping":85},{"user_id":522,"name":"Yunky","steam_id":76561197966495749,"connected_time":4826000000000,"state":"active","ping":61},{"user_id":557,"name":"Galactamarx","steam_id":76561198028065755,"connected_time":1355000000000,"state":"active","ping":82},{"user_id":541,"name":"Squiliam","steam_id":76561198025278006,"connected_time":2659000000000,"state":"active","ping":39}]},{"server_id":5,"name":"Uncletopia | Frankfurt | 1 | All Maps","name_short":"frk-1","host":"frk-1.de.uncletopia.com","port":27015,"enabled":true,"region":"eu","cc":"de","latitude":50.110924,"longitude":8.682127,"reserved":0,"last_update":"0001-01-01T00:00:00Z","name_a2s":"Uncletopia | Frankfurt | 1 | All Maps","protocol":17,"map":"cp_sunshine","folder":"tf","game":"Team Fortress","app_id":440,"player_count":0,"max_players":24,"Bots":0,"server_type":"Dedicated","server_os":"Linux","password":true,"vac":true,"version":"7882260","steam_id":85568392924469989,"keywords":["cp","nocrits","nodmgspread","uncletopia"],"game_id":440,"stv_port":27016,"stv_name":"Uncletopia | Frankfurt | 1 | All Maps | STV","players":null},{"server_id":110,"name":"Uncletopia | Frankfurt | 2 | All Maps","name_short":"frk-2","host":"frk-1.de.uncletopia.com","port":27025,"enabled":true,"region":"eu","cc":"de","latitude":50.110924,"longitude":8.682127,"reserved":0,"last_update":"0001-01-01T00:00:00Z","name_a2s":"Uncletopia | Frankfurt | 2 | All Maps","protocol":17,"map":"koth_cascade","folder":"tf","game":"Team Fortress","app_id":440,"player_count":0,"max_players":24,"Bots":0,"server_type":"Dedicated","server_os":"Linux","password":true,"vac":true,"version":"7882260","steam_id":85568392924469990,"keywords":["cp","nocrits","nodmgspread","uncletopia"],"game_id":440,"stv_port":27026,"stv_name":"Uncletopia | Frankfurt | 2 | All Maps | STV","players":null},{"server_id":308,"name":"Uncletopia | Frankfurt | 3 | All Maps","name_short":"frk-3","host":"frk-1.de.uncletopia.com","port":27035,"enabled":true,"region":"eu","cc":"de","latitude":50.110924,"longitude":8.682127,"reserved":0,"last_update":"0001-01-01T00:00:00Z","name_a2s":"Uncletopia | Frankfurt | 3 | All Maps","protocol":17,"map":"koth_lakeside_final","folder":"tf","game":"Team Fortress","app_id":440,"player_count":0,"max_players":24,"Bots":0,"server_type":"Dedicated","server_os":"Linux","password":true,"vac":true,"version":"7882260","steam_id":85568392924504274,"keywords":["cp","nocrits","nodmgspread","uncletopia"],"game_id":440,"stv_port":27036,"stv_name":"Uncletopia | Frankfurt | 3 | All Maps | STV","players":null},{"server_id":309,"name":"Uncletopia | Frankfurt | 4 | All Maps","name_short":"frk-4","host":"frk-1.de.uncletopia.com","port":27045,"enabled":true,"region":"eu","cc":"de","latitude":50.110924,"longitude":8.682127,"reserved":0,"last_update":"0001-01-01T00:00:00Z","name_a2s":"Uncletopia | Frankfurt | 4 | All Maps","protocol":17,"map":"koth_suijin","folder":"tf","game":"Team Fortress","app_id":440,"player_count":0,"max_players":24,"Bots":0,"server_type":"Dedicated","server_os":"Linux","password":true,"vac":true,"version":"7882260","steam_id":85568392924504275,"keywords":["cp","nocrits","nodmgspread","uncletopia"],"game_id":440,"stv_port":27046,"stv_name":"Uncletopia | Frankfurt | 4 | All Maps | STV","players":null},{"server_id":310,"name":"Uncletopia | Frankfurt | 5 | All Maps","name_short":"frk-5","host":"frk-1.de.uncletopia.com","port":27055,"enabled":true,"region":"eu","cc":"de","latitude":50.110924,"longitude":8.682127,"reserved":0,"last_update":"0001-01-01T00:00:00Z","name_a2s":"Uncletopia | Frankfurt | 5 | All Maps","protocol":17,"map":"koth_highpass","folder":"tf","game":"Team Fortress","app_id":440,"player_count":0,"max_players":24,"Bots":0,"server_type":"Dedicated","server_os":"Linux","password":true,"vac":true,"version":"7882260","steam_id":85568392924504277,"keywords":["cp","nocrits","nodmgspread","uncletopia"],"game_id":440,"stv_port":27056,"stv_name":"Uncletopia | Frankfurt | 5 | All Maps | STV","players":null},{"server_id":311,"name":"Uncletopia | Frankfurt | 6 | All Maps","name_short":"frk-6","host":"frk-1.de.uncletopia.com","port":27065,"enabled":true,"region":"eu","cc":"de","latitude":50.110924,"longitude":8.682127,"reserved":0,"last_update":"0001-01-01T00:00:00Z","name_a2s":"Uncletopia | Frankfurt | 6 | All Maps","protocol":17,"map":"pl_frontier_final","folder":"tf","game":"Team Fortress","app_id":440,"player_count":0,"max_players":24,"Bots":0,"server_type":"Dedicated","server_os":"Linux","password":true,"vac":true,"version":"7882260","steam_id":85568392924504278,"keywords":["nocrits","nodmgspread","payload","uncletopia"],"game_id":440,"stv_port":27066,"stv_name":"Uncletopia | Frankfurt | 6 | All Maps | STV","players":null},{"server_id":23,"name":"Uncletopia | Frankfurt | 7 | Stopwatch Beta","name_short":"frk-7","host":"frk-1.de.uncletopia.com","port":27075,"enabled":true,"region":"eu","cc":"de","latitude":50.110924,"longitude":8.682127,"reserved":0,"last_update":"0001-01-01T00:00:00Z","name_a2s":"Uncletopia | Frankfurt | 7 | Stopwatch Beta","protocol":17,"map":"pl_upward","folder":"tf","game":"Team Fortress","app_id":440,"player_count":0,"max_players":24,"Bots":0,"server_type":"Dedicated","server_os":"Linux","password":true,"vac":true,"version":"7882260","steam_id":85568392924742827,"keywords":["nocrits","nodmgspread","payload","uncletopia"],"game_id":440,"stv_port":27076,"stv_name":"Uncletopia | Frankfurt | 7 | Stopwatch Beta | STV","players":null},{"server_id":24,"name":"Uncletopia | Frankfurt | 8 | Community","name_short":"frk-8","host":"frk-1.de.uncletopia.com","port":27085,"enabled":true,"region":"eu","cc":"de","latitude":50.110924,"longitude":8.682127,"reserved":0,"last_update":"0001-01-01T00:00:00Z","name_a2s":"Uncletopia | Frankfurt | 8 | Community","protocol":17,"map":"workshop/koth_product_final.ugc454272353","folder":"tf","game":"Team Fortress","app_id":440,"player_count":0,"max_players":24,"Bots":0,"server_type":"Dedicated","server_os":"Linux","password":true,"vac":true,"version":"7882260","steam_id":85568392924742828,"keywords":["cp","nocrits","nodmgspread","uncletopia"],"game_id":440,"stv_port":27086,"stv_name":"Uncletopia | Frankfurt | 8 | Community | STV","players":null},{"server_id":202,"name":"Uncletopia | Hong Kong | 1 | All Maps","name_short":"hgk-1","host":"hgk-1.hk.uncletopia.com","port":27015,"enabled":true,"region":"asia","cc":"hk","latitude":22.302711,"longitude":114.177216,"reserved":0,"last_update":"0001-01-01T00:00:00Z","name_a2s":"Uncletopia | Hong Kong | 1 | All Maps","protocol":17,"map":"koth_cascade","folder":"tf","game":"Team Fortress","app_id":440,"player_count":0,"max_players":24,"Bots":0,"server_type":"Dedicated","server_os":"Linux","password":true,"vac":true,"version":"7882260","steam_id":85568392924494504,"keywords":["cp","nocrits","nodmgspread","uncletopia"],"game_id":440,"stv_port":27016,"stv_name":"Uncletopia | Hong Kong | 1 | All Maps | STV","players":null},{"server_id":1,"name":"Uncletopia | Los Angeles | 1 | All Maps","name_short":"lax-1","host":"lax-1.us.uncletopia.com","port":27015,"enabled":true,"region":"us-west","cc":"us","latitude":33.94279,"longitude":-118.41004,"reserved":0,"last_update":"0001-01-01T00:00:00Z","name_a2s":"Uncletopia | Los Angeles | 1 | All Maps","protocol":17,"map":"cp_dustbowl","folder":"tf","game":"Team Fortress","app_id":440,"player_count":23,"max_players":24,"Bots":0,"server_type":"Dedicated","server_os":"Linux","password":true,"vac":true,"version":"7882260","steam_id":85568392924469991,"keywords":["cp","nocrits","nodmgspread","uncletopia"],"game_id":440,"stv_port":27016,"stv_name":"Uncletopia | Los Angeles | 1 | All Maps | STV","players":[{"user_id":501,"name":"goopuffer","steam_id":76561198118644686,"connected_time":7015000000000,"state":"active","ping":53},{"user_id":561,"name":"kebo","steam_id":76561198237159430,"connected_time":2233000000000,"state":"active","ping":54},{"user_id":563,"name":"Sol","steam_id":76561198121500201,"connected_time":2014000000000,"state":"active","ping":48},{"user_id":581,"name":"Nooble","steam_id":76561198114556179,"connected_time":453000000000,"state":"active","ping":55},{"user_id":585,"name":"HideOnTate","steam_id":76561198209880837,"connected_time":444000000000,"state":"active","ping":75},{"user_id":582,"name":"Lambchop","steam_id":76561198043900363,"connected_time":452000000000,"state":"active","ping":72},{"user_id":593,"name":"vioxynteris","steam_id":76561198161428666,"connected_time":141000000000,"state":"active","ping":34},{"user_id":586,"name":"Ghwhaine","steam_id":76561199045414702,"connected_time":434000000000,"state":"active","ping":85},{"user_id":551,"name":"023e20902o0239ee02390o239e","steam_id":76561198175741741,"connected_time":3715000000000,"state":"active","ping":100},{"user_id":588,"name":"Jazpy","steam_id":76561198036872545,"connected_time":398000000000,"state":"active","ping":75},{"user_id":580,"name":"Hound_","steam_id":76561199389781834,"connected_time":474000000000,"state":"active","ping":62},{"user_id":589,"name":"Inkredible","steam_id":76561199113482096,"connected_time":371000000000,"state":"active","ping":63},{"user_id":590,"name":"cyclops","steam_id":76561197970370198,"connected_time":369000000000,"state":"active","ping":102},{"user_id":592,"name":"SolarusD","steam_id":76561198029279861,"connected_time":190000000000,"state":"active","ping":59},{"user_id":578,"name":"Nibotshooter","steam_id":76561199284825579,"connected_time":532000000000,"state":"active","ping":79},{"user_id":576,"name":"FastCatastrophe","steam_id":76561199184205862,"connected_time":865000000000,"state":"active","ping":69},{"user_id":562,"name":"PunyHappyFace","steam_id":76561198118059305,"connected_time":2196000000000,"state":"active","ping":45},{"user_id":548,"name":"Spaceman","steam_id":76561198349305249,"connected_time":3768000000000,"state":"active","ping":83},{"user_id":538,"name":"Just a Good Friend","steam_id":76561198140052403,"connected_time":4277000000000,"state":"active","ping":55},{"user_id":555,"name":"momus","steam_id":76561198966979196,"connected_time":3011000000000,"state":"active","ping":56},{"user_id":532,"name":"BUSY","steam_id":76561198047532250,"connected_time":5277000000000,"state":"active","ping":101},{"user_id":571,"name":"Shamrock Shake Oct.10.2020 @8pm","steam_id":76561198833313201,"connected_time":1061000000000,"state":"active","ping":62},{"user_id":591,"name":"Chuck Mcgill","steam_id":76561198353745820,"connected_time":266000000000,"state":"active","ping":72}]},{"server_id":112,"name":"Uncletopia | Los Angeles | 2 | All Maps","name_short":"lax-2","host":"lax-1.us.uncletopia.com","port":27025,"enabled":true,"region":"us-west","cc":"us","latitude":33.94279,"longitude":-118.41004,"reserved":0,"last_update":"0001-01-01T00:00:00Z","name_a2s":"Uncletopia | Los Angeles | 2 | All Maps","protocol":17,"map":"pl_badwater","folder":"tf","game":"Team Fortress","app_id":440,"player_count":24,"max_players":24,"Bots":0,"server_type":"Dedicated","server_os":"Linux","password":true,"vac":true,"version":"7882260","steam_id":85568392924469992,"keywords":["nocrits","nodmgspread","payload","uncletopia"],"game_id":440,"stv_port":27026,"stv_name":"Uncletopia | Los Angeles | 2 | All Maps | STV","players":[{"user_id":414,"name":"HOG RIDER","steam_id":76561198298589502,"connected_time":700000000000,"state":"active","ping":55},{"user_id":420,"name":"June","steam_id":76561198141803658,"connected_time":195000000000,"state":"active","ping":45},{"user_id":412,"name":"Owl_eyes","steam_id":76561198066199203,"connected_time":1062000000000,"state":"active","ping":60},{"user_id":408,"name":"Mickmissi√≥n","steam_id":76561199133527421,"connected_time":1533000000000,"state":"active","ping":63},{"user_id":403,"name":"Caspian","steam_id":76561199041466962,"connected_time":1712000000000,"state":"active","ping":64},{"user_id":389,"name":"Spring Beans","steam_id":76561197978546259,"connected_time":3225000000000,"state":"active","ping":61},{"user_id":413,"name":"Gundam Guy","steam_id":76561198178453993,"connected_time":841000000000,"state":"active","ping":58},{"user_id":314,"name":"Your Casual Fox","steam_id":76561198079751767,"connected_time":8223000000000,"state":"active","ping":60},{"user_id":418,"name":"cactus eater","steam_id":76561199107499844,"connected_time":300000000000,"state":"active","ping":62},{"user_id":417,"name":"xbox record that","steam_id":76561198150117455,"connected_time":315000000000,"state":"active","ping":77},{"user_id":382,"name":"Goose","steam_id":76561198036774894,"connected_time":3882000000000,"state":"active","ping":100},{"user_id":406,"name":"regular_consuelo","steam_id":76561198327831852,"connected_time":1546000000000,"state":"active","ping":116},{"user_id":409,"name":"MrManlet","steam_id":76561198148597989,"connected_time":1479000000000,"state":"active","ping":90},{"user_id":415,"name":"LatinRhythms -2 ref","steam_id":76561198025110751,"connected_time":350000000000,"state":"active","ping":155},{"user_id":368,"name":"Can You Feel It Mr.Krabs","steam_id":76561198128302414,"connected_time":4420000000000,"state":"active","ping":50},{"user_id":416,"name":"basmati jarate","steam_id":76561198319442494,"connected_time":337000000000,"state":"active","ping":54},{"user_id":293,"name":"Gin","steam_id":76561198410387482,"connected_time":9340000000000,"state":"active","ping":117},{"user_id":393,"name":"dinky little beanie baby","steam_id":76561197999318398,"connected_time":3201000000000,"state":"active","ping":145},{"user_id":397,"name":"Awenova","steam_id":76561198322928940,"connected_time":2462000000000,"state":"active","ping":106},{"user_id":411,"name":"krootonitron","steam_id":76561198114113037,"connected_time":1453000000000,"state":"active","ping":53},{"user_id":374,"name":"Chin, Bruce Lee's Relative","steam_id":76561198240105522,"connected_time":4260000000000,"state":"active","ping":115},{"user_id":402,"name":"HooDoo","steam_id":76561198088994018,"connected_time":2375000000000,"state":"active","ping":85},{"user_id":354,"name":"Dob Bole","steam_id":76561198056367220,"connected_time":5191000000000,"state":"active","ping":44},{"user_id":419,"name":"dAiLyGrInD","steam_id":76561198163531915,"connected_time":288000000000,"state":"active","ping":90}]},{"server_id":324,"name":"Uncletopia | Los Angeles | 3 | All Maps","name_short":"lax-3","host":"lax-1.us.uncletopia.com","port":27035,"enabled":true,"region":"us-west","cc":"us","latitude":33.94279,"longitude":-118.41004,"reserved":0,"last_update":"0001-01-01T00:00:00Z","name_a2s":"Uncletopia | Los Angeles | 3 | All Maps","protocol":17,"map":"pl_badwater","folder":"tf","game":"Team Fortress","app_id":440,"player_count":24,"max_players":24,"Bots":0,"server_type":"Dedicated","server_os":"Linux","password":true,"vac":true,"version":"7882260","steam_id":85568392924510198,"keywords":["nocrits","nodmgspread","payload","uncletopia"],"game_id":440,"stv_port":27036,"stv_name":"Uncletopia | Los Angeles | 3 | All Maps | STV","players":[{"user_id":524,"name":"Don Bluth Green Finger","steam_id":76561199096381009,"connected_time":671000000000,"state":"active","ping":87},{"user_id":513,"name":"Uluyo","steam_id":76561198065857148,"connected_time":1231000000000,"state":"active","ping":78},{"user_id":532,"name":"taking eboy applications *‚ô•\ufffd\ufffd","steam_id":76561198048925904,"connected_time":192000000000,"state":"active","ping":60},{"user_id":531,"name":"Crows","steam_id":76561198450767139,"connected_time":240000000000,"state":"active","ping":181},{"user_id":506,"name":"world's largest frag","steam_id":76561198368251143,"connected_time":1853000000000,"state":"active","ping":45},{"user_id":533,"name":"Stick","steam_id":76561198001509374,"connected_time":153000000000,"state":"active","ping":74},{"user_id":534,"name":"weed","steam_id":76561199128192017,"connected_time":144000000000,"state":"active","ping":90},{"user_id":511,"name":"Taffy","steam_id":76561198276612538,"connected_time":1492000000000,"state":"active","ping":56},{"user_id":535,"name":"Borror","steam_id":76561198217353867,"connected_time":121000000000,"state":"active","ping":90},{"user_id":536,"name":"MonkeyMage101","steam_id":76561198354192200,"connected_time":114000000000,"state":"active","ping":60},{"user_id":512,"name":"hoOmIN","steam_id":76561198334947079,"connected_time":1417000000000,"state":"active","ping":44},{"user_id":537,"name":"big al","steam_id":76561198063539121,"connected_time":108000000000,"state":"active","ping":128},{"user_id":487,"name":"dsmagic","steam_id":76561198038601542,"connected_time":2913000000000,"state":"active","ping":59},{"user_id":529,"name":"cringy","steam_id":76561198323000455,"connected_time":277000000000,"state":"active","ping":66},{"user_id":539,"name":"Codo Sapien","steam_id":76561198014206810,"connected_time":82000000000,"state":"active","ping":87},{"user_id":515,"name":"1v1.LOL grinder","steam_id":76561198236109724,"connected_time":1042000000000,"state":"active","ping":47},{"user_id":521,"name":"Overmeme","steam_id":76561199455124144,"connected_time":768000000000,"state":"active","ping":101},{"user_id":527,"name":"HUGE FUCKING FAT FUCK","steam_id":76561198207881077,"connected_time":331000000000,"state":"active","ping":118},{"user_id":522,"name":"Literal Vampire Potbelly Goblin","steam_id":76561197970527356,"connected_time":761000000000,"state":"active","ping":40},{"user_id":495,"name":"Jolly","steam_id":76561198116357972,"connected_time":2601000000000,"state":"active","ping":47},{"user_id":526,"name":"Tummy Sunday","steam_id":76561198031336957,"connected_time":419000000000,"state":"active","ping":91},{"user_id":474,"name":"Richiebeans","steam_id":76561198026558654,"connected_time":4410000000000,"state":"active","ping":107},{"user_id":541,"name":"Goofy Goober","steam_id":76561198065361279,"connected_time":79000000000,"state":"active","ping":121}]},{"server_id":25,"name":"Uncletopia | Los Angeles | 4 | Stopwatch Beta","name_short":"lax-4","host":"lax-1.us.uncletopia.com","port":27045,"enabled":true,"region":"us-west","cc":"us","latitude":33.94279,"longitude":-118.41004,"reserved":0,"last_update":"0001-01-01T00:00:00Z","name_a2s":"Uncletopia | Los Angeles | 4 | Stopwatch Beta","protocol":17,"map":"workshop/koth_ramjam_rc1.ugc459778887","folder":"tf","game":"Team Fortress","app_id":440,"player_count":0,"max_players":24,"Bots":0,"server_type":"Dedicated","server_os":"Linux","password":true,"vac":true,"version":"7882260","steam_id":85568392924510199,"keywords":["cp","nocrits","nodmgspread","uncletopia"],"game_id":440,"stv_port":27046,"stv_name":"Uncletopia | Los Angeles | 4 | Stopwatch Beta | STV","players":null},{"server_id":11,"name":"Uncletopia | London | 1 | All Maps","name_short":"lon-1","host":"lon-1.uk.uncletopia.com","port":27015,"enabled":true,"region":"eu","cc":"gb","latitude":51.509865,"longitude":-0.118092,"reserved":0,"last_update":"0001-01-01T00:00:00Z","name_a2s":"Uncletopia | London | 1 | All Maps","protocol":17,"map":"cp_process_final","folder":"tf","game":"Team Fortress","app_id":440,"player_count":0,"max_players":24,"Bots":0,"server_type":"Dedicated","server_os":"Linux","password":true,"vac":true,"version":"7882260","steam_id":85568392924367362,"keywords":["cp","nocrits","nodmgspread","uncletopia"],"game_id":440,"stv_port":27016,"stv_name":"Uncletopia | London | 1 | All Maps | STV","players":null},{"server_id":114,"name":"Uncletopia | London | 2 | All Maps","name_short":"lon-2","host":"lon-1.uk.uncletopia.com","port":27025,"enabled":true,"region":"eu","cc":"gb","latitude":51.509865,"longitude":-0.118092,"reserved":0,"last_update":"0001-01-01T00:00:00Z","name_a2s":"Uncletopia | London | 2 | All Maps","protocol":17,"map":"pl_badwater","folder":"tf","game":"Team Fortress","app_id":440,"player_count":0,"max_players":24,"Bots":0,"server_type":"Dedicated","server_os":"Linux","password":true,"vac":true,"version":"7882260","steam_id":85568392924470941,"keywords":["nocrits","nodmgspread","payload","uncletopia"],"game_id":440,"stv_port":27026,"stv_name":"Uncletopia | London | 2 | All Maps | STV","players":null},{"server_id":320,"name":"Uncletopia | London | 3 | All Maps","name_short":"lon-3","host":"lon-1.uk.uncletopia.com","port":27035,"enabled":true,"region":"eu","cc":"gb","latitude":51.509865,"longitude":-0.118092,"reserved":0,"last_update":"0001-01-01T00:00:00Z","name_a2s":"Uncletopia | London | 3 | All Maps","protocol":17,"map":"cp_mountainlab","folder":"tf","game":"Team Fortress","app_id":440,"player_count":0,"max_players":24,"Bots":0,"server_type":"Dedicated","server_os":"Linux","password":true,"vac":true,"version":"7882260","steam_id":85568392924510192,"keywords":["cp","nocrits","nodmgspread","uncletopia"],"game_id":440,"stv_port":27036,"stv_name":"Uncletopia | London | 3 | All Maps | STV","players":null},{"server_id":321,"name":"Uncletopia | London | 4 | All Maps","name_short":"lon-4","host":"lon-1.uk.uncletopia.com","port":27045,"enabled":true,"region":"eu","cc":"gb","latitude":51.509865,"longitude":-0.118092,"reserved":0,"last_update":"0001-01-01T00:00:00Z","name_a2s":"Uncletopia | London | 4 | All Maps","protocol":17,"map":"pl_pier","folder":"tf","game":"Team Fortress","app_id":440,"player_count":12,"max_players":24,"Bots":0,"server_type":"Dedicated","server_os":"Linux","password":true,"vac":true,"version":"7882260","steam_id":85568392924510193,"keywords":["nocrits","nodmgspread","payload","uncletopia"],"game_id":440,"stv_port":27046,"stv_name":"Uncletopia | London | 4 | All Maps | STV","players":[{"user_id":530,"name":"Teaguy","steam_id":76561197990776598,"connected_time":29000000000,"state":"active","ping":135},{"user_id":525,"name":"quantumexistenc3","steam_id":76561199379634118,"connected_time":392000000000,"state":"active","ping":273},{"user_id":522,"name":"demoman boober","steam_id":76561198831191199,"connected_time":636000000000,"state":"active","ping":105},{"user_id":520,"name":"chef","steam_id":76561198168641792,"connected_time":808000000000,"state":"active","ping":40},{"user_id":507,"name":"bday xcd859","steam_id":76561199000490449,"connected_time":2138000000000,"state":"active","ping":95},{"user_id":527,"name":"phantASSm","steam_id":76561199480942903,"connected_time":216000000000,"state":"active","ping":75},{"user_id":531,"name":"Souris Marine","steam_id":76561199143334415,"connected_time":13000000000,"state":"active","ping":53},{"user_id":517,"name":"minn","steam_id":76561198099101232,"connected_time":1247000000000,"state":"active","ping":44},{"user_id":529,"name":"Road to 0 pts","steam_id":76561198399390201,"connected_time":92000000000,"state":"active","ping":104},{"user_id":513,"name":"Zeyo","steam_id":76561198110198881,"connected_time":1633000000000,"state":"active","ping":75},{"user_id":496,"name":"Bubsy 3D","steam_id":76561197988942314,"connected_time":3559000000000,"state":"active","ping":70},{"user_id":516,"name":"dorak","steam_id":76561198818037965,"connected_time":1511000000000,"state":"active","ping":104}]},{"server_id":21,"name":"Uncletopia | London | 5 | All Maps","name_short":"lon-5","host":"lon-1.uk.uncletopia.com","port":27055,"enabled":true,"region":"eu","cc":"gb","latitude":51.509865,"longitude":-0.118092,"reserved":0,"last_update":"0001-01-01T00:00:00Z","name_a2s":"Uncletopia | London | 5 | All Maps","protocol":17,"map":"cp_altitude","folder":"tf","game":"Team Fortress","app_id":440,"player_count":0,"max_players":24,"Bots":0,"server_type":"Dedicated","server_os":"Linux","password":true,"vac":true,"version":"7882260","steam_id":85568392924742829,"keywords":["cp","nocrits","nodmgspread","uncletopia"],"game_id":440,"stv_port":27056,"stv_name":"Uncletopia | London | 5 | All Maps | STV","players":null},{"server_id":22,"name":"Uncletopia | London | 6 | All Maps","name_short":"lon-6","host":"lon-1.uk.uncletopia.com","port":27065,"enabled":true,"region":"eu","cc":"gb","latitude":51.509865,"longitude":-0.118092,"reserved":0,"last_update":"0001-01-01T00:00:00Z","name_a2s":"Uncletopia | London | 6 | All Maps","protocol":17,"map":"cp_process_final","folder":"tf","game":"Team Fortress","app_id":440,"player_count":0,"max_players":24,"Bots":0,"server_type":"Dedicated","server_os":"Linux","password":true,"vac":true,"version":"7882260","steam_id":85568392924742830,"keywords":["cp","nocrits","nodmgspread","uncletopia"],"game_id":440,"stv_port":27066,"stv_name":"Uncletopia | London | 6 | All Maps | STV","players":null},{"server_id":40,"name":"Uncletopia | London | 7 | No Payload","name_short":"lon-7","host":"lon-1.uk.uncletopia.com","port":27075,"enabled":true,"region":"eu","cc":"gb","latitude":51.509865,"longitude":-0.118092,"reserved":0,"last_update":"0001-01-01T00:00:00Z","name_a2s":"Uncletopia | London | 7 | No Payload","protocol":17,"map":"cp_egypt_final","folder":"tf","game":"Team Fortress","app_id":440,"player_count":0,"max_players":24,"Bots":0,"server_type":"Dedicated","server_os":"Linux","password":true,"vac":true,"version":"7882260","steam_id":85568392924964314,"keywords":["cp","nocrits","nodmgspread","uncletopia"],"game_id":440,"stv_port":27076,"stv_name":"Uncletopia | London | 7 | No Payload | STV","players":null},{"server_id":41,"name":"Uncletopia | London | 8 | Community","name_short":"lon-8","host":"lon-1.uk.uncletopia.com","port":27085,"enabled":true,"region":"eu","cc":"gb","latitude":51.509865,"longitude":-0.118092,"reserved":0,"last_update":"0001-01-01T00:00:00Z","name_a2s":"Uncletopia | London | 8 | Community","protocol":17,"map":"workshop/cp_logjam_rc12.ugc454812035","folder":"tf","game":"Team Fortress","app_id":440,"player_count":0,"max_players":24,"Bots":0,"server_type":"Dedicated","server_os":"Linux","password":true,"vac":true,"version":"7882260","steam_id":85568392924964315,"keywords":["cp","nocrits","nodmgspread","uncletopia"],"game_id":440,"stv_port":27086,"stv_name":"Uncletopia | London | 8 | Community | STV","players":null},{"server_id":300,"name":"Uncletopia | Montr√©al | 1 | All Maps","name_short":"mtl-1","host":"mtl-1.ca.uncletopia.com","port":27015,"enabled":true,"region":"us-east","cc":"ca","latitude":45.50889,"longitude":-73.56167,"reserved":0,"last_update":"0001-01-01T00:00:00Z","name_a2s":"Uncletopia | Montr√©al | 1 | All Maps","protocol":17,"map":"cp_sunshine","folder":"tf","game":"Team Fortress","app_id":440,"player_count":4,"max_players":24,"Bots":0,"server_type":"Dedicated","server_os":"Linux","password":true,"vac":true,"version":"7882260","steam_id":85568392924500087,"keywords":["cp","nocrits","nodmgspread","uncletopia"],"game_id":440,"stv_port":27016,"stv_name":"Uncletopia | Montr√©al | 1 | All Maps | STV","players":[{"user_id":306,"name":"Sgt. Satire","steam_id":76561198104193483,"connected_time":522000000000,"state":"active","ping":130},{"user_id":307,"name":"Demoslow","steam_id":76561198805592656,"connected_time":481000000000,"state":"active","ping":130},{"user_id":310,"name":"St. Michael","steam_id":76561198037611052,"connected_time":240000000000,"state":"active","ping":71},{"user_id":309,"name":"epicgameslauncherplaer878","steam_id":76561198360279519,"connected_time":322000000000,"state":"active","ping":134}]},{"server_id":301,"name":"Uncletopia | Montr√©al | 2 | All Maps","name_short":"mtl-2","host":"mtl-1.ca.uncletopia.com","port":27025,"enabled":true,"region":"us-east","cc":"ca","latitude":45.50889,"longitude":-73.56167,"reserved":0,"last_update":"0001-01-01T00:00:00Z","name_a2s":"Uncletopia | Montr√©al | 2 | All Maps","protocol":17,"map":"pl_badwater","folder":"tf","game":"Team Fortress","app_id":440,"player_count":21,"max_players":24,"Bots":0,"server_type":"Dedicated","server_os":"Linux","password":true,"vac":true,"version":"7882260","steam_id":85568392924500088,"keywords":["nocrits","nodmgspread","payload","uncletopia"],"game_id":440,"stv_port":27026,"stv_name":"Uncletopia | Montr√©al | 2 | All Maps | STV","players":[{"user_id":331,"name":"El Fantasma","steam_id":76561198041387671,"connected_time":3669000000000,"state":"spawning","ping":388},{"user_id":376,"name":"DO NOT call me BART SIMPSON!!","steam_id":76561198069113375,"connected_time":6000000000,"state":"spawning","ping":160},{"user_id":377,"name":"iceetee","steam_id":76561198156275931,"connected_time":1000000000,"state":"spawning","ping":18},{"user_id":344,"name":"X_Sniper7","steam_id":76561198081097640,"connected_time":2693000000000,"state":"spawning","ping":103},{"user_id":360,"name":"Kevin Hart","steam_id":76561198831531876,"connected_time":1492000000000,"state":"spawning","ping":178},{"user_id":367,"name":"the spy from team fortress 2","steam_id":76561198047797306,"connected_time":1090000000000,"state":"spawning","ping":146},{"user_id":351,"name":"got me drip drip","steam_id":76561198000564263,"connected_time":1726000000000,"state":"spawning","ping":204},{"user_id":352,"name":"java","steam_id":76561198030276792,"connected_time":1723000000000,"state":"spawning","ping":158},{"user_id":363,"name":"Reed.Dook","steam_id":76561198046625664,"connected_time":1250000000000,"state":"spawning","ping":115},{"user_id":353,"name":"lanoc","steam_id":76561198055415367,"connected_time":1722000000000,"state":"spawning","ping":170},{"user_id":354,"name":"Tingle","steam_id":76561198022870921,"connected_time":1721000000000,"state":"spawning","ping":112},{"user_id":334,"name":"atomicnerf","steam_id":76561198083677583,"connected_time":3299000000000,"state":"spawning","ping":235},{"user_id":364,"name":"Tuchpi","steam_id":76561197967581205,"connected_time":1222000000000,"state":"spawning","ping":89},{"user_id":375,"name":"DieTryHard","steam_id":76561198096583654,"connected_time":226000000000,"state":"spawning","ping":128},{"user_id":355,"name":"cheetoz","steam_id":76561198010019214,"connected_time":1720000000000,"state":"spawning","ping":116},{"user_id":365,"name":"Flustered Custard","steam_id":76561198389707202,"connected_time":1179000000000,"state":"spawning","ping":133},{"user_id":371,"name":"Kasodani Kyouko","steam_id":76561198023178589,"connected_time":670000000000,"state":"spawning","ping":97},{"user_id":327,"name":"qwerg","steam_id":76561198107191794,"connected_time":3971000000000,"state":"spawning","ping":194},{"user_id":346,"name":"Jasper Zawn","steam_id":76561198077651204,"connected_time":2556000000000,"state":"spawning","ping":92},{"user_id":370,"name":"SHADY SWEATER SALESMAN","steam_id":76561198014616865,"connected_time":731000000000,"state":"spawning","ping":135},{"user_id":373,"name":"Flak Maniak","steam_id":76561198005653808,"connected_time":465000000000,"state":"spawning","ping":100}]},{"server_id":302,"name":"Uncletopia | Montr√©al | 3 | All Maps","name_short":"mtl-3","host":"mtl-1.ca.uncletopia.com","port":27035,"enabled":true,"region":"us-east","cc":"ca","latitude":45.50889,"longitude":-73.56167,"reserved":0,"last_update":"0001-01-01T00:00:00Z","name_a2s":"Uncletopia | Montr√©al | 3 | All Maps","protocol":17,"map":"koth_highpass","folder":"tf","game":"Team Fortress","app_id":440,"player_count":0,"max_players":24,"Bots":0,"server_type":"Dedicated","server_os":"Linux","password":true,"vac":true,"version":"7882260","steam_id":85568392924500089,"keywords":["cp","nocrits","nodmgspread","uncletopia"],"game_id":440,"stv_port":27036,"stv_name":"Uncletopia | Montr√©al | 3 | All Maps | STV","players":null},{"server_id":303,"name":"Uncletopia | Montr√©al | 4 | No Payload","name_short":"mtl-4","host":"mtl-1.ca.uncletopia.com","port":27045,"enabled":true,"region":"us-east","cc":"ca","latitude":45.50889,"longitude":-73.56167,"reserved":0,"last_update":"0001-01-01T00:00:00Z","name_a2s":"Uncletopia | Montr√©al | 4 | No Payload","protocol":17,"map":"koth_highpass","folder":"tf","game":"Team Fortress","app_id":440,"player_count":0,"max_players":24,"Bots":0,"server_type":"Dedicated","server_os":"Linux","password":true,"vac":true,"version":"7882260","steam_id":85568392924500090,"keywords":["cp","nocrits","nodmgspread","uncletopia"],"game_id":440,"stv_port":27046,"stv_name":"Uncletopia | Montr√©al | 4 | No Payload | STV","players":null},{"server_id":13,"name":"Uncletopia | New York City | 1 | All Maps","name_short":"nyc-1","host":"nyc-1.us.uncletopia.com","port":27015,"enabled":true,"region":"us-east","cc":"us","latitude":40.73061,"longitude":-73.93524,"reserved":0,"last_update":"0001-01-01T00:00:00Z","name_a2s":"Uncletopia | New York City | 1 | All Maps","protocol":17,"map":"pl_pier","folder":"tf","game":"Team Fortress","app_id":440,"player_count":24,"max_players":24,"Bots":0,"server_type":"Dedicated","server_os":"Linux","password":true,"vac":true,"version":"7882260","steam_id":85568392924469993,"keywords":["nocrits","nodmgspread","payload","uncletopia"],"game_id":440,"stv_port":27016,"stv_name":"Uncletopia | New York City | 1 | All Maps | STV","players":[{"user_id":685,"name":"Ramalho","steam_id":76561198909009076,"connected_time":92000000000,"state":"active","ping":160},{"user_id":632,"name":"King Smegma","steam_id":76561198139389573,"connected_time":4316000000000,"state":"active","ping":61},{"user_id":671,"name":"Iron","steam_id":76561198247918478,"connected_time":2567000000000,"state":"active","ping":73},{"user_id":664,"name":"docsechs","steam_id":76561198029417627,"connected_time":2927000000000,"state":"active","ping":57},{"user_id":613,"name":"john zap","steam_id":76561199029030831,"connected_time":5780000000000,"state":"active","ping":70},{"user_id":611,"name":"cereal with water","steam_id":76561198091332884,"connected_time":5895000000000,"state":"active","ping":53},{"user_id":666,"name":"Wique","steam_id":76561198071217597,"connected_time":2824000000000,"state":"active","ping":72},{"user_id":614,"name":"ramen with milk","steam_id":76561198119096403,"connected_time":5768000000000,"state":"active","ping":53},{"user_id":609,"name":"Kixill","steam_id":76561198125346006,"connected_time":6304000000000,"state":"active","ping":55},{"user_id":625,"name":"i did it","steam_id":76561198277163301,"connected_time":5059000000000,"state":"active","ping":76},{"user_id":676,"name":"ZakiLee","steam_id":76561198161351170,"connected_time":917000000000,"state":"active","ping":59},{"user_id":679,"name":"daemon","steam_id":76561198001541433,"connected_time":858000000000,"state":"active","ping":62},{"user_id":683,"name":"trepidotractatos","steam_id":76561198815950232,"connected_time":266000000000,"state":"active","ping":69},{"user_id":667,"name":"Wallet","steam_id":76561198081067377,"connected_time":2821000000000,"state":"active","ping":45},{"user_id":684,"name":"Tree52","steam_id":76561198046763622,"connected_time":213000000000,"state":"active","ping":86},{"user_id":619,"name":"Gamerdude313","steam_id":76561198869211435,"connected_time":5635000000000,"state":"active","ping":68},{"user_id":674,"name":"Gocel","steam_id":76561198071467515,"connected_time":2265000000000,"state":"active","ping":49},{"user_id":636,"name":"Uzi bin Laden","steam_id":76561198218811453,"connected_time":4284000000000,"state":"active","ping":68},{"user_id":672,"name":"Bear bird","steam_id":76561198166769479,"connected_time":2442000000000,"state":"active","ping":65},{"user_id":673,"name":"Irregulars","steam_id":76561198048498230,"connected_time":2342000000000,"state":"active","ping":34},{"user_id":665,"name":"faxxy","steam_id":76561198079621240,"connected_time":2837000000000,"state":"active","ping":77},{"user_id":626,"name":"C papi","steam_id":76561198027779564,"connected_time":5055000000000,"state":"active","ping":61},{"user_id":677,"name":"Ghost Modern Warfare 2 (2022)","steam_id":76561198116295334,"connected_time":909000000000,"state":"active","ping":55},{"user_id":662,"name":"not shouleil","steam_id":76561198970370243,"connected_time":2976000000000,"state":"active","ping":42}]},{"server_id":14,"name":"Uncletopia | New York City | 2 | All Maps","name_short":"nyc-2","host":"nyc-1.us.uncletopia.com","port":27025,"enabled":true,"region":"us-east","cc":"us","latitude":40.73061,"longitude":-73.93524,"reserved":0,"last_update":"0001-01-01T00:00:00Z","name_a2s":"Uncletopia | New York City | 2 | All Maps","protocol":17,"map":"koth_lakeside_final","folder":"tf","game":"Team Fortress","app_id":440,"player_count":25,"max_players":24,"Bots":0,"server_type":"Dedicated","server_os":"Linux","password":true,"vac":true,"version":"7882260","steam_id":85568392924469994,"keywords":["cp","nocrits","nodmgspread","uncletopia"],"game_id":440,"stv_port":27026,"stv_name":"Uncletopia | New York City | 2 | All Maps | STV","players":[{"user_id":796,"name":"M‚àûnMan","steam_id":76561198045287074,"connected_time":122000000000,"state":"active","ping":56},{"user_id":785,"name":"Razz","steam_id":76561198158027533,"connected_time":414000000000,"state":"active","ping":74},{"user_id":738,"name":"HundchenTanque","steam_id":76561198122692754,"connected_time":4282000000000,"state":"active","ping":44},{"user_id":786,"name":"Rex","steam_id":76561198138365053,"connected_time":412000000000,"state":"active","ping":125},{"user_id":718,"name":"Horrizan","steam_id":76561197965028480,"connected_time":6255000000000,"state":"active","ping":85},{"user_id":787,"name":"Voyager","steam_id":76561199128786637,"connected_time":411000000000,"state":"active","ping":94},{"user_id":791,"name":"peppercorn bill","steam_id":76561198870780777,"connected_time":341000000000,"state":"active","ping":60},{"user_id":757,"name":"MantisToboggan","steam_id":76561197969447887,"connected_time":2642000000000,"state":"active","ping":165},{"user_id":788,"name":"Cervid√©","steam_id":76561198098579497,"connected_time":411000000000,"state":"active","ping":61},{"user_id":781,"name":"craven","steam_id":76561198088191503,"connected_time":1187000000000,"state":"active","ping":67},{"user_id":778,"name":"Yucat√°n Peninsula","steam_id":76561198025759222,"connected_time":1381000000000,"state":"active","ping":60},{"user_id":797,"name":"gingergerman","steam_id":76561198160254549,"connected_time":48000000000,"state":"active","ping":59},{"user_id":743,"name":"gertchy","steam_id":76561199111932529,"connected_time":4199000000000,"state":"active","ping":43},{"user_id":789,"name":"FoodzAreGoodz","steam_id":76561198309262052,"connected_time":406000000000,"state":"active","ping":112},{"user_id":670,"name":"The Owenator","steam_id":76561198124311404,"connected_time":8956000000000,"state":"active","ping":75},{"user_id":783,"name":"Alcohol Hominid","steam_id":76561198320313950,"connected_time":824000000000,"state":"active","ping":99},{"user_id":798,"name":"Dovid65","steam_id":76561199277530814,"connected_time":9000000000,"state":"spawning","ping":131},{"user_id":774,"name":"Wilhelmktx","steam_id":76561198158102295,"connected_time":1611000000000,"state":"active","ping":79},{"user_id":761,"name":"Fishandfish","steam_id":76561198298483804,"connected_time":2617000000000,"state":"active","ping":118},{"user_id":776,"name":"Slazzer","steam_id":76561198404351844,"connected_time":1544000000000,"state":"active","ping":62},{"user_id":795,"name":"ÔΩ°‚óï‚Äø‚óïÔΩ°","steam_id":76561198294013916,"connected_time":262000000000,"state":"active","ping":45},{"user_id":784,"name":"Œ© Silver136 Œ©","steam_id":76561198018657413,"connected_time":418000000000,"state":"active","ping":61},{"user_id":775,"name":"SunbroStang","steam_id":76561197992074636,"connected_time":1562000000000,"state":"active","ping":80},{"user_id":793,"name":"achoo","steam_id":76561198009091066,"connected_time":318000000000,"state":"active","ping":109},{"user_id":799,"name":"|AG| Level","steam_id":76561198063633592,"connected_time":8000000000,"state":"spawning","ping":208}]},{"server_id":15,"name":"Uncletopia | New York City | 3 | Stopwatch Beta","name_short":"nyc-3","host":"nyc-1.us.uncletopia.com","port":27035,"enabled":true,"region":"us-east","cc":"us","latitude":40.73061,"longitude":-73.93524,"reserved":0,"last_update":"0001-01-01T00:00:00Z","name_a2s":"Uncletopia | New York City | 3 | Stopwatch Beta","protocol":17,"map":"workshop/koth_ashville_final.ugc2130459942","folder":"tf","game":"Team Fortress","app_id":440,"player_count":24,"max_players":24,"Bots":0,"server_type":"Dedicated","server_os":"Linux","password":true,"vac":true,"version":"7882260","steam_id":85568392924742820,"keywords":["cp","nocrits","nodmgspread","uncletopia"],"game_id":440,"stv_port":27036,"stv_name":"Uncletopia | New York City | 3 | Stopwatch Beta | STV","players":[{"user_id":131,"name":"Â¶ÇÈ°ò","steam_id":76561198038486613,"connected_time":2495000000000,"state":"active","ping":46},{"user_id":125,"name":"Harold","steam_id":76561198057317770,"connected_time":2727000000000,"state":"active","ping":105},{"user_id":132,"name":"Coolman3214","steam_id":76561198443366140,"connected_time":2476000000000,"state":"active","ping":60},{"user_id":144,"name":"tide*ÔΩ•Ôæü‚úß","steam_id":76561198092224185,"connected_time":1758000000000,"state":"active","ping":44},{"user_id":145,"name":"Captain Caber","steam_id":76561199157498505,"connected_time":1748000000000,"state":"active","ping":123},{"user_id":111,"name":"Socioeconomic Factors","steam_id":76561197965022076,"connected_time":3449000000000,"state":"active","ping":48},{"user_id":97,"name":"H00DEDRIOT","steam_id":76561198351880498,"connected_time":3889000000000,"state":"active","ping":90},{"user_id":137,"name":"zesdeath1","steam_id":76561198818660736,"connected_time":2152000000000,"state":"active","ping":89},{"user_id":157,"name":"Dance4gravy","steam_id":76561198007325113,"connected_time":174000000000,"state":"active","ping":58},{"user_id":138,"name":"Laughol4","steam_id":76561198104295652,"connected_time":2052000000000,"state":"active","ping":41},{"user_id":126,"name":"DAS SCHNITZELSTIEN","steam_id":76561198051137159,"connected_time":2723000000000,"state":"active","ping":117},{"user_id":148,"name":"Charles \"It's My Turn\" Mingus","steam_id":76561198189429665,"connected_time":1244000000000,"state":"active","ping":76},{"user_id":139,"name":"Mizore Shirayuki","steam_id":76561198317389146,"connected_time":2045000000000,"state":"active","ping":54},{"user_id":155,"name":"Hydroxianchaos","steam_id":76561198043786828,"connected_time":399000000000,"state":"active","ping":61},{"user_id":86,"name":"Chao Ming \"Charles Mingus\" Êòé","steam_id":76561198111975583,"connected_time":4367000000000,"state":"active","ping":90},{"user_id":108,"name":"Sprucelass","steam_id":76561197998391724,"connected_time":3586000000000,"state":"active","ping":66},{"user_id":140,"name":"Alcapwned","steam_id":76561198232958968,"connected_time":1942000000000,"state":"active","ping":57},{"user_id":141,"name":"Nukeboy","steam_id":76561198291998703,"connected_time":1830000000000,"state":"active","ping":104},{"user_id":103,"name":"M√£…æ û√≥≈¶ƒß","steam_id":76561198819418878,"connected_time":3751000000000,"state":"active","ping":71},{"user_id":95,"name":"A Puppy","steam_id":76561198828184456,"connected_time":3922000000000,"state":"active","ping":45},{"user_id":151,"name":"Aristotle Voulton","steam_id":76561198100174923,"connected_time":915000000000,"state":"active","ping":141},{"user_id":142,"name":"shrub","steam_id":76561198108020681,"connected_time":1801000000000,"state":"active","ping":60},{"user_id":156,"name":"‚òπ","steam_id":76561198804763186,"connected_time":199000000000,"state":"active","ping":49},{"user_id":153,"name":"sweatman","steam_id":76561199223050380,"connected_time":822000000000,"state":"active","ping":121}]},{"server_id":16,"name":"Uncletopia | New York City | 4 | Community","name_short":"nyc-4","host":"nyc-1.us.uncletopia.com","port":27045,"enabled":true,"region":"us-east","cc":"us","latitude":40.73061,"longitude":-73.93524,"reserved":0,"last_update":"0001-01-01T00:00:00Z","name_a2s":"Uncletopia | New York City | 4 | Community","protocol":17,"map":"workshop/cp_sulfur_rc2.ugc619869471","folder":"tf","game":"Team Fortress","app_id":440,"player_count":0,"max_players":24,"Bots":0,"server_type":"Dedicated","server_os":"Linux","password":true,"vac":true,"version":"7882260","steam_id":85568392924742821,"keywords":["cp","nocrits","nodmgspread","uncletopia"],"game_id":440,"stv_port":27046,"stv_name":"Uncletopia | New York City | 4 | Community | STV","players":null},{"server_id":142,"name":"Uncletopia | S√£o Paulo | 1 | All Maps","name_short":"sao-1","host":"sao-1.br.uncletopia.com","port":27015,"enabled":true,"region":"sa","cc":"br","latitude":-23.533773,"longitude":-46.62529,"reserved":0,"last_update":"0001-01-01T00:00:00Z","name_a2s":"Uncletopia | S√£o Paulo | 1 | All Maps","protocol":17,"map":"pl_pier","folder":"tf","game":"Team Fortress","app_id":440,"player_count":0,"max_players":24,"Bots":0,"server_type":"Dedicated","server_os":"Linux","password":true,"vac":true,"version":"7882260","steam_id":85568392924469996,"keywords":["nocrits","nodmgspread","payload","uncletopia"],"game_id":440,"stv_port":27016,"stv_name":"Uncletopia | S√£o Paulo | 1 | All Maps | STV","players":null},{"server_id":143,"name":"Uncletopia | S√£o Paulo | 2 | All Maps","name_short":"sao-2","host":"sao-2.br.uncletopia.com","port":27015,"enabled":true,"region":"sa","cc":"br","latitude":-23.533773,"longitude":-46.62529,"reserved":0,"last_update":"0001-01-01T00:00:00Z","name_a2s":"Uncletopia | S√£o Paulo | 2 | All Maps","protocol":17,"map":"koth_viaduct","folder":"tf","game":"Team Fortress","app_id":440,"player_count":0,"max_players":24,"Bots":0,"server_type":"Dedicated","server_os":"Linux","password":true,"vac":true,"version":"7882260","steam_id":85568392924485349,"keywords":["cp","nocrits","nodmgspread","uncletopia"],"game_id":440,"stv_port":27016,"stv_name":"Uncletopia | S√£o Paulo | 2 | All Maps | STV","players":null},{"server_id":7,"name":"Uncletopia | Seattle | 1 | All Maps","name_short":"sea-1","host":"sea-1.us.uncletopia.com","port":27015,"enabled":true,"region":"us-west","cc":"us","latitude":47.608013,"longitude":-122.33517,"reserved":0,"last_update":"0001-01-01T00:00:00Z","name_a2s":"Uncletopia | Seattle | 1 | All Maps","protocol":17,"map":"pl_badwater","folder":"tf","game":"Team Fortress","app_id":440,"player_count":24,"max_players":24,"Bots":0,"server_type":"Dedicated","server_os":"Linux","password":true,"vac":true,"version":"7882260","steam_id":85568392924469997,"keywords":["nocrits","nodmgspread","payload","uncletopia"],"game_id":440,"stv_port":27016,"stv_name":"Uncletopia | Seattle | 1 | All Maps | STV","players":[{"user_id":588,"name":"Arsonist Goose","steam_id":76561198147441830,"connected_time":8043000000000,"state":"active","ping":67},{"user_id":675,"name":"The Unfriendly Friendly","steam_id":76561199216559937,"connected_time":41000000000,"state":"active","ping":34},{"user_id":586,"name":"Peppy","steam_id":76561198866629645,"connected_time":8051000000000,"state":"active","ping":88},{"user_id":657,"name":"sleepy","steam_id":76561198288663776,"connected_time":2262000000000,"state":"active","ping":48},{"user_id":668,"name":"goldhed","steam_id":76561198051751133,"connected_time":750000000000,"state":"active","ping":56},{"user_id":651,"name":"NEBULA","steam_id":76561198086878595,"connected_time":2837000000000,"state":"active","ping":71},{"user_id":662,"name":"Agent86","steam_id":76561198046794593,"connected_time":1736000000000,"state":"active","ping":120},{"user_id":649,"name":"bbbbb","steam_id":76561198095480838,"connected_time":2945000000000,"state":"active","ping":36},{"user_id":635,"name":"blozet","steam_id":76561199120161035,"connected_time":4257000000000,"state":"active","ping":86},{"user_id":665,"name":"Jacob Hornberger 2016","steam_id":76561198204549723,"connected_time":762000000000,"state":"active","ping":121},{"user_id":552,"name":"Ayayayayayahuasca","steam_id":76561199002906056,"connected_time":12377000000000,"state":"active","ping":49},{"user_id":663,"name":"korkskrou","steam_id":76561198422156430,"connected_time":1727000000000,"state":"active","ping":53},{"user_id":575,"name":"Luca","steam_id":76561198125087140,"connected_time":10408000000000,"state":"active","ping":45},{"user_id":669,"name":"ismellgood","steam_id":76561199005142939,"connected_time":597000000000,"state":"active","ping":70},{"user_id":671,"name":"mike, freshly circed","steam_id":76561198225411004,"connected_time":207000000000,"state":"active","ping":61},{"user_id":652,"name":"Freya","steam_id":76561198068912131,"connected_time":2832000000000,"state":"active","ping":131},{"user_id":650,"name":"Fh","steam_id":76561198000903511,"connected_time":2871000000000,"state":"active","ping":72},{"user_id":670,"name":"RURU","steam_id":76561198039758987,"connected_time":335000000000,"state":"active","ping":60},{"user_id":674,"name":"Summer's Snowman","steam_id":76561198057140854,"connected_time":134000000000,"state":"active","ping":81},{"user_id":655,"name":"Mignyanne :3","steam_id":76561198048754056,"connected_time":2302000000000,"state":"active","ping":68},{"user_id":623,"name":"999","steam_id":76561198117342640,"connected_time":5746000000000,"state":"active","ping":93},{"user_id":633,"name":"Snippykeegan","steam_id":76561198274529343,"connected_time":4339000000000,"state":"active","ping":66},{"user_id":591,"name":"ultra ego 3 vegeta kaioken 500","steam_id":76561198271939793,"connected_time":7646000000000,"state":"active","ping":63},{"user_id":637,"name":"William P. Ennis","steam_id":76561198073464877,"connected_time":4257000000000,"state":"active","ping":90}]},{"server_id":119,"name":"Uncletopia | Seattle | 2 | All Maps","name_short":"sea-2","host":"sea-1.us.uncletopia.com","port":27025,"enabled":true,"region":"us-west","cc":"us","latitude":47.608013,"longitude":-122.33517,"reserved":0,"last_update":"0001-01-01T00:00:00Z","name_a2s":"Uncletopia | Seattle | 2 | All Maps","protocol":17,"map":"pl_upward","folder":"tf","game":"Team Fortress","app_id":440,"player_count":24,"max_players":24,"Bots":0,"server_type":"Dedicated","server_os":"Linux","password":true,"vac":true,"version":"7882260","steam_id":85568392924469998,"keywords":["nocrits","nodmgspread","payload","uncletopia"],"game_id":440,"stv_port":27026,"stv_name":"Uncletopia | Seattle | 2 | All Maps | STV","players":[{"user_id":607,"name":"Alice in Rubberland","steam_id":76561198087328346,"connected_time":1437000000000,"state":"active","ping":90},{"user_id":588,"name":"Spooby","steam_id":76561198168114366,"connected_time":3446000000000,"state":"active","ping":120},{"user_id":560,"name":"Fire_box41238","steam_id":76561199185673650,"connected_time":5371000000000,"state":"active","ping":55},{"user_id":617,"name":"R5-D4","steam_id":76561198025196439,"connected_time":152000000000,"state":"active","ping":56},{"user_id":598,"name":"Thezest","steam_id":76561198043895839,"connected_time":1870000000000,"state":"active","ping":37},{"user_id":601,"name":"moth","steam_id":76561199214894158,"connected_time":1664000000000,"state":"active","ping":101},{"user_id":579,"name":"MCman","steam_id":76561198412110305,"connected_time":3966000000000,"state":"active","ping":75},{"user_id":545,"name":"Cheese Fiend","steam_id":76561198053602591,"connected_time":6746000000000,"state":"active","ping":98},{"user_id":584,"name":"A Nyquil Chicken","steam_id":76561198344471115,"connected_time":3531000000000,"state":"active","ping":71},{"user_id":602,"name":"frank","steam_id":76561198186815298,"connected_time":1636000000000,"state":"active","ping":133},{"user_id":594,"name":"PvZ Enthusiast","steam_id":76561199089562026,"connected_time":2644000000000,"state":"active","ping":46},{"user_id":603,"name":"Finkly","steam_id":76561198049828110,"connected_time":1625000000000,"state":"active","ping":46},{"user_id":616,"name":"RysN Yeen ‚ô•","steam_id":76561198105359319,"connected_time":403000000000,"state":"active","ping":75},{"user_id":572,"name":"tconnors1976","steam_id":76561198840033336,"connected_time":4279000000000,"state":"active","ping":58},{"user_id":613,"name":"Tom","steam_id":76561198070630154,"connected_time":1049000000000,"state":"active","ping":78},{"user_id":614,"name":"Lonestar827","steam_id":76561198035533639,"connected_time":958000000000,"state":"active","ping":47},{"user_id":565,"name":"SanitysEdge","steam_id":76561198130732813,"connected_time":5300000000000,"state":"active","ping":77},{"user_id":556,"name":"Sussyrats420","steam_id":76561199363493860,"connected_time":6197000000000,"state":"active","ping":58},{"user_id":595,"name":"wlfgng","steam_id":76561198316639499,"connected_time":2541000000000,"state":"active","ping":59},{"user_id":559,"name":"TheInventor","steam_id":76561198898516778,"connected_time":5565000000000,"state":"active","ping":69},{"user_id":612,"name":"Cooki","steam_id":76561198051705314,"connected_time":1078000000000,"state":"active","ping":116},{"user_id":582,"name":"Pop","steam_id":76561199012562851,"connected_time":3651000000000,"state":"active","ping":139},{"user_id":583,"name":"A UsedNom","steam_id":76561198402832756,"connected_time":3576000000000,"state":"active","ping":52},{"user_id":575,"name":"phfez","steam_id":76561198046150386,"connected_time":4243000000000,"state":"active","ping":128}]},{"server_id":406,"name":"Uncletopia | Seattle | 3 | Stopwatch Beta","name_short":"sea-3","host":"sea-1.us.uncletopia.com","port":27035,"enabled":true,"region":"us-west","cc":"us","latitude":47.608013,"longitude":-122.33517,"reserved":0,"last_update":"0001-01-01T00:00:00Z","name_a2s":"Uncletopia | Seattle | 3 | Stopwatch Beta","protocol":17,"map":"workshop/cp_process_f12.ugc2302948105","folder":"tf","game":"Team Fortress","app_id":440,"player_count":24,"max_players":24,"Bots":0,"server_type":"Dedicated","server_os":"Linux","password":true,"vac":true,"version":"7882260","steam_id":85568392924515217,"keywords":["cp","nocrits","nodmgspread","uncletopia"],"game_id":440,"stv_port":27036,"stv_name":"Uncletopia | Seattle | 3 | Stopwatch Beta | STV","players":[{"user_id":339,"name":"BasedGod","steam_id":76561198061177973,"connected_time":867000000000,"state":"active","ping":61},{"user_id":287,"name":"dog","steam_id":76561198263873491,"connected_time":3253000000000,"state":"active","ping":90},{"user_id":342,"name":"JackTasty","steam_id":76561198140962011,"connected_time":784000000000,"state":"active","ping":81},{"user_id":345,"name":"Lore","steam_id":76561198098407538,"connected_time":693000000000,"state":"active","ping":100},{"user_id":333,"name":"Egg","steam_id":76561198070408464,"connected_time":1186000000000,"state":"active","ping":55},{"user_id":344,"name":"BoredBunny","steam_id":76561198243610560,"connected_time":736000000000,"state":"active","ping":70},{"user_id":343,"name":"BopGnollEbon","steam_id":76561199013359318,"connected_time":760000000000,"state":"active","ping":121},{"user_id":329,"name":"Killer Fish From San Diego","steam_id":76561199037594575,"connected_time":1480000000000,"state":"active","ping":66},{"user_id":335,"name":"catrinaisahuman","steam_id":76561198281355729,"connected_time":1078000000000,"state":"active","ping":73},{"user_id":313,"name":"JohnnyGitGud","steam_id":76561198401455467,"connected_time":1998000000000,"state":"active","ping":84},{"user_id":307,"name":"PrismoThunder","steam_id":76561198991921441,"connected_time":2189000000000,"state":"active","ping":74},{"user_id":331,"name":"chilis baby back ribs","steam_id":76561198813516435,"connected_time":1366000000000,"state":"active","ping":74},{"user_id":332,"name":"OminousNoises","steam_id":76561198263320321,"connected_time":1305000000000,"state":"active","ping":149},{"user_id":207,"name":"\u003c- FULL OF EVIL","steam_id":76561198798667624,"connected_time":7582000000000,"state":"active","ping":40},{"user_id":281,"name":"connie kins","steam_id":76561198074701151,"connected_time":3615000000000,"state":"active","ping":77},{"user_id":303,"name":"RileyNiko","steam_id":76561198162093639,"connected_time":2308000000000,"state":"active","ping":159},{"user_id":334,"name":"Dice_Dwarf","steam_id":76561199020454907,"connected_time":1157000000000,"state":"active","ping":82},{"user_id":352,"name":"justapikmin","steam_id":76561199023650282,"connected_time":71000000000,"state":"active","ping":102},{"user_id":309,"name":"The Assistant Regional Manager","steam_id":76561199221484936,"connected_time":2140000000000,"state":"active","ping":83},{"user_id":258,"name":"Grungus","steam_id":76561198047700230,"connected_time":4786000000000,"state":"active","ping":73},{"user_id":351,"name":"Enderkill777","steam_id":76561198876915153,"connected_time":111000000000,"state":"active","ping":81},{"user_id":312,"name":"Dodobirdthe3rd","steam_id":76561199119848224,"connected_time":2014000000000,"state":"active","ping":87},{"user_id":290,"name":"blythe","steam_id":76561198254999149,"connected_time":3194000000000,"state":"active","ping":122},{"user_id":291,"name":"O","steam_id":76561198450073779,"connected_time":3170000000000,"state":"active","ping":47}]},{"server_id":17,"name":"Uncletopia | San Francisco | 1 | All Maps","name_short":"sfo-1","host":"sfo-1.us.uncletopia.com","port":27015,"enabled":true,"region":"us-west","cc":"us","latitude":37.77397,"longitude":-122.4313,"reserved":0,"last_update":"0001-01-01T00:00:00Z","name_a2s":"Uncletopia | San Francisco | 1 | All Maps","protocol":17,"map":"cp_process_final","folder":"tf","game":"Team Fortress","app_id":440,"player_count":0,"max_players":24,"Bots":0,"server_type":"Dedicated","server_os":"Linux","password":true,"vac":true,"version":"7757534","steam_id":85568392924469999,"keywords":["cp","nocrits","nodmgspread","uncletopia"],"game_id":440,"stv_port":27016,"stv_name":"Uncletopia | San Francisco | 1 | All Maps | STV","players":null},{"server_id":18,"name":"Uncletopia | San Francisco | 2 | All Maps","name_short":"sfo-2","host":"sfo-1.us.uncletopia.com","port":27025,"enabled":true,"region":"us-west","cc":"us","latitude":37.77397,"longitude":-122.4313,"reserved":0,"last_update":"0001-01-01T00:00:00Z","name_a2s":"Uncletopia | San Francisco | 2 | All Maps","protocol":17,"map":"koth_highpass","folder":"tf","game":"Team Fortress","app_id":440,"player_count":0,"max_players":24,"Bots":0,"server_type":"Dedicated","server_os":"Linux","password":true,"vac":true,"version":"7757534","steam_id":85568392924470000,"keywords":["cp","nocrits","nodmgspread","uncletopia"],"game_id":440,"stv_port":27026,"stv_name":"Uncletopia | San Francisco | 2 | All Maps | STV","players":null},{"server_id":19,"name":"Uncletopia | San Francisco | 3 | Stopwatch Beta","name_short":"sfo-3","host":"sfo-1.us.uncletopia.com","port":27035,"enabled":true,"region":"us-west","cc":"us","latitude":37.77397,"longitude":-122.4313,"reserved":0,"last_update":"0001-01-01T00:00:00Z","name_a2s":"Uncletopia | San Francisco | 3 | Stopwatch Beta","protocol":17,"map":"koth_lakeside_final","folder":"tf","game":"Team Fortress","app_id":440,"player_count":0,"max_players":24,"Bots":0,"server_type":"Dedicated","server_os":"Linux","password":true,"vac":true,"version":"7757534","steam_id":85568392924742824,"keywords":["cp","nocrits","nodmgspread","uncletopia"],"game_id":440,"stv_port":27036,"stv_name":"Uncletopia | San Francisco | 3 | Stopwatch Beta | STV","players":null},{"server_id":20,"name":"Uncletopia | San Francisco | 4 | Community","name_short":"sfo-4","host":"sfo-1.us.uncletopia.com","port":27045,"enabled":true,"region":"us-west","cc":"us","latitude":37.77397,"longitude":-122.4313,"reserved":0,"last_update":"0001-01-01T00:00:00Z","name_a2s":"Uncletopia | San Francisco | 4 | Community","protocol":17,"map":"cp_altitude","folder":"tf","game":"Team Fortress","app_id":440,"player_count":0,"max_players":24,"Bots":0,"server_type":"Dedicated","server_os":"Linux","password":true,"vac":true,"version":"7757534","steam_id":85568392924742826,"keywords":["cp","nocrits","nodmgspread","uncletopia"],"game_id":440,"stv_port":27046,"stv_name":"Uncletopia | San Francisco | 4 | Community | STV","players":null},{"server_id":141,"name":"Uncletopia | Sydney | 1 | All Maps","name_short":"syd-1","host":"syd-1.au.uncletopia.com","port":27015,"enabled":true,"region":"au","cc":"au","latitude":-33.865143,"longitude":151.2099,"reserved":0,"last_update":"0001-01-01T00:00:00Z","name_a2s":"Uncletopia | Sydney | 1 | All Maps","protocol":17,"map":"pl_pier","folder":"tf","game":"Team Fortress","app_id":440,"player_count":24,"max_players":24,"Bots":0,"server_type":"Dedicated","server_os":"Linux","password":true,"vac":true,"version":"7882260","steam_id":85568392924470001,"keywords":["nocrits","nodmgspread","payload","uncletopia"],"game_id":440,"stv_port":27016,"stv_name":"Uncletopia | Sydney | 1 | All Maps | STV","players":[{"user_id":4,"name":"beamerfork","steam_id":76561199013115354,"connected_time":15654000000000,"state":"active","ping":84},{"user_id":174,"name":"lardboy","steam_id":76561198150102918,"connected_time":2226000000000,"state":"active","ping":95},{"user_id":187,"name":"Mooty","steam_id":76561198301293435,"connected_time":1666000000000,"state":"active","ping":48},{"user_id":198,"name":"chewy marmot","steam_id":76561198005340350,"connected_time":1011000000000,"state":"active","ping":79},{"user_id":195,"name":"Owlenstein‚Ñ¢","steam_id":76561198093983826,"connected_time":1305000000000,"state":"active","ping":121},{"user_id":194,"name":"ToadFungus","steam_id":76561199219667039,"connected_time":1468000000000,"state":"active","ping":102},{"user_id":190,"name":"OofImDuck","steam_id":76561198806600517,"connected_time":1592000000000,"state":"active","ping":69},{"user_id":200,"name":"SkoKiE","steam_id":76561198283542986,"connected_time":209000000000,"state":"active","ping":67},{"user_id":13,"name":"mc.sleek","steam_id":76561198057602720,"connected_time":14584000000000,"state":"active","ping":73},{"user_id":192,"name":"YeahJJ","steam_id":76561198838332365,"connected_time":1554000000000,"state":"active","ping":69},{"user_id":166,"name":"FragmantizedLemon","steam_id":76561198313580674,"connected_time":2724000000000,"state":"active","ping":131},{"user_id":117,"name":"sweeps","steam_id":76561199162600919,"connected_time":6426000000000,"state":"active","ping":69},{"user_id":202,"name":"Alphandiscobean","steam_id":76561198025845937,"connected_time":162000000000,"state":"active","ping":61},{"user_id":191,"name":"Gordon","steam_id":76561198162182206,"connected_time":1567000000000,"state":"active","ping":70},{"user_id":199,"name":"Cyborgcupine","steam_id":76561198257389366,"connected_time":1005000000000,"state":"active","ping":94},{"user_id":151,"name":"Creamy Gusset","steam_id":76561198001544539,"connected_time":3529000000000,"state":"active","ping":55},{"user_id":197,"name":"JP","steam_id":76561198026221737,"connected_time":1271000000000,"state":"active","ping":53},{"user_id":173,"name":"Sentry Gun (EpicGuy4227)","steam_id":76561198094132328,"connected_time":2271000000000,"state":"active","ping":53},{"user_id":201,"name":"Cafe","steam_id":76561198061587693,"connected_time":203000000000,"state":"active","ping":101},{"user_id":203,"name":"BruceWillis235","steam_id":76561198884324029,"connected_time":112000000000,"state":"active","ping":72},{"user_id":189,"name":"uuv","steam_id":76561198080981482,"connected_time":1652000000000,"state":"active","ping":38},{"user_id":157,"name":"ILoveMyBees","steam_id":76561199074505018,"connected_time":3329000000000,"state":"active","ping":72},{"user_id":158,"name":"OverTasked „ÉÉ","steam_id":76561198829465540,"connected_time":3303000000000,"state":"active","ping":68},{"user_id":161,"name":"CodeShadow","steam_id":76561198208958145,"connected_time":3204000000000,"state":"active","ping":79}]},{"server_id":123,"name":"Uncletopia | Sydney | 2 | All Maps","name_short":"syd-2","host":"syd-1.au.uncletopia.com","port":27025,"enabled":true,"region":"au","cc":"au","latitude":-33.865143,"longitude":151.2099,"reserved":0,"last_update":"0001-01-01T00:00:00Z","name_a2s":"Uncletopia | Sydney | 2 | All Maps","protocol":17,"map":"pl_barnblitz","folder":"tf","game":"Team Fortress","app_id":440,"player_count":4,"max_players":24,"Bots":0,"server_type":"Dedicated","server_os":"Linux","password":true,"vac":true,"version":"7882260","steam_id":85568392924470002,"keywords":["nocrits","nodmgspread","payload","uncletopia"],"game_id":440,"stv_port":27026,"stv_name":"Uncletopia | Sydney | 2 | All Maps | STV","players":[{"user_id":9,"name":"Empol√©","steam_id":76561198363939040,"connected_time":311000000000,"state":"active","ping":1096},{"user_id":10,"name":"Funnerz","steam_id":76561198046173663,"connected_time":204000000000,"state":"active","ping":59},{"user_id":11,"name":"Sover blw.tf","steam_id":76561198136347837,"connected_time":202000000000,"state":"active","ping":129},{"user_id":13,"name":"little raw meat boy","steam_id":76561199248254676,"connected_time":91000000000,"state":"active","ping":51}]},{"server_id":395,"name":"Uncletopia | Sydney | 3 | All Maps","name_short":"syd-3","host":"syd-1.au.uncletopia.com","port":27035,"enabled":true,"region":"au","cc":"au","latitude":-33.865143,"longitude":151.2099,"reserved":0,"last_update":"0001-01-01T00:00:00Z","name_a2s":"Uncletopia | Sydney | 3 | All Maps","protocol":17,"map":"koth_viaduct","folder":"tf","game":"Team Fortress","app_id":440,"player_count":0,"max_players":24,"Bots":0,"server_type":"Dedicated","server_os":"Linux","password":true,"vac":true,"version":"7882260","steam_id":85568392925194467,"keywords":["cp","nocrits","nodmgspread","uncletopia"],"game_id":440,"stv_port":27036,"stv_name":"Uncletopia | Sydney | 3 | All Maps | STV","players":null},{"server_id":396,"name":"Uncletopia | Sydney | 4 | All Maps","name_short":"syd-4","host":"syd-1.au.uncletopia.com","port":27045,"enabled":true,"region":"au","cc":"au","latitude":-33.865143,"longitude":151.2099,"reserved":0,"last_update":"0001-01-01T00:00:00Z","name_a2s":"Uncletopia | Sydney | 4 | All Maps","protocol":17,"map":"cp_dustbowl","folder":"tf","game":"Team Fortress","app_id":440,"player_count":0,"max_players":24,"Bots":0,"server_type":"Dedicated","server_os":"Linux","password":true,"vac":true,"version":"7882260","steam_id":85568392925397958,"keywords":["cp","nocrits","nodmgspread","uncletopia"],"game_id":440,"stv_port":27046,"stv_name":"Uncletopia | Sydney | 4 | All Maps | STV","players":null},{"server_id":58,"name":"Uncletopia | Sydney | 5 | Stopwatch Beta","name_short":"syd-5","host":"syd-1.au.uncletopia.com","port":27055,"enabled":true,"region":"au","cc":"au","latitude":-33.865143,"longitude":151.2099,"reserved":0,"last_update":"0001-01-01T00:00:00Z","name_a2s":"Uncletopia | Sydney | 5 | Stopwatch Beta","protocol":17,"map":"workshop/pl_vigil_rc9.ugc1266210012","folder":"tf","game":"Team Fortress","app_id":440,"player_count":0,"max_players":24,"Bots":0,"server_type":"Dedicated","server_os":"Linux","password":true,"vac":true,"version":"7882260","steam_id":85568392925397959,"keywords":["nocrits","nodmgspread","payload","uncletopia"],"game_id":440,"stv_port":27056,"stv_name":"Uncletopia | Sydney | 5 | Stopwatch Beta | STV","players":null},{"server_id":59,"name":"Uncletopia | Sydney | 6 | Community","name_short":"syd-6","host":"syd-1.au.uncletopia.com","port":27065,"enabled":true,"region":"au","cc":"au","latitude":-33.865143,"longitude":151.2099,"reserved":0,"last_update":"0001-01-01T00:00:00Z","name_a2s":"Uncletopia | Sydney | 6 | Community","protocol":17,"map":"workshop/pl_divulgence_b4b.ugc2884808746","folder":"tf","game":"Team Fortress","app_id":440,"player_count":0,"max_players":24,"Bots":0,"server_type":"Dedicated","server_os":"Linux","password":true,"vac":true,"version":"7882260","steam_id":85568392925397960,"keywords":["nocrits","nodmgspread","payload","uncletopia"],"game_id":440,"stv_port":27066,"stv_name":"Uncletopia | Sydney | 6 | Community | STV","players":null},{"server_id":49,"name":"Uncletopia | Warsaw | 1 | All Maps","name_short":"waw-1","host":"waw-1.pl.uncletopia.com","port":27015,"enabled":true,"region":"eu","cc":"pl","latitude":52.2297,"longitude":21.017532,"reserved":0,"last_update":"0001-01-01T00:00:00Z","name_a2s":"","protocol":0,"map":"","folder":"","game":"","app_id":0,"player_count":0,"max_players":0,"Bots":0,"server_type":"","server_os":"","password":false,"vac":false,"version":"","steam_id":0,"keywords":null,"game_id":0,"stv_port":0,"stv_name":"","players":null},{"server_id":50,"name":"Uncletopia | Warsaw | 2 | All Maps","name_short":"waw-2","host":"waw-1.pl.uncletopia.com","port":27025,"enabled":true,"region":"eu","cc":"pl","latitude":52.2297,"longitude":21.017532,"reserved":0,"last_update":"0001-01-01T00:00:00Z","name_a2s":"Uncletopia | Warsaw | 2 | All Maps","protocol":17,"map":"cp_dustbowl","folder":"tf","game":"Team Fortress","app_id":440,"player_count":0,"max_players":24,"Bots":0,"server_type":"Dedicated","server_os":"Linux","password":true,"vac":true,"version":"7882260","steam_id":85568392925397851,"keywords":["cp","nocrits","nodmgspread","uncletopia"],"game_id":440,"stv_port":27026,"stv_name":"Uncletopia | Warsaw | 2 | All Maps | STV","players":null},{"server_id":51,"name":"Uncletopia | Warsaw | 3 | All Maps","name_short":"waw-3","host":"waw-1.pl.uncletopia.com","port":27035,"enabled":true,"region":"eu","cc":"pl","latitude":52.2297,"longitude":21.017532,"reserved":0,"last_update":"0001-01-01T00:00:00Z","name_a2s":"Uncletopia | Warsaw | 3 | All Maps","protocol":17,"map":"pl_badwater","folder":"tf","game":"Team Fortress","app_id":440,"player_count":0,"max_players":24,"Bots":0,"server_type":"Dedicated","server_os":"Linux","password":true,"vac":true,"version":"7882260","steam_id":85568392925397852,"keywords":["nocrits","nodmgspread","payload","uncletopia"],"game_id":440,"stv_port":27036,"stv_name":"Uncletopia | Warsaw | 3 | All Maps | STV","players":null},{"server_id":52,"name":"Uncletopia | Warsaw | 4 | All Maps","name_short":"waw-4","host":"waw-1.pl.uncletopia.com","port":27045,"enabled":true,"region":"eu","cc":"pl","latitude":52.2297,"longitude":21.017532,"reserved":0,"last_update":"0001-01-01T00:00:00Z","name_a2s":"Uncletopia | Warsaw | 4 | All Maps","protocol":17,"map":"koth_cascade","folder":"tf","game":"Team Fortress","app_id":440,"player_count":0,"max_players":24,"Bots":0,"server_type":"Dedicated","server_os":"Linux","password":true,"vac":true,"version":"7882260","steam_id":85568392925397853,"keywords":["cp","nocrits","nodmgspread","uncletopia"],"game_id":440,"stv_port":27046,"stv_name":"Uncletopia | Warsaw | 4 | All Maps | STV","players":null},{"server_id":53,"name":"Uncletopia | Warsaw | 5 | Stopwatch Beta","name_short":"waw-5","host":"waw-1.pl.uncletopia.com","port":27055,"enabled":true,"region":"eu","cc":"pl","latitude":52.2297,"longitude":21.017532,"reserved":0,"last_update":"0001-01-01T00:00:00Z","name_a2s":"Uncletopia | Warsaw | 5 | Stopwatch Beta","protocol":17,"map":"pl_swiftwater_final1","folder":"tf","game":"Team Fortress","app_id":440,"player_count":0,"max_players":24,"Bots":0,"server_type":"Dedicated","server_os":"Linux","password":true,"vac":true,"version":"7882260","steam_id":85568392925397854,"keywords":["nocrits","nodmgspread","payload","uncletopia"],"game_id":440,"stv_port":27056,"stv_name":"Uncletopia | Warsaw | 5 | Stopwatch Beta | STV","players":null},{"server_id":54,"name":"Uncletopia | Warsaw | 6 | Community","name_short":"waw-6","host":"waw-1.pl.uncletopia.com","port":27065,"enabled":true,"region":"eu","cc":"pl","latitude":52.2297,"longitude":21.017532,"reserved":0,"last_update":"0001-01-01T00:00:00Z","name_a2s":"Uncletopia | Warsaw | 6 | Community","protocol":17,"map":"koth_viaduct","folder":"tf","game":"Team Fortress","app_id":440,"player_count":0,"max_players":24,"Bots":0,"server_type":"Dedicated","server_os":"Linux","password":true,"vac":true,"version":"7882260","steam_id":85568392925397856,"keywords":["cp","nocrits","nodmgspread","uncletopia"],"game_id":440,"stv_port":27066,"stv_name":"Uncletopia | Warsaw | 6 | Community | STV","players":null}]}