{"status":true,"message":"","result":[{"server_id":9,"name":"Uncletopia | Atlanta | 1 | All Maps","name_short":"atl-1","host":"atl-1.us.uncletopia.com","port":27015,"enabled":true,"region":"us-east","cc":"us","latitude":33.753746,"longitude":-84.38633,"reserved":0,"last_update":"0001-01-01T00:00:00Z","name_a2s":"Uncletopia | Atlanta | 1 | All Maps","protocol":17,"map":"pl_borneo","folder":"tf","game":"Team Fortress","app_id":440,"player_count":9,"max_players":24,"Bots":0,"server_type":"Dedicated","server_os":"Linux","password":true,"vac":true,"version":"7882260","steam_id":85568392924469982,"keywords":["nocrits","nodmgspread","payload","uncletopia"],"game_id":440,"stv_port":27016,"stv_name":"Uncletopia | Atlanta | 1 | All Maps | STV","players":[{"user_id":851,"name":"Garbage Gun Spy","steam_id":76561198180742229,"connected_time":2523000000000,"state":"active","ping":105},{"user_id":862,"name":"Dr.Gooserjuicer","steam_id":76561198426214993,"connected_time":1317000000000,"state":"active","ping":99},{"user_id":863,"name":"Nooby","steam_id":76561198052579172,"connected_time":1299000000000,"state":"active","ping":70},{"user_id":854,"name":"N4MAL","steam_id":76561198106029070,"connected_time":2246000000000,"state":"active","ping":120},{"user_id":861,"name":"HeatedArtist","steam_id":76561198961937603,"connected_time":1541000000000,"state":"active","ping":109},{"user_id":866,"name":"Stuid","steam_id":76561199427506542,"connected_time":679000000000,"state":"active","ping":175},{"user_id":857,"name":"dragoon","steam_id":76561198993439070,"connected_time":1880000000000,"state":"active","ping":76},{"user_id":858,"name":"ouch my funny bone","steam_id":76561198066566813,"connected_time":1822000000000,"state":"active","ping":144},{"user_id":867,"name":"IceBeatle","steam_id":76561198833132781,"connected_time":95000000000,"state":"active","ping":59}]},{"server_id":104,"name":"Uncletopia | Atlanta | 2 | All Maps","name_short":"atl-2","host":"atl-1.us.uncletopia.com","port":27025,"enabled":true,"region":"us-east","cc":"us","latitude":33.753746,"longitude":-84.38633,"reserved":0,"last_update":"0001-01-01T00:00:00Z","name_a2s":"Uncletopia | Atlanta | 2 | All Maps","protocol":17,"map":"pl_borneo","folder":"tf","game":"Team Fortress","app_id":440,"player_count":24,"max_players":24,"Bots":0,"server_type":"Dedicated","server_os":"Linux","password":true,"vac":true,"version":"7882260","steam_id":85568392924469983,"keywords":["nocrits","nodmgspread","payload","uncletopia"],"game_id":440,"stv_port":27026,"stv_name":"Uncletopia | Atlanta | 2 | All Maps | STV","players":[{"user_id":736,"name":"Notsocreative","steam_id":76561198236372202,"connected_time":781000000000,"state":"active","ping":74},{"user_id":744,"name":"dinky little beanie baby","steam_id":76561197999318398,"connected_time":340000000000,"state":"active","ping":94},{"user_id":737,"name":"tobrehto","steam_id":76561198097544038,"connected_time":779000000000,"state":"active","ping":114},{"user_id":727,"name":"Matthew","steam_id":76561199084649882,"connected_time":2207000000000,"state":"active","ping":92},{"user_id":714,"name":"jackpots","steam_id":76561198103515747,"connected_time":2671000000000,"state":"active","ping":103},{"user_id":687,"name":"TÖZI","steam_id":76561198045268695,"connected_time":4079000000000,"state":"active","ping":79},{"user_id":697,"name":"Aristotle Voulton","steam_id":76561198100174923,"connected_time":3453000000000,"state":"active","ping":109},{"user_id":747,"name":".-.. --- ...- . / -.-- --- ..-","steam_id":76561198002483206,"connected_time":113000000000,"state":"active","ping":46},{"user_id":738,"name":"charm quark","steam_id":76561198098770777,"connected_time":712000000000,"state":"active","ping":112},{"user_id":739,"name":"Satori Komeiji","steam_id":76561198158211423,"connected_time":645000000000,"state":"active","ping":99},{"user_id":733,"name":"BigDeac","steam_id":76561198091237274,"connected_time":995000000000,"state":"active","ping":85},{"user_id":645,"name":"G6 habib","steam_id":76561198053621664,"connected_time":6488000000000,"state":"active","ping":66},{"user_id":740,"name":"JZ","steam_id":76561198377029198,"connected_time":634000000000,"state":"active","ping":58},{"user_id":728,"name":"TDR","steam_id":76561198093243434,"connected_time":2192000000000,"state":"active","ping":81},{"user_id":745,"name":"Handsome Jerma985","steam_id":76561198257241799,"connected_time":284000000000,"state":"active","ping":66},{"user_id":725,"name":"tosm-AA-","steam_id":76561198130032444,"connected_time":2487000000000,"state":"active","ping":104},{"user_id":741,"name":"Mops","steam_id":76561198058213741,"connected_time":523000000000,"state":"active","ping":69},{"user_id":702,"name":"Neophyte","steam_id":76561198027183394,"connected_time":3111000000000,"state":"active","ping":103},{"user_id":742,"name":"Marc G","steam_id":76561198062650363,"connected_time":456000000000,"state":"active","ping":71},{"user_id":646,"name":"his sniper","steam_id":76561198083756054,"connected_time":6152000000000,"state":"active","ping":63},{"user_id":743,"name":"|AG| Level","steam_id":76561198063633592,"connected_time":449000000000,"state":"active","ping":76},{"user_id":723,"name":"Monochrome | Cashmoney","steam_id":76561198377320040,"connected_time":2548000000000,"state":"active","ping":63},{"user_id":724,"name":"Mobius","steam_id":76561199121973450,"connected_time":2492000000000,"state":"active","ping":64},{"user_id":681,"name":"her heavy","steam_id":76561198046926728,"connected_time":4809000000000,"state":"active","ping":105}]},{"server_id":400,"name":"Uncletopia | Atlanta | 3 | Community","name_short":"atl-3","host":"atl-1.us.uncletopia.com","port":27035,"enabled":true,"region":"us-east","cc":"us","latitude":33.753746,"longitude":-84.38633,"reserved":0,"last_update":"0001-01-01T00:00:00Z","name_a2s":"Uncletopia | Atlanta | 3 | Community","protocol":17,"map":"workshop/pl_barnblitz_pro7.ugc582280235","folder":"tf","game":"Team Fortress","app_id":440,"player_count":0,"max_players":24,"Bots":0,"server_type":"Dedicated","server_os":"Linux","password":true,"vac":true,"version":"7882260","steam_id":85568392924515187,"keywords":["nocrits","nodmgspread","payload","uncletopia"],"game_id":440,"stv_port":27036,"stv_name":"Uncletopia | Atlanta | 3 | Community | STV","players":null},{"server_id":401,"name":"Uncletopia | Atlanta | 4 | No Payload","name_short":"atl-4","host":"atl-1.us.uncletopia.com","port":27045,"enabled":true,"region":"us-east","cc":"us","latitude":33.753746,"longitude":-84.38633,"reserved":0,"last_update":"0001-01-01T00:00:00Z","name_a2s":"","protocol":0,"map":"","folder":"","game":"","app_id":0,"player_count":0,"max_players":0,"Bots":0,"server_type":"","server_os":"","password":false,"vac":false,"version":"","steam_id":0,"keywords":null,"game_id":0,"stv_port":0,"stv_name":"","players":null},{"server_id":2,"name":"Uncletopia | Chicago | 1 | All Maps","name_short":"chi-1","host":"chi-1.us.uncletopia.com","port":27015,"enabled":true,"region":"us-central","cc":"us","latitude":41.881832,"longitude":-87.62318,"reserved":0,"last_update":"0001-01-01T00:00:00Z","name_a2s":"Uncletopia | Chicago | 1 | All Maps","protocol":17,"map":"cp_snakewater_final1","folder":"tf","game":"Team Fortress","app_id":440,"player_count":21,"max_players":24,"Bots":0,"server_type":"Dedicated","server_os":"Linux","password":true,"vac":true,"version":"7882260","steam_id":85568392924469984,"keywords":["cp","nocrits","nodmgspread","uncletopia"],"game_id":440,"stv_port":27016,"stv_name":"Uncletopia | Chicago | 1 | All Maps | STV","players":[{"user_id":640,"name":"breakfast","steam_id":76561198043712978,"connected_time":2690000000000,"state":"active","ping":92},{"user_id":677,"name":"LVL","steam_id":76561198334403617,"connected_time":467000000000,"state":"active","ping":52},{"user_id":671,"name":"azure","steam_id":76561198067497459,"connected_time":1168000000000,"state":"active","ping":60},{"user_id":636,"name":"Tyco","steam_id":76561197978414167,"connected_time":3101000000000,"state":"active","ping":71},{"user_id":647,"name":"0","steam_id":76561198046055673,"connected_time":2362000000000,"state":"active","ping":71},{"user_id":672,"name":"stapmoshun","steam_id":76561198065706866,"connected_time":1158000000000,"state":"active","ping":64},{"user_id":654,"name":"Etna","steam_id":76561198055810858,"connected_time":2325000000000,"state":"active","ping":103},{"user_id":679,"name":"CALL ME BEASTY CUS I BEAT OBESI","steam_id":76561198144766439,"connected_time":120000000000,"state":"active","ping":73},{"user_id":683,"name":"CashBin","steam_id":76561199382865598,"connected_time":0,"state":"spawning","ping":36},{"user_id":667,"name":"SaucySandwichKid","steam_id":76561199372590934,"connected_time":1425000000000,"state":"active","ping":76},{"user_id":635,"name":"AppleTruffle","steam_id":76561198031299571,"connected_time":3117000000000,"state":"active","ping":60},{"user_id":680,"name":"Gigabars","steam_id":76561198119267479,"connected_time":74000000000,"state":"active","ping":68},{"user_id":678,"name":"mAGMA","steam_id":76561198167279375,"connected_time":126000000000,"state":"active","ping":90},{"user_id":653,"name":"4evr","steam_id":76561198064565304,"connected_time":2338000000000,"state":"active","ping":53},{"user_id":669,"name":"Frozone","steam_id":76561198259380127,"connected_time":1235000000000,"state":"active","ping":86},{"user_id":666,"name":"Spider Snake","steam_id":76561198049422729,"connected_time":1679000000000,"state":"active","ping":114},{"user_id":676,"name":"badboy6996","steam_id":76561197969386201,"connected_time":482000000000,"state":"active","ping":60},{"user_id":668,"name":"ContinuedBear","steam_id":76561198265176919,"connected_time":1420000000000,"state":"active","ping":97},{"user_id":682,"name":"Ⓑ⓪⓪ⓣⓨⓒⓐⓚⓔⓢ","steam_id":76561198088776421,"connected_time":30000000000,"state":"active","ping":61},{"user_id":664,"name":"Orca?","steam_id":76561198164341099,"connected_time":1872000000000,"state":"active","ping":73},{"user_id":665,"name":"GRIM GAMING","steam_id":76561198107491637,"connected_time":1838000000000,"state":"active","ping":51}]},{"server_id":106,"name":"Uncletopia | Chicago | 2 | All Maps","name_short":"chi-2","host":"chi-1.us.uncletopia.com","port":27025,"enabled":true,"region":"us-central","cc":"us","latitude":41.881832,"longitude":-87.62318,"reserved":0,"last_update":"0001-01-01T00:00:00Z","name_a2s":"Uncletopia | Chicago | 2 | All Maps","protocol":17,"map":"pl_borneo","folder":"tf","game":"Team Fortress","app_id":440,"player_count":21,"max_players":24,"Bots":0,"server_type":"Dedicated","server_os":"Linux","password":true,"vac":true,"version":"7882260","steam_id":85568392924469985,"keywords":["nocrits","nodmgspread","payload","uncletopia"],"game_id":440,"stv_port":27026,"stv_name":"Uncletopia | Chicago | 2 | All Maps | STV","players":[{"user_id":899,"name":"Yosh","steam_id":76561198027078899,"connected_time":721000000000,"state":"active","ping":81},{"user_id":885,"name":"Yume","steam_id":76561198018060136,"connected_time":2327000000000,"state":"active","ping":81},{"user_id":897,"name":"Galaxy","steam_id":76561198158149348,"connected_time":985000000000,"state":"active","ping":84},{"user_id":889,"name":"Nicko","steam_id":76561198328490503,"connected_time":1992000000000,"state":"active","ping":157},{"user_id":854,"name":"Dask","steam_id":76561198043385839,"connected_time":3677000000000,"state":"active","ping":50},{"user_id":855,"name":"Melancholia","steam_id":76561198197066783,"connected_time":3649000000000,"state":"active","ping":77},{"user_id":900,"name":"*♥‧₊˚ Matches *♥‧₊","steam_id":76561198048925904,"connected_time":465000000000,"state":"active","ping":110},{"user_id":901,"name":"el hopaness romtic","steam_id":76561198123287268,"connected_time":455000000000,"state":"active","ping":48},{"user_id":876,"name":"kiseek","steam_id":76561198075474088,"connected_time":2794000000000,"state":"active","ping":76},{"user_id":908,"name":"Stressmelo","steam_id":76561199204445185,"connected_time":31000000000,"state":"active","ping":74},{"user_id":860,"name":"comet","steam_id":76561198149217841,"connected_time":3517000000000,"state":"active","ping":100},{"user_id":903,"name":"PageBoiSkull","steam_id":76561198237353578,"connected_time":401000000000,"state":"active","ping":112},{"user_id":904,"name":"CamSoup","steam_id":76561198202483168,"connected_time":394000000000,"state":"active","ping":68},{"user_id":861,"name":"ipodnova-Aura","steam_id":76561198272353485,"connected_time":3507000000000,"state":"active","ping":63},{"user_id":891,"name":"Seduce!_!Me_!213","steam_id":76561198857556368,"connected_time":1854000000000,"state":"active","ping":85},{"user_id":892,"name":"ProbiusSC","steam_id":76561198379167322,"connected_time":1840000000000,"state":"active","ping":74},{"user_id":909,"name":"Iron","steam_id":76561198247918478,"connected_time":1000000000,"state":"spawning","ping":40},{"user_id":894,"name":"metal pipe","steam_id":76561198849461209,"connected_time":1304000000000,"state":"active","ping":60},{"user_id":815,"name":"Nekro Kitty","steam_id":76561198025054596,"connected_time":6256000000000,"state":"active","ping":83},{"user_id":868,"name":"Gary Gilbert","steam_id":76561198143988056,"connected_time":3187000000000,"state":"active","ping":93},{"user_id":898,"name":"hamletespacial","steam_id":76561199084414649,"connected_time":822000000000,"state":"active","ping":48}]},{"server_id":402,"name":"Uncletopia | Chicago | 3 | All Maps","name_short":"chi-3","host":"chi-1.us.uncletopia.com","port":27035,"enabled":true,"region":"us-central","cc":"us","latitude":41.881832,"longitude":-87.62318,"reserved":0,"last_update":"0001-01-01T00:00:00Z","name_a2s":"Uncletopia | Chicago | 3 | All Maps","protocol":17,"map":"pl_badwater","folder":"tf","game":"Team Fortress","app_id":440,"player_count":24,"max_players":24,"Bots":0,"server_type":"Dedicated","server_os":"Linux","password":true,"vac":true,"version":"7882260","steam_id":85568392924515191,"keywords":["nocrits","nodmgspread","payload","uncletopia"],"game_id":440,"stv_port":27036,"stv_name":"Uncletopia | Chicago | 3 | All Maps | STV","players":[{"user_id":774,"name":"Money Collector","steam_id":76561198046249467,"connected_time":222000000000,"state":"active","ping":64},{"user_id":739,"name":"eish","steam_id":76561198089463603,"connected_time":2819000000000,"state":"active","ping":130},{"user_id":749,"name":"Maxxycat","steam_id":76561198194062681,"connected_time":2409000000000,"state":"active","ping":52},{"user_id":719,"name":"Hermoine Gainger","steam_id":76561198077260471,"connected_time":4335000000000,"state":"active","ping":90},{"user_id":740,"name":"morphine","steam_id":76561198072124799,"connected_time":2805000000000,"state":"active","ping":77},{"user_id":771,"name":"bullet","steam_id":76561199482235026,"connected_time":642000000000,"state":"active","ping":68},{"user_id":689,"name":"postgres","steam_id":76561198011204750,"connected_time":5652000000000,"state":"active","ping":107},{"user_id":765,"name":"{FITH}™ Halcyon","steam_id":76561198049132808,"connected_time":1391000000000,"state":"active","ping":78},{"user_id":775,"name":"ARGON Soulidity","steam_id":76561198429603550,"connected_time":111000000000,"state":"active","ping":66},{"user_id":728,"name":"Paul","steam_id":76561198156358796,"connected_time":3668000000000,"state":"active","ping":52},{"user_id":750,"name":"goose","steam_id":76561198367551668,"connected_time":2405000000000,"state":"active","ping":53},{"user_id":756,"name":"YelloGoat","steam_id":76561198367174421,"connected_time":1957000000000,"state":"active","ping":49},{"user_id":742,"name":"Toonice","steam_id":76561198402994885,"connected_time":2799000000000,"state":"active","ping":83},{"user_id":776,"name":"THEDINKY","steam_id":76561198190077399,"connected_time":103000000000,"state":"active","ping":62},{"user_id":761,"name":"TheRealMud","steam_id":76561198138312993,"connected_time":1655000000000,"state":"active","ping":74},{"user_id":743,"name":"Sophie","steam_id":76561198170408057,"connected_time":2798000000000,"state":"active","ping":68},{"user_id":744,"name":"nomad","steam_id":76561197998740399,"connected_time":2788000000000,"state":"active","ping":64},{"user_id":759,"name":"Antony Bologne","steam_id":76561198249274908,"connected_time":1789000000000,"state":"active","ping":120},{"user_id":736,"name":"kjr :d","steam_id":76561198206903132,"connected_time":2880000000000,"state":"active","ping":98},{"user_id":762,"name":"worldtriggerfan.2011","steam_id":76561198118776341,"connected_time":1647000000000,"state":"active","ping":60},{"user_id":777,"name":"wrecked 2004 buick lesabre","steam_id":76561198185980055,"connected_time":60000000000,"state":"active","ping":62},{"user_id":752,"name":"HanakoToast","steam_id":76561198045233131,"connected_time":2343000000000,"state":"active","ping":120},{"user_id":778,"name":"Chillin Turt","steam_id":76561198025796849,"connected_time":51000000000,"state":"active","ping":71},{"user_id":772,"name":"M249 | Spectre","steam_id":76561198118334485,"connected_time":594000000000,"state":"active","ping":73}]},{"server_id":403,"name":"Uncletopia | Chicago | 4 | All Maps","name_short":"chi-4","host":"chi-1.us.uncletopia.com","port":27045,"enabled":true,"region":"us-central","cc":"us","latitude":41.881832,"longitude":-87.62318,"reserved":0,"last_update":"0001-01-01T00:00:00Z","name_a2s":"Uncletopia | Chicago | 4 | All Maps","protocol":17,"map":"pl_swiftwater_final1","folder":"tf","game":"Team Fortress","app_id":440,"player_count":17,"max_players":24,"Bots":0,"server_type":"Dedicated","server_os":"Linux","password":true,"vac":true,"version":"7882260","steam_id":85568392924515193,"keywords":["nocrits","nodmgspread","payload","uncletopia"],"game_id":440,"stv_port":27046,"stv_name":"Uncletopia | Chicago | 4 | All Maps | STV","players":[{"user_id":463,"name":"oog","steam_id":76561198272986152,"connected_time":24000000000,"state":"spawning","ping":63},{"user_id":434,"name":"Nilantive","steam_id":76561198177565082,"connected_time":3075000000000,"state":"spawning","ping":64},{"user_id":409,"name":"Wizard Raccoon","steam_id":76561198072562591,"connected_time":6642000000000,"state":"active","ping":71},{"user_id":326,"name":"Makina","steam_id":76561198057475567,"connected_time":12758000000000,"state":"active","ping":67},{"user_id":459,"name":"Koffy","steam_id":76561198184386039,"connected_time":339000000000,"state":"spawning","ping":112},{"user_id":462,"name":"panziemniak466","steam_id":76561199140876865,"connected_time":91000000000,"state":"active","ping":224},{"user_id":448,"name":"Urkel The Circle","steam_id":76561198397009880,"connected_time":1379000000000,"state":"active","ping":92},{"user_id":433,"name":"RiceRiceDesu","steam_id":76561198018568723,"connected_time":3086000000000,"state":"active","ping":54},{"user_id":436,"name":"Feel the bern","steam_id":76561198078824519,"connected_time":2961000000000,"state":"active","ping":100},{"user_id":320,"name":"Pizza","steam_id":76561198118748364,"connected_time":13649000000000,"state":"active","ping":66},{"user_id":455,"name":"Ghost Rider","steam_id":76561198155892551,"connected_time":992000000000,"state":"spawning","ping":218},{"user_id":424,"name":"Krellah","steam_id":76561198287045069,"connected_time":4312000000000,"state":"active","ping":179},{"user_id":393,"name":"TheCheeseWizard","steam_id":76561198058931315,"connected_time":8154000000000,"state":"active","ping":66},{"user_id":439,"name":"smino","steam_id":76561198937717599,"connected_time":2778000000000,"state":"spawning","ping":64},{"user_id":426,"name":"sonic1394","steam_id":76561198054636788,"connected_time":4269000000000,"state":"active","ping":64},{"user_id":461,"name":"Lex","steam_id":76561198069948353,"connected_time":305000000000,"state":"spawning","ping":86},{"user_id":430,"name":"Brown_Dream","steam_id":76561198975766145,"connected_time":3108000000000,"state":"active","ping":79}]},{"server_id":36,"name":"Uncletopia | Chicago | 5 | All Maps","name_short":"chi-5","host":"chi-2.us.uncletopia.com","port":27015,"enabled":true,"region":"us-central","cc":"us","latitude":41.881832,"longitude":-87.62318,"reserved":0,"last_update":"0001-01-01T00:00:00Z","name_a2s":"Uncletopia | Chicago | 5 | All Maps","protocol":17,"map":"cp_sunshine","folder":"tf","game":"Team Fortress","app_id":440,"player_count":23,"max_players":24,"Bots":0,"server_type":"Dedicated","server_os":"Linux","password":true,"vac":true,"version":"7882260","steam_id":85568392924866362,"keywords":["cp","nocrits","nodmgspread","uncletopia"],"game_id":440,"stv_port":27016,"stv_name":"Uncletopia | Chicago | 5 | All Maps | STV","players":[{"user_id":1067,"name":"Happy Yaoi Friday","steam_id":76561198111290441,"connected_time":815000000000,"state":"active","ping":56},{"user_id":1035,"name":"President William Howard Taft","steam_id":76561198047691108,"connected_time":3881000000000,"state":"active","ping":66},{"user_id":1075,"name":"fart with reverb","steam_id":76561198861823583,"connected_time":10000000000,"state":"spawning","ping":156},{"user_id":1002,"name":"Merci?","steam_id":76561198096823118,"connected_time":5579000000000,"state":"active","ping":74},{"user_id":1073,"name":"blue","steam_id":76561198342449098,"connected_time":254000000000,"state":"active","ping":65},{"user_id":1051,"name":"Cutie","steam_id":76561198126686695,"connected_time":2276000000000,"state":"active","ping":56},{"user_id":1053,"name":"White Boy Freestyle #337","steam_id":76561198880396651,"connected_time":2165000000000,"state":"active","ping":87},{"user_id":1065,"name":"Stan","steam_id":76561199057962816,"connected_time":951000000000,"state":"active","ping":51},{"user_id":1039,"name":"pinecone the lynx","steam_id":76561198313192553,"connected_time":3667000000000,"state":"active","ping":45},{"user_id":1040,"name":"Furry","steam_id":76561199368485421,"connected_time":3657000000000,"state":"active","ping":41},{"user_id":1071,"name":"kite man","steam_id":76561198156336213,"connected_time":401000000000,"state":"active","ping":75},{"user_id":1070,"name":"Wandering Waldo","steam_id":76561199089984323,"connected_time":720000000000,"state":"active","ping":102},{"user_id":1066,"name":"steven","steam_id":76561198173047169,"connected_time":879000000000,"state":"active","ping":59},{"user_id":1004,"name":"Lavender","steam_id":76561198142770666,"connected_time":5504000000000,"state":"active","ping":52},{"user_id":1074,"name":"flasky","steam_id":76561198079119793,"connected_time":239000000000,"state":"active","ping":61},{"user_id":1006,"name":"I Have A Name","steam_id":76561198011699246,"connected_time":5495000000000,"state":"active","ping":90},{"user_id":1061,"name":"HK™","steam_id":76561198196793415,"connected_time":1223000000000,"state":"active","ping":96},{"user_id":1068,"name":"Coolshroomish","steam_id":76561199109440924,"connected_time":772000000000,"state":"active","ping":90},{"user_id":1057,"name":"Swifgz","steam_id":76561198162875756,"connected_time":1967000000000,"state":"active","ping":61},{"user_id":1030,"name":"zeredis","steam_id":76561198076596689,"connected_time":4203000000000,"state":"active","ping":72},{"user_id":1013,"name":"MADHEAD347","steam_id":76561199475145723,"connected_time":5169000000000,"state":"active","ping":85},{"user_id":928,"name":"lycoris","steam_id":76561199113965768,"connected_time":10946000000000,"state":"active","ping":86},{"user_id":1072,"name":"QwQ","steam_id":76561198432226673,"connected_time":397000000000,"state":"active","ping":104}]},{"server_id":37,"name":"Uncletopia | Chicago | 6 | All Maps","name_short":"chi-6","host":"chi-2.us.uncletopia.com","port":27025,"enabled":true,"region":"us-central","cc":"us","latitude":41.881832,"longitude":-87.62318,"reserved":0,"last_update":"0001-01-01T00:00:00Z","name_a2s":"Uncletopia | Chicago | 6 | All Maps","protocol":17,"map":"pl_upward","folder":"tf","game":"Team Fortress","app_id":440,"player_count":24,"max_players":24,"Bots":0,"server_type":"Dedicated","server_os":"Linux","password":true,"vac":true,"version":"7882260","steam_id":85568392924866363,"keywords":["nocrits","nodmgspread","payload","uncletopia"],"game_id":440,"stv_port":27026,"stv_name":"Uncletopia | Chicago | 6 | All Maps | STV","players":[{"user_id":590,"name":"Dream Witch","steam_id":76561198060135722,"connected_time":679000000000,"state":"active","ping":99},{"user_id":599,"name":"Kuchio","steam_id":76561198161218914,"connected_time":32000000000,"state":"active","ping":94},{"user_id":592,"name":"Female Gamer","steam_id":76561199366482682,"connected_time":491000000000,"state":"active","ping":98},{"user_id":565,"name":"Thequirka","steam_id":76561198968058652,"connected_time":1806000000000,"state":"active","ping":96},{"user_id":568,"name":"BIG PIZZAAAAH","steam_id":76561198087136943,"connected_time":1572000000000,"state":"active","ping":147},{"user_id":569,"name":"June","steam_id":76561198211858204,"connected_time":1569000000000,"state":"active","ping":123},{"user_id":570,"name":"Nonessential","steam_id":76561198359977378,"connected_time":1515000000000,"state":"active","ping":116},{"user_id":571,"name":"Phoenix","steam_id":76561199465534945,"connected_time":1479000000000,"state":"active","ping":127},{"user_id":572,"name":"GROOVYROOM","steam_id":76561199153684166,"connected_time":1437000000000,"state":"active","ping":54},{"user_id":573,"name":"Tokoyami","steam_id":76561198106201421,"connected_time":1428000000000,"state":"active","ping":105},{"user_id":574,"name":"CaikSlyce","steam_id":76561198143062339,"connected_time":1401000000000,"state":"active","ping":60},{"user_id":594,"name":"craxyt","steam_id":76561198050192689,"connected_time":405000000000,"state":"active","ping":105},{"user_id":576,"name":"Bobby Ray","steam_id":76561198044131188,"connected_time":1024000000000,"state":"active","ping":75},{"user_id":586,"name":"VidzCMC","steam_id":76561198848142973,"connected_time":829000000000,"state":"active","ping":53},{"user_id":578,"name":"yesoko","steam_id":76561198072917024,"connected_time":996000000000,"state":"active","ping":78},{"user_id":579,"name":"substance","steam_id":76561198050103868,"connected_time":991000000000,"state":"active","ping":119},{"user_id":595,"name":"jjmedog88","steam_id":76561199106327781,"connected_time":389000000000,"state":"active","ping":81},{"user_id":582,"name":"din afore","steam_id":76561198079892116,"connected_time":896000000000,"state":"active","ping":45},{"user_id":583,"name":"Soap","steam_id":76561197994893383,"connected_time":895000000000,"state":"active","ping":69},{"user_id":596,"name":"gassyfassy","steam_id":76561199109007143,"connected_time":384000000000,"state":"active","ping":79},{"user_id":597,"name":"im freaking evil!! fear me \u003e:(","steam_id":76561198798667624,"connected_time":382000000000,"state":"active","ping":83},{"user_id":598,"name":"AlwaysChilling","steam_id":76561198054236546,"connected_time":371000000000,"state":"active","ping":67},{"user_id":588,"name":"Coconuthead Imposter","steam_id":76561198103417305,"connected_time":793000000000,"state":"active","ping":92},{"user_id":456,"name":"nori_420 (mute)","steam_id":76561199117134203,"connected_time":9802000000000,"state":"active","ping":113}]},{"server_id":38,"name":"Uncletopia | Chicago | 7 | Stopwatch Beta","name_short":"chi-7","host":"chi-2.us.uncletopia.com","port":27035,"enabled":true,"region":"us-central","cc":"us","latitude":41.881832,"longitude":-87.62318,"reserved":0,"last_update":"0001-01-01T00:00:00Z","name_a2s":"Uncletopia | Chicago | 7 | Stopwatch Beta","protocol":17,"map":"workshop/koth_ashville_final.ugc2130459942","folder":"tf","game":"Team Fortress","app_id":440,"player_count":0,"max_players":24,"Bots":0,"server_type":"Dedicated","server_os":"Linux","password":true,"vac":true,"version":"7882260","steam_id":85568392924866364,"keywords":["cp","nocrits","nodmgspread","uncletopia"],"game_id":440,"stv_port":27036,"stv_name":"Uncletopia | Chicago | 7 | Stopwatch Beta | STV","players":null},{"server_id":39,"name":"Uncletopia | Chicago | 8 | Community","name_short":"chi-8","host":"chi-2.us.uncletopia.com","port":27045,"enabled":true,"region":"us-central","cc":"us","latitude":41.881832,"longitude":-87.62318,"reserved":0,"last_update":"0001-01-01T00:00:00Z","name_a2s":"Uncletopia | Chicago | 8 | Community","protocol":17,"map":"cp_snakewater_final1","folder":"tf","game":"Team Fortress","app_id":440,"player_count":0,"max_players":24,"Bots":0,"server_type":"Dedicated","server_os":"Linux","password":true,"vac":true,"version":"7882260","steam_id":85568392924866365,"keywords":["cp","nocrits","nodmgspread","uncletopia"],"game_id":440,"stv_port":27046,"stv_name":"Uncletopia | Chicago | 8 | Community | STV","players":null},{"server_id":8,"name":"Uncletopia | Dallas | 1 | All Maps","name_short":"dal-1","host":"dal-1.us.uncletopia.com","port":27015,"enabled":true,"region":"us-central","cc":"us","latitude":32.779167,"longitude":-96.80889,"reserved":0,"last_update":"0001-01-01T00:00:00Z","name_a2s":"Uncletopia | Dallas | 1 | All Maps","protocol":17,"map":"ctf_doublecross","folder":"tf","game":"Team Fortress","app_id":440,"player_count":24,"max_players":24,"Bots":0,"server_type":"Dedicated","server_os":"Linux","password":true,"vac":true,"version":"7882260","steam_id":85568392924469986,"keywords":["ctf","nocrits","nodmgspread","uncletopia"],"game_id":440,"stv_port":27016,"stv_name":"Uncletopia | Dallas | 1 | All Maps | STV","players":[{"user_id":668,"name":"FireQuiz","steam_id":76561198107357249,"connected_time":1724000000000,"state":"active","ping":103},{"user_id":681,"name":"xjlm","steam_id":76561198043497260,"connected_time":402000000000,"state":"active","ping":103},{"user_id":651,"name":"Average Caber Fan","steam_id":76561199451299044,"connected_time":3452000000000,"state":"active","ping":70},{"user_id":637,"name":"Speed Weed","steam_id":76561198007512620,"connected_time":4390000000000,"state":"active","ping":58},{"user_id":684,"name":"vanilla linguine","steam_id":76561198155661890,"connected_time":302000000000,"state":"active","ping":48},{"user_id":640,"name":"AAGooseman","steam_id":76561198378941369,"connected_time":4129000000000,"state":"active","ping":65},{"user_id":597,"name":"Alejandro","steam_id":76561197970051493,"connected_time":6086000000000,"state":"active","ping":143},{"user_id":678,"name":"ShapedSilver","steam_id":76561199073305310,"connected_time":696000000000,"state":"active","ping":44},{"user_id":645,"name":"Zesty Italian","steam_id":76561198117835053,"connected_time":3687000000000,"state":"active","ping":59},{"user_id":605,"name":"Pight","steam_id":76561198823422389,"connected_time":5906000000000,"state":"active","ping":87},{"user_id":675,"name":"{ST} Oxythemoron","steam_id":76561198060089965,"connected_time":1124000000000,"state":"active","ping":55},{"user_id":683,"name":"BeeseDeez","steam_id":76561198011012347,"connected_time":360000000000,"state":"active","ping":75},{"user_id":679,"name":"TERRASITE","steam_id":76561199124341459,"connected_time":498000000000,"state":"active","ping":92},{"user_id":667,"name":"damiankiller1243","steam_id":76561198868885090,"connected_time":1795000000000,"state":"active","ping":57},{"user_id":685,"name":"TheArachnidGamer","steam_id":76561198304986752,"connected_time":263000000000,"state":"active","ping":65},{"user_id":641,"name":"gamers aren't real","steam_id":76561198113748347,"connected_time":4046000000000,"state":"active","ping":67},{"user_id":673,"name":"sciencenerd42","steam_id":76561198274563320,"connected_time":1417000000000,"state":"active","ping":73},{"user_id":677,"name":"reallyfriendly","steam_id":76561197996819313,"connected_time":881000000000,"state":"active","ping":83},{"user_id":670,"name":"Kasodani Kyouko","steam_id":76561198023178589,"connected_time":1665000000000,"state":"active","ping":111},{"user_id":686,"name":"Justtophat","steam_id":76561198308787175,"connected_time":191000000000,"state":"active","ping":89},{"user_id":680,"name":"R     i     q","steam_id":76561198105485586,"connected_time":429000000000,"state":"active","ping":75},{"user_id":687,"name":"LivingRaccoon","steam_id":76561198035425632,"connected_time":134000000000,"state":"active","ping":76},{"user_id":618,"name":"Manic","steam_id":76561198128149670,"connected_time":5619000000000,"state":"active","ping":45},{"user_id":682,"name":"mashallah","steam_id":76561199004512348,"connected_time":381000000000,"state":"active","ping":45}]},{"server_id":108,"name":"Uncletopia | Dallas | 2 | All Maps","name_short":"dal-2","host":"dal-1.us.uncletopia.com","port":27025,"enabled":true,"region":"us-central","cc":"us","latitude":32.779167,"longitude":-96.80889,"reserved":0,"last_update":"0001-01-01T00:00:00Z","name_a2s":"Uncletopia | Dallas | 2 | All Maps","protocol":17,"map":"pl_frontier_final","folder":"tf","game":"Team Fortress","app_id":440,"player_count":24,"max_players":24,"Bots":0,"server_type":"Dedicated","server_os":"Linux","password":true,"vac":true,"version":"7882260","steam_id":85568392924469988,"keywords":["nocrits","nodmgspread","payload","uncletopia"],"game_id":440,"stv_port":27026,"stv_name":"Uncletopia | Dallas | 2 | All Maps | STV","players":[{"user_id":701,"name":"derpins","steam_id":76561198125261443,"connected_time":2211000000000,"state":"active","ping":112},{"user_id":655,"name":"mel","steam_id":76561198215559840,"connected_time":5396000000000,"state":"active","ping":67},{"user_id":688,"name":"счизяѳ","steam_id":76561199182960322,"connected_time":3786000000000,"state":"active","ping":69},{"user_id":643,"name":"Hideout","steam_id":76561198163765260,"connected_time":6290000000000,"state":"active","ping":69},{"user_id":647,"name":"dweamy","steam_id":76561198119181880,"connected_time":5871000000000,"state":"active","ping":74},{"user_id":710,"name":"Worldstarhiphop Mike","steam_id":76561198053967778,"connected_time":718000000000,"state":"active","ping":90},{"user_id":703,"name":"CPT. Giga Chad","steam_id":76561198059785363,"connected_time":2151000000000,"state":"active","ping":64},{"user_id":709,"name":"cucumper","steam_id":76561198079504588,"connected_time":751000000000,"state":"active","ping":75},{"user_id":704,"name":"Srattinee","steam_id":76561198199840395,"connected_time":2149000000000,"state":"active","ping":86},{"user_id":695,"name":"Snake Handler","steam_id":76561198027198306,"connected_time":3078000000000,"state":"active","ping":79},{"user_id":682,"name":"CHIKN","steam_id":76561198277792665,"connected_time":4176000000000,"state":"active","ping":79},{"user_id":640,"name":"MeMyBongusAndTheGreatOutdoors","steam_id":76561198097708978,"connected_time":6507000000000,"state":"active","ping":51},{"user_id":696,"name":"Tskuno","steam_id":76561198129291597,"connected_time":3075000000000,"state":"active","ping":79},{"user_id":711,"name":"Lore","steam_id":76561198098407538,"connected_time":636000000000,"state":"active","ping":74},{"user_id":672,"name":"...","steam_id":76561198121508845,"connected_time":4723000000000,"state":"active","ping":100},{"user_id":697,"name":"Woozy","steam_id":76561198008220735,"connected_time":3018000000000,"state":"active","ping":90},{"user_id":712,"name":"noellehound","steam_id":76561198108844158,"connected_time":609000000000,"state":"active","ping":78},{"user_id":700,"name":"Purple potato","steam_id":76561198932276149,"connected_time":2451000000000,"state":"active","ping":96},{"user_id":652,"name":"Pom Pom Super Bomb","steam_id":76561198132316905,"connected_time":5439000000000,"state":"active","ping":62},{"user_id":705,"name":"Shaw Han","steam_id":76561198204259015,"connected_time":2136000000000,"state":"active","ping":84},{"user_id":690,"name":"UnkownGamerLOL","steam_id":76561198225902368,"connected_time":3696000000000,"state":"active","ping":71},{"user_id":691,"name":"sibling bane ツ","steam_id":76561198196769297,"connected_time":3694000000000,"state":"active","ping":85},{"user_id":661,"name":"SleeplessCollin","steam_id":76561198968140914,"connected_time":5291000000000,"state":"active","ping":78},{"user_id":708,"name":"The Pope","steam_id":76561198313560302,"connected_time":961000000000,"state":"active","ping":60}]},{"server_id":5,"name":"Uncletopia | Frankfurt | 1 | All Maps","name_short":"frk-1","host":"frk-1.de.uncletopia.com","port":27015,"enabled":true,"region":"eu","cc":"de","latitude":50.110924,"longitude":8.682127,"reserved":0,"last_update":"0001-01-01T00:00:00Z","name_a2s":"Uncletopia | Frankfurt | 1 | All Maps","protocol":17,"map":"pl_pier","folder":"tf","game":"Team Fortress","app_id":440,"player_count":4,"max_players":24,"Bots":0,"server_type":"Dedicated","server_os":"Linux","password":true,"vac":true,"version":"7882260","steam_id":85568392924469989,"keywords":["nocrits","nodmgspread","payload","uncletopia"],"game_id":440,"stv_port":27016,"stv_name":"Uncletopia | Frankfurt | 1 | All Maps | STV","players":[{"user_id":3,"name":"Razorback from Team Fortress 2","steam_id":76561199214163032,"connected_time":2902000000000,"state":"active","ping":89},{"user_id":6,"name":"lv1986","steam_id":76561199044258719,"connected_time":984000000000,"state":"active","ping":130},{"user_id":8,"name":"AmadStatistician","steam_id":76561198163654770,"connected_time":583000000000,"state":"active","ping":69},{"user_id":9,"name":"icebro","steam_id":76561199123450840,"connected_time":549000000000,"state":"active","ping":61}]},{"server_id":110,"name":"Uncletopia | Frankfurt | 2 | All Maps","name_short":"frk-2","host":"frk-1.de.uncletopia.com","port":27025,"enabled":true,"region":"eu","cc":"de","latitude":50.110924,"longitude":8.682127,"reserved":0,"last_update":"0001-01-01T00:00:00Z","name_a2s":"Uncletopia | Frankfurt | 2 | All Maps","protocol":17,"map":"pl_swiftwater_final1","folder":"tf","game":"Team Fortress","app_id":440,"player_count":0,"max_players":24,"Bots":0,"server_type":"Dedicated","server_os":"Linux","password":true,"vac":true,"version":"7882260","steam_id":85568392924469990,"keywords":["nocrits","nodmgspread","payload","uncletopia"],"game_id":440,"stv_port":27026,"stv_name":"Uncletopia | Frankfurt | 2 | All Maps | STV","players":null},{"server_id":308,"name":"Uncletopia | Frankfurt | 3 | All Maps","name_short":"frk-3","host":"frk-1.de.uncletopia.com","port":27035,"enabled":true,"region":"eu","cc":"de","latitude":50.110924,"longitude":8.682127,"reserved":0,"last_update":"0001-01-01T00:00:00Z","name_a2s":"Uncletopia | Frankfurt | 3 | All Maps","protocol":17,"map":"cp_process_final","folder":"tf","game":"Team Fortress","app_id":440,"player_count":0,"max_players":24,"Bots":0,"server_type":"Dedicated","server_os":"Linux","password":true,"vac":true,"version":"7882260","steam_id":85568392924504274,"keywords":["cp","nocrits","nodmgspread","uncletopia"],"game_id":440,"stv_port":27036,"stv_name":"Uncletopia | Frankfurt | 3 | All Maps | STV","players":null},{"server_id":309,"name":"Uncletopia | Frankfurt | 4 | All Maps","name_short":"frk-4","host":"frk-1.de.uncletopia.com","port":27045,"enabled":true,"region":"eu","cc":"de","latitude":50.110924,"longitude":8.682127,"reserved":0,"last_update":"0001-01-01T00:00:00Z","name_a2s":"Uncletopia | Frankfurt | 4 | All Maps","protocol":17,"map":"koth_lakeside_final","folder":"tf","game":"Team Fortress","app_id":440,"player_count":0,"max_players":24,"Bots":0,"server_type":"Dedicated","server_os":"Linux","password":true,"vac":true,"version":"7882260","steam_id":85568392924504275,"keywords":["cp","nocrits","nodmgspread","uncletopia"],"game_id":440,"stv_port":27046,"stv_name":"Uncletopia | Frankfurt | 4 | All Maps | STV","players":null},{"server_id":310,"name":"Uncletopia | Frankfurt | 5 | All Maps","name_short":"frk-5","host":"frk-1.de.uncletopia.com","port":27055,"enabled":true,"region":"eu","cc":"de","latitude":50.110924,"longitude":8.682127,"reserved":0,"last_update":"0001-01-01T00:00:00Z","name_a2s":"Uncletopia | Frankfurt | 5 | All Maps","protocol":17,"map":"cp_mountainlab","folder":"tf","game":"Team Fortress","app_id":440,"player_count":0,"max_players":24,"Bots":0,"server_type":"Dedicated","server_os":"Linux","password":true,"vac":true,"version":"7882260","steam_id":85568392924504277,"keywords":["cp","nocrits","nodmgspread","uncletopia"],"game_id":440,"stv_port":27056,"stv_name":"Uncletopia | Frankfurt | 5 | All Maps | STV","players":null},{"server_id":311,"name":"Uncletopia | Frankfurt | 6 | All Maps","name_short":"frk-6","host":"frk-1.de.uncletopia.com","port":27065,"enabled":true,"region":"eu","cc":"de","latitude":50.110924,"longitude":8.682127,"reserved":0,"last_update":"0001-01-01T00:00:00Z","name_a2s":"Uncletopia | Frankfurt | 6 | All Maps","protocol":17,"map":"cp_sunshine","folder":"tf","game":"Team Fortress","app_id":440,"player_count":0,"max_players":24,"Bots":0,"server_type":"Dedicated","server_os":"Linux","password":true,"vac":true,"version":"7882260","steam_id":85568392924504278,"keywords":["cp","nocrits","nodmgspread","uncletopia"],"game_id":440,"stv_port":27066,"stv_name":"Uncletopia | Frankfurt | 6 | All Maps | STV","players":null},{"server_id":23,"name":"Uncletopia | Frankfurt | 7 | Stopwatch Beta","name_short":"frk-7","host":"frk-1.de.uncletopia.com","port":27075,"enabled":true,"region":"eu","cc":"de","latitude":50.110924,"longitude":8.682127,"reserved":0,"last_update":"0001-01-01T00:00:00Z","name_a2s":"Uncletopia | Frankfurt | 7 | Stopwatch Beta","protocol":17,"map":"cp_dustbowl","folder":"tf","game":"Team Fortress","app_id":440,"player_count":0,"max_players":24,"Bots":0,"server_type":"Dedicated","server_os":"Linux","password":true,"vac":true,"version":"7882260","steam_id":85568392924742827,"keywords":["cp","nocrits","nodmgspread","uncletopia"],"game_id":440,"stv_port":27076,"stv_name":"Uncletopia | Frankfurt | 7 | Stopwatch Beta | STV","players":null},{"server_id":24,"name":"Uncletopia | Frankfurt | 8 | Community","name_short":"frk-8","host":"frk-1.de.uncletopia.com","port":27085,"enabled":true,"region":"eu","cc":"de","latitude":50.110924,"longitude":8.682127,"reserved":0,"last_update":"0001-01-01T00:00:00Z","name_a2s":"Uncletopia | Frankfurt | 8 | Community","protocol":17,"map":"koth_cascade","folder":"tf","game":"Team Fortress","app_id":440,"player_count":0,"max_players":24,"Bots":0,"server_type":"Dedicated","server_os":"Linux","password":true,"vac":true,"version":"7882260","steam_id":85568392924742828,"keywords":["cp","nocrits","nodmgspread","uncletopia"],"game_id":440,"stv_port":27086,"stv_name":"Uncletopia | Frankfurt | 8 | Community | STV","players":null},{"server_id":202,"name":"Uncletopia | Hong Kong | 1 | All Maps","name_short":"hgk-1","host":"hgk-1.hk.uncletopia.com","port":27015,"enabled":true,"region":"asia","cc":"hk","latitude":22.302711,"longitude":114.177216,"reserved":0,"last_update":"0001-01-01T00:00:00Z","name_a2s":"Uncletopia | Hong Kong | 1 | All Maps","protocol":17,"map":"plr_bananabay","folder":"tf","game":"Team Fortress","app_id":440,"player_count":24,"max_players":24,"Bots":0,"server_type":"Dedicated","server_os":"Linux","password":true,"vac":true,"version":"7882260","steam_id":85568392924494504,"keywords":["nocrits","nodmgspread","payload","uncletopia"],"game_id":440,"stv_port":27016,"stv_name":"Uncletopia | Hong Kong | 1 | All Maps | STV","players":[{"user_id":95,"name":"帕","steam_id":76561198439343999,"connected_time":999000000000,"state":"active","ping":133},{"user_id":53,"name":"Vortex Medico","steam_id":76561198833527091,"connected_time":5262000000000,"state":"active","ping":93},{"user_id":107,"name":"善良の墨","steam_id":76561199102754539,"connected_time":420000000000,"state":"active","ping":101},{"user_id":68,"name":"Zinx","steam_id":76561199116459368,"connected_time":3787000000000,"state":"active","ping":95},{"user_id":69,"name":"bam","steam_id":76561198418964176,"connected_time":3753000000000,"state":"active","ping":87},{"user_id":112,"name":"TomProPlayer","steam_id":76561199223292521,"connected_time":32000000000,"state":"active","ping":69},{"user_id":111,"name":"Mumers","steam_id":76561198394138847,"connected_time":55000000000,"state":"active","ping":53},{"user_id":85,"name":"bodacious bogey","steam_id":76561198055553140,"connected_time":2669000000000,"state":"active","ping":75},{"user_id":113,"name":"Fizz","steam_id":76561198110545854,"connected_time":27000000000,"state":"spawning","ping":207},{"user_id":60,"name":"water tastes good","steam_id":76561199375947670,"connected_time":4563000000000,"state":"active","ping":66},{"user_id":93,"name":"WhereAmai","steam_id":76561199122491157,"connected_time":1779000000000,"state":"active","ping":166},{"user_id":91,"name":"nyakky","steam_id":76561198927779787,"connected_time":2197000000000,"state":"active","ping":91},{"user_id":63,"name":"Jumanji™","steam_id":76561198431664383,"connected_time":4249000000000,"state":"active","ping":68},{"user_id":97,"name":"Leroy","steam_id":76561199137927625,"connected_time":960000000000,"state":"active","ping":93},{"user_id":108,"name":"Male Detected!","steam_id":76561199082459598,"connected_time":307000000000,"state":"active","ping":83},{"user_id":84,"name":"Windmill","steam_id":76561199230997986,"connected_time":2774000000000,"state":"active","ping":81},{"user_id":94,"name":"i got the black inside me...","steam_id":76561198412329672,"connected_time":1264000000000,"state":"active","ping":90},{"user_id":106,"name":"no vc no c","steam_id":76561197989503095,"connected_time":627000000000,"state":"active","ping":89},{"user_id":102,"name":"urotsuki with da doobie","steam_id":76561198074339034,"connected_time":798000000000,"state":"active","ping":73},{"user_id":77,"name":"UltraFat","steam_id":76561198253918132,"connected_time":3366000000000,"state":"active","ping":92},{"user_id":79,"name":"Hay","steam_id":76561199438952901,"connected_time":3332000000000,"state":"active","ping":51},{"user_id":80,"name":"spinach (old mouse)","steam_id":76561198042539541,"connected_time":3321000000000,"state":"active","ping":75},{"user_id":103,"name":"Genericdev.txt","steam_id":76561199016061149,"connected_time":782000000000,"state":"spawning","ping":134},{"user_id":109,"name":"IDontLaunder","steam_id":76561199103223706,"connected_time":307000000000,"state":"active","ping":182}]},{"server_id":1,"name":"Uncletopia | Los Angeles | 1 | All Maps","name_short":"lax-1","host":"lax-1.us.uncletopia.com","port":27015,"enabled":true,"region":"us-west","cc":"us","latitude":33.94279,"longitude":-118.41004,"reserved":0,"last_update":"0001-01-01T00:00:00Z","name_a2s":"Uncletopia | Los Angeles | 1 | All Maps","protocol":17,"map":"pl_upward","folder":"tf","game":"Team Fortress","app_id":440,"player_count":24,"max_players":24,"Bots":0,"server_type":"Dedicated","server_os":"Linux","password":true,"vac":true,"version":"7882260","steam_id":85568392924469991,"keywords":["nocrits","nodmgspread","payload","uncletopia"],"game_id":440,"stv_port":27016,"stv_name":"Uncletopia | Los Angeles | 1 | All Maps | STV","players":[{"user_id":505,"name":"Wendall555","steam_id":76561198985637603,"connected_time":3622000000000,"state":"active","ping":46},{"user_id":549,"name":"zaza addict","steam_id":76561198202982780,"connected_time":327000000000,"state":"active","ping":102},{"user_id":545,"name":"Taffy","steam_id":76561198276612538,"connected_time":594000000000,"state":"active","ping":58},{"user_id":523,"name":"turtle","steam_id":76561198112673874,"connected_time":2351000000000,"state":"active","ping":59},{"user_id":524,"name":"jim awesome","steam_id":76561198337486020,"connected_time":2211000000000,"state":"active","ping":59},{"user_id":528,"name":"The Benefactor","steam_id":76561198307247913,"connected_time":1411000000000,"state":"active","ping":46},{"user_id":518,"name":"dubba (•̀_•́ )","steam_id":76561199428471192,"connected_time":2855000000000,"state":"active","ping":96},{"user_id":550,"name":"ScoutSecoTF2","steam_id":76561198366212156,"connected_time":321000000000,"state":"active","ping":98},{"user_id":554,"name":"zpalmtree","steam_id":76561198134307620,"connected_time":242000000000,"state":"active","ping":120},{"user_id":539,"name":"Pho","steam_id":76561198306515742,"connected_time":1108000000000,"state":"active","ping":61},{"user_id":526,"name":"Squatter1","steam_id":76561198078987734,"connected_time":2011000000000,"state":"active","ping":80},{"user_id":541,"name":"rimble","steam_id":76561198150137369,"connected_time":1073000000000,"state":"active","ping":47},{"user_id":434,"name":"NFL.com","steam_id":76561198113405376,"connected_time":10478000000000,"state":"active","ping":57},{"user_id":547,"name":"FI LO","steam_id":76561198976530881,"connected_time":425000000000,"state":"active","ping":40},{"user_id":544,"name":"Jellojiggler","steam_id":76561198094320477,"connected_time":754000000000,"state":"active","ping":79},{"user_id":527,"name":"Yup","steam_id":76561198043187719,"connected_time":1787000000000,"state":"active","ping":68},{"user_id":551,"name":"DemoLiberTF2","steam_id":76561198095378689,"connected_time":318000000000,"state":"active","ping":84},{"user_id":548,"name":"Auburn","steam_id":76561198199541493,"connected_time":393000000000,"state":"active","ping":52},{"user_id":552,"name":"SolarusD","steam_id":76561198029279861,"connected_time":287000000000,"state":"active","ping":59},{"user_id":553,"name":"♡ ironterrortrain ♡","steam_id":76561198046460418,"connected_time":264000000000,"state":"active","ping":67},{"user_id":522,"name":"pandoRA","steam_id":76561198075490385,"connected_time":2519000000000,"state":"active","ping":49},{"user_id":555,"name":"Siv","steam_id":76561198322898267,"connected_time":242000000000,"state":"active","ping":93},{"user_id":556,"name":"Strange Potato","steam_id":76561199059013304,"connected_time":236000000000,"state":"active","ping":69},{"user_id":537,"name":"Mach!457","steam_id":76561198403151549,"connected_time":1262000000000,"state":"active","ping":52}]},{"server_id":112,"name":"Uncletopia | Los Angeles | 2 | All Maps","name_short":"lax-2","host":"lax-1.us.uncletopia.com","port":27025,"enabled":true,"region":"us-west","cc":"us","latitude":33.94279,"longitude":-118.41004,"reserved":0,"last_update":"0001-01-01T00:00:00Z","name_a2s":"Uncletopia | Los Angeles | 2 | All Maps","protocol":17,"map":"koth_nucleus","folder":"tf","game":"Team Fortress","app_id":440,"player_count":16,"max_players":24,"Bots":0,"server_type":"Dedicated","server_os":"Linux","password":true,"vac":true,"version":"7882260","steam_id":85568392924469992,"keywords":["cp","nocrits","nodmgspread","uncletopia"],"game_id":440,"stv_port":27026,"stv_name":"Uncletopia | Los Angeles | 2 | All Maps | STV","players":[{"user_id":336,"name":"Doony","steam_id":76561198073472571,"connected_time":1208000000000,"state":"active","ping":81},{"user_id":337,"name":"Blackbeard","steam_id":76561198046952265,"connected_time":1125000000000,"state":"active","ping":77},{"user_id":341,"name":"Adam Levine (Real)","steam_id":76561199199257149,"connected_time":952000000000,"state":"active","ping":107},{"user_id":333,"name":"Windfall","steam_id":76561198046500859,"connected_time":1616000000000,"state":"active","ping":45},{"user_id":297,"name":"Grand","steam_id":76561198290143399,"connected_time":4338000000000,"state":"active","ping":75},{"user_id":339,"name":"DUCKS DUCKS DUCKS DUCKS","steam_id":76561198107486812,"connected_time":1080000000000,"state":"active","ping":45},{"user_id":258,"name":"Lane","steam_id":76561197965828506,"connected_time":6176000000000,"state":"active","ping":86},{"user_id":296,"name":"Truffles","steam_id":76561198095868800,"connected_time":4356000000000,"state":"active","ping":96},{"user_id":344,"name":"Nez","steam_id":76561197963109059,"connected_time":720000000000,"state":"active","ping":62},{"user_id":327,"name":"californjoe","steam_id":76561197965047795,"connected_time":2495000000000,"state":"active","ping":50},{"user_id":315,"name":"austintacious","steam_id":76561198054118061,"connected_time":3870000000000,"state":"active","ping":97},{"user_id":343,"name":"cjetson","steam_id":76561198074482272,"connected_time":764000000000,"state":"active","ping":56},{"user_id":316,"name":"Danger McHazard","steam_id":76561198059451274,"connected_time":3862000000000,"state":"active","ping":45},{"user_id":322,"name":"Soda Popinski","steam_id":76561198045209288,"connected_time":3465000000000,"state":"active","ping":44},{"user_id":342,"name":"R5-D4","steam_id":76561198025196439,"connected_time":898000000000,"state":"active","ping":74},{"user_id":320,"name":"Father Jon","steam_id":76561198324730919,"connected_time":3596000000000,"state":"active","ping":96}]},{"server_id":324,"name":"Uncletopia | Los Angeles | 3 | All Maps","name_short":"lax-3","host":"lax-1.us.uncletopia.com","port":27035,"enabled":true,"region":"us-west","cc":"us","latitude":33.94279,"longitude":-118.41004,"reserved":0,"last_update":"0001-01-01T00:00:00Z","name_a2s":"Uncletopia | Los Angeles | 3 | All Maps","protocol":17,"map":"plr_hightower","folder":"tf","game":"Team Fortress","app_id":440,"player_count":5,"max_players":24,"Bots":0,"server_type":"Dedicated","server_os":"Linux","password":true,"vac":true,"version":"7882260","steam_id":85568392924510198,"keywords":["nocrits","nodmgspread","payload","uncletopia"],"game_id":440,"stv_port":27036,"stv_name":"Uncletopia | Los Angeles | 3 | All Maps | STV","players":[{"user_id":334,"name":"FriskyDemon","steam_id":76561198043684646,"connected_time":210000000000,"state":"active","ping":68},{"user_id":328,"name":"kira","steam_id":76561199054467241,"connected_time":1127000000000,"state":"active","ping":81},{"user_id":337,"name":"HOG RIDER","steam_id":76561198298589502,"connected_time":0,"state":"connecting","ping":0},{"user_id":336,"name":"nfseskimo","steam_id":76561198078745666,"connected_time":120000000000,"state":"active","ping":74},{"user_id":320,"name":"GLXy","steam_id":76561198207551544,"connected_time":2691000000000,"state":"active","ping":83}]},{"server_id":25,"name":"Uncletopia | Los Angeles | 4 | Stopwatch Beta","name_short":"lax-4","host":"lax-1.us.uncletopia.com","port":27045,"enabled":true,"region":"us-west","cc":"us","latitude":33.94279,"longitude":-118.41004,"reserved":0,"last_update":"0001-01-01T00:00:00Z","name_a2s":"Uncletopia | Los Angeles | 4 | Stopwatch Beta","protocol":17,"map":"koth_lakeside_final","folder":"tf","game":"Team Fortress","app_id":440,"player_count":0,"max_players":24,"Bots":0,"server_type":"Dedicated","server_os":"Linux","password":true,"vac":true,"version":"7882260","steam_id":85568392924510199,"keywords":["cp","nocrits","nodmgspread","uncletopia"],"game_id":440,"stv_port":27046,"stv_name":"Uncletopia | Los Angeles | 4 | Stopwatch Beta | STV","players":null},{"server_id":11,"name":"Uncletopia | London | 1 | All Maps","name_short":"lon-1","host":"lon-1.uk.uncletopia.com","port":27015,"enabled":true,"region":"eu","cc":"gb","latitude":51.509865,"longitude":-0.118092,"reserved":0,"last_update":"0001-01-01T00:00:00Z","name_a2s":"Uncletopia | London | 1 | All Maps","protocol":17,"map":"cp_process_final","folder":"tf","game":"Team Fortress","app_id":440,"player_count":0,"max_players":24,"Bots":0,"server_type":"Dedicated","server_os":"Linux","password":true,"vac":true,"version":"7882260","steam_id":85568392924367362,"keywords":["cp","nocrits","nodmgspread","uncletopia"],"game_id":440,"stv_port":27016,"stv_name":"Uncletopia | London | 1 | All Maps | STV","players":null},{"server_id":114,"name":"Uncletopia | London | 2 | All Maps","name_short":"lon-2","host":"lon-1.uk.uncletopia.com","port":27025,"enabled":true,"region":"eu","cc":"gb","latitude":51.509865,"longitude":-0.118092,"reserved":0,"last_update":"0001-01-01T00:00:00Z","name_a2s":"Uncletopia | London | 2 | All Maps","protocol":17,"map":"pl_borneo","folder":"tf","game":"Team Fortress","app_id":440,"player_count":22,"max_players":24,"Bots":0,"server_type":"Dedicated","server_os":"Linux","password":true,"vac":true,"version":"7882260","steam_id":85568392924470941,"keywords":["nocrits","nodmgspread","payload","uncletopia"],"game_id":440,"stv_port":27026,"stv_name":"Uncletopia | London | 2 | All Maps | STV","players":[{"user_id":3,"name":"Borat","steam_id":76561198122226417,"connected_time":6821000000000,"state":"active","ping":41},{"user_id":97,"name":"Artificial.Ignorance","steam_id":76561198453090180,"connected_time":926000000000,"state":"active","ping":182},{"user_id":89,"name":"Hedge Knight","steam_id":76561198989449047,"connected_time":1390000000000,"state":"active","ping":131},{"user_id":101,"name":"this guy is gaming","steam_id":76561198856495841,"connected_time":610000000000,"state":"active","ping":112},{"user_id":105,"name":"hipster_doofus","steam_id":76561197970902697,"connected_time":329000000000,"state":"active","ping":59},{"user_id":79,"name":"Hasturlike","steam_id":76561199230424863,"connected_time":1853000000000,"state":"active","ping":144},{"user_id":104,"name":"Dzan50","steam_id":76561198059758591,"connected_time":338000000000,"state":"active","ping":98},{"user_id":36,"name":"Enigmus","steam_id":76561197994063627,"connected_time":5238000000000,"state":"active","ping":90},{"user_id":96,"name":"Scarlet","steam_id":76561198075966579,"connected_time":1013000000000,"state":"active","ping":44},{"user_id":68,"name":"JUST C2","steam_id":76561199194240072,"connected_time":2576000000000,"state":"active","ping":117},{"user_id":91,"name":"tenenbaum_2","steam_id":76561198075723636,"connected_time":1293000000000,"state":"active","ping":64},{"user_id":94,"name":"im the DIErector of ur death","steam_id":76561199217741639,"connected_time":1194000000000,"state":"active","ping":115},{"user_id":98,"name":"alice roblox chad poot demon","steam_id":76561198180361759,"connected_time":873000000000,"state":"active","ping":43},{"user_id":88,"name":"Doohickey mechanic","steam_id":76561198146180114,"connected_time":1437000000000,"state":"active","ping":85},{"user_id":64,"name":"Emma","steam_id":76561198076724979,"connected_time":3097000000000,"state":"active","ping":64},{"user_id":106,"name":"Toni Pepperoni","steam_id":76561198814211030,"connected_time":327000000000,"state":"active","ping":126},{"user_id":99,"name":"Lewylow","steam_id":76561198005425686,"connected_time":846000000000,"state":"active","ping":51},{"user_id":109,"name":"Sentry_Molester","steam_id":76561198240499888,"connected_time":187000000000,"state":"active","ping":84},{"user_id":100,"name":"Fus in Boots","steam_id":76561198053897722,"connected_time":743000000000,"state":"active","ping":54},{"user_id":111,"name":"Havenlock","steam_id":76561198039020533,"connected_time":112000000000,"state":"active","ping":89},{"user_id":110,"name":"Urfangonultasadana","steam_id":76561199389286151,"connected_time":182000000000,"state":"active","ping":101},{"user_id":112,"name":"Spinyapickle","steam_id":76561198086653667,"connected_time":12000000000,"state":"active","ping":53}]},{"server_id":320,"name":"Uncletopia | London | 3 | All Maps","name_short":"lon-3","host":"lon-1.uk.uncletopia.com","port":27035,"enabled":true,"region":"eu","cc":"gb","latitude":51.509865,"longitude":-0.118092,"reserved":0,"last_update":"0001-01-01T00:00:00Z","name_a2s":"Uncletopia | London | 3 | All Maps","protocol":17,"map":"koth_highpass","folder":"tf","game":"Team Fortress","app_id":440,"player_count":0,"max_players":24,"Bots":0,"server_type":"Dedicated","server_os":"Linux","password":true,"vac":true,"version":"7882260","steam_id":85568392924510192,"keywords":["cp","nocrits","nodmgspread","uncletopia"],"game_id":440,"stv_port":27036,"stv_name":"Uncletopia | London | 3 | All Maps | STV","players":null},{"server_id":321,"name":"Uncletopia | London | 4 | All Maps","name_short":"lon-4","host":"lon-1.uk.uncletopia.com","port":27045,"enabled":true,"region":"eu","cc":"gb","latitude":51.509865,"longitude":-0.118092,"reserved":0,"last_update":"0001-01-01T00:00:00Z","name_a2s":"Uncletopia | London | 4 | All Maps","protocol":17,"map":"pl_upward","folder":"tf","game":"Team Fortress","app_id":440,"player_count":0,"max_players":24,"Bots":0,"server_type":"Dedicated","server_os":"Linux","password":true,"vac":true,"version":"7882260","steam_id":85568392924510193,"keywords":["nocrits","nodmgspread","payload","uncletopia"],"game_id":440,"stv_port":27046,"stv_name":"Uncletopia | London | 4 | All Maps | STV","players":null},{"server_id":21,"name":"Uncletopia | London | 5 | All Maps","name_short":"lon-5","host":"lon-1.uk.uncletopia.com","port":27055,"enabled":true,"region":"eu","cc":"gb","latitude":51.509865,"longitude":-0.118092,"reserved":0,"last_update":"0001-01-01T00:00:00Z","name_a2s":"Uncletopia | London | 5 | All Maps","protocol":17,"map":"pl_frontier_final","folder":"tf","game":"Team Fortress","app_id":440,"player_count":0,"max_players":24,"Bots":0,"server_type":"Dedicated","server_os":"Linux","password":true,"vac":true,"version":"7882260","steam_id":85568392924742829,"keywords":["nocrits","nodmgspread","payload","uncletopia"],"game_id":440,"stv_port":27056,"stv_name":"Uncletopia | London | 5 | All Maps | STV","players":null},{"server_id":22,"name":"Uncletopia | London | 6 | All Maps","name_short":"lon-6","host":"lon-1.uk.uncletopia.com","port":27065,"enabled":true,"region":"eu","cc":"gb","latitude":51.509865,"longitude":-0.118092,"reserved":0,"last_update":"0001-01-01T00:00:00Z","name_a2s":"Uncletopia | London | 6 | All Maps","protocol":17,"map":"cp_altitude","folder":"tf","game":"Team Fortress","app_id":440,"player_count":0,"max_players":24,"Bots":0,"server_type":"Dedicated","server_os":"Linux","password":true,"vac":true,"version":"7882260","steam_id":85568392924742830,"keywords":["cp","nocrits","nodmgspread","uncletopia"],"game_id":440,"stv_port":27066,"stv_name":"Uncletopia | London | 6 | All Maps | STV","players":null},{"server_id":40,"name":"Uncletopia | London | 7 | No Payload","name_short":"lon-7","host":"lon-1.uk.uncletopia.com","port":27075,"enabled":true,"region":"eu","cc":"gb","latitude":51.509865,"longitude":-0.118092,"reserved":0,"last_update":"0001-01-01T00:00:00Z","name_a2s":"Uncletopia | London | 7 | No Payload","protocol":17,"map":"pl_pier","folder":"tf","game":"Team Fortress","app_id":440,"player_count":0,"max_players":24,"Bots":0,"server_type":"Dedicated","server_os":"Linux","password":true,"vac":true,"version":"7882260","steam_id":85568392924964314,"keywords":["nocrits","nodmgspread","payload","uncletopia"],"game_id":440,"stv_port":27076,"stv_name":"Uncletopia | London | 7 | No Payload | STV","players":null},{"server_id":41,"name":"Uncletopia | London | 8 | Community","name_short":"lon-8","host":"lon-1.uk.uncletopia.com","port":27085,"enabled":true,"region":"eu","cc":"gb","latitude":51.509865,"longitude":-0.118092,"reserved":0,"last_update":"0001-01-01T00:00:00Z","name_a2s":"Uncletopia | London | 8 | Community","protocol":17,"map":"pl_swiftwater_final1","folder":"tf","game":"Team Fortress","app_id":440,"player_count":0,"max_players":24,"Bots":0,"server_type":"Dedicated","server_os":"Linux","password":true,"vac":true,"version":"7882260","steam_id":85568392924964315,"keywords":["nocrits","nodmgspread","payload","uncletopia"],"game_id":440,"stv_port":27086,"stv_name":"Uncletopia | London | 8 | Community | STV","players":null},{"server_id":300,"name":"Uncletopia | Montréal | 1 | All Maps","name_short":"mtl-1","host":"mtl-1.ca.uncletopia.com","port":27015,"enabled":true,"region":"us-east","cc":"ca","latitude":45.50889,"longitude":-73.56167,"reserved":0,"last_update":"0001-01-01T00:00:00Z","name_a2s":"Uncletopia | Montréal | 1 | All Maps","protocol":17,"map":"cp_dustbowl","folder":"tf","game":"Team Fortress","app_id":440,"player_count":0,"max_players":24,"Bots":0,"server_type":"Dedicated","server_os":"Linux","password":true,"vac":true,"version":"7882260","steam_id":85568392924500087,"keywords":["cp","nocrits","nodmgspread","uncletopia"],"game_id":440,"stv_port":27016,"stv_name":"Uncletopia | Montréal | 1 | All Maps | STV","players":null},{"server_id":301,"name":"Uncletopia | Montréal | 2 | All Maps","name_short":"mtl-2","host":"mtl-1.ca.uncletopia.com","port":27025,"enabled":true,"region":"us-east","cc":"ca","latitude":45.50889,"longitude":-73.56167,"reserved":0,"last_update":"0001-01-01T00:00:00Z","name_a2s":"Uncletopia | Montréal | 2 | All Maps","protocol":17,"map":"cp_process_final","folder":"tf","game":"Team Fortress","app_id":440,"player_count":0,"max_players":24,"Bots":0,"server_type":"Dedicated","server_os":"Linux","password":true,"vac":true,"version":"7882260","steam_id":85568392924500088,"keywords":["cp","nocrits","nodmgspread","uncletopia"],"game_id":440,"stv_port":27026,"stv_name":"Uncletopia | Montréal | 2 | All Maps | STV","players":null},{"server_id":302,"name":"Uncletopia | Montréal | 3 | All Maps","name_short":"mtl-3","host":"mtl-1.ca.uncletopia.com","port":27035,"enabled":true,"region":"us-east","cc":"ca","latitude":45.50889,"longitude":-73.56167,"reserved":0,"last_update":"0001-01-01T00:00:00Z","name_a2s":"Uncletopia | Montréal | 3 | All Maps","protocol":17,"map":"koth_viaduct","folder":"tf","game":"Team Fortress","app_id":440,"player_count":0,"max_players":24,"Bots":0,"server_type":"Dedicated","server_os":"Linux","password":true,"vac":true,"version":"7882260","steam_id":85568392924500089,"keywords":["cp","nocrits","nodmgspread","uncletopia"],"game_id":440,"stv_port":27036,"stv_name":"Uncletopia | Montréal | 3 | All Maps | STV","players":null},{"server_id":303,"name":"Uncletopia | Montréal | 4 | No Payload","name_short":"mtl-4","host":"mtl-1.ca.uncletopia.com","port":27045,"enabled":true,"region":"us-east","cc":"ca","latitude":45.50889,"longitude":-73.56167,"reserved":0,"last_update":"0001-01-01T00:00:00Z","name_a2s":"Uncletopia | Montréal | 4 | No Payload","protocol":17,"map":"ctf_doublecross","folder":"tf","game":"Team Fortress","app_id":440,"player_count":0,"max_players":24,"Bots":0,"server_type":"Dedicated","server_os":"Linux","password":true,"vac":true,"version":"7882260","steam_id":85568392924500090,"keywords":["ctf","nocrits","nodmgspread","uncletopia"],"game_id":440,"stv_port":27046,"stv_name":"Uncletopia | Montréal | 4 | No Payload | STV","players":null},{"server_id":13,"name":"Uncletopia | New York City | 1 | All Maps","name_short":"nyc-1","host":"nyc-1.us.uncletopia.com","port":27015,"enabled":true,"region":"us-east","cc":"us","latitude":40.73061,"longitude":-73.93524,"reserved":0,"last_update":"0001-01-01T00:00:00Z","name_a2s":"Uncletopia | New York City | 1 | All Maps","protocol":17,"map":"koth_cascade","folder":"tf","game":"Team Fortress","app_id":440,"player_count":8,"max_players":24,"Bots":0,"server_type":"Dedicated","server_os":"Linux","password":true,"vac":true,"version":"7882260","steam_id":85568392924469993,"keywords":["cp","nocrits","nodmgspread","uncletopia"],"game_id":440,"stv_port":27016,"stv_name":"Uncletopia | New York City | 1 | All Maps | STV","players":[{"user_id":681,"name":"Moonadoo","steam_id":76561198133377546,"connected_time":1735000000000,"state":"active","ping":90},{"user_id":685,"name":"gilly :3","steam_id":76561198317827526,"connected_time":428000000000,"state":"active","ping":55},{"user_id":689,"name":"Two-Teste Tommy","steam_id":76561198064308936,"connected_time":102000000000,"state":"active","ping":46},{"user_id":675,"name":"cleet","steam_id":76561198042510363,"connected_time":3547000000000,"state":"active","ping":55},{"user_id":677,"name":"D3V1L","steam_id":76561198419588328,"connected_time":3535000000000,"state":"active","ping":72},{"user_id":678,"name":"AussieAlex","steam_id":76561198001611833,"connected_time":3533000000000,"state":"active","ping":106},{"user_id":687,"name":"Fredorando","steam_id":76561198242546842,"connected_time":264000000000,"state":"active","ping":78},{"user_id":690,"name":"chroma","steam_id":76561198050188632,"connected_time":89000000000,"state":"active","ping":43}]},{"server_id":14,"name":"Uncletopia | New York City | 2 | All Maps","name_short":"nyc-2","host":"nyc-1.us.uncletopia.com","port":27025,"enabled":true,"region":"us-east","cc":"us","latitude":40.73061,"longitude":-73.93524,"reserved":0,"last_update":"0001-01-01T00:00:00Z","name_a2s":"Uncletopia | New York City | 2 | All Maps","protocol":17,"map":"pl_badwater","folder":"tf","game":"Team Fortress","app_id":440,"player_count":3,"max_players":24,"Bots":0,"server_type":"Dedicated","server_os":"Linux","password":true,"vac":true,"version":"7882260","steam_id":85568392924469994,"keywords":["nocrits","nodmgspread","payload","uncletopia"],"game_id":440,"stv_port":27026,"stv_name":"Uncletopia | New York City | 2 | All Maps | STV","players":[{"user_id":870,"name":"Snugglebug Midnight","steam_id":76561198045190355,"connected_time":4047000000000,"state":"active","ping":80},{"user_id":867,"name":"big tiddie deathclaw gf","steam_id":76561198101450925,"connected_time":4199000000000,"state":"active","ping":79},{"user_id":916,"name":"Uncle's AI Bot","steam_id":76561199473369530,"connected_time":200000000000,"state":"active","ping":146}]},{"server_id":15,"name":"Uncletopia | New York City | 3 | Stopwatch Beta","name_short":"nyc-3","host":"nyc-1.us.uncletopia.com","port":27035,"enabled":true,"region":"us-east","cc":"us","latitude":40.73061,"longitude":-73.93524,"reserved":0,"last_update":"0001-01-01T00:00:00Z","name_a2s":"Uncletopia | New York City | 3 | Stopwatch Beta","protocol":17,"map":"pl_borneo","folder":"tf","game":"Team Fortress","app_id":440,"player_count":0,"max_players":24,"Bots":0,"server_type":"Dedicated","server_os":"Linux","password":true,"vac":true,"version":"7882260","steam_id":85568392924742820,"keywords":["nocrits","nodmgspread","payload","uncletopia"],"game_id":440,"stv_port":27036,"stv_name":"Uncletopia | New York City | 3 | Stopwatch Beta | STV","players":null},{"server_id":16,"name":"Uncletopia | New York City | 4 | Community","name_short":"nyc-4","host":"nyc-1.us.uncletopia.com","port":27045,"enabled":true,"region":"us-east","cc":"us","latitude":40.73061,"longitude":-73.93524,"reserved":0,"last_update":"0001-01-01T00:00:00Z","name_a2s":"Uncletopia | New York City | 4 | Community","protocol":17,"map":"pl_badwater","folder":"tf","game":"Team Fortress","app_id":440,"player_count":0,"max_players":24,"Bots":0,"server_type":"Dedicated","server_os":"Linux","password":true,"vac":true,"version":"7882260","steam_id":85568392924742821,"keywords":["nocrits","nodmgspread","payload","uncletopia"],"game_id":440,"stv_port":27046,"stv_name":"Uncletopia | New York City | 4 | Community | STV","players":null},{"server_id":142,"name":"Uncletopia | São Paulo | 1 | All Maps","name_short":"sao-1","host":"sao-1.br.uncletopia.com","port":27015,"enabled":true,"region":"sa","cc":"br","latitude":-23.533773,"longitude":-46.62529,"reserved":0,"last_update":"0001-01-01T00:00:00Z","name_a2s":"Uncletopia | São Paulo | 1 | All Maps","protocol":17,"map":"pl_snowycoast","folder":"tf","game":"Team Fortress","app_id":440,"player_count":0,"max_players":24,"Bots":0,"server_type":"Dedicated","server_os":"Linux","password":true,"vac":true,"version":"7882260","steam_id":85568392924469996,"keywords":["nocrits","nodmgspread","payload","uncletopia"],"game_id":440,"stv_port":27016,"stv_name":"Uncletopia | São Paulo | 1 | All Maps | STV","players":null},{"server_id":143,"name":"Uncletopia | São Paulo | 2 | All Maps","name_short":"sao-2","host":"sao-2.br.uncletopia.com","port":27015,"enabled":true,"region":"sa","cc":"br","latitude":-23.533773,"longitude":-46.62529,"reserved":0,"last_update":"0001-01-01T00:00:00Z","name_a2s":"Uncletopia | São Paulo | 2 | All Maps","protocol":17,"map":"pl_barnblitz","folder":"tf","game":"Team Fortress","app_id":440,"player_count":0,"max_players":24,"Bots":0,"server_type":"Dedicated","server_os":"Linux","password":true,"vac":true,"version":"7882260","steam_id":85568392924485349,"keywords":["nocrits","nodmgspread","payload","uncletopia"],"game_id":440,"stv_port":27016,"stv_name":"Uncletopia | São Paulo | 2 | All Maps | STV","players":null},{"server_id":7,"name":"Uncletopia | Seattle | 1 | All Maps","name_short":"sea-1","host":"sea-1.us.uncletopia.com","port":27015,"enabled":true,"region":"us-west","cc":"us","latitude":47.608013,"longitude":-122.33517,"reserved":0,"last_update":"0001-01-01T00:00:00Z","name_a2s":"Uncletopia | Seattle | 1 | All Maps","protocol":17,"map":"cp_altitude","folder":"tf","game":"Team Fortress","app_id":440,"player_count":24,"max_players":24,"Bots":0,"server_type":"Dedicated","server_os":"Linux","password":true,"vac":true,"version":"7882260","steam_id":85568392924469997,"keywords":["cp","nocrits","nodmgspread","uncletopia"],"game_id":440,"stv_port":27016,"stv_name":"Uncletopia | Seattle | 1 | All Maps | STV","players":[{"user_id":899,"name":"THAT CAT","steam_id":76561198010828625,"connected_time":1670000000000,"state":"active","ping":42},{"user_id":927,"name":"The Professor","steam_id":76561198046165617,"connected_time":556000000000,"state":"active","ping":91},{"user_id":770,"name":"toes","steam_id":76561198221151676,"connected_time":6222000000000,"state":"active","ping":52},{"user_id":936,"name":"「Moody-Blues」","steam_id":76561198026558681,"connected_time":4000000000,"state":"spawning","ping":130},{"user_id":903,"name":"Facepalm","steam_id":76561198001935226,"connected_time":1583000000000,"state":"active","ping":77},{"user_id":904,"name":"blizz","steam_id":76561199139715539,"connected_time":1575000000000,"state":"active","ping":61},{"user_id":923,"name":"ChezBuggaMan","steam_id":76561198189849110,"connected_time":661000000000,"state":"active","ping":107},{"user_id":932,"name":"StrangeMachine","steam_id":76561198046628064,"connected_time":384000000000,"state":"active","ping":41},{"user_id":812,"name":"S Q U I S H E  T H A T  C A T","steam_id":76561198293865429,"connected_time":2783000000000,"state":"active","ping":30},{"user_id":777,"name":"Ayayayayayahuasca","steam_id":76561199002906056,"connected_time":5028000000000,"state":"active","ping":45},{"user_id":928,"name":"oil","steam_id":76561198099980149,"connected_time":529000000000,"state":"active","ping":79},{"user_id":906,"name":"roryisreallyoutofit","steam_id":76561198065825165,"connected_time":1557000000000,"state":"active","ping":91},{"user_id":742,"name":"profile name","steam_id":76561198032625036,"connected_time":8888000000000,"state":"active","ping":58},{"user_id":907,"name":"hamburger_ball03","steam_id":76561199058257384,"connected_time":1505000000000,"state":"active","ping":118},{"user_id":908,"name":"Orrillac","steam_id":76561197999934343,"connected_time":1496000000000,"state":"active","ping":86},{"user_id":786,"name":"Sniff","steam_id":76561198010270922,"connected_time":3548000000000,"state":"active","ping":39},{"user_id":729,"name":"NEBULA","steam_id":76561198086878595,"connected_time":9710000000000,"state":"active","ping":65},{"user_id":898,"name":"Brathic","steam_id":76561198966232163,"connected_time":1702000000000,"state":"active","ping":74},{"user_id":934,"name":"octovenom","steam_id":76561198047462133,"connected_time":62000000000,"state":"active","ping":59},{"user_id":935,"name":"forest (girldick)","steam_id":76561198157960257,"connected_time":31000000000,"state":"active","ping":36},{"user_id":910,"name":"gnoblin","steam_id":76561198314221897,"connected_time":1431000000000,"state":"active","ping":48},{"user_id":864,"name":"Level 99 Mudcrab","steam_id":76561198077452771,"connected_time":2216000000000,"state":"active","ping":52},{"user_id":913,"name":"jjorpts","steam_id":76561199041179985,"connected_time":1368000000000,"state":"active","ping":59},{"user_id":931,"name":"Underscore Paul","steam_id":76561198070300902,"connected_time":451000000000,"state":"active","ping":70}]},{"server_id":119,"name":"Uncletopia | Seattle | 2 | All Maps","name_short":"sea-2","host":"sea-1.us.uncletopia.com","port":27025,"enabled":true,"region":"us-west","cc":"us","latitude":47.608013,"longitude":-122.33517,"reserved":0,"last_update":"0001-01-01T00:00:00Z","name_a2s":"Uncletopia | Seattle | 2 | All Maps","protocol":17,"map":"pl_upward","folder":"tf","game":"Team Fortress","app_id":440,"player_count":24,"max_players":24,"Bots":0,"server_type":"Dedicated","server_os":"Linux","password":true,"vac":true,"version":"7882260","steam_id":85568392924469998,"keywords":["nocrits","nodmgspread","payload","uncletopia"],"game_id":440,"stv_port":27026,"stv_name":"Uncletopia | Seattle | 2 | All Maps | STV","players":[{"user_id":541,"name":"Real (real)","steam_id":76561199059653595,"connected_time":2450000000000,"state":"active","ping":50},{"user_id":579,"name":"mewtek","steam_id":76561198138599995,"connected_time":139000000000,"state":"active","ping":86},{"user_id":580,"name":"makcmik2","steam_id":76561198242544518,"connected_time":61000000000,"state":"active","ping":64},{"user_id":526,"name":"ROGUE-PLANET","steam_id":76561198116023052,"connected_time":3167000000000,"state":"active","ping":70},{"user_id":570,"name":"Currentdoor","steam_id":76561198046681520,"connected_time":628000000000,"state":"active","ping":125},{"user_id":559,"name":"Full Moon (Death Classic)","steam_id":76561198089898720,"connected_time":1546000000000,"state":"active","ping":72},{"user_id":563,"name":"Soda","steam_id":76561198219209367,"connected_time":1338000000000,"state":"active","ping":51},{"user_id":564,"name":"worlds most obnoxious demoman","steam_id":76561198882404753,"connected_time":1338000000000,"state":"active","ping":97},{"user_id":560,"name":"gunnarrevel","steam_id":76561198842854582,"connected_time":1485000000000,"state":"active","ping":61},{"user_id":505,"name":"00","steam_id":76561198041700636,"connected_time":4333000000000,"state":"active","ping":60},{"user_id":537,"name":"C^a^L","steam_id":76561198241124222,"connected_time":2522000000000,"state":"active","ping":64},{"user_id":571,"name":"kenZino","steam_id":76561197967971192,"connected_time":581000000000,"state":"active","ping":31},{"user_id":502,"name":"SvicidalBug","steam_id":76561198221390504,"connected_time":4403000000000,"state":"active","ping":61},{"user_id":572,"name":"zeel107","steam_id":76561198063892990,"connected_time":493000000000,"state":"active","ping":49},{"user_id":542,"name":"2 Point Tom","steam_id":76561198087617008,"connected_time":2434000000000,"state":"active","ping":51},{"user_id":543,"name":"Weeb","steam_id":76561198935795395,"connected_time":2412000000000,"state":"active","ping":72},{"user_id":576,"name":"raf","steam_id":76561197999439695,"connected_time":397000000000,"state":"active","ping":84},{"user_id":577,"name":"Lord Pretty Flocko Jordye","steam_id":76561198962880749,"connected_time":318000000000,"state":"active","ping":51},{"user_id":551,"name":"STAROID","steam_id":76561198069740897,"connected_time":2284000000000,"state":"active","ping":81},{"user_id":566,"name":"船尾","steam_id":76561198128764422,"connected_time":1105000000000,"state":"active","ping":43},{"user_id":565,"name":"Finkly","steam_id":76561198049828110,"connected_time":1315000000000,"state":"active","ping":45},{"user_id":489,"name":"cirmona tuwoka","steam_id":76561198213385439,"connected_time":6193000000000,"state":"active","ping":69},{"user_id":528,"name":"Bateman 64","steam_id":76561198093689792,"connected_time":3159000000000,"state":"active","ping":81},{"user_id":575,"name":"MR MODE","steam_id":76561198046775352,"connected_time":470000000000,"state":"active","ping":65}]},{"server_id":406,"name":"Uncletopia | Seattle | 3 | Stopwatch Beta","name_short":"sea-3","host":"sea-1.us.uncletopia.com","port":27035,"enabled":true,"region":"us-west","cc":"us","latitude":47.608013,"longitude":-122.33517,"reserved":0,"last_update":"0001-01-01T00:00:00Z","name_a2s":"Uncletopia | Seattle | 3 | Stopwatch Beta","protocol":17,"map":"workshop/koth_ramjam_rc1.ugc459778887","folder":"tf","game":"Team Fortress","app_id":440,"player_count":0,"max_players":24,"Bots":0,"server_type":"Dedicated","server_os":"Linux","password":true,"vac":true,"version":"7882260","steam_id":85568392924515217,"keywords":["cp","nocrits","nodmgspread","uncletopia"],"game_id":440,"stv_port":27036,"stv_name":"Uncletopia | Seattle | 3 | Stopwatch Beta | STV","players":null},{"server_id":17,"name":"Uncletopia | San Francisco | 1 | All Maps","name_short":"sfo-1","host":"sfo-1.us.uncletopia.com","port":27015,"enabled":true,"region":"us-west","cc":"us","latitude":37.77397,"longitude":-122.4313,"reserved":0,"last_update":"0001-01-01T00:00:00Z","name_a2s":"Uncletopia | San Francisco | 1 | All Maps","protocol":17,"map":"cp_process_final","folder":"tf","game":"Team Fortress","app_id":440,"player_count":0,"max_players":24,"Bots":0,"server_type":"Dedicated","server_os":"Linux","password":true,"vac":true,"version":"7757534","steam_id":85568392924469999,"keywords":["cp","nocrits","nodmgspread","uncletopia"],"game_id":440,"stv_port":27016,"stv_name":"Uncletopia | San Francisco | 1 | All Maps | STV","players":null},{"server_id":18,"name":"Uncletopia | San Francisco | 2 | All Maps","name_short":"sfo-2","host":"sfo-1.us.uncletopia.com","port":27025,"enabled":true,"region":"us-west","cc":"us","latitude":37.77397,"longitude":-122.4313,"reserved":0,"last_update":"0001-01-01T00:00:00Z","name_a2s":"Uncletopia | San Francisco | 2 | All Maps","protocol":17,"map":"koth_highpass","folder":"tf","game":"Team Fortress","app_id":440,"player_count":0,"max_players":24,"Bots":0,"server_type":"Dedicated","server_os":"Linux","password":true,"vac":true,"version":"7757534","steam_id":85568392924470000,"keywords":["cp","nocrits","nodmgspread","uncletopia"],"game_id":440,"stv_port":27026,"stv_name":"Uncletopia | San Francisco | 2 | All Maps | STV","players":null},{"server_id":19,"name":"Uncletopia | San Francisco | 3 | Stopwatch Beta","name_short":"sfo-3","host":"sfo-1.us.uncletopia.com","port":27035,"enabled":true,"region":"us-west","cc":"us","latitude":37.77397,"longitude":-122.4313,"reserved":0,"last_update":"0001-01-01T00:00:00Z","name_a2s":"Uncletopia | San Francisco | 3 | Stopwatch Beta","protocol":17,"map":"koth_lakeside_final","folder":"tf","game":"Team Fortress","app_id":440,"player_count":0,"max_players":24,"Bots":0,"server_type":"Dedicated","server_os":"Linux","password":true,"vac":true,"version":"7757534","steam_id":85568392924742824,"keywords":["cp","nocrits","nodmgspread","uncletopia"],"game_id":440,"stv_port":27036,"stv_name":"Uncletopia | San Francisco | 3 | Stopwatch Beta | STV","players":null},{"server_id":20,"name":"Uncletopia | San Francisco | 4 | Community","name_short":"sfo-4","host":"sfo-1.us.uncletopia.com","port":27045,"enabled":true,"region":"us-west","cc":"us","latitude":37.77397,"longitude":-122.4313,"reserved":0,"last_update":"0001-01-01T00:00:00Z","name_a2s":"Uncletopia | San Francisco | 4 | Community","protocol":17,"map":"cp_altitude","folder":"tf","game":"Team Fortress","app_id":440,"player_count":0,"max_players":24,"Bots":0,"server_type":"Dedicated","server_os":"Linux","password":true,"vac":true,"version":"7757534","steam_id":85568392924742826,"keywords":["cp","nocrits","nodmgspread","uncletopia"],"game_id":440,"stv_port":27046,"stv_name":"Uncletopia | San Francisco | 4 | Community | STV","players":null},{"server_id":141,"name":"Uncletopia | Sydney | 1 | All Maps","name_short":"syd-1","host":"syd-1.au.uncletopia.com","port":27015,"enabled":true,"region":"au","cc":"au","latitude":-33.865143,"longitude":151.2099,"reserved":0,"last_update":"0001-01-01T00:00:00Z","name_a2s":"Uncletopia | Sydney | 1 | All Maps","protocol":17,"map":"cp_sunshine","folder":"tf","game":"Team Fortress","app_id":440,"player_count":17,"max_players":24,"Bots":0,"server_type":"Dedicated","server_os":"Linux","password":true,"vac":true,"version":"7882260","steam_id":85568392924470001,"keywords":["cp","nocrits","nodmgspread","uncletopia"],"game_id":440,"stv_port":27016,"stv_name":"Uncletopia | Sydney | 1 | All Maps | STV","players":[{"user_id":449,"name":"the weed alien","steam_id":76561199205171109,"connected_time":1419000000000,"state":"active","ping":69},{"user_id":455,"name":"[FTW] RonnieD'","steam_id":76561197993957267,"connected_time":1285000000000,"state":"active","ping":45},{"user_id":481,"name":"jeromeafoa","steam_id":76561198829878705,"connected_time":61000000000,"state":"active","ping":59},{"user_id":456,"name":"SoundlessPlum","steam_id":76561198077872547,"connected_time":1245000000000,"state":"active","ping":46},{"user_id":473,"name":"200k blaze","steam_id":76561198241303512,"connected_time":328000000000,"state":"active","ping":46},{"user_id":480,"name":"darknightdawn","steam_id":76561198864634150,"connected_time":101000000000,"state":"active","ping":316},{"user_id":464,"name":"SniperGranny","steam_id":76561198293758694,"connected_time":840000000000,"state":"active","ping":77},{"user_id":471,"name":"Dimond_bird","steam_id":76561199129051643,"connected_time":514000000000,"state":"active","ping":53},{"user_id":453,"name":"Fledges","steam_id":76561198017381539,"connected_time":1365000000000,"state":"active","ping":56},{"user_id":474,"name":"yoga","steam_id":76561199163801558,"connected_time":223000000000,"state":"active","ping":42},{"user_id":470,"name":"Not A F2P","steam_id":76561198376756608,"connected_time":549000000000,"state":"active","ping":59},{"user_id":461,"name":"Phillip Cookium Jr","steam_id":76561198081187571,"connected_time":1002000000000,"state":"active","ping":46},{"user_id":463,"name":"goob","steam_id":76561199480479443,"connected_time":934000000000,"state":"active","ping":83},{"user_id":465,"name":"ThirtyTwelve","steam_id":76561199192513554,"connected_time":829000000000,"state":"active","ping":60},{"user_id":475,"name":"MININinja1308","steam_id":76561199040303660,"connected_time":212000000000,"state":"active","ping":55},{"user_id":477,"name":"Ferro","steam_id":76561198067582557,"connected_time":187000000000,"state":"active","ping":53},{"user_id":478,"name":"KiwiJiwi","steam_id":76561198262081410,"connected_time":175000000000,"state":"active","ping":66}]},{"server_id":123,"name":"Uncletopia | Sydney | 2 | All Maps","name_short":"syd-2","host":"syd-1.au.uncletopia.com","port":27025,"enabled":true,"region":"au","cc":"au","latitude":-33.865143,"longitude":151.2099,"reserved":0,"last_update":"0001-01-01T00:00:00Z","name_a2s":"Uncletopia | Sydney | 2 | All Maps","protocol":17,"map":"pl_upward","folder":"tf","game":"Team Fortress","app_id":440,"player_count":24,"max_players":24,"Bots":0,"server_type":"Dedicated","server_os":"Linux","password":true,"vac":true,"version":"7882260","steam_id":85568392924470002,"keywords":["nocrits","nodmgspread","payload","uncletopia"],"game_id":440,"stv_port":27026,"stv_name":"Uncletopia | Sydney | 2 | All Maps | STV","players":[{"user_id":349,"name":"Hertog van Damme","steam_id":76561198152470958,"connected_time":1617000000000,"state":"active","ping":60},{"user_id":314,"name":"LightningBlock","steam_id":76561198289997742,"connected_time":5020000000000,"state":"active","ping":35},{"user_id":356,"name":"Snowy","steam_id":76561198255720598,"connected_time":104000000000,"state":"active","ping":66},{"user_id":351,"name":"wombraidre","steam_id":76561199375834537,"connected_time":733000000000,"state":"active","ping":132},{"user_id":357,"name":"Kevin Parker","steam_id":76561198060677406,"connected_time":24000000000,"state":"active","ping":90},{"user_id":344,"name":"Del Davis (cum/AIDS)","steam_id":76561199365669004,"connected_time":2466000000000,"state":"active","ping":57},{"user_id":346,"name":"SUSHIMAN","steam_id":76561199089989428,"connected_time":2168000000000,"state":"active","ping":83},{"user_id":323,"name":"therealllamait","steam_id":76561198841226950,"connected_time":4420000000000,"state":"active","ping":68},{"user_id":338,"name":"Johnny 2 pipes","steam_id":76561198971245592,"connected_time":2800000000000,"state":"active","ping":65},{"user_id":354,"name":"Sinister80s","steam_id":76561198343540472,"connected_time":396000000000,"state":"active","ping":62},{"user_id":339,"name":"krandlez` (Any/All)","steam_id":76561198044839726,"connected_time":2744000000000,"state":"active","ping":43},{"user_id":348,"name":"doctor sex (she/her)","steam_id":76561199076015267,"connected_time":1857000000000,"state":"active","ping":47},{"user_id":342,"name":"veteran","steam_id":76561199457046392,"connected_time":2614000000000,"state":"active","ping":76},{"user_id":322,"name":"Pompadouraus","steam_id":76561198327530525,"connected_time":4473000000000,"state":"active","ping":78},{"user_id":345,"name":"Sover blw.tf","steam_id":76561198136347837,"connected_time":2404000000000,"state":"active","ping":132},{"user_id":300,"name":"Rashid Of The Dank Memes","steam_id":76561198281398078,"connected_time":5740000000000,"state":"active","ping":61},{"user_id":333,"name":"miyamoto is daddy","steam_id":76561199483818230,"connected_time":3022000000000,"state":"active","ping":79},{"user_id":343,"name":"Cringe Weeaboo","steam_id":76561198133490050,"connected_time":2594000000000,"state":"active","ping":87},{"user_id":353,"name":"YOU'RE WRONG ! SULFIRIC ACID!","steam_id":76561199174449723,"connected_time":592000000000,"state":"active","ping":158},{"user_id":347,"name":"sending my Gerrards","steam_id":76561198301282416,"connected_time":1980000000000,"state":"active","ping":51},{"user_id":309,"name":"Sentry Gun (EpicGuy4227)","steam_id":76561198094132328,"connected_time":5243000000000,"state":"active","ping":52},{"user_id":326,"name":"CEO of Sex","steam_id":76561199083971136,"connected_time":4358000000000,"state":"active","ping":71},{"user_id":355,"name":"Capt. Dea'Claw","steam_id":76561198025419320,"connected_time":157000000000,"state":"active","ping":404},{"user_id":248,"name":"Jodelkönig Franzl Lang","steam_id":76561198007667830,"connected_time":9476000000000,"state":"active","ping":54}]},{"server_id":395,"name":"Uncletopia | Sydney | 3 | All Maps","name_short":"syd-3","host":"syd-1.au.uncletopia.com","port":27035,"enabled":true,"region":"au","cc":"au","latitude":-33.865143,"longitude":151.2099,"reserved":0,"last_update":"0001-01-01T00:00:00Z","name_a2s":"Uncletopia | Sydney | 3 | All Maps","protocol":17,"map":"koth_highpass","folder":"tf","game":"Team Fortress","app_id":440,"player_count":0,"max_players":24,"Bots":0,"server_type":"Dedicated","server_os":"Linux","password":true,"vac":true,"version":"7882260","steam_id":85568392925194467,"keywords":["cp","nocrits","nodmgspread","uncletopia"],"game_id":440,"stv_port":27036,"stv_name":"Uncletopia | Sydney | 3 | All Maps | STV","players":null},{"server_id":396,"name":"Uncletopia | Sydney | 4 | All Maps","name_short":"syd-4","host":"syd-1.au.uncletopia.com","port":27045,"enabled":true,"region":"au","cc":"au","latitude":-33.865143,"longitude":151.2099,"reserved":0,"last_update":"0001-01-01T00:00:00Z","name_a2s":"Uncletopia | Sydney | 4 | All Maps","protocol":17,"map":"pl_frontier_final","folder":"tf","game":"Team Fortress","app_id":440,"player_count":0,"max_players":24,"Bots":0,"server_type":"Dedicated","server_os":"Linux","password":true,"vac":true,"version":"7882260","steam_id":85568392925397958,"keywords":["nocrits","nodmgspread","payload","uncletopia"],"game_id":440,"stv_port":27046,"stv_name":"Uncletopia | Sydney | 4 | All Maps | STV","players":null},{"server_id":58,"name":"Uncletopia | Sydney | 5 | Stopwatch Beta","name_short":"syd-5","host":"syd-1.au.uncletopia.com","port":27055,"enabled":true,"region":"au","cc":"au","latitude":-33.865143,"longitude":151.2099,"reserved":0,"last_update":"0001-01-01T00:00:00Z","name_a2s":"Uncletopia | Sydney | 5 | Stopwatch Beta","protocol":17,"map":"cp_snakewater_final1","folder":"tf","game":"Team Fortress","app_id":440,"player_count":0,"max_players":24,"Bots":0,"server_type":"Dedicated","server_os":"Linux","password":true,"vac":true,"version":"7882260","steam_id":85568392925397959,"keywords":["cp","nocrits","nodmgspread","uncletopia"],"game_id":440,"stv_port":27056,"stv_name":"Uncletopia | Sydney | 5 | Stopwatch Beta | STV","players":null},{"server_id":59,"name":"Uncletopia | Sydney | 6 | Community","name_short":"syd-6","host":"syd-1.au.uncletopia.com","port":27065,"enabled":true,"region":"au","cc":"au","latitude":-33.865143,"longitude":151.2099,"reserved":0,"last_update":"0001-01-01T00:00:00Z","name_a2s":"Uncletopia | Sydney | 6 | Community","protocol":17,"map":"pl_snowycoast","folder":"tf","game":"Team Fortress","app_id":440,"player_count":0,"max_players":24,"Bots":0,"server_type":"Dedicated","server_os":"Linux","password":true,"vac":true,"version":"7882260","steam_id":85568392925397960,"keywords":["nocrits","nodmgspread","payload","uncletopia"],"game_id":440,"stv_port":27066,"stv_name":"Uncletopia | Sydney | 6 | Community | STV","players":null},{"server_id":49,"name":"Uncletopia | Warsaw | 1 | All Maps","name_short":"waw-1","host":"waw-1.pl.uncletopia.com","port":27015,"enabled":true,"region":"eu","cc":"pl","latitude":52.2297,"longitude":21.017532,"reserved":0,"last_update":"0001-01-01T00:00:00Z","name_a2s":"","protocol":0,"map":"","folder":"","game":"","app_id":0,"player_count":0,"max_players":0,"Bots":0,"server_type":"","server_os":"","password":false,"vac":false,"version":"","steam_id":0,"keywords":null,"game_id":0,"stv_port":0,"stv_name":"","players":null},{"server_id":50,"name":"Uncletopia | Warsaw | 2 | All Maps","name_short":"waw-2","host":"waw-1.pl.uncletopia.com","port":27025,"enabled":true,"region":"eu","cc":"pl","latitude":52.2297,"longitude":21.017532,"reserved":0,"last_update":"0001-01-01T00:00:00Z","name_a2s":"Uncletopia | Warsaw | 2 | All Maps","protocol":17,"map":"pl_swiftwater_final1","folder":"tf","game":"Team Fortress","app_id":440,"player_count":0,"max_players":24,"Bots":0,"server_type":"Dedicated","server_os":"Linux","password":true,"vac":true,"version":"7882260","steam_id":85568392925397851,"keywords":["nocrits","nodmgspread","payload","uncletopia"],"game_id":440,"stv_port":27026,"stv_name":"Uncletopia | Warsaw | 2 | All Maps | STV","players":null},{"server_id":51,"name":"Uncletopia | Warsaw | 3 | All Maps","name_short":"waw-3","host":"waw-1.pl.uncletopia.com","port":27035,"enabled":true,"region":"eu","cc":"pl","latitude":52.2297,"longitude":21.017532,"reserved":0,"last_update":"0001-01-01T00:00:00Z","name_a2s":"Uncletopia | Warsaw | 3 | All Maps","protocol":17,"map":"koth_viaduct","folder":"tf","game":"Team Fortress","app_id":440,"player_count":0,"max_players":24,"Bots":0,"server_type":"Dedicated","server_os":"Linux","password":true,"vac":true,"version":"7882260","steam_id":85568392925397852,"keywords":["cp","nocrits","nodmgspread","uncletopia"],"game_id":440,"stv_port":27036,"stv_name":"Uncletopia | Warsaw | 3 | All Maps | STV","players":null},{"server_id":52,"name":"Uncletopia | Warsaw | 4 | All Maps","name_short":"waw-4","host":"waw-1.pl.uncletopia.com","port":27045,"enabled":true,"region":"eu","cc":"pl","latitude":52.2297,"longitude":21.017532,"reserved":0,"last_update":"0001-01-01T00:00:00Z","name_a2s":"Uncletopia | Warsaw | 4 | All Maps","protocol":17,"map":"koth_highpass","folder":"tf","game":"Team Fortress","app_id":440,"player_count":0,"max_players":24,"Bots":0,"server_type":"Dedicated","server_os":"Linux","password":true,"vac":true,"version":"7882260","steam_id":85568392925397853,"keywords":["cp","nocrits","nodmgspread","uncletopia"],"game_id":440,"stv_port":27046,"stv_name":"Uncletopia | Warsaw | 4 | All Maps | STV","players":null},{"server_id":53,"name":"Uncletopia | Warsaw | 5 | Stopwatch Beta","name_short":"waw-5","host":"waw-1.pl.uncletopia.com","port":27055,"enabled":true,"region":"eu","cc":"pl","latitude":52.2297,"longitude":21.017532,"reserved":0,"last_update":"0001-01-01T00:00:00Z","name_a2s":"Uncletopia | Warsaw | 5 | Stopwatch Beta","protocol":17,"map":"cp_mountainlab","folder":"tf","game":"Team Fortress","app_id":440,"player_count":0,"max_players":24,"Bots":0,"server_type":"Dedicated","server_os":"Linux","password":true,"vac":true,"version":"7882260","steam_id":85568392925397854,"keywords":["cp","nocrits","nodmgspread","uncletopia"],"game_id":440,"stv_port":27056,"stv_name":"Uncletopia | Warsaw | 5 | Stopwatch Beta | STV","players":null},{"server_id":54,"name":"Uncletopia | Warsaw | 6 | Community","name_short":"waw-6","host":"waw-1.pl.uncletopia.com","port":27065,"enabled":true,"region":"eu","cc":"pl","latitude":52.2297,"longitude":21.017532,"reserved":0,"last_update":"0001-01-01T00:00:00Z","name_a2s":"Uncletopia | Warsaw | 6 | Community","protocol":17,"map":"koth_viaduct","folder":"tf","game":"Team Fortress","app_id":440,"player_count":0,"max_players":24,"Bots":0,"server_type":"Dedicated","server_os":"Linux","password":true,"vac":true,"version":"7882260","steam_id":85568392925397856,"keywords":["cp","nocrits","nodmgspread","uncletopia"],"game_id":440,"stv_port":27066,"stv_name":"Uncletopia | Warsaw | 6 | Community | STV","players":null}]}